raw_voltage_G-,raw_voltage_G0,raw_voltage_G1,raw_voltage_G2,raw_voltage_G3,raw_voltage_G4,raw_voltage_G5,raw_voltage_G6,load_x,load_y,load_z,load_l,load_m,load_n,rpm,voltage,current,roll,pitch,yaw,aileron1_pwm,elevator_pwm,throttle_pwm,rudder_pwm,aileron2_pwm,pbaro,pdiff,Tt,sample_start_time,sample_end_time,uid
0.1014816993347407,0.2158479601264788,0.3240781599420366,-0.0420719323538007,0.0605974723746925,-0.0391545652380295,-0.0359358739246228,-0.0546590708210065,-9.330709868388574,29.12124133113026,19.78869323310749,0.2145611819960262,0.7264335265591478,-0.4379432717230777,-1.0,11.98488888888889,0.0,179.22274314178722,1.0475859320590797,96.09454994448424,1553.0,1435.0,1000.0,1528.0,1471.0,1011.0,242.0,294.13,1649158345.7459593,1649158346.972173,940e9c04-7c63-4225-a7e7-7ff8e848a964
0.081265579147057,0.1947278677250269,0.3103542091807189,-0.0309640229616395,0.0528863099305607,-0.0289232356583904,-0.0475231628162235,-0.0715469280977876,-9.586071311594306,29.238108809840465,19.658004050345166,0.2124376159902151,0.6479503548933677,-0.3951043124087559,-1.0,11.987777777777778,0.0,179.22598368709345,1.0501770876435836,95.79962768849244,1553.0,1435.0,1000.0,1528.0,1471.0,1011.0,242.0,294.13,1649158347.0806065,1649158348.1931803,940e9c04-7c63-4225-a7e7-7ff8e848a964
0.0919488947635728,0.2064521213795844,0.3205170549847073,-0.0343333765075836,0.0596250167543743,-0.0374014057035769,-0.0399763587741417,-0.0638220687954371,-9.48102970731916,29.23489045241656,19.71240061962969,0.2015327253653588,0.6917569155004971,-0.4273401995211578,-1.0,11.988,0.0,179.22810711701538,1.0657006135231415,95.54959343572597,1553.0,1435.0,1000.0,1528.0,1471.0,1011.0,242.0,294.13,1649158348.3023283,1649158349.4248054,940e9c04-7c63-4225-a7e7-7ff8e848a964
0.3176769367705069,0.6175592263629962,0.3420546179283369,-0.1785943057888238,-0.009594103879694,-0.3031650686574128,-0.1246320522766211,-0.1399765818679361,-9.141401767445863,28.43246019311861,20.075252686789657,-0.0742745778237137,2.2471521245336983,-0.1923299323250599,-1.0,11.963333333333331,0.0,178.9136133334119,1.0703532885822915,95.0164220389256,1616.0,1435.0,1000.0,1528.0,1519.0,1011.0,242.0,294.13,1649158351.355665,1649158352.491999,48000ac3-277b-4fcf-9c37-614f8618d95c
0.3256318974284207,0.6261190267879219,0.3440926657021281,-0.1858523867628266,-0.0099228212812013,-0.3062944588373562,-0.1234881156229324,-0.1415018308096332,-9.095685555247348,28.381161232683088,19.885300764742443,-0.0651801358555414,2.2816385079074224,-0.1955318015948002,-1.0,11.962,0.0,178.90895362657812,1.0772030433983644,94.90185927597696,1616.0,1435.0,1000.0,1528.0,1519.0,1011.0,242.0,294.13,1649158352.6015377,1649158353.9289224,48000ac3-277b-4fcf-9c37-614f8618d95c
0.3338366833151479,0.6392940191431755,0.3590690296575811,-0.1937942000500208,0.0006750281210422,-0.3106335292684299,-0.109537347998379,-0.1332838950539327,-8.935609421661445,28.34771054428373,20.17473636390052,-0.0563651312147697,2.329281161148556,-0.2481853706521319,-1.0,11.964,0.0,178.91417189110402,1.081213016629364,94.84387552338302,1616.0,1435.0,1000.0,1528.0,1519.0,1011.0,242.0,294.13,1649158354.0377667,1649158355.153146,48000ac3-277b-4fcf-9c37-614f8618d95c
0.6180336750984318,1.156856248242616,0.3965329495807026,-0.3965663007312812,-0.0798607389730574,-0.6287504240561832,-0.2004726426552051,-0.2184973160261903,-8.386999666183511,27.361542306332264,20.30227870306891,-0.3181875779098655,4.292764739657646,0.0017277359223396,-1.0,11.931444444444445,0.0,178.46209684813903,1.0736999982698268,94.7843170327304,1679.0,1435.0,1000.0,1528.0,1567.0,1011.0,242.0,294.13,1649158356.2708333,1649158357.4102764,5be17d6b-304d-4693-af22-8d91250dbcb2
0.6199374965596768,1.1467207952141434,0.3923144098617988,-0.3929367119963762,-0.083243789126675,-0.6210940451909178,-0.2025408232296836,-0.2324815038019844,-8.299675302889156,27.495621513218108,20.42769696762076,-0.3084274138300243,4.2523089501173645,0.0140189195442489,-1.0,11.930555555555555,0.0,178.47054806887206,1.0884359653925868,94.808588489401,1679.0,1435.0,1000.0,1528.0,1567.0,1011.0,242.0,294.13,1649158357.5210907,1649158358.5771198,5be17d6b-304d-4693-af22-8d91250dbcb2
0.6056656838905391,1.1371879907874851,0.3923828926440801,-0.3847461683546226,-0.0800387942700166,-0.6194915473081114,-0.2005959117296555,-0.2230582709317094,-8.297940973963346,27.457291280413965,20.40807776879728,-0.323555187035366,4.215712007086456,0.0056987298260619,-1.0,11.933666666666666,0.0,178.47646149487346,1.0813970522820004,94.811164229628,1679.0,1435.0,1000.0,1528.0,1567.0,1011.0,242.0,294.13,1649158358.699278,1649158359.8687088,5be17d6b-304d-4693-af22-8d91250dbcb2
0.8737073102572447,1.5992003233843342,0.4320344265525233,-0.5540356732680799,-0.1486174673288102,-0.9098998073606626,-0.276680303532573,-0.3099903393495892,-7.34054686971049,26.77529574388893,21.17947887420045,-0.5962074319338692,5.958271337958746,0.2098405379993431,-1.0,11.884,0.0,178.3040007361505,1.0725043357101207,94.93219821736028,1745.0,1435.0,1000.0,1528.0,1614.0,1011.0,242.0,294.13,1649158361.9055283,1649158363.2536757,96a3ee03-eef8-4ca4-bc0a-7546208b7810
0.875255021252307,1.6127873114138582,0.4416494098635566,-0.5543917839524559,-0.1434538643707462,-0.9235689804478968,-0.2708729619373471,-0.2934448942564656,-7.10097665942173,26.80987607408908,21.13991830094096,-0.6252983040205998,6.008539779175375,0.1831712790572343,-1.0,11.890444444444444,0.0,178.29012179175697,1.0742207646201385,94.94218698956644,1745.0,1435.0,1000.0,1528.0,1614.0,1011.0,242.0,294.13,1649158363.3626232,1649158364.481993,96a3ee03-eef8-4ca4-bc0a-7546208b7810
0.8572988344609781,1.5902975591039812,0.4285007147276456,-0.541174601066391,-0.1498090680330608,-0.91263912057122,-0.2813371340979347,-0.3039364599935493,-7.356724567168148,26.898092275398948,21.200635167397746,-0.630741155602277,5.923002143941054,0.2219143732575118,-1.0,11.889666666666669,0.0,178.300836081835,1.0804504781835882,94.97347760397408,1745.0,1435.0,1000.0,1528.0,1614.0,1011.0,242.0,294.13,1649158364.5900867,1649158365.7155595,96a3ee03-eef8-4ca4-bc0a-7546208b7810
0.9675287291234648,1.7776528177805495,0.424391747489401,-0.6219843218405392,-0.1983907655592698,-1.0536589749152416,-0.3378491433990682,-0.364228720175034,-7.127332842132247,26.611927939914167,16.443566226094063,-0.7680891174535729,6.675920545293162,0.3896763347182981,-1.0,11.747,0.0,178.22634148528743,1.0768089912867174,95.08013328459356,1813.0,1435.0,1000.0,1528.0,1662.0,1011.0,242.0,294.13,1649158367.7455304,1649158368.6982644,c38afacd-cf79-43b1-80c6-49e6d1f1f71b
0.9557359930694292,1.787281500750078,0.4336095306547243,-0.6287778172639903,-0.1935969695966643,-1.0540972650520073,-0.328960075396138,-0.3529290572984302,-6.908814240237216,26.659438862786136,16.90083655794091,-0.7527927247096834,6.707856153007604,0.3598097804459328,-1.0,11.755666666666666,0.0,178.23819565804692,1.0628025737446791,94.91327252208006,1813.0,1435.0,1000.0,1528.0,1662.0,1011.0,242.0,294.13,1649158368.8064623,1649158369.8004248,c38afacd-cf79-43b1-80c6-49e6d1f1f71b
0.9624336097487972,1.7831588356373025,0.4333219029487991,-0.6275314299569354,-0.192802569112547,-1.0524810699969205,-0.3286039648234445,-0.3556135833336258,-6.952553294888443,26.66728247466192,16.720015601000565,-0.7519856297420872,6.694134280135617,0.3578360674975665,-1.0,11.766,0.0,178.24695499620253,1.0731290490018632,94.80501098809572,1813.0,1435.0,1000.0,1528.0,1662.0,1011.0,242.0,294.13,1649158369.9079485,1649158371.2430866,c38afacd-cf79-43b1-80c6-49e6d1f1f71b
-0.1958979917297126,-0.3158272650688902,0.2691713993237495,0.1585645714302268,0.124233326429264,0.2918266016217479,0.0405155781765097,0.0114306615850298,-9.806843137889937,30.32002857992292,19.119010221638508,0.5105997516351741,-1.2865295991110963,-0.6229672871382435,-1.0,11.976555555555557,0.0,179.45203562786415,1.12827175120825,94.59930390413274,1491.0,1435.0,1000.0,1528.0,1420.0,1011.0,242.0,294.13,1649158373.372182,1649158374.5210876,5e61b87d-9819-436a-bee5-930d8fdbb3ea
-0.1867333495574828,-0.3197850232572399,0.2788751365859376,0.1603396453506327,0.1345156066453536,0.2938383520105451,0.053190921381854,0.0342962446759192,-9.642099035400545,30.23824442302343,19.17232058019821,0.5111487417416426,-1.3026168766358586,-0.6684857348311595,-1.0,11.979888888888889,0.0,179.4765818099214,1.1228879731746604,94.57802103467898,1491.0,1435.0,1000.0,1528.0,1420.0,1011.0,242.0,294.13,1649158374.6294155,1649158375.947549,5e61b87d-9819-436a-bee5-930d8fdbb3ea
-0.1969893337623026,-0.3164584026862434,0.2697630906009982,0.1695700298073272,0.1263239690704921,0.2816495113117125,0.0388062476339755,0.0186755934150521,-9.789731760525916,30.302729077211904,19.02088525008016,0.4628126066204258,-1.2894659706828209,-0.6242868368724622,-1.0,11.977,0.0,179.48074367185566,1.1137540536897472,94.54145296077265,1491.0,1435.0,1000.0,1528.0,1420.0,1011.0,242.0,294.13,1649158376.0558536,1649158377.178214,5e61b87d-9819-436a-bee5-930d8fdbb3ea
-0.3741039404260286,-0.6515278089672935,0.2459392979166907,0.2940826986037664,0.1742515133901878,0.4919568651705197,0.0954278206234887,0.0766909283195736,-10.138795656642506,31.36038514475298,18.66086645695736,0.6601232014904816,-2.557341077661437,-0.7783461476407111,-1.0,11.92988888888889,0.0,179.58960778030678,1.1272992081614308,94.44362643802026,1428.0,1435.0,1000.0,1528.0,1368.0,1011.0,242.0,294.13,1649158379.3177671,1649158380.4545972,e067434e-1870-4fd4-b0d1-a29e99948320
-0.375487293102869,-0.6513497536556314,0.2514453141723922,0.3016021087981413,0.180264302393965,0.4820131645193015,0.0981945254148744,0.082402393328665,-10.160759879793249,31.39438649857929,18.288202616436333,0.621245532220836,-2.553791066026449,-0.7984477367697366,-1.0,11.932,0.0,179.58958804864915,1.1199709725064706,94.32672623255569,1428.0,1435.0,1000.0,1528.0,1368.0,1011.0,242.0,294.13,1649158380.5627892,1649158381.903323,e067434e-1870-4fd4-b0d1-a29e99948320
-0.3750216100248663,-0.6522948164969974,0.2499386928114648,0.2904942004836149,0.1781961221279767,0.4939976522155048,0.1006188162507275,0.0788412878309207,-10.146052957322356,31.32308911282119,18.4104152757596,0.6727122217990616,-2.5572519856237093,-0.7970286143448373,-1.0,11.929,0.0,179.57938526384896,1.1196565703612384,94.220072069756,1428.0,1435.0,1000.0,1528.0,1368.0,1011.0,242.0,294.13,1649158382.0120115,1649158383.1121013,e067434e-1870-4fd4-b0d1-a29e99948320
-0.6903942738965231,-1.2295305911630423,0.2094105779048966,0.5416123641091187,0.2647928837242601,0.8353147641368388,0.1940003065473966,0.1742378166841774,-10.490893259687084,33.120680622274975,19.583754314478405,0.8831481678036945,-4.763652477708154,-1.05965538703615,-1.0,11.897333333333332,0.0,179.78428942112953,1.1362188423191018,94.11438475817889,1364.0,1435.0,1000.0,1528.0,1312.0,1011.0,242.0,294.13,1649158383.7430851,1649158384.748515,af9a644e-c2bf-40a0-b580-0e8d629c57dc
-0.6952987395610473,-1.23405374650687,0.2089240761668034,0.5390220711939129,0.2652136419835181,0.8389701013631062,0.1957096369980281,0.1680973757248185,-10.479875024140028,33.069318435801286,19.139812777943185,0.8967753335838503,-4.776473194212436,-1.0631664112013766,-1.0,11.902444444444445,0.0,179.79017249073468,1.135388262856907,93.9650077621208,1364.0,1435.0,1000.0,1528.0,1312.0,1011.0,242.0,294.13,1649158384.856654,1649158385.9759114,af9a644e-c2bf-40a0-b580-0e8d629c57dc
-0.6926996794988023,-1.223099229673798,0.2151494357015584,0.5289101768598532,0.2662512932065193,0.8387263026392521,0.1997408079560012,0.1768264658634628,-10.406158873803363,33.219993042502004,19.34447208840788,0.9204159937135656,-4.736080530325129,-1.077289907135864,-1.0,11.898,0.0,179.77315317714277,1.1314414688757302,93.79624365355858,1364.0,1435.0,1000.0,1528.0,1312.0,1011.0,242.0,294.13,1649158386.083661,1649158387.4320917,af9a644e-c2bf-40a0-b580-0e8d629c57dc
-0.979204434414061,-1.7205450933345263,0.159472927157461,0.7421381804391162,0.3205170549762569,1.1241899572166434,0.2551296882395718,0.2348176927685388,-10.933043335328996,34.85673318786397,18.53123821546019,1.088583781716002,-6.620622900490684,-1.214679194196548,-1.0,11.825333333333331,0.0,179.9400222876653,1.1498463740896814,93.53322293445018,1297.0,1435.0,1000.0,1528.0,1253.0,1011.0,242.0,294.13,1649158389.3474417,1649158390.4860733,0a48d077-30db-495b-84ae-2b278b2a95b1
-0.9589828232423282,-1.7037519934494196,0.1720551333221839,0.7380801644505393,0.3289585173968414,1.1122657338048103,0.2640171106806593,0.2433868072759727,-10.830694546877826,34.8127513448885,18.72653752656277,1.0713599499389548,-6.558797370732879,-1.2536200349315267,-1.0,11.821375,0.0,179.94765160896816,1.143819056759,93.30358742109492,1297.0,1435.0,1000.0,1528.0,1253.0,1011.0,242.0,294.13,1649158390.5944955,1649158391.7145498,0a48d077-30db-495b-84ae-2b278b2a95b1
-0.9693702996562767,-1.7157923808889235,0.1483376253513668,0.7402480555327028,0.3100117952281025,1.122135473493202,0.2414605234824844,0.220217161940906,-11.169609181467862,34.83229406994823,18.559795928073648,1.0873997386655672,-6.601849708973457,-1.1652866523349754,-1.0,11.827333333333334,0.0,179.9283866809592,1.1471802287199144,93.10241861838044,1297.0,1435.0,1000.0,1528.0,1253.0,1011.0,242.0,294.13,1649158391.8223312,1649158393.153329,0a48d077-30db-495b-84ae-2b278b2a95b1
0.089902081033313,0.2162741970406108,0.2837138565281397,-0.0369565414505481,0.0254603208865646,-0.0504339555652608,-0.0828060470788837,-0.1071442852566441,-9.924032308013524,29.051615437383635,18.58310912338905,0.1747135455096873,0.7397267495371435,-0.270321364664258,-1.0,11.988444444444443,0.0,179.21754309109912,1.0900637559969697,92.7710368125991,1553.0,1435.0,1000.0,1528.0,1471.0,1011.0,242.0,294.13,1649158395.291026,1649158396.430228,ac131a4f-2f8d-4711-96db-a6bd066c885f
0.0855235652629824,0.2087925892197934,0.2792695974544735,-0.030290152257335,0.0230409607453065,-0.0469889970108068,-0.0862773030671848,-0.110970556376118,-9.934111110180874,29.09761817245028,18.872236672228023,0.1675417650634227,0.7080732391955,-0.2564907290703647,-1.0,11.991111111111111,0.0,179.19970263698704,1.1092823667856355,93.1174199905275,1553.0,1435.0,1000.0,1528.0,1471.0,1011.0,242.0,294.13,1649158396.5389092,1649158397.654239,ac131a4f-2f8d-4711-96db-a6bd066c885f
0.0900587696835247,0.2096845090800344,0.283645921595004,-0.0334704932648939,0.0267532760199028,-0.0461809000459969,-0.0812577880333531,-0.1120339571055683,-9.908168834812754,29.07953621616558,18.731366843951164,0.1766203844346412,0.7131520906465441,-0.2747522524758371,-1.0,11.98977777777778,0.0,179.1835515163297,1.1133169571567685,93.39858928117054,1553.0,1435.0,1000.0,1528.0,1471.0,1011.0,242.0,294.13,1649158397.763004,1649158398.8393066,ac131a4f-2f8d-4711-96db-a6bd066c885f
0.1243275587127223,0.2192310099628036,0.2735789516095914,-0.5436399823171981,-0.041017297288866,0.4349791864092925,0.0457640994139093,0.0221101420832328,-9.30744574702958,28.093761184546583,22.135080888563152,2.40247759003614,0.7766963445713145,-0.3472687633385375,-1.0,11.979666666666668,0.0,179.22152585029514,1.295171229985017,93.954365568484,1553.0,1522.0,1000.0,1528.0,1471.0,1011.0,242.0,294.13,1649158400.820613,1649158402.1583931,3085504a-793a-42e3-85d3-3396e9a6eaf3
0.1126991806939528,0.2093831847943873,0.2614301048474401,-0.5349426651464131,-0.0492626258176706,0.4372528149389942,0.0341494177108398,0.018932540711819,-9.437189510458388,28.09727417404406,22.13427109073588,2.3873206380190566,0.7388455460170658,-0.3041499262416283,-1.0,11.974333333333334,0.0,179.21785272634148,1.2918528015495143,94.07456096076815,1553.0,1522.0,1000.0,1528.0,1471.0,1011.0,242.0,294.13,1649158402.2661307,1649158403.3939698,3085504a-793a-42e3-85d3-3396e9a6eaf3
0.1097681172176186,0.1992614284083551,0.2614027117230905,-0.5261768652072992,-0.045619341116512,0.4396634090401599,0.0353136251877493,0.0109063571328062,-9.551074680039358,28.089190279025377,22.219612989036307,2.3728653917894187,0.6998513424646583,-0.3118362871033335,-1.0,11.972444444444443,0.0,179.21107869650464,1.291048060598086,94.14443000142786,1553.0,1522.0,1000.0,1528.0,1471.0,1011.0,242.0,294.13,1649158403.5023396,1649158404.6171465,3085504a-793a-42e3-85d3-3396e9a6eaf3
0.1364221675169327,0.1944342135007251,0.2393238604360276,-1.172649284666298,-0.1380305746247597,1.0634446270367532,0.1870577951859967,0.1684392417679909,-9.214570618573996,27.16020676583308,26.10260503203236,5.226399104538261,0.7231289536163054,-0.3720835158184398,-1.0,11.956888888888887,0.0,179.2083223357196,1.4853215383281224,94.30289873818111,1553.0,1613.0,1000.0,1528.0,1471.0,1011.0,242.0,294.13,1649158406.2262402,1649158407.4915802,c2ca473b-d625-4bb7-9f4b-b8eaaa982177
0.1459270310922407,0.194618295246461,0.2449257525989584,-1.1736272197364188,-0.1344415281960401,1.0640620678693165,0.1942210950367006,0.1709506427289839,-8.937228479882018,27.18867631656748,26.13530759921377,5.230605043322531,0.7220425882325957,-0.3945648441748948,-1.0,11.951666666666666,0.0,179.20298568124812,1.508970285703449,94.26061986721876,1553.0,1613.0,1000.0,1528.0,1471.0,1011.0,242.0,294.13,1649158407.60766,1649158408.7150164,c2ca473b-d625-4bb7-9f4b-b8eaaa982177
0.1534190484112907,0.2103419438533678,0.2624847398014948,-1.1809000982053404,-0.1211010791926576,1.0548305878998572,0.2103282472951547,0.1874139055572058,-8.75365543975794,27.06783463284016,26.19113042816216,5.226441057871983,0.7812283330019599,-0.4575075034854874,-1.0,11.951,0.0,179.20791707782885,1.5116329566887945,94.23390016718568,1553.0,1613.0,1000.0,1528.0,1471.0,1011.0,242.0,294.13,1649158408.822441,1649158409.941787,c2ca473b-d625-4bb7-9f4b-b8eaaa982177
0.1592948718647934,0.1791411846367211,0.226435399436505,-1.7598953623314857,-0.2172783217745716,1.6450016220566883,0.3351312819794041,0.3112992714446269,-8.668953651061605,26.670305512026264,30.292982964959844,7.85497184446261,0.6962470340724106,-0.457908623277973,-1.0,11.899111111111113,0.0,179.20228748413294,1.729926549614342,94.19399896096438,1553.0,1710.0,1000.0,1528.0,1471.0,1011.0,242.0,294.13,1649158411.8778863,1649158413.013985,d020e4b6-dd99-4e5f-a355-a1fd832364e6
0.1525687660961133,0.1759865933737256,0.2159717770395019,-1.756425745143843,-0.2264555648655399,1.6443803460385749,0.3236464444676496,0.3040680369064947,-8.751264454429137,26.71838986937569,30.134902346174464,7.845480254331587,0.6853093325041286,-0.4154453951357658,-1.0,11.912999999999998,0.0,179.19618281283476,1.7149580477526516,94.05062494227684,1553.0,1710.0,1000.0,1528.0,1471.0,1011.0,242.0,294.13,1649158413.122166,1649158414.2428424,d020e4b6-dd99-4e5f-a355-a1fd832364e6
0.1737584372879323,0.1856744428289344,0.2318729329310478,-1.7685789931946294,-0.2154429827291263,1.6439880765665962,0.3393087320578737,0.3123402096511343,-8.61450585893791,26.763900580820145,29.957991676237526,7.873147630109351,0.724749814496438,-0.4735266030673916,-1.0,11.898,0.0,179.21490967371912,1.71918901792039,93.91374946912956,1553.0,1710.0,1000.0,1528.0,1471.0,1011.0,242.0,294.13,1649158414.351614,1649158415.4705198,d020e4b6-dd99-4e5f-a355-a1fd832364e6
0.1625486262447474,0.1623513958130867,0.2086216560807617,-2.1548319259917865,-0.290397682940563,2.03817075836541,0.4082714471802643,0.3785028012091698,-8.81530908826128,27.99506266557669,32.34396802783977,9.637503755178678,0.6636514716830411,-0.4414190560666804,-1.0,11.838333333333331,0.0,179.20868661247536,1.861672526978968,93.64228663620705,1553.0,1814.0,1000.0,1528.0,1471.0,1011.0,242.0,294.13,1649158416.3814633,1649158417.5188656,3164a185-0a30-4bc5-b5f5-a514b246e25e
0.1888986125942544,0.1720814307091673,0.2072410430567358,-2.156567564805259,-0.2924883258645979,2.031964574885412,0.4058520871575795,0.381224580989988,-8.773088316795143,27.82621669287805,32.5768384872543,9.626343136259916,0.6979055723737575,-0.4316555603729521,-1.0,11.851222222222225,0.0,179.19897863693504,1.8593204754472832,93.39674513009462,1553.0,1814.0,1000.0,1528.0,1471.0,1011.0,242.0,294.13,1649158417.627079,1649158418.7490883,3164a185-0a30-4bc5-b5f5-a514b246e25e
0.1822848186307148,0.1758945525079285,0.2108306370125262,-2.141827840455789,-0.2880309171588488,2.0126754268171854,0.4055759646667961,0.3895477052276673,-8.636699930578938,27.7547941945383,32.30841385705592,9.549479773586818,0.7120323890147556,-0.4418898533370407,-1.0,11.843333333333334,0.0,179.19444794478557,1.8442770786640688,93.2067823910784,1553.0,1814.0,1000.0,1528.0,1471.0,1011.0,242.0,294.13,1649158418.8582585,1649158419.97923,3164a185-0a30-4bc5-b5f5-a514b246e25e
0.0512838125205065,0.2038086856661719,0.3205855377590176,0.6202388208241993,0.1264642218370164,-0.6636218745832363,-0.2260852098982708,-0.2477668654366178,-10.275596815026612,31.16074603268468,15.276094652586655,-2.670559786976421,0.6462301976643278,-0.2556752044701251,-1.0,11.983666666666668,0.0,179.18255430871088,0.9183768837944536,93.10020487817944,1553.0,1349.0,1000.0,1528.0,1471.0,1011.0,242.0,294.13,1649158420.8874695,1649158422.0257485,d5875ad3-9fdf-406b-89be-dd007eaa49b4
0.0546531659389467,0.2094242744594407,0.3139427072910279,0.5995159296834363,0.1180682316054144,-0.6485693512802692,-0.2301804813664015,-0.2446851390128385,-10.479548199907702,31.096946372516907,15.445811216832118,-2.590818306386792,0.6693606234474775,-0.2287331458368218,-1.0,11.984,0.0,179.20066797038973,0.9070768694211966,93.55295762769208,1553.0,1349.0,1000.0,1528.0,1471.0,1011.0,242.0,294.13,1649158422.134718,1649158423.2535331,d5875ad3-9fdf-406b-89be-dd007eaa49b4
0.0510372744839722,0.2096708125152428,0.3258450159157199,0.5975573219952558,0.1279023604708558,-0.6489254619028668,-0.2167030662370386,-0.2382477555682379,-10.231201798791613,31.112602907297585,15.269443133621024,-2.58640705369346,0.6710866570986331,-0.2776095540395552,-1.0,11.983111111111112,0.0,179.18783632166904,0.908713636506832,93.87724514365549,1553.0,1349.0,1000.0,1528.0,1471.0,1011.0,242.0,294.13,1649158423.3626764,1649158424.4818065,d5875ad3-9fdf-406b-89be-dd007eaa49b4
0.0289036356837496,0.2191488306350245,0.3530600759172724,1.1919468303834275,0.2090955570715635,-1.2275232218564038,-0.3676254669298269,-0.3906767797938804,-11.127231971140162,33.3809545708132,11.649194135323231,-5.212026402473772,0.6736447331300116,-0.2107185316282823,-1.0,11.942777777777778,0.0,179.22019168667728,0.7164126664198359,94.43784733907252,1553.0,1264.0,1000.0,1528.0,1471.0,1011.0,242.0,294.13,1649158426.2228954,1649158427.354912,be494b12-15bf-42d4-b25a-f3a1d6d674ff
0.0416069198790481,0.2406387300064956,0.3642101695077782,1.1684895568953255,0.214078364854488,-1.2244814875585144,-0.3547605610864078,-0.3759562634185925,-10.944166287955422,33.15917592645861,12.09813999598547,-5.153028639482812,0.7525614194853231,-0.2477741383159043,-1.0,11.939444444444444,0.0,179.21702096108254,0.6945643616529114,94.63090187705303,1553.0,1264.0,1000.0,1528.0,1471.0,1011.0,242.0,294.13,1649158427.470048,1649158428.7835157,be494b12-15bf-42d4-b25a-f3a1d6d674ff
0.0438602777380266,0.2374200389094194,0.3545666972532893,1.1685668054981673,0.2052468242766446,-1.2218117522447127,-0.3642835060010743,-0.3864445421978957,-10.99901171302895,33.197142423757576,11.965567860842784,-5.147480878279153,0.7414323250604776,-0.209671204916953,-1.0,11.94225,0.0,179.22284217953018,0.69460090346142,94.85022399448906,1553.0,1264.0,1000.0,1528.0,1471.0,1011.0,242.0,294.13,1649158428.8919094,1649158430.0079403,be494b12-15bf-42d4-b25a-f3a1d6d674ff
0.0193856231264736,0.2448068665211202,0.3979760188740883,1.7391167198616384,0.2942328128714965,-1.7759647361238402,-0.4966481728055797,-0.5217358921288817,-11.802081324628116,36.024722930837456,8.534796651189632,-7.659802708398952,0.7377811546707244,-0.2022503957032316,-1.0,11.919444444444444,0.0,179.18452292101165,0.4928721660483631,95.17808047402129,1553.0,1178.0,1000.0,1528.0,1471.0,1011.0,242.0,294.13,1649158431.947162,1649158433.091961,74270e1f-e0b5-4d25-ab50-499bdd706d7f
0.0259177858957572,0.2523492869927234,0.4131742669319833,1.7263318016357443,0.3074231458305194,-1.7698253818174603,-0.4776636420774509,-0.5063579402121665,-11.694098511036517,35.81057866699021,8.91790814184661,-7.617714507264527,0.7644439871268309,-0.2664586347471241,-1.0,11.908,0.0,179.1930728000327,0.4797401609446778,95.33455783117654,1553.0,1178.0,1000.0,1528.0,1471.0,1011.0,242.0,294.13,1649158433.2274132,1649158434.313364,74270e1f-e0b5-4d25-ab50-499bdd706d7f
0.0145085524667717,0.2517603350169736,0.401107599781549,1.7197711487082266,0.2946442574658424,-1.7618539729928435,-0.4899357616429977,-0.5099464394134804,-11.832442904092796,35.93201424320424,9.015762145154453,-7.584852330547576,0.7623918030939244,-0.2152696080316352,-1.0,11.9205,0.0,179.2041445366773,0.4770777478701216,95.42967163046356,1553.0,1178.0,1000.0,1528.0,1471.0,1011.0,242.0,294.13,1649158434.4216783,1649158435.5401032,74270e1f-e0b5-4d25-ab50-499bdd706d7f
0.0082618259085677,0.2583368742251104,0.4138201965736878,1.9990139262520783,0.3242249870472386,-2.0336796078715564,-0.5725424687808958,-0.6017720297689642,-12.489954299242854,38.04596625387617,7.553707967452133,-8.811501506789474,0.7711306762097633,-0.1554192786661015,-1.0,11.826333333333332,0.0,179.21574447461768,0.3499166832104582,95.70635234845702,1553.0,1088.0,1000.0,1528.0,1471.0,1011.0,242.0,294.13,1649158437.886077,1649158439.0232646,791ab58e-c1b0-4ec8-932b-9ccf5ee3a4ec
0.0018321133717085,0.2451092864969685,0.4084686775968977,2.0121231810905367,0.3234360652757524,-2.0336138637165493,-0.5769209861319378,-0.6023111268509482,-12.55797791328994,38.04918837919829,7.399603639406139,-8.841228954559593,0.7214132241303273,-0.1425677933306516,-1.0,11.823,0.0,179.2263221609123,0.3423496784902549,95.64833672164691,1553.0,1088.0,1000.0,1528.0,1471.0,1011.0,242.0,294.13,1649158439.1321564,1649158440.183255,791ab58e-c1b0-4ec8-932b-9ccf5ee3a4ec
0.0086053355771791,0.2633339263831173,0.4232275400697493,2.0003863213513084,0.3310907974314664,-2.040675274147149,-0.5626782045013864,-0.5895919503897366,-12.11698291175552,37.994770146071296,7.50776105861199,-8.830008032282272,0.788066622435689,-0.1908049031144867,-1.0,11.816,0.0,179.21899109120315,0.3564825938630542,95.64269726212224,1553.0,1088.0,1000.0,1528.0,1471.0,1011.0,242.0,294.13,1649158440.2920885,1649158441.480491,791ab58e-c1b0-4ec8-932b-9ccf5ee3a4ec
0.1062754948305839,0.2307635117536146,0.2977259829542445,-0.0315666715775942,0.0329167274224155,-0.0643151443254031,-0.0779843104005926,-0.0960637689724904,-9.88580938534806,29.49722043595916,19.400016706143,0.1351635749706421,0.7867919683155268,-0.3036459670742225,-1.0,11.985888888888889,0.0,179.19731055295773,0.993405788491038,95.56145292085483,1553.0,1435.0,1000.0,1528.0,1471.0,1011.0,242.0,294.13,1649158443.4151776,1649158444.5534456,91540eac-b8f9-43e6-a036-eebcd6cbb39b
0.0918119291528566,0.2271750135959414,0.2976438036030508,-0.0266359103162095,0.0342042039266437,-0.0656574070825225,-0.0773953583690668,-0.1039392908830512,-9.83939377978072,29.459768490368287,19.357001851011603,0.1207888841328871,0.7727727126233329,-0.3065298927282733,-1.0,11.988888888888887,0.0,179.2097278368688,1.0260294400096632,95.57443331591747,1553.0,1435.0,1000.0,1528.0,1471.0,1011.0,242.0,294.13,1649158444.6627522,1649158445.7779138,91540eac-b8f9-43e6-a036-eebcd6cbb39b
0.1067411777906947,0.2352422862018428,0.3112033957484055,-0.0266085172097265,0.0450244852780452,-0.072355024543845,-0.0646712548465443,-0.0960226793219019,-9.620686607549336,29.429583133929043,19.632383007013463,0.1063057150354945,0.7998969591538486,-0.3563370183797802,-1.0,11.988,0.0,179.20891428544766,1.0287603891707744,95.5763852322003,1553.0,1435.0,1000.0,1528.0,1471.0,1011.0,242.0,294.13,1649158445.887225,1649158447.0096705,91540eac-b8f9-43e6-a036-eebcd6cbb39b
0.1889616167232673,0.2471445950110679,0.601132123443567,-0.0450988718718016,0.3129976448091953,-0.0840792792343477,0.2434465243773343,0.2203678239193446,-7.572046710665454,29.309750555912377,19.49621658763052,0.1363211170471628,0.8518993851746188,-1.5526571361287471,-1.0,11.989333333333333,0.0,179.17909519735122,1.0325625515246826,95.53417010967016,1553.0,1435.0,1000.0,1435.0,1471.0,1011.0,242.0,294.13,1649158448.9450753,1649158450.085656,f6cb5d35-c4c5-42de-903d-84f53764b906
0.1930021013526811,0.2549653295461678,0.6055561114399398,-0.0470711763789893,0.3167368050571479,-0.0913795453325271,0.2445970352320901,0.2152590079355433,-7.749595988608701,29.28243461937603,19.31244190610301,0.1242860160196021,0.8846401620444909,-1.5648616076537152,-1.0,11.991333333333335,0.0,179.1757165304418,1.0340196466896512,95.56169956657487,1553.0,1435.0,1000.0,1435.0,1471.0,1011.0,242.0,294.13,1649158450.194005,1649158451.312247,f6cb5d35-c4c5-42de-903d-84f53764b906
0.1913837160482684,0.2571929377058091,0.6091703589698167,-0.0542207802372356,0.3194783080390473,-0.08727660404477,0.251433809056516,0.2336173264099695,-7.595393132997425,29.13360351091054,19.311279731834155,0.1489044100985326,0.8930208066419945,-1.5828822261541262,-1.0,11.987666666666668,0.0,179.17503958280406,1.0367647898376309,95.58341501467606,1553.0,1435.0,1000.0,1435.0,1471.0,1011.0,242.0,294.13,1649158451.420935,1649158452.7529037,f6cb5d35-c4c5-42de-903d-84f53764b906
0.3217135862305672,0.3238173775212145,1.0125854729940955,-0.0705383129190603,0.6793449440042533,-0.1591473823796155,0.6564530660723861,0.6345999350128328,-4.593374048976383,29.400407278721715,19.33166409572988,0.0475799738692026,1.1490626735031917,-3.1896568005872425,-1.0,11.954333333333333,0.0,179.07965826777453,1.0398456557560645,95.55633862698627,1553.0,1435.0,1000.0,1330.0,1471.0,1011.0,242.0,294.13,1649158453.8606236,1649158454.9978943,31a931b8-9cc5-4cbf-8a95-3c1f2d233d07
0.3221332487434143,0.3181612470513839,1.0120836311317347,-0.0613566875378086,0.6808049970078294,-0.1616702886924134,0.6543569449502011,0.6291689761472882,-4.707086539352205,29.49527059139301,19.376525449990897,0.0217529523457788,1.1270953094588303,-3.188636019588746,-1.0,11.963333333333331,0.0,179.08690433957403,1.0470298645400886,95.51249336597428,1553.0,1435.0,1000.0,1330.0,1471.0,1011.0,242.0,294.13,1649158455.106696,1649158456.2267992,31a931b8-9cc5-4cbf-8a95-3c1f2d233d07
0.3226602923120572,0.3174928550535311,1.0054062853225123,-0.061978511315616,0.6758342424488804,-0.1606200364894416,0.6480247526003008,0.6255667815898083,-4.832851840830316,29.40296228557955,19.30306573862032,0.0244962642669597,1.125781326753262,-3.1639880239485865,-1.0,11.960333333333333,0.0,179.09489717872276,1.0408425550677365,95.51348829686336,1553.0,1435.0,1000.0,1330.0,1471.0,1011.0,242.0,294.13,1649158456.3353498,1649158457.660817,31a931b8-9cc5-4cbf-8a95-3c1f2d233d07
0.4283889508097454,0.3672869642056747,1.382668670848098,-0.0381399241886369,1.0184366424984423,-0.2521875664429243,1.0172532599042703,0.9955053177486364,-2.3340582511406383,29.95303333096384,19.19659790741067,-0.2113697209263626,1.316787997665699,-4.662972104452324,-1.0,11.94511111111111,0.0,178.9911526765095,1.0283509928494292,95.43285563698164,1553.0,1435.0,1000.0,1210.0,1471.0,1011.0,242.0,294.13,1649158458.7752907,1649158459.9125557,94dbca4a-e941-407b-aef7-764f5e6fc09a
0.4322020723969502,0.3852349332194559,1.391162729011188,-0.0804787277599288,1.0177529103444756,-0.2292036427173737,1.03282131532363,1.011691361765391,-2.036847098707984,29.82501414338985,19.5139687878789,-0.0644413156558064,1.3849364759713871,-4.693276279083989,-1.0,11.939666666666666,0.0,178.99644531420637,1.0310374509171965,95.38450928130656,1553.0,1435.0,1000.0,1210.0,1471.0,1011.0,242.0,294.13,1649158460.020774,1649158461.1479094,94dbca4a-e941-407b-aef7-764f5e6fc09a
0.4251017770296754,0.3704557997715219,1.372754553444285,-0.0748773828922983,1.003854739273936,-0.2186189410670714,1.015767457310495,0.99635998295089,-2.307514182356221,29.925389646215468,19.55700421906487,-0.0536719291688275,1.3291851097295493,-4.626881983791447,-1.0,11.933,0.0,178.99488499543597,1.0518974889726502,95.3799952851751,1553.0,1435.0,1000.0,1210.0,1471.0,1011.0,242.0,294.13,1649158461.2601564,1649158462.3663714,94dbca4a-e941-407b-aef7-764f5e6fc09a
0.5445379487432002,0.4306647708133446,1.742233509637062,-0.0031052221627985,1.3379384484197654,-0.3656120725123653,1.3538675465161645,1.329583547946565,-0.0141373526765799,31.13110376455123,19.14034624562393,-0.5184071130554785,1.5570729841284976,-6.058503145016641,-1.0,11.919666666666666,0.0,178.86017545116553,1.0166023322830342,95.2683626733804,1553.0,1435.0,1000.0,1071.0,1471.0,1011.0,242.0,294.13,1649158464.3060143,1649158465.3875244,27e12c95-a572-4e4e-815d-0a2336a15102
0.539552401881791,0.4345408965711684,1.7396859494105954,-0.0107615985584735,1.33340488755643,-0.3626947049880244,1.352347228641668,1.3227215717397238,0.0905136760938016,31.11179252829148,19.076772407267217,-0.4947928127536102,1.5722144060264265,-6.046297732327603,-1.0,11.911888888888887,0.0,178.8831279224164,1.028814864672592,95.27707951258115,1553.0,1435.0,1000.0,1071.0,1471.0,1011.0,242.0,294.13,1649158465.5009449,1649158466.6709602,27e12c95-a572-4e4e-815d-0a2336a15102
0.533265682064254,0.4331849373802017,1.7370836027941428,-0.0067758999695729,1.3311723484683522,-0.3624344703824598,1.3492791995115958,1.3291863477428514,0.0967502300971088,31.161982965658293,19.42396387552614,-0.5029371677267953,1.5633525961163823,-6.034997107702648,-1.0,11.907333333333334,0.0,178.86252807187964,1.0271276893679255,95.26325748643076,1553.0,1435.0,1000.0,1071.0,1471.0,1011.0,242.0,294.13,1649158466.7796834,1649158467.8995445,27e12c95-a572-4e4e-815d-0a2336a15102
-0.0234720053123508,0.149515529345541,-0.0514540752811109,0.0247672749972753,-0.2778856008246504,-0.0222941011282431,-0.4396282899640871,-0.4630083216243902,-12.411393707501931,30.215644758157094,18.699503292674866,0.0885075934339434,0.4770868492763747,1.0981667242947148,-1.0,11.988666666666669,0.0,179.23142203549256,1.0686698248213933,95.59846723378696,1553.0,1435.0,1000.0,1613.0,1471.0,1011.0,242.0,294.13,1649158468.8106382,1649158469.9495971,6680e738-d43e-4c1f-8bd4-0ec363c40ec0
-0.0345897761339147,0.1491764025873486,-0.0495792902776366,0.02640702697142,-0.2749216651645486,-0.0210334698875487,-0.43559876155214,-0.4587930672560288,-12.322345960244643,30.06978973296257,19.069915100210537,0.0868718527863125,0.471816198377832,1.0864549197319031,-1.0,11.99,0.0,179.2663243021514,1.0705359131368184,95.55175253441358,1553.0,1435.0,1000.0,1613.0,1471.0,1011.0,242.0,294.13,1649158470.0578887,1649158471.1775875,6680e738-d43e-4c1f-8bd4-0ec363c40ec0
-0.0271015934194717,0.1452148100969266,-0.0515499511943433,0.0303554709474128,-0.2767898759902082,-0.0230063221917695,-0.4385051719291422,-0.4592828567488882,-12.295714153353233,30.18244501745557,18.73444573546811,0.0741404777551109,0.4591334242444895,1.0948783329753689,-1.0,11.988666666666669,0.0,179.236125759101,1.06707081350367,95.500497277062,1553.0,1435.0,1000.0,1613.0,1471.0,1011.0,242.0,294.13,1649158471.2860022,1649158472.4038966,6680e738-d43e-4c1f-8bd4-0ec363c40ec0
-0.1186888412603011,0.1084022964338779,-0.3218625175952088,0.0911380585093498,-0.5194085719519662,-0.0274105877072834,-0.7332853380932182,-0.7569004076760111,-14.496559586523704,30.79619752826041,18.766136559849983,-0.0833610400658958,0.3117506801691616,2.207836024891161,-1.0,11.97177777777778,0.0,179.30817514792574,1.0390212661528049,95.46482471684683,1553.0,1435.0,1000.0,1694.0,1471.0,1011.0,242.0,294.13,1649158474.3405645,1649158475.473426,451bbbbc-8419-4b18-9ff4-17c5f3a853e0
-0.1204639153255678,0.1194603497812312,-0.3155905885352525,0.0903885828401487,-0.5178701741136793,-0.0379952884853738,-0.7299718653661145,-0.7469862861601961,-14.190602232942371,30.881757113595885,18.737861881375785,-0.1044266535047638,0.3518015446779975,2.193944085840364,-1.0,11.976,0.0,179.3000077594982,1.0352099494481335,95.38903466108664,1553.0,1435.0,1000.0,1694.0,1471.0,1011.0,242.0,294.13,1649158475.5827105,1649158476.713245,451bbbbc-8419-4b18-9ff4-17c5f3a853e0
-0.1224981283315792,0.103180072677937,-0.3175645368341876,0.09767405620657,-0.5153291878509928,-0.030142229419495,-0.7295160436447481,-0.7604017968933924,-14.374139115377671,30.933080679519065,18.53490039181773,-0.103096824544245,0.2928172136197096,2.190183175817994,-1.0,11.973444444444445,0.0,179.2939865682899,1.0210136147016735,95.31164254651117,1553.0,1435.0,1000.0,1694.0,1471.0,1011.0,242.0,294.13,1649158476.8216598,1649158478.1396923,451bbbbc-8419-4b18-9ff4-17c5f3a853e0
-0.2093096632795027,0.0669181602352812,-0.5919893967189658,0.1788135629528156,-0.7651840889837439,-0.052853315758121,-1.0336280186018794,-1.059780793292318,-16.043610015421578,31.86305983595545,18.64718965323173,-0.3454845671851606,0.1402625716997196,3.332489465690172,-1.0,11.941666666666666,0.0,179.31011492165004,1.0143627417133083,95.22214202435704,1553.0,1435.0,1000.0,1774.0,1471.0,1011.0,242.0,294.13,1649158479.2554371,1649158480.3888545,86c1f173-d0ed-4ffb-9633-6cc8c084838d
-0.2152923206373612,0.0696925351225836,-0.5938170659686064,0.1740011403050738,-0.7669065688651426,-0.0530373975135637,-1.0348902941140432,-1.064698408950061,-16.08102711885337,31.75065792436515,18.36731921632132,-0.3359421563873973,0.1538882194994008,3.3390428077532266,-1.0,11.939,0.0,179.32045734587325,1.0194880753493971,95.13081177041524,1553.0,1435.0,1000.0,1774.0,1471.0,1011.0,242.0,294.13,1649158480.4982605,1649158481.552729,86c1f173-d0ed-4ffb-9633-6cc8c084838d
-0.2056674739533407,0.0715465013080351,-0.5930544413646301,0.1656254210568885,-0.7653287246744239,-0.0463447108926888,-1.0326418656325245,-1.0573877288719935,-16.297784648129113,31.63263146088307,18.494648806274387,-0.3028424765862383,0.1623249324551546,3.332880237234217,-1.0,11.939222222222222,0.0,179.30712178097372,1.0064090338566978,95.0901068786016,1553.0,1435.0,1000.0,1774.0,1471.0,1011.0,242.0,294.13,1649158481.667531,1649158482.8538806,86c1f173-d0ed-4ffb-9633-6cc8c084838d
-0.2939105767021551,0.030163719145035118,-0.8166398918268478,0.27535950414040533,-0.9653709017820636,-0.0946530230143951,-1.2947322941749053,-1.315578477355823,-17.98095910291546,33.02998716140865,18.35009939227608,-0.6616710427043342,-0.0073524698073164085,4.277277799095432,-1.0,11.899666666666667,0.0,179.33798057564385,0.9940357192883966,94.97699287466693,1553.0,1435.0,1000.0,1856.0,1471.0,1011.0,242.0,294.13,1649158483.7619011,1649158484.8983767,5bc28eda-2578-41f8-9b38-da5b1baf20e8
-0.2893496220389879,0.03279345840877589,-0.8149278211435599,0.26303260209179463,-0.965069577279191,-0.08549002489375601,-1.2898563148529723,-1.314140337153202,-17.95042541745782,32.94174716751419,18.43155252210086,-0.6137454414615463,0.0031973694917353246,4.267973853836599,-1.0,11.892555555555555,0.0,179.3462101946838,0.9906765705931543,94.84517857169467,1553.0,1435.0,1000.0,1856.0,1471.0,1011.0,242.0,294.13,1649158485.007633,1649158486.1338365,5bc28eda-2578-41f8-9b38-da5b1baf20e8
-0.2827204868239304,0.03350567945776218,-0.8159413670241081,0.2710176952971222,-0.9653024189975629,-0.0939271054063175,-1.2937735341513283,-1.3263850710882232,-17.996222163609986,32.977255181720956,18.35752471729597,-0.6505670361006374,0.0058020890318121465,4.275255036163108,-1.0,11.889222222222221,0.0,179.34889521793755,0.9963167178799655,94.71978540545213,1553.0,1435.0,1000.0,1856.0,1471.0,1011.0,242.0,294.13,1649158486.2427647,1649158487.357371,5bc28eda-2578-41f8-9b38-da5b1baf20e8
