raw_voltage_G-,raw_voltage_G0,raw_voltage_G1,raw_voltage_G2,raw_voltage_G3,raw_voltage_G4,raw_voltage_G5,raw_voltage_G6,load_x,load_y,load_z,load_l,load_m,load_n,rpm,voltage,current,roll,pitch,yaw,aileron1_pwm,elevator_pwm,throttle_pwm,rudder_pwm,aileron2_pwm,pbaro,pdiff,Tt,sample_start_time,sample_end_time,uid
-7.444762457837983e-05,0.1623250984452722,0.072177638713244,0.1132410165717655,-0.129641705824053,-0.1231856955526924,-0.3447149554022228,-0.360480245297434,-14.75929729446992,29.407697049341945,18.58659796870737,-0.3381841969516122,0.5396799608745851,0.5934492935407615,-1.0,11.988333333333337,0.0,179.3124053117517,1.0136691810633696,95.95643365363776,1553.0,1435.0,1000.0,1528.0,1471.0,1011.0,242.0,294.13,1649157832.902435,1649157834.0500724,badc2f8d-d3cb-4d2e-8d6d-1788dbb003c3
-0.0177725931454766,0.1435356120614224,0.0547030214606645,0.1296505891539451,-0.1405814218604177,-0.1162037373951866,-0.3611639772707986,-0.3915374718881261,-14.996995583580096,29.49618176578987,18.97940068325012,-0.3598513597415495,0.4642822660066423,0.6538111319998987,-1.0,11.992555555555557,0.0,179.33658114577392,1.024182609033148,95.97771955873117,1553.0,1435.0,1000.0,1528.0,1471.0,1011.0,242.0,294.13,1649157834.1758747,1649157835.2780895,badc2f8d-d3cb-4d2e-8d6d-1788dbb003c3
0.0026999273359826,0.1660724767456342,0.0658136697626889,0.1167122723209736,-0.136952381432778,-0.1287870404907438,-0.3542609105151785,-0.3839769696852847,-14.768835762778302,29.507511666853112,18.70422223337045,-0.3582427208801324,0.5519307831443229,0.6262750261676904,-1.0,11.990222222222222,0.0,179.3286657154358,1.0295666242260837,95.96900575517004,1553.0,1435.0,1000.0,1528.0,1471.0,1011.0,242.0,294.13,1649157835.3920076,1649157836.5006723,badc2f8d-d3cb-4d2e-8d6d-1788dbb003c3
0.2439943866563704,0.6099937959949354,0.0915653911565506,-0.0946256299210779,-0.2143883475734608,-0.3663379902059131,-0.42719181205527,-0.4483256073659268,-14.314589452063238,28.402511636259167,18.932206624714013,-0.4211028106835892,2.239303969579026,0.853435469437768,-1.0,11.95,0.0,179.01778282517347,1.0200396961306468,95.96628658097046,1631.0,1435.0,1000.0,1528.0,1531.0,1011.0,242.0,294.13,1649157837.4112277,1649157838.5521772,692be667-93f4-4880-9de6-1dda6b56b6b7
0.2647172787041861,0.6352639441375655,0.1089600202707766,-0.1179782636472586,-0.2043624657246195,-0.3704743516251604,-0.4117010010877395,-0.4289586688905183,-14.259042578158876,28.287346601701387,18.934797276619275,-0.3775888795128029,2.337642263892877,0.7969561450180213,-1.0,11.954,0.0,179.038573921007,1.0166833696316242,95.94598270529777,1631.0,1435.0,1000.0,1528.0,1531.0,1011.0,242.0,294.13,1649157838.660527,1649157839.7725077,692be667-93f4-4880-9de6-1dda6b56b6b7
0.2552529572047101,0.6275801755158176,0.1053578254482703,-0.1141843166940094,-0.2062799840810485,-0.3630508155467486,-0.4121255944571387,-0.4350125489802318,-14.160314028131694,28.27211208170677,19.40035729240984,-0.369621863872668,2.3033027024019783,0.8049180489071569,-1.0,11.95325,0.0,179.0234689576575,1.0255491419372855,95.9571551872326,1631.0,1435.0,1000.0,1528.0,1531.0,1011.0,242.0,294.13,1649157839.881812,1649157841.011515,692be667-93f4-4880-9de6-1dda6b56b6b7
0.6013205880645123,1.228986707041852,0.1314519604966714,-0.396047475015314,-0.3233877666079756,-0.6848192244572683,-0.5232611410341254,-0.5532533262916703,-13.408668566563172,27.16961917549423,20.21243460366955,-0.462365649565138,4.582764384450983,1.1595095827977298,-1.0,11.91177777777778,0.0,178.46172194664462,1.0337885941966345,95.98663447341784,1712.0,1435.0,1000.0,1528.0,1591.0,1011.0,242.0,294.13,1649157842.7574682,1649157843.873203,64eed30b-8d81-45ea-8fa8-1611263ec2d3
0.607473629452579,1.2484862233972214,0.140421014700381,-0.4118790563354654,-0.3205366905098934,-0.6897823113522623,-0.5161783747191823,-0.5312856834099606,-13.267892586483285,27.114568164621662,20.21226200356502,-0.4376537050546236,4.657421441460848,1.13565758508588,-1.0,11.909333333333333,0.0,178.47508331448094,1.025206912107271,96.04224056127072,1712.0,1435.0,1000.0,1528.0,1591.0,1011.0,242.0,294.13,1649157843.983371,1649157845.098086,64eed30b-8d81-45ea-8fa8-1611263ec2d3
0.6042527470446855,1.2473948816271092,0.1489134286497704,-0.4065269880138422,-0.3113041128669589,-0.6956274569090022,-0.5079955005829988,-0.5330043285971771,-13.215410146562494,27.06897991018963,19.99452823773366,-0.4627491166738934,4.654765203804923,1.0995189095042104,-1.0,11.90688888888889,0.0,178.4718230375171,1.0265199211114675,96.10345727007184,1712.0,1435.0,1000.0,1528.0,1591.0,1011.0,242.0,294.13,1649157845.2064395,1649157846.336171,64eed30b-8d81-45ea-8fa8-1611263ec2d3
0.9352322464067424,1.8449166339812533,0.1888931339799357,-0.6818793940095048,-0.4197408825940863,-1.022691035228836,-0.6065072054957902,-0.6309281779929828,-11.93562979813526,26.36506422071749,20.45968961334762,-0.5785343426882966,6.919078718074917,1.4047024767940293,-1.0,11.842333333333334,0.0,178.2554289842328,1.0130397127267357,96.18126678509662,1796.0,1435.0,1000.0,1528.0,1650.0,1011.0,242.0,294.13,1649157847.4454796,1649157848.582143,5a3a4564-b06f-43ab-b6b8-29297f06ecd6
0.9347714942889612,1.8444115047809089,0.1866501856079153,-0.6834912056107378,-0.4218715197323613,-1.0227277420137189,-0.609319383907046,-0.6376942804004266,-12.014094760342656,26.39035371740464,20.15395446335794,-0.5750132455985806,6.920505941525817,1.4140940926013112,-1.0,11.847888888888887,0.0,178.24314526846547,1.0401135035216411,96.15278261952795,1796.0,1435.0,1000.0,1528.0,1650.0,1011.0,242.0,294.13,1649157848.6911132,1649157849.8073847,5a3a4564-b06f-43ab-b6b8-29297f06ecd6
0.9396973242066032,1.8282205246357792,0.1851813667429739,-0.6796057644316443,-0.4206585521959229,-1.00906295064125,-0.6059730395122765,-0.6274766446114235,-11.967331868942836,26.466497769789907,20.355835304926128,-0.5525838872217997,6.857089475989551,1.408040811612274,-1.0,11.85,0.0,178.2398197252496,1.0394037567463252,96.12782966176016,1796.0,1435.0,1000.0,1528.0,1650.0,1011.0,242.0,294.13,1649157849.9154806,1649157851.050598,5a3a4564-b06f-43ab-b6b8-29297f06ecd6
1.0743317469927316,2.0601816844850136,0.1799837968911379,-0.8094426206792735,-0.4851825067206972,-1.1514009749275562,-0.6676207232825578,-0.6947859402708148,-11.59535776742394,26.140693458434747,15.182648500329163,-0.5826122896145359,7.785952611896618,1.6108092216465648,-1.0,11.711,0.0,178.1625748391962,1.0361514364785702,96.13794517192096,1886.0,1435.0,1000.0,1528.0,1710.0,1011.0,242.0,294.13,1649157851.7351754,1649157852.883585,fdd4f775-761e-412b-923b-5ad8391ec0fd
1.046758932537318,2.0412738515245845,0.1691755689475085,-0.8023028752189966,-0.4905603248557948,-1.136529788147554,-0.6748788063412924,-0.7050813733651854,-11.83589482382949,26.210067026518068,15.528344467484189,-0.5654445299177414,7.712112246974825,1.6412664129082604,-1.0,11.722333333333331,0.0,178.1337195666826,1.029717362706516,95.9174143007293,1886.0,1435.0,1000.0,1528.0,1710.0,1011.0,242.0,294.13,1649157852.9928696,1649157854.118501,fdd4f775-761e-412b-923b-5ad8391ec0fd
1.043103595192397,2.0410897696805024,0.1671769671819298,-0.7997520269541311,-0.4938212023533859,-1.1393962060846774,-0.6779818998045039,-0.6990987143615647,-11.70793507898292,26.319243939225604,15.407571437975225,-0.5769704527994804,7.711147655689023,1.652724733595695,-1.0,11.724,0.0,178.13392902581714,1.0270218214357905,95.7813819764896,1886.0,1435.0,1000.0,1528.0,1710.0,1011.0,242.0,294.13,1649157854.250116,1649157855.3480394,fdd4f775-761e-412b-923b-5ad8391ec0fd
-0.4116462148871291,-0.5614866033318658,0.0172752573480056,0.4710285255024898,-0.0195000031359417,0.2452818631262586,-0.2462328499398959,-0.2787621810502161,-15.242187030748882,31.62151977259436,17.12817091241822,-0.3058029855690479,-2.2062044912255723,0.2903053183131206,-1.0,11.974777777777778,0.0,179.4976537024208,1.0200312888318246,95.393623789299,1475.0,1435.0,1000.0,1528.0,1408.0,1011.0,242.0,294.13,1649157857.2770932,1649157858.419452,c665ef94-ae6d-4a5b-abb9-d57db014967d
-0.409057564698217,-0.5598567124032581,0.0151522907467996,0.4677413517289889,-0.0211025005188376,0.2448298767119112,-0.2478216509057831,-0.268544546846654,-15.28708263829372,31.513036574366936,16.848061776895676,-0.3002957088339867,-2.197022752119393,0.2974303813173933,-1.0,11.9735,0.0,179.5717828838478,1.0141324273787564,95.37865865510004,1475.0,1435.0,1000.0,1528.0,1408.0,1011.0,242.0,294.13,1649157858.536536,1649157859.568693,c665ef94-ae6d-4a5b-abb9-d57db014967d
-0.4032091330421983,-0.5633356392899359,0.0137141521037722,0.4728501676343082,-0.0218284181211404,0.2446518214655706,-0.2497117761930427,-0.2722974047056809,-15.288246073092177,31.583716661087973,16.99319244513322,-0.3118005736065813,-2.212067874279896,0.3028693003221374,-1.0,11.972333333333331,0.0,179.58099567067327,1.022558055653841,95.36578773279156,1475.0,1435.0,1000.0,1528.0,1408.0,1011.0,242.0,294.13,1649157859.7029831,1649157860.6726365,c665ef94-ae6d-4a5b-abb9-d57db014967d
-0.6615854696147668,-1.0336543157720484,-0.0221905551421317,0.7055108469901704,0.0499431934179274,0.4891096248272895,-0.1876406096069492,-0.2091781763074278,-15.878001763849934,33.148354946136216,16.775722588410424,-0.2790439117823499,-4.0008424280262895,0.1094497967149067,-1.0,11.899666666666668,0.0,179.72663351761574,1.0156415167658837,95.3001928727325,1396.0,1435.0,1000.0,1528.0,1340.0,1011.0,242.0,294.13,1649157862.8088806,1649157863.9504883,73b0258e-dce1-4794-8df9-c0940a0e9350
-0.6537466524424566,-1.025567314413616,-0.0110903159532629,0.6954055270433419,0.0574198707942021,0.4893271261544856,-0.1749970413408848,-0.2038419966286785,-15.64671613139839,33.074071165374015,16.70136577271609,-0.2555951792400181,-3.969542598995444,0.0671109776599884,-1.0,11.893222222222224,0.0,179.73433189972025,1.004294283966802,95.14924493316528,1396.0,1435.0,1000.0,1528.0,1340.0,1011.0,242.0,294.13,1649157864.0596097,1649157865.173197,73b0258e-dce1-4794-8df9-c0940a0e9350
-0.6572255795768869,-1.0068714998435195,-0.0056116923877772,0.6942961059057282,0.0591730303069318,0.4742746095999142,-0.1759558004866388,-0.1967882682595698,-15.690629958815876,33.09248698170282,17.03765412074625,-0.2864912307527595,-3.9016074099381135,0.0613087176343356,-1.0,11.898333333333332,0.0,179.74253419800354,1.0027261745118858,94.95244289806016,1396.0,1435.0,1000.0,1528.0,1340.0,1011.0,242.0,294.13,1649157865.281964,1649157866.5166223,73b0258e-dce1-4794-8df9-c0940a0e9350
-0.8432523182226318,-1.3710221979354742,-0.0080770729746806,0.8586274005133679,0.1318195761361975,0.6320041635101413,-0.1119517774748021,-0.131085871272582,-16.092311098741444,34.825855616551095,10.47155011574459,-0.2926239223557546,-5.22671530994817,-0.1782806327559338,-1.0,11.74,0.0,179.84270575237093,0.994097855037096,94.67563582156708,1314.0,1435.0,1000.0,1528.0,1268.0,1011.0,242.0,294.13,1649157868.2528627,1649157869.2732537,6e8299dc-6750-4ed4-824f-8743f4cbf4a1
-0.8509223950237835,-1.3675021789399162,-0.0147336006364587,0.8543540746102076,0.1251493522316108,0.6321137359683833,-0.1178960843122369,-0.1482887502615098,-16.07492664379572,34.70261500214148,10.370967638889146,-0.2838938322412464,-5.212642622059139,-0.1513492117367429,-1.0,11.757888888888887,0.0,179.8578444872113,0.9926057551526308,94.32084088622086,1314.0,1435.0,1000.0,1528.0,1268.0,1011.0,242.0,294.13,1649157869.3886917,1649157870.5037444,6e8299dc-6750-4ed4-824f-8743f4cbf4a1
-0.8329262036929186,-1.357178250780376,-0.0121449509634105,0.8459783558421861,0.124009798606128,0.6281570745078836,-0.1156251947151049,-0.1454727377317211,-15.85706805333775,34.64782553439984,10.168422864759249,-0.2740483402396807,-5.172474007243249,-0.1554940497717397,-1.0,11.765555555555556,0.0,179.85687156470954,0.9891610512232538,94.09672113007532,1314.0,1435.0,1000.0,1528.0,1268.0,1011.0,242.0,294.13,1649157870.6348832,1649157871.731078,6e8299dc-6750-4ed4-824f-8743f4cbf4a1
-0.9879099724087718,-1.6351551532804698,-0.004242584370434,0.967853611458792,0.1901740360989396,0.7516496176777866,-0.0568505195748236,-0.0802551999067428,-16.411380592554288,35.936094024264584,5.205690933881572,-0.2636013662254157,-6.181631180865245,-0.3805490322471067,-1.0,11.734333333333334,0.0,179.9206822275754,1.010126091579229,93.65788830609118,1227.0,1435.0,1000.0,1528.0,1189.0,1011.0,242.0,294.13,1649157872.8405778,1649157873.9848611,61ce6877-f217-4a82-81d2-70a7c076cf6f
-0.9870816041446788,-1.6326437490461183,-0.0062543349486582,0.96213392901468,0.1875179995436769,0.7551734679356616,-0.0567584786992651,-0.085711909539348,-16.314779718059256,35.82707276968487,5.301061364924178,-0.2435396597183233,-6.173166038887574,-0.3738196828448427,-1.0,11.740111111111112,0.0,179.9253039889138,1.0078322982409338,93.40054575091278,1227.0,1435.0,1000.0,1528.0,1189.0,1011.0,242.0,294.13,1649157874.1200702,1649157875.2151475,61ce6877-f217-4a82-81d2-70a7c076cf6f
-0.9874629165137055,-1.6284887556930472,-0.0062411862572537,0.9654736976140352,0.1859664534366517,0.7473762918046443,-0.0608082773077423,-0.0754427768578663,-16.344764772559575,35.97585228061225,5.191465687663634,-0.2676402871197887,-6.15680655727058,-0.3656628619088811,-1.0,11.739444444444445,0.0,179.9341316289611,1.0171885071810225,93.21111804338156,1227.0,1435.0,1000.0,1528.0,1189.0,1011.0,242.0,294.13,1649157875.3432074,1649157876.6289177,61ce6877-f217-4a82-81d2-70a7c076cf6f
-0.038771061668714,0.099358732872112,0.0558584631396555,0.1489402739143664,-0.1300175394159491,-0.098063466280332,-0.352011387348434,-0.3729945196863962,-15.083226703616376,29.679569377134253,17.968450394164908,-0.3615318771957627,0.3058638452099817,0.6180787115352281,-1.0,11.990555555555556,0.0,179.33677390889054,1.0104038526054762,93.01512728296788,1553.0,1435.0,1000.0,1528.0,1471.0,1011.0,242.0,294.13,1649157877.2573698,1649157878.4906242,00a36459-c577-47d9-9ab6-965d3ba37cca
-0.0297998154752825,0.1025500309927129,0.0662267579686714,0.1500770882489968,-0.1205943064813574,-0.1014465164365073,-0.3403693105492744,-0.3674611085210433,-14.85870903738202,29.572344422701217,18.16556835907037,-0.3717485143252168,0.3150125310198626,0.5754101140267629,-1.0,11.989333333333336,0.0,179.3757788425107,1.0340240222795885,93.44258632416413,1553.0,1435.0,1000.0,1528.0,1471.0,1011.0,242.0,294.13,1649157878.625111,1649157879.71271,00a36459-c577-47d9-9ab6-965d3ba37cca
-0.0390586893823335,0.0957154483531758,0.0633641772243364,0.1538573383042789,-0.1214161000659151,-0.0990222254320985,-0.3433277677224136,-0.3658586110765323,-15.012084672550763,29.63787787963613,18.03076454272943,-0.3746349288021099,0.2910132179502382,0.5835255279708197,-1.0,11.989,0.0,179.3810532663698,1.0465352805815955,93.78280260018192,1553.0,1435.0,1000.0,1528.0,1471.0,1011.0,242.0,294.13,1649157879.821072,1649157880.9440873,00a36459-c577-47d9-9ab6-965d3ba37cca
-0.0215857151602722,0.0763326267051296,0.0181101996007633,-0.4438429959537693,-0.2257718325826564,0.4941192776447781,-0.2183165210124319,-0.2470990208881632,-14.530476634273846,28.407533107104115,21.72594143970569,2.2969207545143844,0.2528568667889226,0.6078260441804095,-1.0,11.975888888888887,0.0,179.36326897159086,1.2297960150544038,94.1653197555494,1553.0,1522.0,1000.0,1528.0,1471.0,1011.0,242.0,294.13,1649157881.8515236,1649157882.99952,9f521e01-2ea1-41ff-b478-af3fe60f3ecc
-0.0207573473002038,0.078002511113804,0.0199247196941,-0.446236059230272,-0.2244175167383186,0.4954998906200873,-0.2165020007344048,-0.2396305601745433,-14.565077536492904,28.40749453911048,21.855620427987272,2.305514690342607,0.2586251712358163,0.6012643291149251,-1.0,11.97222222222222,0.0,179.36701798653533,1.2480517588975748,94.29250015462476,1553.0,1522.0,1000.0,1528.0,1471.0,1011.0,242.0,294.13,1649157883.1089458,1649157884.2234151,9f521e01-2ea1-41ff-b478-af3fe60f3ecc
-0.0141994348342717,0.0835529044498544,0.0277257316873957,-0.4481475513748217,-0.2192917160824889,0.4917240236861475,-0.2094164963189267,-0.2392476046085571,-14.39198807461528,28.438322443090936,21.897735759370008,2.30202831360975,0.2785745800569473,0.5743835479679195,-1.0,11.976,0.0,179.38078764790205,1.25157574519638,94.36624115363394,1553.0,1522.0,1000.0,1528.0,1471.0,1011.0,242.0,294.13,1649157884.3320484,1649157885.4499323,9f521e01-2ea1-41ff-b478-af3fe60f3ecc
-0.0041050709920683,0.0562008770856617,-0.0314570990894494,-1.078436066505317,-0.3398214481385526,1.125299378448691,-0.0935162085949924,-0.1131159855728506,-14.449314142094536,27.54651875643702,25.87485313063744,5.139279535484604,0.2149795030279398,0.6513040687769145,-1.0,11.966666666666669,0.0,179.35869426266677,1.4602292494444609,94.63874445204004,1553.0,1613.0,1000.0,1528.0,1471.0,1011.0,242.0,294.13,1649157887.792389,1649157888.9243548,9c53ff0c-a2e4-4902-bf8e-d0e1205d1ffa
0.0012535706703809,0.075701489282916,-0.016852184356032,-1.0785834415063182,-0.329357275652302,1.1032983233622975,-0.0839631324348343,-0.0994785952087125,-14.242716658264374,27.42433201041608,25.53775819947199,5.090140166547615,0.2905860192333085,0.6056193036731838,-1.0,11.958777777777778,0.0,179.36852214597252,1.4859425163601625,94.62871166305916,1553.0,1613.0,1000.0,1528.0,1471.0,1011.0,242.0,294.13,1649157889.0326426,1649157890.1545322,9c53ff0c-a2e4-4902-bf8e-d0e1205d1ffa
0.0003874003058641,0.0679799174548816,-0.0268687518297769,-1.0699852838335,-0.3363288251161266,1.105932445376334,-0.093269670515768,-0.1232377430305874,-14.295816500718672,27.43027585709753,25.887826603428227,5.076233771387906,0.2572050969947418,0.6416142630041094,-1.0,11.961222222222224,0.0,179.34336883598908,1.4907374158792177,94.62152630405234,1553.0,1613.0,1000.0,1528.0,1471.0,1011.0,242.0,294.13,1649157890.2648728,1649157891.387143,9c53ff0c-a2e4-4902-bf8e-d0e1205d1ffa
0.0185046604104193,0.0555971327765563,-0.0649632654993201,-1.655535659229933,-0.4380312709089511,1.6798423857468896,0.0221731467516179,-0.002059900809821,-14.396734622308712,27.041193249763783,29.398429704516865,7.682776906106305,0.2500342094104613,0.6661057420214225,-1.0,11.890888888888888,0.0,179.343262588602,1.699623964758823,94.5072344719408,1553.0,1710.0,1000.0,1528.0,1471.0,1011.0,242.0,294.13,1649157893.9347794,1649157895.0723867,fc4f4009-b021-48d9-b449-bf50040ab4bf
0.0189517161198712,0.0418304478133709,-0.0643058306462062,-1.6480540412271436,-0.4353620849631374,1.6863115454638822,0.0283267366691783,0.0143496722213314,-14.050786743290196,27.004915729373177,29.404699215957915,7.6804046631074065,0.1950165854676042,0.6514781477715791,-1.0,11.886555555555557,0.0,179.35248941526078,1.7068943928231517,94.30355064179192,1553.0,1710.0,1000.0,1528.0,1471.0,1011.0,242.0,294.13,1649157895.1813476,1649157896.3028147,fc4f4009-b021-48d9-b449-bf50040ab4bf
0.0175185082285279,0.0430795739668345,-0.0544180106706935,-1.6504471070802582,-0.4266707948597,1.6863641402711316,0.0383328945849186,0.012061799053004,-14.024114522121316,27.03381175537905,29.349040455976034,7.68660947737942,0.2009280535126602,0.6119739256304721,-1.0,11.898111111111112,0.0,179.33160573241852,1.7000171512388562,94.14339408940374,1553.0,1710.0,1000.0,1528.0,1471.0,1011.0,242.0,294.13,1649157896.4106522,1649157897.5315783,fc4f4009-b021-48d9-b449-bf50040ab4bf
0.0199323897167567,0.0299034845109487,-0.0786828349100129,-2.052878933093792,-0.5034542685139208,2.087071877091025,0.1116308491595496,0.0960989518307705,-14.0747542318625,27.83730893518397,31.975069110614527,9.499352235563425,0.1766170344960707,0.643486479619319,-1.0,11.814777777777778,0.0,179.3244249268711,1.832851784866192,93.89547340073044,1553.0,1814.0,1000.0,1528.0,1471.0,1011.0,242.0,294.13,1649157899.2541049,1649157900.4013135,453206d7-26c0-45d4-bd52-d0858ee56644
0.0274654969771609,0.0250138130605724,-0.0800250978819895,-2.0339639494986645,-0.5017832881125784,2.072854842586311,0.1068096604970362,0.0856895673525696,-14.081986287107496,27.86712039545687,31.725085410635483,9.424824390705927,0.1581311535286389,0.6491088663766834,-1.0,11.828666666666669,0.0,179.32908008024543,1.824450889346422,93.66767520826188,1553.0,1814.0,1000.0,1528.0,1471.0,1011.0,242.0,294.13,1649157900.5117066,1649157901.6260908,453206d7-26c0-45d4-bd52-d0858ee56644
0.0316840370839073,0.0358067013043344,-0.0644658065800228,-2.036895019463039,-0.4885387125107297,2.0644451524958405,0.1191365630621509,0.0995367879617322,-14.161196883854862,27.857607998378903,31.757114525485616,9.413215392944634,0.200234898584503,0.59358329124546,-1.0,11.818222222222223,0.0,179.33220527124567,1.842321533843264,93.4729032571601,1553.0,1814.0,1000.0,1528.0,1471.0,1011.0,242.0,294.13,1649157901.7346811,1649157902.8557022,453206d7-26c0-45d4-bd52-d0858ee56644
-0.0723002383263539,0.0865661473176293,0.0965920281018151,0.7088281531619374,-0.0369357226658312,-0.6211625280887197,-0.4671857721831782,-0.4866896771941178,-15.41766527337929,31.76738521512745,14.807859275686148,-2.784778718014952,0.2219467019284627,0.5975701133608515,-1.0,11.986333333333333,0.0,179.33045067153887,0.920184429325274,93.3383341112226,1553.0,1349.0,1000.0,1528.0,1471.0,1011.0,242.0,294.13,1649157903.7660334,1649157905.0146744,fbcbabea-e6f0-4c60-a0dc-2911bc27575e
-0.0769433719345411,0.0874701201905324,0.0931952816050721,0.6935017055854059,-0.0416473389748765,-0.6058223773623229,-0.4657202401039968,-0.484868033951613,-15.37168747113554,31.67290978907977,15.10147117345241,-2.716460117173382,0.2240795312757448,0.6069910776977321,-1.0,11.984,0.0,179.3457002072258,0.901506423266228,93.77851779484256,1553.0,1349.0,1000.0,1528.0,1471.0,1011.0,242.0,294.13,1649157905.1264794,1649157906.2352505,fbcbabea-e6f0-4c60-a0dc-2911bc27575e
-0.0788351406109362,0.0919664263721444,0.0911512072205636,0.6865241314563868,-0.0430838340935839,-0.6050460561779683,-0.4680234539315206,-0.4852219529030275,-15.589350681864056,31.54603060399972,14.91079069277455,-2.700058762489041,0.244901329693792,0.6151270120492534,-1.0,11.982222222222225,0.0,179.35587567126927,0.8998285920398013,94.13356924173765,1553.0,1349.0,1000.0,1528.0,1471.0,1011.0,242.0,294.13,1649157906.343021,1649157907.4625251,fbcbabea-e6f0-4c60-a0dc-2911bc27575e
-0.0869829498731924,0.1116034560557151,0.1437492783496953,1.2756328024972865,0.0568172222316807,-1.1894741507222,-0.5948514303574798,-0.6102326711250156,-16.105617178739674,33.97552159531412,11.371952421334262,-5.324331119064669,0.2844145250407562,0.5891292931974511,-1.0,11.952666666666666,0.0,179.3700005024729,0.696806904856497,94.60638225684258,1553.0,1264.0,1000.0,1528.0,1471.0,1011.0,242.0,294.13,1649157908.373736,1649157909.5118306,a1ddc23b-c69b-4381-98f8-1887119d46db
-0.0877773502982117,0.0986328152976559,0.1338055770735448,1.274564470915523,0.0507496467793096,-1.1740655099805026,-0.6005902902697399,-0.6316540963080893,-16.30803382281646,33.95371250421236,11.55673511275945,-5.288008092607464,0.2350624540079144,0.617668023064771,-1.0,11.95133333333333,0.0,179.38657964831822,0.7021116198930533,94.84848590107276,1553.0,1264.0,1000.0,1528.0,1471.0,1011.0,242.0,294.13,1649157909.6204307,1649157910.739823,a1ddc23b-c69b-4381-98f8-1887119d46db
-0.0903933931304804,0.1122334977491441,0.1490224532562461,1.2681133918203156,0.0604878999132418,-1.1834750532421945,-0.5873046242026518,-0.6112599134640168,-16.01260948306135,33.968506264670296,11.377146340642048,-5.293624688716545,0.2873332178662192,0.5662822872200591,-1.0,11.937,0.0,179.38969573239956,0.7043506353513644,95.08364324291703,1553.0,1264.0,1000.0,1528.0,1471.0,1011.0,242.0,294.13,1649157910.848251,1649157912.1806848,a1ddc23b-c69b-4381-98f8-1887119d46db
-0.1044619509865192,0.138460215431606,0.1963013282890389,1.821072562753852,0.1502940417151724,-1.7392798204529527,-0.7149823454969266,-0.7473018549488427,-16.785978045312515,36.46956217287719,8.069696497026658,-7.771915173310866,0.355445447354276,0.5630922868096595,-1.0,11.923000000000002,0.0,179.3634769129056,0.4835021010734739,95.4352507566506,1553.0,1178.0,1000.0,1528.0,1471.0,1011.0,242.0,294.13,1649157913.2904904,1649157914.4290545,5776f0b4-0cde-4dd2-8003-194f0db6dc52
-0.1032917169626617,0.1272312291055765,0.1947760795740333,1.8181798488271568,0.150333487794893,-1.7237511882306966,-0.7132335682024035,-0.7368749338650155,-16.932580887133177,36.58769744995791,8.334521226136678,-7.729819405112643,0.3122818713090475,0.5614661875049985,-1.0,11.912999999999998,0.0,179.3554977341352,0.4882845556558378,95.5785147334015,1553.0,1178.0,1000.0,1528.0,1471.0,1011.0,242.0,294.13,1649157914.53836,1649157915.655019,5776f0b4-0cde-4dd2-8003-194f0db6dc52
-0.1033443117529851,0.1235890403196214,0.1867159291116348,1.820664953093483,0.1437196937871846,-1.7226992911450216,-0.7206625845375156,-0.7451586160472436,-16.939121875308757,36.56380549339298,8.242791152043129,-7.73363907749959,0.2986634004902344,0.5914955613510865,-1.0,11.918333333333331,0.0,179.37552992006096,0.4710573778260375,95.6956684147753,1553.0,1178.0,1000.0,1528.0,1471.0,1011.0,242.0,294.13,1649157915.7635934,1649157916.880307,5776f0b4-0cde-4dd2-8003-194f0db6dc52
-0.1078806122204638,0.1506490565096917,0.2145122717590736,2.1055841533466344,0.1808910568100718,-2.0189530412348216,-0.7971485841403658,-0.8238930456126866,-17.27727788637351,38.9284066870519,6.981097386213426,-9.025380761683794,0.3804532487291031,0.6146631109667888,-1.0,11.827375,0.0,179.36307279337973,0.3493956689545176,95.9685812399404,1553.0,1088.0,1000.0,1528.0,1471.0,1011.0,242.0,294.13,1649157918.8185136,1649157919.7632606,1bed423e-352c-45bf-bcd1-a38600722be9
-0.1157046348440653,0.1411195391752018,0.2052879138686187,2.096988189710121,0.1728955540456168,-2.0009551839304835,-0.8010805940309053,-0.8186395907816818,-17.314843962692702,38.926323460961655,7.036555100974144,-8.96602997618868,0.3449596646317364,0.6425497938076256,-1.0,11.832555555555556,0.0,179.36696486284174,0.3491386137919995,95.97287088333036,1553.0,1088.0,1000.0,1528.0,1471.0,1011.0,242.0,294.13,1649157919.8733826,1649157920.9887638,1bed423e-352c-45bf-bcd1-a38600722be9
-0.1199642648569582,0.1315319484101815,0.2069725905289094,2.104028223503865,0.1770045215049001,-1.996161378884872,-0.797067500387631,-0.8284737244239612,-17.286942003924345,38.93680127246282,7.325638917311868,-8.970924776496505,0.3054809426500183,0.6282676092455552,-1.0,11.839000000000002,0.0,179.3556996041707,0.3426394812823044,95.98435243132516,1553.0,1088.0,1000.0,1528.0,1471.0,1011.0,242.0,294.13,1649157921.1000068,1649157922.1125677,1bed423e-352c-45bf-bcd1-a38600722be9
-0.0536318282061626,0.0715410226671882,0.0508455226919272,0.0541053036213502,-0.143673009299517,0.0249179371469761,-0.3252620039765214,-0.3461492594492188,-15.114489927085431,29.993386120105047,19.2414614161178,0.1307661216780052,0.2018328708753019,0.6028730652481221,-1.0,11.984625,0.0,179.36023143468498,0.970270593375161,96.00004279880474,1553.0,1435.0,1000.0,1528.0,1471.0,1011.0,242.0,294.13,1649157923.7538311,1649157924.9807284,2954b577-dd17-4605-bceb-deaa8b2b274c
-0.036524826002502,0.0955099999466357,0.0681716692733326,0.0456408304185527,-0.1324692235861508,0.0062221344382761,-0.3137294998476164,-0.3291107381307506,-15.0120327995866,29.93813244917536,18.92572051151085,0.1083456209732558,0.2959439520619817,0.5500508650559081,-1.0,11.986666666666666,0.0,179.37043004548067,1.011237716724616,96.02846634644452,1553.0,1435.0,1000.0,1528.0,1471.0,1011.0,242.0,294.13,1649157925.0908556,1649157926.2031295,2954b577-dd17-4605-bceb-deaa8b2b274c
-0.0438464585348657,0.0797381390025449,0.0612773695670149,0.0567147719624505,-0.1358347421899866,0.0127981262391473,-0.31737881145762,-0.338127457636861,-14.909622124953469,29.99133372547728,19.071450574143764,0.098226822329534,0.2329738460526517,0.5676723780388965,-1.0,11.988,0.0,179.35992976799668,1.007208581018445,96.04724481320264,1553.0,1435.0,1000.0,1528.0,1471.0,1011.0,242.0,294.13,1649157926.3115969,1649157927.6370122,2954b577-dd17-4605-bceb-deaa8b2b274c
0.0405594070954588,0.1294637681084486,0.3169696465413855,0.0286160079870351,0.0925241502380135,-0.0218558112505209,-0.0557410982748595,-0.0779295246456753,-13.104326780135182,29.789685812888504,19.37751973943693,0.0960912738552949,0.4236507345560503,-0.4568664000865367,-1.0,11.989111111111113,0.0,179.3128105696425,1.013919111440342,96.03434789822984,1553.0,1435.0,1000.0,1435.0,1471.0,1011.0,242.0,294.13,1649157929.159588,1649157930.2994316,b07b91a1-e28b-4a85-ae6d-f0ca9a67c524
0.0361217221121528,0.1222867715586072,0.3097652571994823,0.0340535417920461,0.0873331545946729,-0.0197465411765469,-0.0628496124621709,-0.0831890033720836,-13.178142273887318,29.85539436530385,19.33400804902397,0.0885981078724391,0.3965156425597997,-0.4308153899612708,-1.0,11.990333333333334,0.0,179.32787341349206,1.018221964605908,96.09755598662896,1553.0,1435.0,1000.0,1435.0,1471.0,1011.0,242.0,294.13,1649157930.4078138,1649157931.629858,b07b91a1-e28b-4a85-ae6d-f0ca9a67c524
0.0402443862328086,0.1262313803474886,0.3169696465368186,0.0322045063606427,0.0939211991971134,-0.0219379906081451,-0.0560972088197165,-0.0795183254244693,-13.200468842482143,29.80763161219513,19.384271990554,0.0878834784761055,0.4117064234194328,-0.4586869369825533,-1.0,11.989666666666668,0.0,179.29484717212532,1.0152750344282302,96.12182137202028,1553.0,1435.0,1000.0,1435.0,1471.0,1011.0,242.0,294.13,1649157931.738202,1649157933.0769994,b07b91a1-e28b-4a85-ae6d-f0ca9a67c524
0.1778537080339498,0.2047427908905245,0.6984368490988144,-0.0045318557277363,0.4302560655296363,-0.0885388789463213,0.3279723652291022,0.31325897496727,-10.31377992842684,29.84855770085033,18.975059088050106,0.0417443007710861,0.7180742297053182,-1.972999653820916,-1.0,11.966333333333331,0.0,179.23239647581417,1.0202227238560622,96.100115030838,1553.0,1435.0,1000.0,1330.0,1471.0,1011.0,242.0,294.13,1649157934.7929146,1649157935.9267142,bba77a91-5d69-476f-8d50-fc050d7a1113
0.1515426199399657,0.1729777334927913,0.6765179745871955,0.011659668253305,0.4183926553258825,-0.0700676991616858,0.3115732028075783,0.2847827357672494,-10.64118448235638,29.87897305714417,19.149625842783223,0.0457006301973102,0.5963235125695614,-1.9073113487748987,-1.0,11.97488888888889,0.0,179.23022144001848,1.0194522880040582,96.1042935887902,1553.0,1435.0,1000.0,1330.0,1471.0,1011.0,242.0,294.13,1649157936.0357895,1649157937.1590395,bba77a91-5d69-476f-8d50-fc050d7a1113
0.1496103095277126,0.1801678786303235,0.6782010075440675,0.008616840752109,0.4181987120687816,-0.0737728923426152,0.3117337264468016,0.2888812937508051,-10.609389336740046,29.87211092757726,19.23305804725105,0.0443060581013372,0.6228076487909147,-1.908583847958482,-1.0,11.97177777777778,0.0,179.2345639225108,1.0160924515467125,96.1054539620392,1553.0,1435.0,1000.0,1330.0,1471.0,1011.0,242.0,294.13,1649157937.2670486,1649157938.3334217,bba77a91-5d69-476f-8d50-fc050d7a1113
0.2783590502544575,0.2395156122733802,1.0734716031625116,0.0091805911001349,0.7719829787799021,-0.1559725198965844,0.7027057920684364,0.6840921707527269,-7.80541209346709,30.42955753683945,18.89371925373983,-0.1169445873318248,0.8535575148456331,-3.477469536969577,-1.0,11.953666666666669,0.0,179.19342189859026,1.0185537623891827,96.05341399184296,1553.0,1435.0,1000.0,1210.0,1471.0,1011.0,242.0,294.13,1649157940.2337942,1649157941.4592984,2b61e7e0-019e-4e43-9d5a-f3e206398e45
0.2825091072877539,0.242857572392051,1.0625965362020915,0.0068247830167941,0.7619707953900728,-0.156164271703889,0.6905295526615912,0.6705325790908784,-7.992223357846917,30.37275738645293,18.93648034415466,-0.1130666138429563,0.866634776775161,-3.431335594845612,-1.0,11.954888888888888,0.0,179.17494244233583,1.020478950813676,96.0450955803438,1553.0,1435.0,1000.0,1210.0,1471.0,1011.0,242.0,294.13,1649157941.5674849,1649157942.6978433,2b61e7e0-019e-4e43-9d5a-f3e206398e45
0.2861934813069797,0.2458982082484021,1.0655275995709066,0.0049346579124903,0.7632856648890076,-0.1573284792517195,0.6948850578698295,0.6659168392726096,-7.741516221593087,30.30736560109951,18.974562057175124,-0.1115743571246382,0.8763444688294975,-3.442715949139361,-1.0,11.948666666666666,0.0,179.18081033374278,1.0262516820329697,96.01997186784678,1553.0,1435.0,1000.0,1210.0,1471.0,1011.0,242.0,294.13,1649157942.8061812,1649157943.923349,2b61e7e0-019e-4e43-9d5a-f3e206398e45
0.3740453935165128,0.2934570398370509,1.3531761444018562,0.0557549170961653,1.0217764112295726,-0.2668615133341884,0.9577422649486276,0.9435548228424204,-6.010266715913341,31.37537521172021,18.77818771804499,-0.4501046579173989,1.0562025402010784,-4.554443350452755,-1.0,11.934666666666669,0.0,179.15272004241623,1.0053332316305514,95.9037744129568,1553.0,1435.0,1000.0,1071.0,1471.0,1011.0,242.0,294.13,1649157944.9306517,1649157946.067633,3de90d1b-60d8-46bb-bdd9-81fc2e3b9df7
0.3730592413822174,0.2836612617206733,1.3427623764557095,0.0555576866502672,1.0134269895530352,-0.2566975698761081,0.950681415459904,0.9364808246057492,-6.011868134306887,31.38153573457639,18.765463555203333,-0.4273005479778096,1.0189507352713083,-4.520031493179471,-1.0,11.93611111111111,0.0,179.15588621455151,1.0038401356768327,95.85288722691048,1553.0,1435.0,1000.0,1071.0,1471.0,1011.0,242.0,294.13,1649157946.177624,1649157947.2318797,3de90d1b-60d8-46bb-bdd9-81fc2e3b9df7
0.3629347460424522,0.2800979652748652,1.35079623006144,0.061974250409607,1.0227099685024783,-0.2606158818264488,0.9576765213545608,0.9350870629654372,-6.082115786993993,31.420456841306635,18.609935707828207,-0.4499818218108387,1.0071817893546515,-4.554245169569325,-1.0,11.937666666666669,0.0,179.144929073303,0.9997706828818108,95.86081783544677,1553.0,1435.0,1000.0,1071.0,1471.0,1011.0,242.0,294.13,1649157947.3445275,1649157948.5321133,3de90d1b-60d8-46bb-bdd9-81fc2e3b9df7
-0.1577667693359101,0.0261572017842162,-0.3136445811445327,0.1087310138240807,-0.4755182125879292,0.0330865647310165,-0.714942899305763,-0.7274867621213831,-17.66368093885001,30.625298477599586,18.33486132492713,0.0105120342078125,0.0278720641755474,2.09818770429229,-1.0,11.989777777777778,0.0,179.38761783707207,1.0374744180332738,96.1506523594168,1553.0,1435.0,1000.0,1613.0,1471.0,1011.0,242.0,294.13,1649157949.296437,1649157950.3742688,af02d28b-7e62-4871-9bd7-c9c0b548dde6
-0.1606156536283024,0.0262191102379127,-0.3034570793986447,0.1129594153317472,-0.4650217154917693,0.0294378015093707,-0.7046567798276923,-0.7280094225947625,-17.600891187976714,30.58123081376485,18.45724898076209,-0.0069592060129404,0.0266996085884873,2.0556383465739323,-1.0,11.986555555555556,0.0,179.38806559391767,1.0266826835707517,96.06403493600232,1553.0,1435.0,1000.0,1613.0,1471.0,1011.0,242.0,294.13,1649157950.483237,1649157951.5983994,af02d28b-7e62-4871-9bd7-c9c0b548dde6
-0.1586159558955868,0.0264793448462879,-0.3069633988636333,0.1108227522246099,-0.4684732490353896,0.0323551685343053,-0.708190493247133,-0.7243798323838696,-17.678414224080043,30.59831478436369,18.60154081037376,0.0043389339446235,0.0269865574752354,2.0703052539572577,-1.0,11.989333333333333,0.0,179.3581766861097,1.0270171493966709,96.01465873958242,1553.0,1435.0,1000.0,1613.0,1471.0,1011.0,242.0,294.13,1649157951.7072542,1649157952.8278294,af02d28b-7e62-4871-9bd7-c9c0b548dde6
-0.2498865443831111,-0.013472969324884,-0.5846261244209416,0.1729097985132072,-0.7196764319619254,0.0268409339301094,-1.0096973757526684,-1.027697952533254,-19.61684036412436,31.296215533891218,18.152536320862275,-0.1583520623547297,-0.1303944368830913,3.2136543374532165,-1.0,11.963111111111113,0.0,179.39000536764195,1.025889883592403,95.95769799754412,1553.0,1435.0,1000.0,1694.0,1471.0,1011.0,242.0,294.13,1649157953.947965,1649157955.0979755,d8c9b381-6045-4b02-874a-8d0f2b9d5fce
-0.2595245399435382,-0.0287517547574513,-0.5895305896698035,0.1793395107603887,-0.7202681235638826,0.0377412032176993,-1.0103942570576476,-1.041359457635223,-19.67226469397128,31.2759851265998,18.39442217854032,-0.1487292180107766,-0.1905536153889611,3.2206561230462154,-1.0,11.958888888888888,0.0,179.39872524248233,1.0322015238519913,95.89903577949264,1553.0,1435.0,1000.0,1694.0,1471.0,1011.0,242.0,294.13,1649157955.2095802,1649157956.262396,d8c9b381-6045-4b02-874a-8d0f2b9d5fce
-0.259432499055027,-0.0244652796465167,-0.5887679649770489,0.176565135976015,-0.7205179488061251,0.0356111144388582,-1.0108150155736622,-1.0359421911732911,-19.70617076829586,31.277265658727902,18.327019767247933,-0.1472388514909778,-0.1732494098637418,3.2209309590367043,-1.0,11.961222222222224,0.0,179.38835853314205,1.0287004827199286,95.82937088559812,1553.0,1435.0,1000.0,1694.0,1471.0,1011.0,242.0,294.13,1649157956.371087,1649157957.5528748,d8c9b381-6045-4b02-874a-8d0f2b9d5fce
-0.3500253861142258,-0.0606855561264067,-0.858345933251699,0.2572115650262666,-0.96527502566001,0.0114405233358645,-1.3134828999398642,-1.3431496747489868,-21.719100631876284,32.35641864828015,18.19748775207235,-0.3907752357346232,-0.320703212232629,4.346989138044972,-1.0,11.907222222222222,0.0,179.41789530675285,1.0156993599304174,95.71333887306804,1553.0,1435.0,1000.0,1774.0,1471.0,1011.0,242.0,294.13,1649157959.2537296,1649157960.4125023,62edd246-26e1-498f-8f70-2c911c0ee923
-0.3465053699900873,-0.0544536217301972,-0.8475393432300798,0.2542531085268232,-0.9566461887717624,0.0073589488175433,-1.302320194669316,-1.326713789037995,-21.528007305175446,32.28248153615848,18.1824922210608,-0.3931317664957603,-0.2975012002638351,4.305483420801289,-1.0,11.904666666666666,0.0,179.4178133444828,1.022064965799229,95.54046223171557,1553.0,1435.0,1000.0,1774.0,1471.0,1011.0,242.0,294.13,1649157960.527827,1649157961.633517,62edd246-26e1-498f-8f70-2c911c0ee923
-0.3450809276395776,-0.0602335696688067,-0.8557572826081867,0.2521575351725095,-0.9620700292829002,0.0147687871191518,-1.3087575831610117,-1.3335757718140744,-21.748049728327885,32.216954453082366,18.10203757494508,-0.3727209445392676,-0.3171731204343128,4.332280103119797,-1.0,11.90577777777778,0.0,179.4021524796259,1.0163177766415188,95.4237798333945,1553.0,1435.0,1000.0,1774.0,1471.0,1011.0,242.0,294.13,1649157961.742056,1649157962.863099,62edd246-26e1-498f-8f70-2c911c0ee923
-0.4404363872113395,-0.10493913906338309,-1.1022543990873888,0.3687426343312272,-1.179968731656291,-0.035716728992384185,-1.5947146434145048,-1.6200670067883038,-23.71623040216828,33.447904035641564,17.905435433729885,-0.7542919291268348,-0.4991332553982614,5.365664600397399,-1.0,11.889666666666667,0.0,179.4301577730427,1.0017695448571955,95.18659468427666,1553.0,1435.0,1000.0,1846.888888888889,1471.0,1011.0,242.0,294.13,1649157964.7327003,1649157965.7348168,c7153024-4bcc-4300-8399-a265467f2184
-0.42452098264084565,-0.09402298127825282,-1.0861335383280448,0.36466106018466055,-1.168874510721991,-0.04260609814299813,-1.5815522347023465,-1.6075209429225907,-23.55837414883759,33.583497446479974,18.02246922948289,-0.758766537185612,-0.4588187567452495,5.3113437742834755,-1.0,11.879,0.0,179.43784856604816,0.9929412763376404,95.05983623911003,1553.0,1435.0,1000.0,1856.0,1471.0,1011.0,242.0,294.13,1649157965.8438215,1649157966.9592876,c7153024-4bcc-4300-8399-a265467f2184
-0.4281231783540384,-0.10784280967959785,-1.0976934417837103,0.3704957936801169,-1.1735313439507418,-0.03390878320553241,-1.5904002220697084,-1.6129310895453661,-23.93936761967211,33.44270731865107,18.022848486404957,-0.7540848812213002,-0.509411903378715,5.344212457842829,-1.0,11.871333333333332,0.0,179.43669654080816,0.9897817090901769,94.94510727489157,1553.0,1435.0,1000.0,1856.0,1471.0,1011.0,242.0,294.13,1649157967.0677395,1649157968.1857755,c7153024-4bcc-4300-8399-a265467f2184
