raw_voltage_G-,raw_voltage_G0,raw_voltage_G1,raw_voltage_G2,raw_voltage_G3,raw_voltage_G4,raw_voltage_G5,raw_voltage_G6,load_x,load_y,load_z,load_l,load_m,load_n,rpm,voltage,current,roll,pitch,yaw,aileron1_pwm,elevator_pwm,throttle_pwm,rudder_pwm,aileron2_pwm,pbaro,pdiff,Tt,sample_start_time,sample_end_time,uid
-0.4219372632333824,-0.206180273111525,-0.8498748814595075,0.088021817486876,-0.8841272530045579,0.3188734680201532,-1.2332253780131643,-1.2509235384685389,-30.374767603330856,30.095275877732817,19.90183504125044,0.6630653125365801,-0.7989102137287913,4.088836734778331,-1.0,11.978000000000002,0.0,179.48284585230022,1.1367625064042872,94.53068327027134,1553.0,1435.0,1000.0,1528.0,1471.0,1011.0,242.0,294.13,1649159216.3334444,1649159217.6763544,fa890aea-4aaa-421b-bb96-483cf94f3f91
-0.4150566586508157,-0.2008287532240304,-0.8340482262688808,0.0923734880517936,-0.8700975867491644,0.3105459609517303,-1.219538121696668,-1.243822141256002,-30.26754696458812,30.1348269088802,20.145517860579684,0.6356790565367378,-0.7812891839406361,4.029754745306192,-1.0,11.979777777777777,0.0,179.47807989807933,1.1042468216780108,95.10457094253395,1553.0,1435.0,1000.0,1528.0,1471.0,1011.0,242.0,294.13,1649159217.7852657,1649159218.903966,fa890aea-4aaa-421b-bb96-483cf94f3f91
-0.4066716237335246,-0.2016308237585761,-0.8450098614056302,0.0831962460080651,-0.8808532258907562,0.3204118653960087,-1.2273873519442902,-1.2574452976752386,-30.279228681518024,30.04334182296841,20.16369748581227,0.6773954064775132,-0.7839424271576667,4.070399362468326,-1.0,11.97675,0.0,179.4658261592534,1.102689031619145,95.5902425476614,1553.0,1435.0,1000.0,1528.0,1471.0,1011.0,242.0,294.13,1649159219.011874,1649159220.1322217,fa890aea-4aaa-421b-bb96-483cf94f3f91
-0.1899536847201798,0.1945224193530488,-0.8054224050409967,-0.1935421833834717,-0.94359336077278,0.2016309329376567,-1.248068077581953,-1.268832079616686,-29.6383421246135,28.837169832129224,22.31442405964442,1.0293736621622638,0.7148368225118474,4.180821328261319,-1.0,11.953333333333331,0.0,179.30374918534358,1.0907338615875717,96.4902440525805,1616.0,1435.0,1000.0,1528.0,1519.0,1011.0,242.0,294.13,1649159222.2725842,1649159223.408993,50e44c90-d5e2-4412-a669-6dd2bd9cbeae
-0.1758330793502215,0.2086742509312384,-0.8073256796641253,-0.2024986379573229,-0.9488451721572956,0.1976424952125435,-1.2518176506167105,-1.2755773663403105,-29.5867055422897,28.76701130393263,22.524878962328103,1.0401143577633682,0.7666649515997392,4.197903026312719,-1.0,11.952333333333334,0.0,179.30491335314213,1.0752859302496085,96.68206687978068,1616.0,1435.0,1000.0,1528.0,1519.0,1011.0,242.0,294.13,1649159223.517288,1649159224.638127,50e44c90-d5e2-4412-a669-6dd2bd9cbeae
-0.184790081713595,0.1937280189666896,-0.8116543421867539,-0.194514639195349,-0.9485241247694716,0.2048222308992363,-1.2546150383387475,-1.2698319286130084,-29.82966872842699,28.82843556839468,22.48196668386325,1.0383007458199307,0.7114510851015653,4.205354940932788,-1.0,11.95188888888889,0.0,179.30650706394843,1.08779536242465,96.9192300205112,1616.0,1435.0,1000.0,1528.0,1519.0,1011.0,242.0,294.13,1649159224.746375,1649159225.8686073,50e44c90-d5e2-4412-a669-6dd2bd9cbeae
0.1212732261492587,0.7172241427617901,-0.7567722068093808,-0.5579528902880205,-1.0325525639181772,0.0307937607888634,-1.2849255491942404,-1.3086480117256885,-28.81347202647807,27.54476618624296,23.18859267128876,1.461910520728302,2.70962912583455,4.350540580742099,-1.0,11.922999999999998,0.0,179.1275363760365,1.0956266367687948,97.17450454619087,1679.0,1435.0,1000.0,1528.0,1567.0,1011.0,242.0,294.13,1649159226.778059,1649159227.9208715,754d47b0-ad33-4f48-81dd-8e5e4071fea4
0.1166574860490937,0.7100608433106445,-0.7685649489792388,-0.5530084311017948,-1.0412498845050624,0.0373818055412271,-1.2956636609410277,-1.3252208627787112,-28.96491625067682,27.54841641463856,23.688329882033823,1.4650016742244656,2.6780488205201465,4.393524256682264,-1.0,11.926333333333332,0.0,179.12722522297432,1.089076912241576,97.30807193105014,1679.0,1435.0,1000.0,1528.0,1567.0,1011.0,242.0,294.13,1649159228.0297763,1649159229.1483257,754d47b0-ad33-4f48-81dd-8e5e4071fea4
0.1129254477673477,0.7159509107968033,-0.7548492094197181,-0.5568429207980999,-1.0294204331474872,0.0323633864174058,-1.2815863256090307,-1.2968651260028126,-28.816911229900413,27.450482853174385,23.40096436457459,1.4624367187642004,2.702979476519041,4.33909039857361,-1.0,11.925666666666665,0.0,179.12557231719518,1.0932414659344163,97.37584638036434,1679.0,1435.0,1000.0,1528.0,1567.0,1011.0,242.0,294.13,1649159229.256833,1649159230.375358,754d47b0-ad33-4f48-81dd-8e5e4071fea4
0.3794758046511525,1.1565636897503575,-0.732930323415498,-0.8552658497866785,-1.1237229486240683,-0.1152833286753671,-1.3369160906659063,-1.3628321966021262,-28.244213831495703,26.64045416527355,24.597097423872047,1.8000244375671697,4.379008632323024,4.5695513592488455,-1.0,11.887,0.0,178.83331307606977,1.1310514721889025,97.40459350821608,1745.0,1435.0,1000.0,1528.0,1614.0,1011.0,242.0,294.13,1649159231.284496,1649159232.6273224,2ae4e759-eb43-4a74-a7c9-3c99db98464d
0.3814119499952497,1.1670601840701975,-0.7219829334128978,-0.8603867217992317,-1.117389107192354,-0.1211969552415365,-1.3300146619882576,-1.3529427234466125,-28.23185272671605,26.82443145464602,24.61456752890536,1.8000608834273082,4.419462157113323,4.537358730066488,-1.0,11.887,0.0,178.81663071847697,1.1289594540223382,97.40848405985828,1745.0,1435.0,1000.0,1528.0,1614.0,1011.0,242.0,294.13,1649159232.7365048,1649159233.8607795,2ae4e759-eb43-4a74-a7c9-3c99db98464d
0.3715093389127946,1.153541681165225,-0.7202708629295377,-0.84973079373655,-1.111513279284475,-0.1176632428394596,-1.325001716830464,-1.3415471758732451,-28.19147140378056,26.762495644757006,24.655230217911907,1.7836659225416518,4.366908863500117,4.518453236028564,-1.0,11.879666666666669,0.0,178.8121258292644,1.1318010854503116,97.40981291110684,1745.0,1435.0,1000.0,1528.0,1614.0,1011.0,242.0,294.13,1649159233.9736483,1649159235.0832694,2ae4e759-eb43-4a74-a7c9-3c99db98464d
0.6530870001606257,1.6093390652969095,-0.6731957727145391,-1.1659697422002813,-1.1894664807215805,-0.2718185726619422,-1.3569678717159028,-1.373377461726011,-27.30142296637117,26.09901034152888,24.89289999905385,2.1490475166531464,6.109929011913156,4.659581447164536,-1.0,11.837,0.0,178.41456783843464,1.1882635912761623,97.35833605206216,1813.0,1435.0,1000.0,1528.0,1662.0,1011.0,242.0,294.13,1649159235.7265985,1649159236.7214992,37da43d1-5cdb-42be-8f1b-c8b2610d225f
0.6404116582118158,1.6178857190645106,-0.6749839960722468,-1.1735565459322737,-1.190307997979262,-0.2764863603861986,-1.3593477880887068,-1.388774600178451,-27.50782029376758,25.82879901796978,24.415245796243536,2.1536120037303967,6.148494578051277,4.666814159362195,-1.0,11.835888888888888,0.0,178.39947615600852,1.143012663103378,97.33820444893848,1813.0,1435.0,1000.0,1528.0,1662.0,1011.0,242.0,294.13,1649159236.8296156,1649159238.16018,37da43d1-5cdb-42be-8f1b-c8b2610d225f
0.6485769977867615,1.595717014181266,-0.675049739514305,-1.156081914607596,-1.1880595690213944,-0.2682947214767862,-1.3554426213243371,-1.3826078548157663,-27.161077894530667,26.0798632923108,24.78907031287796,2.1344964160713342,6.057429690517401,4.6564187020012575,-1.0,11.83522222222222,0.0,178.3831216474959,1.1852905261385354,97.3461380931144,1813.0,1435.0,1000.0,1528.0,1662.0,1011.0,242.0,294.13,1649159238.268884,1649159239.3845527,37da43d1-5cdb-42be-8f1b-c8b2610d225f
-0.6786880947243191,-0.6899329735410937,-0.8327607490921011,0.4552637879072762,-0.7448698923449492,0.4462240600145415,-1.139303617357876,-1.166011928877947,-30.11399476009573,31.49585821078979,19.107295791519267,0.1309725976908121,-2.6521873135712686,3.685282951406169,-1.0,11.974777777777778,0.0,179.63848309618754,1.021139404018888,97.24097898283308,1491.0,1435.0,1000.0,1528.0,1420.0,1011.0,242.0,294.13,1649159241.318843,1649159242.4567516,5e2d87d2-8f7d-477f-b85a-d1c79ba3f0aa
-0.6710591087406366,-0.6744558564521762,-0.8211871513821931,0.4516752898863962,-0.7371861196765946,0.4335273512860194,-1.1308391376881752,-1.1637793872083932,-29.953921856677784,31.42422197497662,19.06559509300889,0.1107115021592693,-2.5937277685092552,3.648913469085359,-1.0,11.97488888888889,0.0,179.5947046192474,1.0241520747673272,97.15923072538692,1491.0,1435.0,1000.0,1528.0,1420.0,1011.0,242.0,294.13,1649159242.565204,1649159243.8904226,5e2d87d2-8f7d-477f-b85a-d1c79ba3f0aa
-0.6758392094458108,-0.6841941132765945,-0.8296242355109564,0.4584961754798152,-0.741253999239012,0.4377184978741845,-1.1386598785496371,-1.154273968007882,-30.208147607781743,31.410796090695413,19.13672658173072,0.1041175771135624,-2.630458132480176,3.6758993359270846,-1.0,11.97011111111111,0.0,179.60607005402633,1.0205265368364873,97.10126746336049,1491.0,1435.0,1000.0,1528.0,1420.0,1011.0,242.0,294.13,1649159243.9990046,1649159245.1188655,5e2d87d2-8f7d-477f-b85a-d1c79ba3f0aa
-0.8891769029325323,-1.0612879631993843,-0.8573734772393736,0.7291401475927622,-0.6763322857586811,0.5513451377183571,-1.1134855851993126,-1.1439330591510026,-30.69527297229948,33.09887537128618,18.165811550586348,-0.2416459058654656,-4.067788982883676,3.543797825723761,-1.0,11.931555555555557,0.0,179.74297133011044,1.000499698854004,96.88881746486686,1428.0,1435.0,1000.0,1528.0,1368.0,1011.0,242.0,294.13,1649159247.2601984,1649159248.3946304,60073e08-4975-4618-8927-1c41d475018d
-0.8968058901935247,-1.0621508469828234,-0.8530042727907153,0.7317151003668444,-0.6709358396596862,0.5462226252841987,-1.108678089635229,-1.1238949782794163,-30.643619850232835,32.98798206815864,17.691164972302673,-0.2595325663015512,-4.067226057367108,3.5229774712922115,-1.0,11.929444444444446,0.0,179.7527567144613,1.0036083835637444,96.7290350550632,1428.0,1435.0,1000.0,1528.0,1368.0,1011.0,242.0,294.13,1649159248.5025923,1649159249.6243026,60073e08-4975-4618-8927-1c41d475018d
-0.8888481853663478,-1.0633013586681597,-0.8545656814013673,0.7299208513534584,-0.6720726545395045,0.5502083234608096,-1.109376614693341,-1.127565658365201,-30.696607989471005,32.97828515963122,17.854233278862125,-0.246671492690229,-4.072489647931326,3.527690750117309,-1.0,11.92211111111111,0.0,179.7435663154781,0.9970976361750704,96.57069381517444,1428.0,1435.0,1000.0,1528.0,1368.0,1011.0,242.0,294.13,1649159249.7364552,1649159251.0578158,60073e08-4975-4618-8927-1c41d475018d
-1.2179356229793643,-1.6382286650550837,-0.8965730485353207,1.167210846235885,-0.5713344319774215,0.7088144566023539,-1.0775868792639256,-1.0999533759299132,-31.50919925037512,35.77954270269881,17.494602353420174,-0.8606696026125583,-6.276333172445031,3.3345232606492643,-1.0,11.899,0.0,179.92618432440685,0.9525151297615292,96.25825895415072,1364.0,1435.0,1000.0,1528.0,1312.0,1011.0,242.0,294.13,1649159252.723482,1649159253.7252884,391dedc7-c5e0-4b93-b1c9-cb965c9e33d5
-1.208663045074953,-1.6284903992816426,-0.8938885217655431,1.163937368841532,-0.5687320851791836,0.7025688264950714,-1.0758337187046836,-1.1024735445621634,-31.567328022943467,35.564071490295326,17.554618461607248,-0.8686346112171419,-6.239359689504475,3.326105396628604,-1.0,11.89111111111111,0.0,179.94890608704574,0.946359374340186,96.0918838939782,1364.0,1435.0,1000.0,1528.0,1312.0,1011.0,242.0,294.13,1649159253.8389523,1649159254.9484818,391dedc7-c5e0-4b93-b1c9-cb965c9e33d5
-1.2161452074046974,-1.6235842858013765,-0.8793805711041399,1.1630328481677998,-0.5578553706983742,0.6964119500733904,-1.0626735080386414,-1.0900622620149727,-31.33591657485197,35.67196873273879,17.348451742723725,-0.8789082721828028,-6.219736481543084,3.273190126552901,-1.0,11.896,0.0,179.9449673446244,0.9502901600654958,95.94921566150488,1364.0,1435.0,1000.0,1528.0,1312.0,1011.0,242.0,294.13,1649159255.056701,1649159256.1778476,391dedc7-c5e0-4b93-b1c9-cb965c9e33d5
-1.3427804145691296,-1.865297115150609,-0.8868753320678192,1.3305603860089108,-0.5119138132271062,0.744246902402472,-1.0462244780371326,-1.0686824666681745,-31.71793357649925,37.29801099103075,12.430466197158628,-1.1398880395987625,-7.10108852446468,3.1617630579788294,-1.0,11.729666666666668,0.0,-179.98235580014102,0.9260781355270546,95.54377032000356,1297.0,1435.0,1000.0,1528.0,1253.0,1011.0,242.0,294.13,1649159258.3174477,1649159259.4530923,bde47856-381c-4f8d-9729-5b4ffbe3dbe4
-1.337336849274,-1.844338060389045,-0.8729114092702924,1.3173853921904664,-0.5032619688286296,0.7369099306025763,-1.0332467062374635,-1.0570458625948471,-31.513743157796213,37.1088648015116,12.686933777539236,-1.1270705328616537,-7.02369344720665,3.115469664924691,-1.0,11.757,0.0,-179.97424153540703,0.9190372777098292,95.22861476696048,1297.0,1435.0,1000.0,1528.0,1253.0,1011.0,242.0,294.13,1649159259.5611677,1649159260.8839817,bde47856-381c-4f8d-9729-5b4ffbe3dbe4
-1.3230294104972495,-1.8417187264774784,-0.8655640234282638,1.32016031505021,-0.4970853670635229,0.7312494174191966,-1.02730677865471,-1.048317313773505,-31.42504571059837,37.14769419123598,12.66057724652435,-1.1453863057702691,-7.014138742747794,3.088934611959389,-1.0,11.761333333333331,0.0,-179.96190014248674,0.9268693109638816,94.92688205345628,1297.0,1435.0,1000.0,1528.0,1253.0,1011.0,242.0,294.13,1649159260.9924762,1649159262.1154792,bde47856-381c-4f8d-9729-5b4ffbe3dbe4
-0.4008807176042814,-0.1942270113611412,-0.8130376952011019,0.0974960008913359,-0.8464162248089252,0.3052590896694643,-1.1945281850640794,-1.2166618430472331,-30.10254107496236,29.618075305715923,21.16597154587405,0.6101099182524449,-0.7660482636269137,3.935861849897846,-1.0,11.988,0.0,179.47036481995687,1.0640321619488566,94.65722846175387,1553.0,1435.0,1000.0,1528.0,1471.0,1011.0,242.0,294.13,1649159262.7233992,1649159263.761028,008daf32-3389-4334-865b-555fb65c2a62
-0.3898018431537451,-0.1827098480925539,-0.798424008067774,0.0961608604136889,-0.8361344869843219,0.2936542702623591,-1.1834838190082515,-1.2066518414091632,-29.929972784780908,29.69343658748417,21.04273590011936,0.5883385544542373,-0.721888968222466,3.887510672867695,-1.0,11.986222222222224,0.0,179.4880534920874,1.0838325246137044,94.9105837042768,1553.0,1435.0,1000.0,1528.0,1471.0,1011.0,242.0,294.13,1649159263.8696334,1649159264.985328,008daf32-3389-4334-865b-555fb65c2a62
-0.3952788240268192,-0.1844887572709269,-0.8080932351179411,0.0920310741088984,-0.8437180013390083,0.3007255290787129,-1.19126840134744,-1.2156072070184714,-30.100995281744904,29.57276598291668,21.194653053709825,0.6122011284184269,-0.7288035007591972,3.921996233480353,-1.0,11.984666666666666,0.0,179.5064267009547,1.1000144759860646,95.12200234420574,1553.0,1435.0,1000.0,1528.0,1471.0,1011.0,242.0,294.13,1649159265.0947647,1649159266.2147229,008daf32-3389-4334-865b-555fb65c2a62
-0.3876361428926545,-0.2083892543045691,-0.8645230845167244,-0.4060717143655839,-0.944059043967612,0.8023482463454638,-1.1026789926179117,-1.1276889273397586,-29.94474330354754,28.311982669296626,24.107557209130857,2.852387479160205,-0.7876394241193259,4.006927755030019,-1.0,11.97477777777778,0.0,179.49074914007983,1.260759954320651,95.41920436556052,1553.0,1522.0,1000.0,1528.0,1471.0,1011.0,242.0,294.13,1649159267.3296382,1649159268.2748058,f8af0151-36a5-4075-aba3-4e3b70033a42
-0.3906904760147034,-0.2078550884618922,-0.8595238379629931,-0.3950459826118377,-0.9391282799267636,0.790336365583778,-1.1001314307525716,-1.1196079526829232,-29.783764005647395,28.347040554677523,23.945570485112544,2.801060373037267,-0.7863796485287825,3.98980119658338,-1.0,11.970333333333334,0.0,179.49593553038957,1.274793360596285,95.46918768990668,1553.0,1522.0,1000.0,1528.0,1471.0,1011.0,242.0,294.13,1649159268.3849,1649159269.4986808,f8af0151-36a5-4075-aba3-4e3b70033a42
-0.391668958297061,-0.2137276255297696,-0.8716491336040632,-0.3954031888401416,-0.9493316741590528,0.796657600696965,-1.111310569935683,-1.1421705842976868,-29.923766299668937,28.36969941358433,23.89022215614641,2.8155379552059805,-0.807648095417952,4.035244433154733,-1.0,11.97222222222222,0.0,179.49789351795164,1.2901016050793466,95.46488694745928,1553.0,1522.0,1000.0,1528.0,1471.0,1011.0,242.0,294.13,1649159269.6070354,1649159270.7163296,f8af0151-36a5-4075-aba3-4e3b70033a42
-0.3845818096986187,-0.2418658386357647,-0.9680291314335108,-1.0328522449544648,-1.101383297117308,1.4408253572843683,-1.0258045391632626,-1.0477891743662326,-30.020324202538426,26.897884932102546,28.07310755032848,5.687060064507831,-0.8772242132716211,4.249420604096415,-1.0,11.942444444444444,0.0,179.49224874605758,1.5070985174216829,95.55398524736228,1553.0,1613.0,1000.0,1528.0,1471.0,1011.0,242.0,294.13,1649159272.8706255,1649159273.9919794,3c35359e-485e-4900-a758-34e014a19e6f
-0.4011546488573598,-0.2527524125800611,-0.9782867642807276,-1.0244304995019733,-1.1071577703608335,1.4431143263747606,-1.03673001710155,-1.063547897996793,-30.3292476473492,26.95263549529138,27.904094153116848,5.672876029838798,-0.9160572866845164,4.285103160111425,-1.0,11.944666666666668,0.0,179.4916552785097,1.5317217999823365,95.46685783648978,1553.0,1613.0,1000.0,1528.0,1471.0,1011.0,242.0,294.13,1649159274.1006503,1649159275.2256367,3c35359e-485e-4900-a758-34e014a19e6f
-0.4133582849828954,-0.26069641755898,-0.9892714110801554,-1.0237045813151753,-1.117238444910721,1.4511268136324549,-1.0457697518359803,-1.0706564165408117,-30.29252052959484,27.04188027486512,27.9532426157888,5.689314639369975,-0.94733191293194,4.325780857668534,-1.0,11.947333333333331,0.0,179.49500814248228,1.513277218009769,95.38374657684926,1553.0,1613.0,1000.0,1528.0,1471.0,1011.0,242.0,294.13,1649159275.3339825,1649159276.653931,3c35359e-485e-4900-a758-34e014a19e6f
-0.4045809806540443,-0.2703459182946033,-1.0730741340434502,-1.6321572470018548,-1.26158714036256,2.0464544400971105,-0.9673453988173172,-0.9893431815890048,-30.438050398320247,26.10323091285245,31.57951437593728,8.389725004037366,-0.9450479562307756,4.523857209554354,-1.0,11.9,0.0,179.50818433630113,1.7558890947188148,95.27252074076516,1553.0,1710.0,1000.0,1528.0,1471.0,1011.0,242.0,294.13,1649159277.2249098,1649159278.296457,013d4922-a29f-4200-94af-fd099f8383e1
-0.3912087538476495,-0.2734095649130589,-1.0746125325557745,-1.6324202214621086,-1.2629414573084212,2.0490841804024367,-0.967779305982602,-0.991644204571848,-30.39254743563856,26.12074169789632,31.484203114398746,8.396274778586077,-0.9560806627152888,4.527933835150564,-1.0,11.895555555555555,0.0,179.5137516993846,1.7391586767845089,95.08790983441855,1553.0,1710.0,1000.0,1528.0,1471.0,1011.0,242.0,294.13,1649159278.4062195,1649159279.5317802,013d4922-a29f-4200-94af-fd099f8383e1
-0.3833326832303194,-0.2604186513656051,-1.0581503535510175,-1.624820265219214,-1.2482937969415706,2.027875324848965,-0.95651086669881,-0.9811515385667338,-30.297048696248098,26.044941519996165,31.380801657419354,8.331820815934847,-0.9070096990368464,4.47109016830698,-1.0,11.896,0.0,179.5123947684695,1.770505391235492,94.93751058671472,1553.0,1710.0,1000.0,1528.0,1471.0,1011.0,242.0,294.13,1649159279.6684606,1649159280.7516954,013d4922-a29f-4200-94af-fd099f8383e1
-0.3892386405028946,-0.2831176869463627,-1.0901603294404565,-2.043798095962633,-1.328631308668321,2.455851934417007,-0.8790140512639676,-0.90695504637433,-30.37829060242364,26.401402253405266,34.38257773887412,10.239859481548544,-0.9686126164927584,4.511417337130753,-1.0,11.840333333333332,0.0,179.4830188837592,1.9063237977449343,94.51837071592752,1553.0,1814.0,1000.0,1528.0,1471.0,1011.0,242.0,294.13,1649159282.8967707,1649159284.0330706,e3aa1d21-3a5d-4aeb-b5ca-0ef18ef52193
-0.3638041265110261,-0.2652162824579446,-1.0683143028347557,-2.054111623171236,-1.3118530082923208,2.4464423916210616,-0.8571817253461944,-0.8875333157528766,-30.060775234642644,26.19517545658609,34.357301093274735,10.2418562568862,-0.900843495070278,4.430048243008318,-1.0,11.845,0.0,179.47972976821885,1.944255727619292,94.27627390188653,1553.0,1814.0,1000.0,1528.0,1471.0,1011.0,242.0,294.13,1649159284.1415892,1649159285.2588074,e3aa1d21-3a5d-4aeb-b5ca-0ef18ef52193
-0.3760488521210522,-0.2773514350284394,-1.1020352540042333,-2.072410258830391,-1.3436016611790933,2.478095162188185,-0.8814383433752875,-0.911776237730924,-30.063947745453024,26.08726803854941,34.549288601571114,10.35189609496123,-0.9479234263296664,4.552476731155384,-1.0,11.837444444444444,0.0,179.4943858363579,1.9392513333917885,94.08842017350402,1553.0,1814.0,1000.0,1528.0,1471.0,1011.0,242.0,294.13,1649159285.367181,1649159286.4924204,e3aa1d21-3a5d-4aeb-b5ca-0ef18ef52193
-0.4242645830913767,-0.1870883643352762,-0.7383870344418375,0.7363576854083576,-0.7114321960790388,-0.32219123507152,-1.2971412469287191,-1.314103082116,-30.1488431194022,31.17603477603059,16.470003632749172,-2.2276970438790884,-0.77122470912614,3.7955211227009023,-1.0,11.972875000000002,0.0,179.46415447045405,0.9634312394786644,93.92124655038104,1553.0,1349.0,1000.0,1528.0,1471.0,1011.0,242.0,294.13,1649159287.398903,1649159288.5323076,857c2104-64d3-430f-9c9e-36c36d01f3ee
-0.4251373279524441,-0.1923505826391236,-0.7441850640909423,0.7340024254221476,-0.715066168480536,-0.3132501202635496,-1.301128592788281,-1.3267822725839953,-30.349688384233843,31.15138055572737,16.663342641782602,-2.202814695588868,-0.7913312518817701,3.813536178187604,-1.0,11.976,0.0,179.4824269340311,0.949533752188819,94.29990711532469,1553.0,1349.0,1000.0,1528.0,1471.0,1011.0,242.0,294.13,1649159288.639897,1649159289.7652652,857c2104-64d3-430f-9c9e-36c36d01f3ee
-0.4207818213728937,-0.1889949254456275,-0.7263384407900341,0.7312357208590106,-0.7008217418659024,-0.3130172787946298,-1.2822684144178138,-1.3031008996318705,-30.06502374244516,31.2282105961593,16.94039091642559,-2.1944650477308905,-0.7817424311174288,3.7438950353847296,-1.0,11.968777777777778,0.0,179.5057118078216,0.9654557176279284,94.62202035440232,1553.0,1349.0,1000.0,1528.0,1471.0,1011.0,242.0,294.13,1649159289.874053,1649159290.9950492,857c2104-64d3-430f-9c9e-36c36d01f3ee
-0.4221377809618349,-0.167765257772259,-0.6514593262629406,1.3334048873422726,-0.5800043562852129,-0.9158852069555804,-1.3923751545804883,-1.418850630115128,-30.525906353757147,33.84916569240182,12.859594336284651,-4.88731527700805,-0.7320367857918001,3.6347325190235535,-1.0,11.935625,0.0,179.49048484970444,0.7676605888775234,95.02697904492524,1553.0,1264.0,1000.0,1528.0,1471.0,1011.0,242.0,294.13,1649159291.9080205,1649159293.0387485,fc67e4d1-1a31-4986-aca6-aff6481b8f07
-0.4276848883602429,-0.1583968109342645,-0.6502814218090873,1.320557515253945,-0.5812781366366578,-0.9125706378800166,-1.3901837028489437,-1.4144266376133867,-30.50643931403265,33.7356234363293,12.968104232875056,-4.8515534111582905,-0.6963443838309765,3.632975873488751,-1.0,11.945777777777778,0.0,179.49288167692066,0.7294676065939795,95.289334389772,1553.0,1264.0,1000.0,1528.0,1471.0,1011.0,242.0,294.13,1649159293.1473775,1649159294.271203,fc67e4d1-1a31-4986-aca6-aff6481b8f07
-0.4309309734270883,-0.1646013524416982,-0.6628411705839149,1.313133980265574,-0.591427289710543,-0.8979974913704528,-1.3993056202814045,-1.4327115620131403,-30.73349547581196,33.669331793245945,13.122226185484124,-4.8032145022622,-0.7192574674071519,3.676177330286571,-1.0,11.941,0.0,179.5070596318178,0.72510948937177,95.49547101674278,1553.0,1264.0,1000.0,1528.0,1471.0,1011.0,242.0,294.13,1649159294.3799615,1649159295.704469,fc67e4d1-1a31-4986-aca6-aff6481b8f07
-0.441607717157821,-0.1531252790229755,-0.5990108026534169,1.8687497483907145,-0.4858530904621011,-1.4417507518281898,-1.5067316806940807,-1.5287689216284277,-31.32080120733753,36.450690358776846,9.958380706367144,-7.257617409751394,-0.7083318448954873,3.5985711907417026,-1.0,11.921666666666669,0.0,179.49161733301435,0.5203662032047012,95.84744887851132,1553.0,1178.0,1000.0,1528.0,1471.0,1011.0,242.0,294.13,1649159296.8224342,1649159297.957997,d73c37a7-afa9-481a-b711-3720117a8d7e
-0.4336264567689756,-0.1451177224249152,-0.5900828350844927,1.8514723566069995,-0.4812773430491699,-1.433900971696512,-1.494621717657613,-1.5126748981480165,-31.11864021804644,36.3869842457685,10.00862349145844,-7.200872333453597,-0.6774826635648304,3.563982858349972,-1.0,11.903,0.0,179.4893436389306,0.5164250536159635,95.98449586529772,1553.0,1178.0,1000.0,1528.0,1471.0,1011.0,242.0,294.13,1649159298.0665176,1649159299.1854985,d73c37a7-afa9-481a-b711-3720117a8d7e
-0.4415814197411423,-0.147129473093313,-0.5964073599714542,1.8500654458074013,-0.4865236741403322,-1.4301009944897785,-1.4984611412633997,-1.5243641029830122,-31.050543415425818,36.26900141282087,10.046333489139194,-7.190216383401796,-0.6860738681241778,3.5851095684363368,-1.0,11.912,0.0,179.49602811739837,0.4965356316876412,96.09440726942158,1553.0,1178.0,1000.0,1528.0,1471.0,1011.0,242.0,294.13,1649159299.294225,1649159300.4155502,d73c37a7-afa9-481a-b711-3720117a8d7e
-0.454215128236731,-0.1365918880375495,-0.5394077446185124,2.178181427270151,-0.4142348650102819,-1.7569095093278646,-1.552515494671027,-1.5787307403599442,-31.40507147863837,38.82475852450569,7.991360289755453,-8.645473429766765,-0.6625703639297084,3.485871510554295,-1.0,11.850333333333332,0.0,179.4799817263082,0.3893764647407183,96.29155384962483,1553.0,1088.0,1000.0,1528.0,1471.0,1011.0,242.0,294.13,1649159301.9399269,1649159303.0787208,b70341c7-3410-4b8f-b4c7-5b3a68439fad
-0.4373869847763813,-0.1174923097374732,-0.5380402798384786,2.1690792380258346,-0.4169144602846966,-1.765380021433318,-1.5562628777749996,-1.5838620254542366,-31.533490425724505,38.82256677161553,8.247464037599466,-8.643945749769687,-0.5910889290520303,3.495496233175128,-1.0,11.843222222222222,0.0,179.48075277877453,0.3836340039474729,96.33231945423108,1553.0,1088.0,1000.0,1528.0,1471.0,1011.0,242.0,294.13,1649159303.1874478,1649159304.1352031,b70341c7-3410-4b8f-b4c7-5b3a68439fad
-0.4449288594183903,-0.1309899951553845,-0.5333675610996776,2.1724288696547664,-0.4092767102276209,-1.7541154068898503,-1.546187678247935,-1.5801962740377642,-31.466827987235188,38.77257496181232,8.46410503113494,-8.626219246654658,-0.6442223936309449,3.463147811899406,-1.0,11.822,0.0,179.50842263401216,0.3817750778443023,96.3537928100717,1553.0,1088.0,1000.0,1528.0,1471.0,1011.0,242.0,294.13,1649159304.2438116,1649159305.329815,b70341c7-3410-4b8f-b4c7-5b3a68439fad
-0.4083727366896078,-0.2036776376838086,-0.8109832103731464,0.0938527163777611,-0.8404445222260932,0.3142166384356679,-1.1866526574664444,-1.208663046432134,-30.16977588824467,29.35807758770919,20.68806546142776,0.6367258016709653,-0.7962079169243858,3.911924786040464,-1.0,11.971,0.0,179.5122293261096,0.8032648953739766,96.4180148021076,1553.0,1435.0,1000.0,1528.0,1471.0,1011.0,242.0,294.13,1649159306.446057,1649159307.584655,ae55b754-b0ab-4b2c-92de-6a48af03098f
-0.4079601962543274,-0.2066404775348535,-0.8164771765666685,0.1037608066654367,-0.8449441179092827,0.3107212768678007,-1.1938187026922291,-1.225901548675971,-30.14390510561861,29.45024520662032,21.025301299550343,0.6069252408064089,-0.8120590105670602,3.935929477525255,-1.0,11.979,0.0,179.50902369065912,1.0276166882238162,96.44244866549846,1553.0,1435.0,1000.0,1528.0,1471.0,1011.0,242.0,294.13,1649159307.692835,1649159308.811725,ae55b754-b0ab-4b2c-92de-6a48af03098f
-0.4180425090163329,-0.2107313660745556,-0.8163659604084982,0.1067685709314503,-0.8431838352707096,0.3116005958999988,-1.191980622945706,-1.210128578418515,-30.10180736784146,29.36790118648464,20.98251153055647,0.6015904481588755,-0.8276857087749248,3.930297533855856,-1.0,11.983444444444444,0.0,179.50763033206846,1.043440481551574,96.46724528782524,1553.0,1435.0,1000.0,1528.0,1471.0,1011.0,242.0,294.13,1649159308.919629,1649159310.040375,ae55b754-b0ab-4b2c-92de-6a48af03098f
-0.2993070215488037,-0.15513702972923,-0.4609538365666474,0.0760745834481941,-0.5221226827350945,0.2647857614518893,-0.8265835980133308,-0.8500595120103194,-27.64066480226376,29.10239379891189,20.818506036534288,0.5827791834812072,-0.6088331144388097,2.4963438654352985,-1.0,11.987000000000002,0.0,179.487645198557,1.0441773356401585,96.48688587623856,1553.0,1435.0,1000.0,1435.0,1471.0,1011.0,242.0,294.13,1649159311.704141,1649159312.6988122,1154d94e-b553-4211-ad3a-1c4db377f6ac
-0.2927600656523186,-0.152589469622184,-0.4486817172950342,0.0826352349245035,-0.5127268410790049,0.2552803503297065,-0.8174890787853055,-0.8494294696353973,-27.440048651214635,29.304399180290574,20.759703850540536,0.548661832484295,-0.6002033084617576,2.45420971548578,-1.0,11.988666666666669,0.0,179.4725246775544,1.04515638871103,96.50937768917542,1553.0,1435.0,1000.0,1435.0,1471.0,1011.0,242.0,294.13,1649159312.8065205,1649159314.1363995,1154d94e-b553-4211-ad3a-1c4db377f6ac
-0.3028544307270934,-0.1580270038139221,-0.4529002582802826,0.0792110953708566,-0.51628794724258,0.2658677895476454,-0.8185711074412012,-0.8448822098439394,-27.43068270614256,29.310116963945138,21.03846714563478,0.580054241740131,-0.6229800807466217,2.466060393621168,-1.0,11.986,0.0,179.48344690894717,1.050389617991664,96.54803428314796,1553.0,1435.0,1000.0,1435.0,1471.0,1011.0,242.0,294.13,1649159314.245292,1649159315.364645,1154d94e-b553-4211-ad3a-1c4db377f6ac
-0.171954213630765,-0.0976377772063349,-0.0634380166562876,0.0686800854926984,-0.1634864525086184,0.1913837160878111,-0.4241988394280721,-0.4485633794656034,-24.560974849689668,29.129551773314898,20.488054599605945,0.4559863914937188,-0.3859331990430584,0.901669438396461,-1.0,11.982222222222225,0.0,179.43876532921675,1.053052099249532,96.5376356995916,1553.0,1435.0,1000.0,1330.0,1471.0,1011.0,242.0,294.13,1649159316.2762003,1649159317.414573,1e5f610d-0074-4537-b085-c8c96f38601d
-0.1713625223004476,-0.0954419448262836,-0.0628857713933009,0.0709416611901085,-0.1631577350762598,0.1887802743077305,-0.4264078209201908,-0.4453156508188381,-24.71040560553251,29.227954416373905,20.712962555865104,0.4456750026417194,-0.378874982075282,0.9040719129606885,-1.0,11.979111111111113,0.0,179.43641422632243,1.0536077635976342,96.5626812443681,1553.0,1435.0,1000.0,1330.0,1471.0,1011.0,242.0,294.13,1649159317.5239098,1649159318.6516483,1e5f610d-0074-4537-b085-c8c96f38601d
-0.1804482721323832,-0.1027394716820165,-0.0691051050065739,0.0678517176158733,-0.1693376228443624,0.1995622047880287,-0.4295766573787148,-0.4628691645495834,-24.632981021354848,29.3103161416392,20.78714371604856,0.477160698726046,-0.4074630401636238,0.9246934014151932,-1.0,11.976777777777777,0.0,179.4448275015601,1.0573140780017836,96.58510323759346,1553.0,1435.0,1000.0,1330.0,1471.0,1011.0,242.0,294.13,1649159318.7596586,1649159320.0766222,1e5f610d-0074-4537-b085-c8c96f38601d
-0.0597952798517968,-0.0364152534491436,0.2953016922068859,0.0781153706952197,0.1569116707468466,0.1065220328793954,-0.0759572196953081,-0.0996933575648941,-22.22121848163924,29.80764927182605,20.88816471309464,0.2676067529858365,-0.154825899059679,-0.5101350406442727,-1.0,11.969555555555557,0.0,179.42525825067813,1.0435241157950046,96.49197057262067,1553.0,1435.0,1000.0,1210.0,1471.0,1011.0,242.0,294.13,1649159320.7235763,1649159321.9253657,16ee4893-6e65-4db1-9e64-04738334dd3d
-0.0593569899399176,-0.0335389760670695,0.3027526196286761,0.0852923673404688,0.1629792460368052,0.0953867308796885,-0.0696431058622028,-0.0911604008069325,-21.91534702380945,29.794617284140216,20.696968991442294,0.226802802543374,-0.1449199440935309,-0.5371851389566784,-1.0,11.971444444444444,0.0,179.41679336956673,1.0286546872501812,96.51504219272708,1553.0,1435.0,1000.0,1210.0,1471.0,1011.0,242.0,294.13,1649159322.0379992,1649159323.3536294,16ee4893-6e65-4db1-9e64-04738334dd3d
-0.0610142736119275,-0.0475916456369308,0.292274752968765,0.0886754172304711,0.1576512849198222,0.1064809432061855,-0.0787102280652734,-0.1025148487078408,-22.33572955195972,29.841490295988763,20.68599753940116,0.2436772875457887,-0.1956333668287776,-0.5047355346171197,-1.0,11.970333333333333,0.0,179.4189152816689,1.0274064464634267,96.49630470710402,1553.0,1435.0,1000.0,1210.0,1471.0,1011.0,242.0,294.13,1649159323.4619334,1649159324.5943017,16ee4893-6e65-4db1-9e64-04738334dd3d
0.0387536528025422,0.0161378951432563,0.6185453784836443,0.1121102286646223,0.4456005927503434,0.0032127264800817,0.2305931265517003,0.2153669368376204,-19.84540783837823,30.654450646724616,20.37435621919014,-0.0184041787035341,0.0463396208553245,-1.7731726468829954,-1.0,11.952222222222222,0.0,179.3747543141352,1.021018429036401,96.39111068696693,1553.0,1435.0,1000.0,1071.0,1471.0,1011.0,242.0,294.13,1649159325.9033127,1649159327.0456417,cf0a5fa9-7334-42bb-8eee-fc7e7a193281
0.0309564759032634,-4.815018647958192e-05,0.6189661367199424,0.1237994194018075,0.4509521116530791,0.0090244503179675,0.233262311711988,0.203454218533949,-19.983763737071385,30.687472622663066,20.48832534316534,-0.0315240295598918,-0.0158107023108146,-1.786641086096364,-1.0,11.947111111111113,0.0,179.36288648099736,1.0347289191462747,96.4115192922069,1553.0,1435.0,1000.0,1071.0,1471.0,1011.0,242.0,294.13,1649159327.158778,1649159328.2731895,cf0a5fa9-7334-42bb-8eee-fc7e7a193281
0.0390034780623679,0.0072230789592323,0.6043973826966595,0.1152001721921868,0.4343190123387949,0.0099317103411669,0.2175496205088001,0.1844412045073036,-19.991162237622248,30.693316390694445,20.387868922163044,-0.0107939254633852,0.0125388045254529,-1.7211007005782355,-1.0,11.953,0.0,179.3702000957786,1.0285090951275606,96.40687704030104,1553.0,1435.0,1000.0,1071.0,1471.0,1011.0,242.0,294.13,1649159328.3817642,1649159329.4965656,cf0a5fa9-7334-42bb-8eee-fc7e7a193281
-0.5457766461757183,-0.2878703934733624,-1.224605852491336,0.2085066050465258,-1.2094985357336507,0.3112170922991574,-1.6313255907185749,-1.6602938525835624,-32.80084729822928,30.499253199400403,20.239241857717577,0.3569277239875565,-1.1297004150611512,5.599399001356095,-1.0,11.944333333333333,0.0,179.5321370508105,1.076251311084173,96.65496317133426,1553.0,1435.0,1000.0,1613.0,1471.0,1011.0,242.0,294.13,1649159330.4119384,1649159331.5466282,684ad88f-f0b0-4920-b044-906d5e34af17
-0.5602676093865716,-0.2880347521352915,-1.2290435414078067,0.2105610887619596,-1.2115941111108162,0.310299422942807,-1.6388450113947748,-1.655239814662694,-33.229508006250775,30.53514461125593,20.31061387626421,0.3500437479585005,-1.128449141297014,5.6187926493032165,-1.0,11.947111111111113,0.0,179.52485303351557,1.0523253362911278,96.52431834852986,1553.0,1435.0,1000.0,1613.0,1471.0,1011.0,242.0,294.13,1649159331.6564496,1649159332.7703063,684ad88f-f0b0-4920-b044-906d5e34af17
-0.543996093055479,-0.2682706154166732,-1.2038829420477466,0.2067534456071183,-1.1917066915278414,0.2934526569234981,-1.6156156178452008,-1.6465698811393032,-32.84188802214039,30.3508340473909,20.35664751901301,0.3210093943053781,-1.0554123616622058,5.527104611151373,-1.0,11.94477777777778,0.0,179.50727819787122,1.0631301856654938,96.39994288047366,1553.0,1435.0,1000.0,1613.0,1471.0,1011.0,242.0,294.13,1649159332.879877,1649159334.0105526,684ad88f-f0b0-4920-b044-906d5e34af17
-0.6460042590596214,-0.317720677660388,-1.517829193110359,0.2957580614796096,-1.47435955402913,0.2730239670313744,-1.960244008080667,-1.9947199512904568,-34.91516239330471,31.26150539105468,19.680710449954084,0.0635839345369471,-1.2510606680666343,6.822728664646519,-1.0,11.874666666666666,0.0,179.55909808419423,1.0457774023169724,96.2693268962458,1553.0,1435.0,1000.0,1694.0,1471.0,1011.0,242.0,294.13,1649159334.912098,1649159336.060714,47ed9013-cb7e-46a3-b6e6-4eb6894cd6cd
-0.6394200469911672,-0.325974225145932,-1.5133022012023003,0.3027252265134669,-1.4673638919637924,0.2739761517737698,-1.956002998119797,-1.9821086845156104,-35.08214984324114,31.3395765405018,19.61222119351716,0.0506553856827003,-1.2807970705378224,6.7998082275979455,-1.0,11.882555555555555,0.0,179.5633479796778,1.0500194478261773,96.10610586564998,1553.0,1435.0,1000.0,1694.0,1471.0,1011.0,242.0,294.13,1649159336.169607,1649159337.2816696,47ed9013-cb7e-46a3-b6e6-4eb6894cd6cd
-0.645267931664911,-0.3215338001385972,-1.509861074034114,0.3032265204447643,-1.4645374672046756,0.2711831496409083,-1.95464265396749,-1.9796778151757983,-35.17960063538944,31.371813386622453,19.917736524900068,0.0436330344418304,-1.2660038431115948,6.790222268991187,-1.0,11.876333333333331,0.0,179.5467566912739,1.044369292414957,95.95061888592436,1553.0,1435.0,1000.0,1694.0,1471.0,1011.0,242.0,294.13,1649159337.390083,1649159338.5112808,47ed9013-cb7e-46a3-b6e6-4eb6894cd6cd
-0.7506361460158933,-0.3643930785207261,-1.8212012501112165,0.4138043085636733,-1.7454317756819897,0.2262847372995625,-2.307429989721987,-2.3377268474526347,-37.36245753736298,32.5915222778816,19.48063867617005,-0.3152816263772964,-1.4407595975643044,8.092635375562859,-1.0,11.843666666666667,0.0,179.56567783309467,1.023529602631406,95.75020216292847,1553.0,1435.0,1000.0,1774.0,1471.0,1011.0,242.0,294.13,1649159339.4191198,1649159340.567032,7b03e887-6a8e-412b-986e-67d35cc46f20
-0.7401856673266632,-0.3577091567096169,-1.8156267426766368,0.410106237992658,-1.7405284010800053,0.2242439501108447,-2.302512914850253,-2.3339739807306787,-37.42926385431295,32.49933698588382,19.67917294663593,-0.3118611217776015,-1.4161704502393924,8.072404728489365,-1.0,11.83877777777778,0.0,179.5785671589684,1.0009830296015207,95.60666194297114,1553.0,1435.0,1000.0,1774.0,1471.0,1011.0,242.0,294.13,1649159340.6795902,1649159341.786939,7b03e887-6a8e-412b-986e-67d35cc46f20
-0.7503485181048563,-0.3605306482924026,-1.81224368707734,0.4196253454765907,-1.7359948333158677,0.2164643052199359,-2.301156951800805,-2.3224414527929484,-37.43348984264605,32.549875866085294,19.444127975338645,-0.3503519097487193,-1.4255963320565208,8.059074621673574,-1.0,11.8405,0.0,179.56686856273996,1.005568477397258,95.47106513815478,1553.0,1435.0,1000.0,1774.0,1471.0,1011.0,242.0,294.13,1649159341.895342,1649159343.0139096,7b03e887-6a8e-412b-986e-67d35cc46f20
-0.7398596890260856,-0.3628601593917282,-1.8009998914304566,0.4188824441999019,-1.72513180360382,0.218351690917008,-2.287042343546546,-2.3103813319422937,-37.239511062308246,32.48338275747074,19.388138936199883,-0.3442271047042781,-1.4344069836333475,8.008651648151876,-1.0,11.671000000000001,0.0,179.57055458816205,1.0019389477781726,95.165722385083,1553.0,1435.0,1000.0,1856.0,1471.0,1011.0,242.0,294.13,1649159344.7424605,1649159345.8804557,a337a4d5-a5be-4496-a978-003c8e675fd9
-0.7381766552373223,-0.35996744569072336,-1.7957667024424313,0.41755442598708503,-1.7200038048385395,0.21581399264561782,-2.2812832017642783,-2.3083301311192432,-37.19511077250412,32.372698036201754,19.299937063805434,-0.3473988422674582,-1.422596685262892,7.9866243757852065,-1.0,11.684333333333333,0.0,179.57371317119825,1.0046959844673633,94.89405464648537,1553.0,1435.0,1000.0,1856.0,1471.0,1011.0,242.0,294.13,1649159345.9889057,1649159347.1110203,a337a4d5-a5be-4496-a978-003c8e675fd9
-0.7482392472383795,-0.3589418472317513,-1.8042037953184906,0.4205430148349101,-1.7277494937162814,0.21377977985321628,-2.2913638912484244,-2.311662237324971,-37.27778464533935,32.39028053372232,19.47366319678299,-0.35902899162516255,-1.4206071802343037,8.02335801940105,-1.0,11.690777777777779,0.0,179.55912540495092,0.992944252687435,94.63286214134482,1553.0,1435.0,1000.0,1856.0,1471.0,1011.0,242.0,294.13,1649159347.2189648,1649159348.3446112,a337a4d5-a5be-4496-a978-003c8e675fd9
