raw_voltage_G-,raw_voltage_G0,raw_voltage_G1,raw_voltage_G2,raw_voltage_G3,raw_voltage_G4,raw_voltage_G5,raw_voltage_G6,load_x,load_y,load_z,load_l,load_m,load_n,rpm,voltage,current,roll,pitch,yaw,aileron1_pwm,elevator_pwm,throttle_pwm,rudder_pwm,aileron2_pwm,pbaro,pdiff,Tt,sample_start_time,sample_end_time,uid
0.3417521979246678,0.4163184486658356,0.7812867762117942,-0.2180009522836683,0.4153848913081915,-0.0754296281355253,0.4703858830337368,0.442142485781358,-0.314034228539237,27.296223665563897,23.20693944805271,0.5456503653734056,1.434820365144282,-2.2307064109120747,-1.0,11.982333333333337,0.0,179.0084679649654,1.1779431042924693,93.37192346374088,1553.0,1435.0,1000.0,1528.0,1471.0,1011.0,242.0,294.13,1649159040.818998,1649159041.9535449,f713b4cd-3e1f-49e9-a87c-4395e18da020
0.3330494052025768,0.4167079787665688,0.7765850220208241,-0.2233732910102786,0.4102569001860495,-0.0708347064579888,0.4644815710714426,0.4379376427382245,-0.5327854962694625,27.40479170372156,23.17018582732672,0.5684640699607751,1.4385205789500866,-2.209155757005344,-1.0,11.966111111111111,0.0,178.9951733812009,1.186848449599533,93.21854170009944,1553.0,1435.0,1000.0,1528.0,1471.0,1011.0,242.0,294.13,1649159042.0662024,1649159043.3951104,f713b4cd-3e1f-49e9-a87c-4395e18da020
0.3303917251477035,0.4258118065687869,0.7811421405743227,-0.2308077838294235,0.412873490514401,-0.0738780819078747,0.4703990317178672,0.4571451469491269,-0.3428276665756721,27.200460442683976,23.074238120828475,0.5773482960826154,1.4733721524553798,-2.2262389495418984,-1.0,11.984333333333332,0.0,178.9949366013097,1.2069182964294465,93.10044924716976,1553.0,1435.0,1000.0,1528.0,1471.0,1011.0,242.0,294.13,1649159043.5037606,1649159044.6200092,f713b4cd-3e1f-49e9-a87c-4395e18da020
0.5500801236893235,0.8231259238053882,0.8205750769699582,-0.3323946250283721,0.3669582468211652,-0.3703417689541355,0.3956355511188478,0.3721125353090489,-0.0319501051454227,26.62415190442755,22.84263235850907,0.1385724782294315,2.978391636718684,-2.063693295777006,-1.0,11.961666666666666,0.0,178.58290468071877,1.160946961168735,93.03746276046373,1616.0,1435.0,1000.0,1528.0,1519.0,1011.0,242.0,294.13,1649159046.7584507,1649159047.8979692,30ecad9e-b071-4bd0-9612-fe390d0a1d69
0.5325529132323851,0.7985510127766696,0.79747281978736,-0.3118958043214968,0.3536649158949687,-0.3665680924101088,0.3734011074944753,0.3566365210323098,-0.4333323650088243,26.62845669161169,22.467212090431698,0.0994284250330007,2.888400673773503,-1.9860450601755035,-1.0,11.962333333333332,0.0,178.58884239183723,1.1735932105705886,93.07945248675122,1616.0,1435.0,1000.0,1528.0,1519.0,1011.0,242.0,294.13,1649159048.006562,1649159049.1293726,30ecad9e-b071-4bd0-9612-fe390d0a1d69
0.5416068854749899,0.8073748828657324,0.8046355714028829,-0.3242210654036399,0.3562787669481415,-0.3630919052978485,0.3817132743310365,0.3625791832960935,-0.2236706096745993,26.63932479170056,22.635248987212805,0.1356036785170114,2.9204940783583075,-2.0098648107709014,-1.0,11.964777777777776,0.0,178.59713879494907,1.178288764039528,93.13569985347618,1616.0,1435.0,1000.0,1528.0,1519.0,1011.0,242.0,294.13,1649159049.2383432,1649159050.353098,30ecad9e-b071-4bd0-9612-fe390d0a1d69
0.8247010279178942,1.3232694337338466,0.8679821492248451,-0.4372998745792867,0.307121821554641,-0.7637026685772299,0.2941100917238552,0.2710313917145103,0.6433947532488107,26.03113558548933,22.650922902609704,-0.5099826738948846,4.867064454870332,-1.842221479675742,-1.0,11.932777777777778,0.0,178.42133276135257,1.1409179294622998,93.25254769415712,1679.0,1435.0,1000.0,1528.0,1567.0,1011.0,242.0,294.13,1649159051.2703474,1649159052.4030228,d3ac6107-e696-4a7a-b6d6-260ffbc07689
0.8207065639367337,1.320001982669531,0.871644608673553,-0.4400430219196689,0.3101164369366121,-0.7570581911068873,0.3003338075492645,0.2845553727733969,0.7623092858935848,26.05902417379897,22.81826504212097,-0.488410000806743,4.853055123319232,-1.860265513651808,-1.0,11.9295,0.0,178.38998769515905,1.1266317394863092,93.35030676879146,1679.0,1435.0,1000.0,1528.0,1567.0,1011.0,242.0,294.13,1649159052.5125985,1649159053.833724,d3ac6107-e696-4a7a-b6d6-260ffbc07689
0.8284812777666536,1.3338431771842585,0.8700914190785922,-0.4412307877394408,0.3060397934770597,-0.7713316550100161,0.2935759259418069,0.2652103544025667,0.7439353966376873,26.043132328962457,22.530099057169043,-0.5180429430399199,4.907699577792701,-1.841722414195844,-1.0,11.933333333333334,0.0,178.4105744544999,1.1206660272602904,93.4329557574344,1679.0,1435.0,1000.0,1528.0,1567.0,1011.0,242.0,294.13,1649159053.942755,1649159055.06363,d3ac6107-e696-4a7a-b6d6-260ffbc07689
1.0845110288408064,1.7653533054258368,0.9308767410934692,-0.5268890866314452,0.2734282894840611,-1.114019751595759,0.2299417182769366,0.2061097072349441,1.81726176613456,25.350906836265768,22.69775187340439,-1.095879849850876,6.5314303674081815,-1.7368270240777834,-1.0,11.892,0.0,178.15179224722644,1.096368305192107,93.57316588071645,1745.0,1435.0,1000.0,1528.0,1614.0,1011.0,242.0,294.13,1649159055.7696483,1649159056.9038246,cb1b970b-ba16-4b88-8e30-83a5bcd18819
1.092249584052907,1.777611728112305,0.9327531694801436,-0.5401336624146599,0.269757611980301,-1.1134171023229646,0.2324618849184482,0.2081231013015737,2.133405511876997,25.339901448885428,22.772446767275863,-1.0644575753691468,6.576256758541348,-1.7362752923475335,-1.0,11.89,0.0,178.15003612969986,1.0937535166787553,93.63979968843924,1745.0,1435.0,1000.0,1528.0,1614.0,1011.0,242.0,294.13,1649159057.0118904,1649159058.135461,cb1b970b-ba16-4b88-8e30-83a5bcd18819
1.0924900956365142,1.7846506651607243,0.9360863637228092,-0.5496111358169281,0.2718931792774648,-1.111968005373281,0.235721117829371,0.2129475769130643,2.017538320066044,25.25304405024816,22.745316110741737,-1.0402948697816348,6.605094303463101,-1.7476830095666238,-1.0,11.893555555555556,0.0,178.1386190890472,1.0832030444191032,93.71205701857872,1745.0,1435.0,1000.0,1528.0,1614.0,1011.0,242.0,294.13,1649159058.243749,1649159059.3722649,cb1b970b-ba16-4b88-8e30-83a5bcd18819
1.3309258102973736,2.213176152262625,0.9932234712288134,-0.635365864354768,0.2298184492467732,-1.4559135568235788,0.1613630521595619,0.1441875680228691,3.0544794165211826,25.298189468515243,22.2422485597442,-1.6161586919088284,8.223626078403628,-1.6112930118176092,-1.0,11.827333333333334,0.0,177.9068115755359,1.0554183684840206,93.87761321496076,1813.0,1435.0,1000.0,1528.0,1662.0,1011.0,242.0,294.13,1649159061.229062,1649159062.178297,a8caf6b3-a2de-4f87-9f4c-b8cd346bbe45
1.3444717070077588,2.232351344794252,1.003454799798624,-0.6498568284395292,0.2339822028539352,-1.460679964334301,0.1713615395970257,0.1571582086474699,3.355088493220619,25.166916066058263,22.4163980785812,-1.594363077333823,8.294304122084887,-1.6424434726457058,-1.0,11.840555555555556,0.0,177.88240806854134,1.047843487109032,93.91270520909649,1813.0,1435.0,1000.0,1528.0,1662.0,1011.0,242.0,294.13,1649159062.2869873,1649159063.2561798,a8caf6b3-a2de-4f87-9f4c-b8cd346bbe45
1.3415680365270302,2.2165318109097867,0.9939767818816888,-0.6357767614003118,0.2302704356655529,-1.4600088326401055,0.1613493556057051,0.1404758008397526,3.067281106375887,25.24317567298865,22.07723476599693,-1.6247814837787076,8.237681157532483,-1.612714751963299,-1.0,11.837000000000002,0.0,177.8722265332186,1.043449647760304,93.95088672546676,1813.0,1435.0,1000.0,1528.0,1662.0,1011.0,242.0,294.13,1649159063.363959,1649159064.4887395,a8caf6b3-a2de-4f87-9f4c-b8cd346bbe45
0.0294575245353725,-0.1443813953569453,0.7163979664316749,-0.0084107212695673,0.4745408706649537,0.2728004392294079,0.5431376127241838,0.5219024702240712,-0.7878956386840023,28.640487416061013,22.06441775056726,0.8606452148788477,-0.6845607872368521,-2.394912916358133,-1.0,11.9755,0.0,179.26291148429607,1.1766266031169,94.08136838264096,1491.0,1435.0,1000.0,1528.0,1420.0,1011.0,242.0,294.13,1649159066.4190953,1649159067.5579042,f30ea0fb-cd28-446d-8554-11cb08e232e5
0.0205690058093021,-0.1455121833317035,0.7167529811935529,-0.0103304308879175,0.4760529706099583,0.2730371157847831,0.5447154561267072,0.5287660890303364,-0.8282788643536949,28.52693682340682,21.69850136843932,0.86469373296038,-0.6850160618062751,-2.4003542762954218,-1.0,11.976888888888888,0.0,179.2824936366465,1.159961990972176,93.97286399748612,1491.0,1435.0,1000.0,1528.0,1420.0,1011.0,242.0,294.13,1649159067.6657526,1649159068.7855785,f30ea0fb-cd28-446d-8554-11cb08e232e5
0.0256312538856896,-0.1401738122837585,0.7242082912490152,-0.0100937543496795,0.4805629730141404,0.2668046340841354,0.5509084914764181,0.5209689128301825,-0.5957421766740686,28.58657619661165,21.637693240579125,0.8510285712768849,-0.6656563228817822,-2.4247766381052824,-1.0,11.976555555555557,0.0,179.28897472725896,1.158723200985367,93.86640032107331,1491.0,1435.0,1000.0,1528.0,1420.0,1011.0,242.0,294.13,1649159068.893113,1649159070.1888907,f30ea0fb-cd28-446d-8554-11cb08e232e5
-0.1587118319550545,-0.4850186958756983,0.7096362500400756,0.0865661472745011,0.5376211873053668,0.5162408613199208,0.6301551282784835,0.6098020441746491,-0.9275895604085692,29.456055939580303,21.95695965613849,1.1984261681810398,-1.97232516296428,-2.636476383757833,-1.0,11.932333333333332,0.0,179.45583017740307,1.1640665077765306,93.70646840601783,1428.0,1435.0,1000.0,1528.0,1368.0,1011.0,242.0,294.13,1649159072.3633478,1649159073.4952478,074e486d-f886-42f8-9021-6a78fcdbf2ed
-0.1700114936277727,-0.4949487033290551,0.6962958032678918,0.0971946766549456,0.5274583417781207,0.5175968205083695,0.6165133572481314,0.5945577759348287,-1.0056124992865705,29.543259084432464,22.05331927406981,1.1773877317683787,-2.0120233677304005,-2.586089534422567,-1.0,11.925,0.0,179.46865727266436,1.155936519377904,93.56458943984862,1428.0,1435.0,1000.0,1528.0,1368.0,1011.0,242.0,294.13,1649159073.6040504,1649159074.7219155,074e486d-f886-42f8-9021-6a78fcdbf2ed
-0.1576024105397757,-0.4879634566481685,0.7070612972752074,0.0899902869101393,0.5353064691195139,0.5159669301910412,0.6272788512533091,0.5988584949043806,-0.8950813134502642,29.52448205368218,21.93410762035948,1.190424698857378,-1.9839810173164667,-2.626082377732311,-1.0,11.928111111111113,0.0,179.4846884855563,1.158258285661081,93.44695081504376,1428.0,1435.0,1000.0,1528.0,1368.0,1011.0,242.0,294.13,1649159074.8378308,1649159075.9571028,074e486d-f886-42f8-9021-6a78fcdbf2ed
-0.4804440443481441,-1.0729574391185075,0.6614654581648699,0.2616492497415801,0.6124317831817891,0.9373826059105984,0.7398097657072559,0.7159914526172239,-1.3855139066606523,30.99601490799257,23.07080171938362,1.7576003521110315,-4.208667924072034,-2.897820660089001,-1.0,11.898666666666664,0.0,179.6815087344992,1.1874910328480104,93.26699809771117,1364.0,1435.0,1000.0,1528.0,1312.0,1011.0,242.0,294.13,1649159076.8662996,1649159078.0069382,3fc38669-782f-4950-a8ca-a57c5b9ef78d
-0.5006059314810121,-1.090916927393789,0.6464206118120083,0.2690399123563275,0.6013994802352659,0.9447250564796356,0.7265882050400225,0.7106256893754594,-1.4919719050593838,31.12939235237592,22.47098205174409,1.757414134103105,-4.271818704056249,-2.846545277632006,-1.0,11.901000000000002,0.0,179.6808575897983,1.1872950917961955,93.06344480006643,1364.0,1435.0,1000.0,1528.0,1312.0,1011.0,242.0,294.13,1649159078.114378,1649159079.2272103,3fc38669-782f-4950-a8ca-a57c5b9ef78d
-0.479348319325562,-1.0854487093467822,0.6457555069945469,0.2733598067032134,0.6005705645955984,0.9391083721613072,0.7230177864851853,0.7003225911150883,-1.5694850701134315,31.14447074357217,22.983304699125927,1.7351575589584594,-4.255875425138105,-2.838064415386944,-1.0,11.904333333333332,0.0,179.68501489827315,1.194445908544278,92.9084837449069,1364.0,1435.0,1000.0,1528.0,1312.0,1011.0,242.0,294.13,1649159079.3377988,1649159080.6703384,3fc38669-782f-4950-a8ca-a57c5b9ef78d
-0.7500236356602286,-1.5657430988673005,0.5939573188779714,0.4245889779061619,0.6468808161364551,1.2658819484792043,0.7954216233693299,0.7784598068669126,-1.6354040206106129,32.6153869990472,22.395527501341363,2.1353702582030776,-6.0734737208048974,-2.991890133528337,-1.0,11.826333333333332,0.0,179.82227893329318,1.2192293448114075,92.53940612509628,1297.0,1435.0,1000.0,1528.0,1253.0,1011.0,242.0,294.13,1649159082.8032615,1649159083.9404838,d6792a0f-31de-4bf1-ae28-61526e4e02a6
-0.7503896080535989,-1.5672530093211818,0.5956945902028549,0.4271858452168593,0.6495494533533414,1.2614157746571333,0.792582600966235,0.7696545640867702,-2.0249006769018867,32.79659582988961,21.886216957660725,2.120486782879252,-6.072072557970415,-2.9950758661623227,-1.0,11.825333333333331,0.0,179.84108927426738,1.2118399457610671,92.31503137522174,1297.0,1435.0,1000.0,1528.0,1253.0,1011.0,242.0,294.13,1649159084.0530655,1649159085.1695516,d6792a0f-31de-4bf1-ae28-61526e4e02a6
-0.7478672486551454,-1.5669133342372097,0.5936154528114599,0.4275474343286466,0.6489188638577384,1.262081975278101,0.7926078026311342,0.769124233348482,-1.9679481079590613,32.6070034168112,22.069528884586404,2.1198656994605294,-6.073005896096739,-2.9909983121217194,-1.0,11.830333333333336,0.0,179.83798381492474,1.2147804133465618,92.06229160863404,1297.0,1435.0,1000.0,1528.0,1253.0,1011.0,242.0,294.13,1649159085.277045,1649159086.3388946,d6792a0f-31de-4bf1-ae28-61526e4e02a6
0.2942196641632983,0.3975158145468052,0.7479548343864291,-0.1351510100482192,0.3965691084827891,-0.1455384807945153,0.4124658809692259,0.3841304427301867,-1.0434810716631724,27.704272534290496,21.11576189305484,0.2015620073530764,1.3756892062997623,-2.082353483701787,-1.0,11.98488888888889,0.0,178.8037656777203,1.100803932017632,91.7481772799844,1553.0,1435.0,1000.0,1528.0,1471.0,1011.0,242.0,294.13,1649159088.3327744,1649159089.4718654,b13eec2b-f072-49f6-8e8f-bcb92d2d4c38
0.3172693271851106,0.4002112970593744,0.7518599967983951,-0.1334679767291086,0.4004479735722319,-0.1475370827146478,0.4138070478826687,0.389810679139013,-1.233690167521818,27.777416612500257,21.447549766877795,0.1939108455977857,1.3842461197519724,-2.0942235096149884,-1.0,11.988,0.0,178.80616990430815,1.1245705831619124,92.15192873457154,1553.0,1435.0,1000.0,1528.0,1471.0,1011.0,242.0,294.13,1649159089.5799515,1649159091.1075935,b13eec2b-f072-49f6-8e8f-bcb92d2d4c38
0.3121281873181187,0.3895740026412765,0.7545028844892466,-0.1296285571600995,0.4057731951306209,-0.1423301986424125,0.4206969641593086,0.4041953517078355,-1.1258900233301763,27.68162019873409,21.24608083023457,0.1964693201528529,1.3450656350602048,-2.116311873102074,-1.0,11.987444444444444,0.0,178.81944020295558,1.149671362350167,92.67115364399666,1553.0,1435.0,1000.0,1528.0,1471.0,1011.0,242.0,294.13,1649159091.2168338,1649159092.3676946,b13eec2b-f072-49f6-8e8f-bcb92d2d4c38
0.3538407796659386,0.4080380578715874,0.7574235383730179,-0.745102733884195,0.3374733933271601,0.4281035145702767,0.5856824068351848,0.5549884219211269,-0.4679323014570545,26.51458287360424,24.995821372454504,2.8600069170787195,1.452369755825969,-2.25910496774152,-1.0,11.973666666666666,0.0,178.81298187964038,1.323763054038893,93.20107994203136,1553.0,1522.0,1000.0,1528.0,1471.0,1011.0,242.0,294.13,1649159094.2721431,1649159095.415509,c3c6cb2f-3d12-4db8-bbd1-88afe1369914
0.3467459628275624,0.395752245805905,0.7548348890396457,-0.7329675779206147,0.3373227312105571,0.432322054242986,0.5850386686510831,0.555865001596115,-0.3466948196237427,26.61032398899109,25.45825607170921,2.842753124860687,1.3996772744064447,-2.25513706911009,-1.0,11.976,0.0,178.7871440329201,1.3272961946884607,93.3165002731758,1553.0,1522.0,1000.0,1528.0,1471.0,1011.0,242.0,294.13,1649159095.5305595,1649159096.6378295,c3c6cb2f-3d12-4db8-bbd1-88afe1369914
0.351238433716476,0.4023402899625406,0.7562182413262749,-0.738281844808213,0.3371994621910105,0.4318426747434682,0.586983579781707,0.558179719777244,-0.2552931155996874,26.51059376274688,25.62551942845721,2.853144009238416,1.4229973815878054,-2.258532653936802,-1.0,11.976,0.0,178.78958468718355,1.319931057039235,93.43286089369592,1553.0,1522.0,1000.0,1528.0,1471.0,1011.0,242.0,294.13,1649159096.746043,1649159097.8663228,c3c6cb2f-3d12-4db8-bbd1-88afe1369914
0.3874702114013789,0.3995144162142341,0.755659969650716,-1.3824237726837532,0.2629652150455534,1.0520052619486002,0.7594993885888819,0.7362261984673673,0.3211552103465402,25.74262848034135,29.737406330897567,5.695585416882266,1.4511343703694066,-2.401759755515352,-1.0,11.958333333333334,0.0,178.77768346200978,1.5389612906099557,93.5944510268999,1553.0,1613.0,1000.0,1528.0,1471.0,1011.0,242.0,294.13,1649159099.8016613,1649159100.9391344,a4d85ddf-5c62-4cd5-9ed4-8951777e6090
0.3939853898517969,0.4012445653608671,0.7640252789844503,-1.3799660597209813,0.2713327161316621,1.04918760607413,0.7668878594590213,0.7543418130231254,0.2773066533870028,25.742797771338445,29.96032451645585,5.684140890619247,1.4561858344491627,-2.43456446987441,-1.0,11.956444444444443,0.0,178.7774724850554,1.5482001768214886,93.57748028354214,1553.0,1613.0,1000.0,1528.0,1471.0,1011.0,242.0,294.13,1649159101.048588,1649159102.1748714,a4d85ddf-5c62-4cd5-9ed4-8951777e6090
0.394084005077084,0.3955435102703385,0.7579609912724159,-1.3749684544206895,0.2666468497897808,1.047731935910093,0.7607222172230224,0.7419064347101112,0.2911428964968334,25.782865303789105,29.56609527299719,5.669504206122674,1.4372004497923712,-2.412346100831052,-1.0,11.958666666666666,0.0,178.77196887040418,1.5509936649021872,93.55150962758802,1553.0,1613.0,1000.0,1528.0,1471.0,1011.0,242.0,294.13,1649159102.2884696,1649159103.4008207,a4d85ddf-5c62-4cd5-9ed4-8951777e6090
0.4298840670153576,0.3960809631762653,0.7789271333170307,-1.9730963328575413,0.211177433892592,1.6218818276388554,0.9312328515755408,0.9085102628531126,0.4976741843515739,26.03445398853581,33.69369665653622,8.31239933798308,1.4761473728753884,-2.6074613385017904,-1.0,11.881333333333332,0.0,178.76784798960497,1.7507489860554588,93.47724498074248,1553.0,1710.0,1000.0,1528.0,1471.0,1011.0,242.0,294.13,1649159104.307759,1649159105.4535224,0717fa1d-2faa-497e-b359-6a7d14f9a256
0.4331027580047759,0.3970945084398988,0.7892406409752812,-1.9707816102597693,0.2206417554326484,1.6203478128172148,0.9424229390832884,0.912509657547683,0.6703129059006011,26.01095477602803,34.00177562048522,8.304224530994153,1.4763648242912673,-2.6496350051838635,-1.0,11.878555555555556,0.0,178.76993195621168,1.768101069783909,93.2493936645804,1553.0,1710.0,1000.0,1528.0,1471.0,1011.0,242.0,294.13,1649159105.5623257,1649159106.672877,0717fa1d-2faa-497e-b359-6a7d14f9a256
0.4262325648036927,0.3980023162722299,0.7880583541557519,-1.9701449931328,0.2199032370002075,1.6156767378002772,0.9408198940068564,0.9126948349779695,0.6851040092015757,25.93972223149336,33.537864444042896,8.291694365678744,1.483622060932652,-2.645234434799531,-1.0,11.877333333333333,0.0,178.78353465739872,1.76429816037806,93.04481432074036,1553.0,1710.0,1000.0,1528.0,1471.0,1011.0,242.0,294.13,1649159106.7813709,1649159107.9063995,0717fa1d-2faa-497e-b359-6a7d14f9a256
0.4417874711539079,0.3888508243918208,0.7769214094889085,-2.4174382655715885,0.1440089650364907,2.0578675135952964,1.0299680484669649,1.014873346110099,0.4673355174415974,27.48381226290321,36.85217665100691,10.30444023161997,1.4758565882334,-2.654751497568741,-1.0,11.831111111111111,0.0,178.79127402063827,1.9357909413716616,92.71230022137664,1553.0,1814.0,1000.0,1528.0,1471.0,1011.0,242.0,294.13,1649159109.8365347,1649159110.9707773,cc11e826-d611-4f28-ada4-18d10c0b8576
0.4491770378201015,0.3991594014483259,0.7840348534961555,-2.415755229466319,0.1486636033709958,2.0473617015193044,1.0339652519610354,1.0087723514613636,0.5785997768512061,27.478825428235343,37.05701064171777,10.277445555026832,1.512160732266907,-2.674848003886633,-1.0,11.843444444444444,0.0,178.7547036700022,1.9217503728837733,92.45065388811123,1553.0,1814.0,1000.0,1528.0,1471.0,1011.0,242.0,294.13,1649159111.079567,1649159112.2148044,cc11e826-d611-4f28-ada4-18d10c0b8576
0.448111993527881,0.3946099528919188,0.7819179135962245,-2.433742687209359,0.1458366337589817,2.06701900965042,1.0382517265750133,1.01802903298583,0.5846487427877264,27.409984426201746,36.872376437120494,10.361605297142177,1.4987704001932298,-2.675151099394922,-1.0,11.826333333333334,0.0,178.74534023956002,1.9245231688115167,92.2964532606793,1553.0,1814.0,1000.0,1528.0,1471.0,1011.0,242.0,294.13,1649159112.3230846,1649159113.4305928,cc11e826-d611-4f28-ada4-18d10c0b8576
0.2934115672306415,0.4131331772614861,0.7898432894916395,0.4317194057202529,0.4866289043595371,-0.6981646084205172,0.2903983245684979,0.2612383528933863,-1.1212729662688847,29.60478791477972,18.607329848705746,-2.3047379687527703,1.3899404283200567,-2.0858308211760512,-1.0,11.977666666666668,0.0,178.77215100878206,0.9695567363319268,92.02511716571138,1553.0,1349.0,1000.0,1528.0,1471.0,1011.0,242.0,294.13,1649159115.3678863,1649159116.511884,09c94b07-7f80-4e44-b583-be16bfe60f7e
0.2855223499843616,0.4097090378895641,0.7736950484310426,0.4187076761385555,0.4731925815728681,-0.6840845408296197,0.2782905674929382,0.2561980194992105,-1.400735032041746,29.405543327351108,18.323949440773216,-2.246057640429816,1.3821623120045634,-2.029321120674734,-1.0,11.977,0.0,178.77837710566547,0.9577730947619698,92.53615343723152,1553.0,1349.0,1000.0,1528.0,1471.0,1011.0,242.0,294.13,1649159116.6203682,1649159117.940603,09c94b07-7f80-4e44-b583-be16bfe60f7e
0.2715107713820102,0.3967794876136494,0.7744894487558863,0.4283500525802821,0.477013921078206,-0.6800714476205574,0.2813722929884355,0.2636215539491555,-1.364822824767771,29.45000581957358,18.369887946386164,-2.2584308197897616,1.3318712396524288,-2.041404772197696,-1.0,11.980666666666666,0.0,178.79061680465813,0.9649423980810868,92.879705122294,1553.0,1349.0,1000.0,1528.0,1471.0,1011.0,242.0,294.13,1649159118.048582,1649159119.1753223,09c94b07-7f80-4e44-b583-be16bfe60f7e
0.2543626809729559,0.420693676985316,0.801115556170848,0.9974146178546404,0.5524408623111834,-1.2488076921503668,0.1336412183577927,0.1186023970440603,-2.062693559330237,31.532044031788363,14.85832705803502,-4.805910506021877,1.3892854575772542,-1.96850779674394,-1.0,11.943333333333335,0.0,178.81134718769897,0.7894012477583393,93.55362243277128,1553.0,1264.0,1000.0,1528.0,1471.0,1011.0,242.0,294.13,1649159121.3141022,1649159122.4467494,3a232629-4da3-426b-b527-29374540ac36
0.2520479626651319,0.4042304148952308,0.7938426842349231,1.0050572970317198,0.5495919783927218,-1.2393707551646187,0.1274914636877681,0.0971398902355391,-2.3473259119026184,31.680153684291053,14.855219051869812,-4.801468536127906,1.3281807923137563,-1.948147113982713,-1.0,11.945222222222222,0.0,178.80233740927386,0.7741416861600645,93.74447689092914,1553.0,1264.0,1000.0,1528.0,1471.0,1011.0,242.0,294.13,1649159122.555381,1649159123.6723292,3a232629-4da3-426b-b527-29374540ac36
0.2593624724482741,0.411676959271268,0.7962631398481438,0.9918762778154268,0.5496462167554276,-1.234093192684666,0.1333190752853223,0.1109531433399801,-2.16248202031398,31.49203218329431,14.950212500599273,-4.760894367996561,1.355732776174189,-1.9586916987923084,-1.0,11.939333333333332,0.0,178.81238082299342,0.7692925127246362,93.9407848756843,1553.0,1264.0,1000.0,1528.0,1471.0,1011.0,242.0,294.13,1649159123.7805786,1649159124.8975403,3a232629-4da3-426b-b527-29374540ac36
0.2220596230973689,0.4147406052358955,0.8124754808219654,1.5581643330077355,0.6143377960939438,-1.7796726740796112,-0.0249780788631911,-0.0548519178574707,-3.201385402387933,34.2465358369383,11.375829879984511,-7.246316951708523,1.3376083870999524,-1.8450841682261627,-1.0,11.907000000000002,0.0,178.8227399432346,0.5671362199955463,94.11752057391784,1553.0,1178.0,1000.0,1528.0,1471.0,1011.0,242.0,294.13,1649159125.7278385,1649159126.678285,f86e3cc3-a263-4079-bf10-07959071a9be
0.2209841693449588,0.4246245889744515,0.8230437444731663,1.5431813919561983,0.6206908072121421,-1.774810936507904,-0.0113368540406163,-0.0342785904671479,-2.941302487223357,34.12176149190663,11.57556713016993,-7.201732290911141,1.3735808425931042,-1.885985708336916,-1.0,11.906,0.0,178.81364213126014,0.5501482232953533,94.27012293708395,1553.0,1178.0,1000.0,1528.0,1471.0,1011.0,242.0,294.13,1649159126.7901945,1649159127.9715674,f86e3cc3-a263-4079-bf10-07959071a9be
0.2428214134326337,0.4347266218785464,0.8237044663991395,1.535246152974562,0.6193737462672586,-1.7757675055260222,-0.0108300813516151,-0.0328541482249143,-2.90979963334122,34.0026561680057,11.813550961689298,-7.186684744528411,1.4101542578809043,-1.884254657704885,-1.0,11.899777777777777,0.0,178.809882491577,0.5425790752475588,94.42373085587792,1553.0,1178.0,1000.0,1528.0,1471.0,1011.0,242.0,294.13,1649159128.0823622,1649159129.2006578,f86e3cc3-a263-4079-bf10-07959071a9be
0.2278056030790217,0.4554095193156248,0.8514613617092357,1.941067600560739,0.6720737156906587,-2.181694765973762,-0.1194383169698141,-0.143539878965231,-3.5916330548349555,36.602502730092944,9.774959666185724,-8.996342633756692,1.462459955393146,-1.837592826850069,-1.0,11.868222222222222,0.0,178.7859039741308,0.3975065687545264,94.72753159888084,1553.0,1088.0,1000.0,1528.0,1471.0,1011.0,242.0,294.13,1649159131.3437412,1649159132.4749966,90d2f51a-84de-4eae-8245-9dfa24d5f40c
0.2234928308880045,0.4523064272755867,0.8540779520333632,1.9427243366271325,0.6741775068853219,-2.182062929782617,-0.1170452540929282,-0.1361634598537718,-3.5358735167673605,36.704753069570216,9.525177462990587,-9.000110767869307,1.452604266942981,-1.8481483940547887,-1.0,11.848111111111113,0.0,178.78213219188916,0.4040445776100442,94.79247986769848,1553.0,1088.0,1000.0,1528.0,1471.0,1011.0,242.0,294.13,1649159132.5827105,1649159133.678605,90d2f51a-84de-4eae-8245-9dfa24d5f40c
0.207451422192551,0.445087793646855,0.8462150323667852,1.9374517076999835,0.6677346463512377,-2.166678924094879,-0.1217261902568423,-0.137544072891524,-3.688909071992204,36.746264792680655,9.968195117901734,-8.953769843226095,1.4228381059923978,-1.822409211944155,-1.0,11.868888888888888,0.0,178.78014384793076,0.3805026853426311,94.84579935999922,1553.0,1088.0,1000.0,1528.0,1471.0,1011.0,242.0,294.13,1649159133.7868984,1649159134.7336109,90d2f51a-84de-4eae-8245-9dfa24d5f40c
0.3460885280893853,0.4257887963540744,0.7873779091789818,-0.2317007995480341,0.4124757425017809,-0.0766283510156345,0.468042675992987,0.4374582630714568,-0.4843441736581451,27.990190500631865,22.56965225908345,0.5785765447513093,1.4792782581021502,-2.231987666833269,-1.0,11.985333333333331,0.0,178.7692777758712,1.0506279512766084,94.93608004153856,1553.0,1435.0,1000.0,1528.0,1471.0,1011.0,242.0,294.13,1649159136.87192,1649159138.008386,566ab4c4-866d-4864-aa7a-286fab60b81f
0.3288719551223066,0.4219126705969498,0.7730923999084841,-0.2199354544191498,0.4010117238844706,-0.0838738308258306,0.4504015100616214,0.4231453606113347,-0.6416476137737016,28.050569463940008,22.417168402428285,0.5353406952016008,1.4648520785668857,-2.1724989797024863,-1.0,11.985666666666669,0.0,178.76964053480708,1.0769248673432614,94.92028409071804,1553.0,1435.0,1000.0,1528.0,1471.0,1011.0,242.0,294.13,1649159138.1169596,1649159139.236304,566ab4c4-866d-4864-aa7a-286fab60b81f
0.3259956780267217,0.4182967794253954,0.773955283018701,-0.2176481289366935,0.4037784284996016,-0.0828602854904256,0.4519629176045963,0.426199693040914,-0.7375652245514633,27.99874742910021,22.36751603265394,0.532101854941324,1.4521814417959256,-2.180199954495284,-1.0,11.987555555555556,0.0,178.7796869841663,1.0777816054813405,94.91385764161896,1553.0,1435.0,1000.0,1528.0,1471.0,1011.0,242.0,294.13,1649159139.344368,1649159140.4682095,566ab4c4-866d-4864-aa7a-286fab60b81f
0.4507302274261666,0.4674811171447433,1.127997600360798,-0.2411514260706085,0.7241272076263527,-0.1264290408263061,0.8181403769431776,0.7936372359474481,1.9473237440957512,27.772526450279443,22.70917179785427,0.5047499884543959,1.6399558589706398,-3.612286343702285,-1.0,11.972,0.0,178.7083069538802,1.0838060932045723,94.8820577986632,1553.0,1435.0,1000.0,1435.0,1471.0,1011.0,242.0,294.13,1649159142.22766,1649159143.3329992,407e38bf-44ce-4a65-b0c4-a00cff78fe21
0.4425632441655664,0.4641534015616658,1.1163286807746178,-0.2410900654892785,0.7150830969309786,-0.1230542085701151,0.8060589176416322,0.7776971824928799,1.6677685766900745,27.748820463988665,22.643821778133937,0.5113059504508138,1.6292850165100368,-3.5675405489226275,-1.0,11.969333333333337,0.0,178.72754987350183,1.066441440030775,94.85934286621348,1553.0,1435.0,1000.0,1435.0,1471.0,1011.0,242.0,294.13,1649159143.440685,1649159144.566016,407e38bf-44ce-4a65-b0c4-a00cff78fe21
0.438395107814885,0.4585783548376649,1.1132124398983434,-0.2414976752371248,0.7128741161755588,-0.1160985479376469,0.8049412785707665,0.7889919115279117,1.6605084983546567,27.77547338609595,22.786049139659653,0.5278962511284918,1.6070191136737455,-3.5591863500754464,-1.0,11.966333333333331,0.0,178.73668866661131,1.0685111296448964,94.83573545571218,1553.0,1435.0,1000.0,1435.0,1471.0,1011.0,242.0,294.13,1649159144.6744893,1649159145.8324206,407e38bf-44ce-4a65-b0c4-a00cff78fe21
0.5790121834411875,0.526444796546642,1.5703142776069186,-0.2322486619977889,1.1266279445266754,-0.2168674250008072,1.258155993718364,1.2370495975091615,4.8086009865960255,28.093771398772816,22.60909897485874,0.3070187401106174,1.868690878355456,-5.380981058173963,-1.0,11.926777777777776,0.0,178.6441714775738,1.0425851545116052,94.70747588674796,1553.0,1435.0,1000.0,1330.0,1471.0,1011.0,242.0,294.13,1649159147.930137,1649159149.0629046,7544986f-4963-4767-a25a-6e3393c06b7d
0.5763002651023755,0.5280335971956821,1.5660820405071538,-0.245150821649237,1.1204781899764904,-0.2048692384319415,1.2566356757439203,1.2386794879870722,4.82219955634732,28.10592318865133,22.82458888622197,0.3629953925244377,1.873964154623066,-5.364283686553077,-1.0,11.929555555555556,0.0,178.66213032163148,1.069292391821053,94.65339824344932,1553.0,1435.0,1000.0,1330.0,1471.0,1011.0,242.0,294.13,1649159149.1704948,1649159150.3073618,7544986f-4963-4767-a25a-6e3393c06b7d
0.5769440032927329,0.5313207709477261,1.566712082309045,-0.2466163536575768,1.1205192796688817,-0.2080331437904416,1.2571424484295897,1.242048841120509,4.886942166043847,28.03977908839526,22.645774945339763,0.358788536333665,1.887638903837385,-5.365714884879715,-1.0,11.926666666666668,0.0,178.65375954534866,1.069561318661655,94.62532540705068,1553.0,1435.0,1000.0,1330.0,1471.0,1011.0,242.0,294.13,1649159150.4232228,1649159151.5213745,7544986f-4963-4767-a25a-6e3393c06b7d
0.6882466104970599,0.5714204556757158,1.9715988838130605,-0.1253420819747774,1.4978907033922304,-0.3838323338451821,1.6259195739387406,1.616018605057698,7.215733152223996,29.337593574924025,22.066384040476265,-0.279976836934173,2.0374478345354903,-6.950479573012286,-1.0,11.877555555555556,0.0,178.61541789898786,1.0449687363783644,94.44132238754024,1553.0,1435.0,1000.0,1210.0,1471.0,1011.0,242.0,294.13,1649159153.869398,1649159155.0083027,62b3014e-ede7-4f67-a6d2-0aafa8482c02
0.6991468786274133,0.5947856866684453,1.967180920171267,-0.138332994722834,1.4865696749146784,-0.3953505940296332,1.6175438531005153,1.6012000214478814,7.474540954739487,29.295821000548976,21.93288583294728,-0.2769434928102666,2.1257517455853385,-6.914389373234393,-1.0,11.856666666666667,0.0,178.63006789584762,1.0307858367088656,94.3580730062965,1553.0,1435.0,1000.0,1210.0,1471.0,1011.0,242.0,294.13,1649159155.117033,1649159156.234545,62b3014e-ede7-4f67-a6d2-0aafa8482c02
0.6825400768828925,0.5719989982612429,1.9596598632063804,-0.132942028831576,1.4850575747012649,-0.3756932893184512,1.6148878159845956,1.593415992092995,7.1718361544451525,29.38507089373896,22.22025945948388,-0.2448210176628577,2.038744270252687,-6.900849105169646,-1.0,11.870333333333331,0.0,178.62572541335533,1.033524019230035,94.29361878782882,1553.0,1435.0,1000.0,1210.0,1471.0,1011.0,242.0,294.13,1649159156.342837,1649159157.668662,62b3014e-ede7-4f67-a6d2-0aafa8482c02
0.680407796849208,0.5693424140110719,1.94931183576284,-0.126168806256484,1.4768352560222604,-0.3799934616569822,1.6015150422706883,1.583613638114835,6.947927147770085,29.456398586205086,22.034688982688223,-0.269947523644057,2.030521214722159,-6.85721417768459,-1.0,11.66,0.0,178.6435977416835,1.0195284635860515,94.10253058541936,1553.0,1435.0,1000.0,1071.0,1471.0,1011.0,242.0,294.13,1649159158.7846854,1649159160.129447,459deaad-5f49-404a-9263-b0768da40e1e
0.6913376495397973,0.5732048431627509,1.9530646943570729,-0.1324007408137124,1.4795745680990382,-0.3766515007226834,1.6068156113439862,1.580011442813552,6.990522288579995,29.3693492169186,22.26751922712727,-0.2487116113572557,2.043646345315582,-6.872801046925704,-1.0,11.678222222222225,0.0,178.63617104932598,1.0194563671448127,93.71189157621885,1553.0,1435.0,1000.0,1071.0,1471.0,1011.0,242.0,294.13,1649159160.238342,1649159161.3574553,459deaad-5f49-404a-9263-b0768da40e1e
0.6934058296858021,0.5841894821009822,1.9477641240632728,-0.1356194323254221,1.4722332119586194,-0.3860199485922063,1.5984881023555684,1.5769981996004658,7.027036673487465,29.31139917805044,21.99262667079593,-0.2631767150226116,2.087082625020744,-6.8427574671500695,-1.0,11.682666666666668,0.0,178.63294264657827,1.0125049658329668,93.43347029835188,1553.0,1435.0,1000.0,1071.0,1471.0,1011.0,242.0,294.13,1649159161.4651852,1649159162.5833864,459deaad-5f49-404a-9263-b0768da40e1e
0.1830474429567841,0.3320879068787685,0.3447106543925223,-0.1457488599550891,0.0217129423906713,-0.0413219087950467,0.0038307152404813,-0.0254645811587971,-3.964566233966006,28.709322644597343,22.30716692619212,0.4449599603507083,1.1161684390291862,-0.4490948330623135,-1.0,11.983333333333333,0.0,178.82830730631807,1.0715895291061297,93.08989964054172,1553.0,1435.0,1000.0,1613.0,1471.0,1011.0,242.0,294.13,1649159164.928672,1649159165.932285,83f8df0a-ae95-4999-8371-13a373d586d0
0.1749609950827922,0.3320616095025935,0.3456573604673816,-0.1458671981668909,0.0224887155000417,-0.0433731054249071,0.0031995778475737,-0.0208625370519257,-4.063682251649066,28.779145316468945,21.99750984720111,0.4410283386179537,1.119591579796416,-0.4510822578311311,-1.0,11.985777777777775,0.0,178.8060469609031,1.0924542629166376,93.28121931047303,1553.0,1435.0,1000.0,1613.0,1471.0,1011.0,242.0,294.13,1649159166.042304,1649159167.2944582,83f8df0a-ae95-4999-8371-13a373d586d0
0.1882767888492348,0.3348025646214521,0.3495948468425476,-0.1437825818029208,0.0256164616427284,-0.0482079907800561,0.0065919415253521,-0.0151581940870817,-3.939957859582144,28.755335399224435,21.99271594099008,0.4255610591243748,1.1290311763628422,-0.4651001235050915,-1.0,11.988444444444449,0.0,178.80999481024335,1.1014927494806477,93.4564963838638,1553.0,1435.0,1000.0,1613.0,1471.0,1011.0,242.0,294.13,1649159167.4028647,1649159168.732627,83f8df0a-ae95-4999-8371-13a373d586d0
0.0947566892216408,0.2932198154692627,0.0993998225564067,-0.0722728451918524,-0.1970895923507965,-0.0624935019252795,-0.2676953598888488,-0.2821315348879795,-5.826423283191212,29.38831329956089,21.514251066895543,0.2228633387582094,0.966008470879928,0.5631452239506695,-1.0,11.977,0.0,178.87949426177795,1.1128540339709905,93.80493241309271,1553.0,1435.0,1000.0,1694.0,1471.0,1011.0,242.0,294.13,1649159170.8726273,1649159172.0043476,c7da175f-ddeb-423d-a4f3-6c07cd507195
0.0889904381225896,0.2865221987255599,0.0992765535266784,-0.0675612288137123,-0.1956240604524671,-0.0587954309513593,-0.2661613451447785,-0.2787895742187915,-5.796663664349676,29.4025307593915,21.728795518331143,0.2206824369591385,0.9381885283438814,0.558681507758242,-1.0,11.984444444444446,0.0,178.85882459152967,1.108904109486444,93.88552257401965,1553.0,1435.0,1000.0,1694.0,1471.0,1011.0,242.0,294.13,1649159172.1122923,1649159173.4369297,c7da175f-ddeb-423d-a4f3-6c07cd507195
0.0897705940796628,0.2897228103477878,0.1011836623184393,-0.078651058881345,-0.1947146088542087,-0.0513543643213894,-0.2622594690236822,-0.2835077652569269,-5.862204486733536,29.32872420841212,21.804261328432464,0.2620041736805578,0.95147284240565,0.5496686952273937,-1.0,11.98088888888889,0.0,178.86301680986026,1.1051833046462431,93.98511887467694,1553.0,1435.0,1000.0,1694.0,1471.0,1011.0,242.0,294.13,1649159173.5455382,1649159174.674832,c7da175f-ddeb-423d-a4f3-6c07cd507195
0.0005961359179458,0.249251125607839,-0.1693507715558554,0.0088140712041741,-0.4384257318875113,-0.0787956945566969,-0.5626283488772824,-0.5929098057271776,-7.582783604124287,30.19571336031832,21.51644664667505,-0.0055954716213795,0.7865035817712169,1.6719463689519187,-1.0,11.947333333333331,0.0,178.9674625448283,1.0850965246390123,94.19823974952902,1553.0,1435.0,1000.0,1774.0,1471.0,1011.0,242.0,294.13,1649159176.8065212,1649159177.9462788,b7fb8eba-8b44-4458-aefa-c4f691ff0b4b
0.0152043376087533,0.264819181108734,-0.1486152758937221,-0.000403165055329,-0.423436214921382,-0.0857250578300809,-0.5433918005918192,-0.5594069173621694,-7.347250814091919,30.18352812377161,21.645984120272363,0.000716072718652,0.8445272769221249,1.5980319306119457,-1.0,11.946,0.0,178.95876088382568,1.076730088372243,94.1679167452538,1553.0,1435.0,1000.0,1774.0,1471.0,1011.0,242.0,294.13,1649159178.054835,1649159179.3787909,b7fb8eba-8b44-4458-aefa-c4f691ff0b4b
0.0077227293921605,0.2606773420319077,-0.1570041447511918,-0.0031643912790776,-0.429826482648686,-0.0806102147204491,-0.5502948681514721,-0.5813520980492402,-7.491705327876797,30.116841888774434,21.377585415022303,0.0174631781871042,0.8322011121985855,1.6270215776911794,-1.0,11.955444444444446,0.0,178.96930821372402,1.0761928275894048,94.14575733485655,1553.0,1435.0,1000.0,1774.0,1471.0,1011.0,242.0,294.13,1649159179.4870195,1649159180.607541,b7fb8eba-8b44-4458-aefa-c4f691ff0b4b
-0.06382206819706283,0.22453157789048342,-0.39759354285428533,0.08633330578581082,-0.6464600805252041,-0.11474587564520787,-0.8248852239793409,-0.8514017754638935,-9.33040135156147,31.222641616813434,21.218969487009712,-0.2667291901302661,0.6847997542388861,2.635440045498535,-1.0,11.90688888888889,0.0,179.01200296731582,1.0510145921586873,94.23996916971818,1553.0,1435.0,1000.0,1856.0,1471.0,1011.0,242.0,294.13,1649159181.224952,1649159182.4465482,e7d8693c-ab6d-40dd-b1ca-f07d95eda583
-0.05498778759219164,0.2348998722134713,-0.38860859867183933,0.08226542789263909,-0.6406390410588276,-0.1206901824319822,-0.8175164719105236,-0.8407321509040436,-9.207271637301348,31.20334577254791,21.34809431528605,-0.2705086659276696,0.7227413630191742,2.6062676217671696,-1.0,11.906444444444444,0.0,179.00266989326997,1.048087713803729,94.13519179112046,1553.0,1435.0,1000.0,1856.0,1471.0,1011.0,242.0,294.13,1649159182.5579462,1649159183.6773746,e7d8693c-ab6d-40dd-b1ca-f07d95eda583
-0.05656124829506887,0.231237412674076,-0.394824646021107,0.07729248145103558,-0.6457938796852831,-0.11148335522305505,-0.8218812932946606,-0.8462063936729021,-9.349978057383467,31.198407418292888,21.455810288919466,-0.23899886591329214,0.7092783981335473,2.6275438221384526,-1.0,11.913333333333334,0.0,179.02006410835625,1.0414729008939507,94.07153215132621,1553.0,1435.0,1000.0,1856.0,1471.0,1011.0,242.0,294.13,1649159183.7866364,1649159184.9034977,e7d8693c-ab6d-40dd-b1ca-f07d95eda583
