raw_voltage_G-,raw_voltage_G0,raw_voltage_G1,raw_voltage_G2,raw_voltage_G3,raw_voltage_G4,raw_voltage_G5,raw_voltage_G6,load_x,load_y,load_z,load_l,load_m,load_n,rpm,voltage,current,roll,pitch,yaw,aileron1_pwm,elevator_pwm,throttle_pwm,rudder_pwm,aileron2_pwm,pbaro,pdiff,Tt,sample_start_time,sample_end_time,uid
-0.54848034757688,-0.312263967856868,-1.1774354140127792,0.118579387056454,-1.1478902704250924,0.4202499084967137,-1.560417870635149,-1.5933159500740257,-35.75230584446156,29.78143468259764,21.04796328137226,0.8010262848264048,-1.1934189838370428,5.345861427023984,-1.0,11.973,0.0,179.49120031202,1.0342171856025608,95.53172831704188,1553.0,1435.0,1000.0,1528.0,1471.0,1011.0,242.0,294.13,1649159578.7190688,1649159579.8650482,479b5253-f03d-4d13-8ae9-0fb9d1d32605
-0.55643257186876,-0.3150443696637039,-1.1685594890783506,0.1182188936601817,-1.140426735952289,0.4192966280966261,-1.5518169692436956,-1.5691705312348772,-35.67545996278668,29.91579689837396,20.54353927787156,0.8009882605862547,-1.199311030666289,5.310298669675341,-1.0,11.970222222222224,0.0,179.4997240086492,1.0375399688765583,95.9866109472107,1553.0,1435.0,1000.0,1528.0,1471.0,1011.0,242.0,294.13,1649159579.9738555,1649159581.095559,479b5253-f03d-4d13-8ae9-0fb9d1d32605
-0.5467080123657477,-0.3140993069868761,-1.1733943780947085,0.1172053483162809,-1.144439830728056,0.4224194431889898,-1.555597223858029,-1.5797716795547032,-35.70570006559697,29.82716064756943,20.954243109679304,0.8095138738982403,-1.1993757169897965,5.328437370572073,-1.0,11.969555555555557,0.0,179.47984664034468,1.0353698897111985,96.36619491578462,1553.0,1435.0,1000.0,1528.0,1471.0,1011.0,242.0,294.13,1649159581.2039278,1649159582.3359425,479b5253-f03d-4d13-8ae9-0fb9d1d32605
-0.3151402456715602,0.0806218409489981,-1.1462340813656453,-0.1886114218576148,-1.2193463697164777,0.3286528102149268,-1.581223516332961,-1.6011794287927608,-35.296260568400314,28.39239603556484,22.59238938823627,1.2809638425538978,0.3030018903866802,5.47819220609648,-1.0,11.949666666666666,0.0,179.3483047860293,1.0431546926814588,97.0579944204189,1616.0,1435.0,1000.0,1528.0,1519.0,1011.0,242.0,294.13,1649159584.256831,1649159585.3666418,5dff7036-0ea1-4638-8dea-372307930881
-0.3101273044989969,0.0908257769870597,-1.126963008747051,-0.1963088885717051,-1.2057045858873645,0.3239822840499344,-1.560308845752992,-1.5927971236829097,-34.78237282840166,28.33946450115896,22.49477934472461,1.2886839452748309,0.3406693071971269,5.404975588506487,-1.0,11.945444444444444,0.0,179.3359482149108,1.0417378671734714,97.22479674686952,1616.0,1435.0,1000.0,1528.0,1519.0,1011.0,242.0,294.13,1649159585.4743986,1649159586.4180348,5dff7036-0ea1-4638-8dea-372307930881
-0.3161559826420002,0.0892840923795706,-1.126878637989921,-0.1893236429409741,-1.2032594743178435,0.3159413089710666,-1.5631265052619878,-1.587832937452718,-35.00862443828269,28.330631018961103,22.042415891261463,1.254617442107448,0.3396428573300354,5.404624085057769,-1.0,11.945777777777778,0.0,179.3397199971525,1.0463847792605092,97.3698122876876,1616.0,1435.0,1000.0,1528.0,1519.0,1011.0,242.0,294.13,1649159586.526329,1649159587.746637,5dff7036-0ea1-4638-8dea-372307930881
-0.017693700941961,0.5884217182975966,-1.0813841159270277,-0.5686898997203974,-1.2920395481685445,0.1906999838385487,-1.5874779204693823,-1.6150770693782976,-34.08155501449678,26.926466073672856,24.194428231322423,1.8227074428184644,2.2356460296398466,5.559532166712836,-1.0,11.915,0.0,179.15902961938957,1.0726302673229426,97.5838704162758,1679.0,1435.0,1000.0,1528.0,1567.0,1011.0,242.0,294.13,1649159588.8683176,1649159590.0006828,e650299c-7fc8-42db-a81b-744ac0e457fb
-0.021046618667923,0.5807560291206909,-1.0752831164633572,-0.5651134533661237,-1.2838742003096322,0.1940003064714203,-1.5798253697552351,-1.6126577054961857,-34.153712963278984,26.930375364733653,24.11735312265593,1.822337217212422,2.2080353655289016,5.5281417677857885,-1.0,11.916,0.0,179.15705038235004,1.0726817427590314,97.59692822014904,1679.0,1435.0,1000.0,1528.0,1567.0,1011.0,242.0,294.13,1649159590.109723,1649159591.2414548,e650299c-7fc8-42db-a81b-744ac0e457fb
-0.0295406766678187,0.577534598848784,-1.0830802988246877,-0.5663362823274096,-1.2905931901725445,0.1991677439207362,-1.587149202555206,-1.6177594059157192,-34.27827527717221,26.95888167739092,24.185221676610105,1.836456382979229,2.1958898876338084,5.557945668518173,-1.0,11.918555555555557,0.0,179.14461336678136,1.0767592708297906,97.61470492582885,1679.0,1435.0,1000.0,1528.0,1567.0,1011.0,242.0,294.13,1649159591.35013,1649159592.4167254,e650299c-7fc8-42db-a81b-744ac0e457fb
0.2454599182996771,1.0351486343456318,-1.018143774951654,-0.8976413807062776,-1.3516415486185107,0.0641859707266427,-1.5952762028485186,-1.6255730302537466,-33.452066896330045,26.157068961172843,25.591227407721902,2.279035556973976,3.938805434597796,5.619507571197207,-1.0,11.86611111111111,0.0,178.97190672124822,1.121605984612944,97.61028123997644,1745.0,1435.0,1000.0,1528.0,1614.0,1011.0,242.0,294.13,1649159594.3957083,1649159595.541045,07033bae-7270-4979-81f4-afac13964041
0.2358312381124709,1.0383536288563924,-1.0224581936183217,-0.8993534517238272,-1.355709430406943,0.0624602042436125,-1.5965362876570597,-1.6163004479918217,-33.18186213769412,25.89112682177831,25.5485223884041,2.277170956962248,3.9492249345303656,5.633333962764944,-1.0,11.879666666666663,0.0,178.96277703505766,1.14170098219152,97.53867581344772,1745.0,1435.0,1000.0,1528.0,1614.0,1011.0,242.0,294.13,1649159595.6486433,1649159596.9685342,07033bae-7270-4979-81f4-afac13964041
0.2478979056078701,1.0372989939113408,-1.0248276998968946,-0.899148002976197,-1.358873338654319,0.0619123420040112,-1.602329939418534,-1.6259017483127172,-33.3883833350008,26.131188830776683,25.317557473274025,2.276809035133565,3.9486067168480297,5.64842762736577,-1.0,11.881999999999998,0.0,178.9553579317992,1.1243575192053037,97.455664729915,1745.0,1435.0,1000.0,1528.0,1614.0,1011.0,242.0,294.13,1649159597.078122,1649159598.1964874,07033bae-7270-4979-81f4-afac13964041
0.5223084361948922,1.5002837661870945,-0.9468120538899376,-1.1993493774677515,-1.4061539065105482,-0.1126092123519587,-1.6091371375560168,-1.6362015731375734,-32.53650191945618,25.49926243980154,25.97609301615908,2.5620458828052723,5.715111387713165,5.67134646984404,-1.0,11.824333333333334,0.0,178.6196860083092,1.176857673396868,97.31789070743696,1813.0,1435.0,1000.0,1528.0,1662.0,1011.0,242.0,294.13,1649159600.3358853,1649159601.479085,1de6a110-5ad3-4b45-a1bd-5b9509a3e501
0.516569578687114,1.5029956850405657,-0.9426756909026104,-1.2008286071438623,-1.405318415691564,-0.1150882896680904,-1.604083101357612,-1.63710554708482,-32.145237809957464,25.5465874522936,25.840584350630213,2.560506882809608,5.724159621740113,5.657752559154854,-1.0,11.834,0.0,178.6105669468573,1.1744556998228122,97.22757815168151,1813.0,1435.0,1000.0,1528.0,1662.0,1011.0,242.0,294.13,1649159601.5877595,1649159602.9140828,1de6a110-5ad3-4b45-a1bd-5b9509a3e501
0.5203114781137758,1.496063034375667,-0.9437303264563356,-1.206165338554947,-1.40334336990029,-0.1014114533392328,-1.6004951461488577,-1.6187587085610102,-32.3308857711585,25.39792273412294,26.13296031793743,2.602194044534953,5.697468302877576,5.650849488811144,-1.0,11.833333333333334,0.0,178.62092151363905,1.1794319788098262,97.18670705859807,1813.0,1435.0,1000.0,1528.0,1662.0,1011.0,242.0,294.13,1649159603.022106,1649159604.1358843,1de6a110-5ad3-4b45-a1bd-5b9509a3e501
-0.8232416361951939,-0.7967250860714673,-1.1797906762750836,0.5049275049420907,-1.023293684525891,0.5252394994806765,-1.4944146255605968,-1.516370235638225,-35.88932184380817,31.19991328338703,19.29707817455477,0.1743831341910851,-3.0416478882383307,5.027012530480319,-1.0,11.956333333333331,0.0,179.62570912461985,0.9979765842859188,97.08095675749858,1491.0,1435.0,1000.0,1528.0,1420.0,1011.0,242.0,294.13,1649159605.2503862,1649159606.387704,525330f9-f49f-46b3-9d2e-73be887b6952
-0.8228444358269783,-0.798354977346939,-1.1868854992415765,0.516103895729399,-1.0272793855279303,0.5151314401841256,-1.5040707103738409,-1.5372164210184245,-36.00658927019118,31.125889727788405,19.03333631600074,0.1255127185931416,-3.04642052629251,5.0553375980329145,-1.0,11.957555555555556,0.0,179.66460477521332,1.0060114955026618,97.01846735678214,1491.0,1435.0,1000.0,1528.0,1420.0,1011.0,242.0,294.13,1649159606.4960496,1649159607.6168346,525330f9-f49f-46b3-9d2e-73be887b6952
-0.8310897681169687,-0.797766025012668,-1.1877072933268382,0.5132961014915595,-1.0288407942171969,0.5211990150739433,-1.5037282958664635,-1.5173289959725846,-35.97976903129416,31.151638155568417,19.607726238696856,0.1457158966935527,-3.04919818852764,5.058961922652331,-1.0,11.961777777777778,0.0,179.6746299750951,0.9997295001613464,96.96813645169824,1491.0,1435.0,1000.0,1528.0,1420.0,1011.0,242.0,294.13,1649159607.7253635,1649159608.844773,525330f9-f49f-46b3-9d2e-73be887b6952
-1.0287761464397525,-1.167074232996362,-1.201865711286738,0.7954873668729867,-0.9512119388603376,0.6077502999063145,-1.4706384688651055,-1.492754601091501,-36.31123065014295,32.78410523778537,17.46723853483319,-0.2867373958448369,-4.448625081013438,4.87928241944108,-1.0,11.918,0.0,179.81469590549466,0.9892461439966636,96.76031428582225,1428.0,1435.0,1000.0,1528.0,1368.0,1011.0,242.0,294.13,1649159610.7201526,1649159611.9186306,d69976c2-4f66-4e4c-a922-acc582658164
-1.0345484279475563,-1.1647469119701754,-1.2099258688895491,0.7961579503033884,-0.9588513360083089,0.6074478799223402,-1.4801844332155492,-1.5137399446321191,-36.42882147262316,32.793719621036324,17.768746871702593,-0.2892783830351003,-4.442329565146562,4.914892412562852,-1.0,11.91111111111111,0.0,179.79670670504063,0.9891067773068803,96.57732820558824,1428.0,1435.0,1000.0,1528.0,1368.0,1011.0,242.0,294.13,1649159612.0269265,1649159613.3544097,d69976c2-4f66-4e4c-a922-acc582658164
-1.030261950189625,-1.150257037493243,-1.195488588445484,0.7916742453265645,-0.9483718188266294,0.5952195935806862,-1.470204561434515,-1.4923469923877206,-36.42290218438403,32.81860794255372,17.555561161122206,-0.3057899708250253,-4.384668453044123,4.868137325872094,-1.0,11.917,0.0,179.80605040382522,0.9932947386271886,96.45048779815156,1428.0,1435.0,1000.0,1528.0,1368.0,1011.0,242.0,294.13,1649159613.4624393,1649159614.5747776,d69976c2-4f66-4e4c-a922-acc582658164
-1.370912625747413,-1.7374603671736937,-1.2491227135949208,1.24697960214095,-0.8543328397774337,0.7539583093807319,-1.4491474496644037,-1.4789785877342825,-37.22487646445699,35.610443653264085,17.776768139800964,-0.9606718526934732,-6.642732935640548,4.714727041070617,-1.0,11.88088888888889,0.0,179.97977398863475,0.9404440273480668,96.1924842324435,1364.0,1435.0,1000.0,1528.0,1312.0,1011.0,242.0,294.13,1649159615.8988578,1649159617.039492,a401f892-79e0-442d-bd55-a6b031b704f7
-1.3527372745747996,-1.7245307975121884,-1.251519613521704,1.2330365055499894,-0.8586609546763387,0.7540815784032038,-1.452653772287586,-1.4719522450563376,-37.39968616338754,35.471410182563375,17.749927944927432,-0.93007593343123,-6.591201659214804,4.730220767237416,-1.0,11.881333333333334,0.0,179.99021962460543,0.9302931685867296,96.01681176699076,1364.0,1435.0,1000.0,1528.0,1312.0,1011.0,242.0,294.13,1649159617.1529458,1649159618.2675903,a401f892-79e0-442d-bd55-a6b031b704f7
-1.3667625643552348,-1.7354469701416475,-1.2549711492469913,1.2398984813040677,-0.8595649279382389,0.7585055664011923,-1.4528044347589824,-1.468500708433529,-37.26292458504211,35.44140526504916,17.742351525356824,-0.9359167128959062,-6.634108932681339,4.735207923677144,-1.0,11.884,0.0,179.98465529716157,0.9241845011535704,95.8771913167071,1364.0,1435.0,1000.0,1528.0,1312.0,1011.0,242.0,294.13,1649159618.3753786,1649159619.4945538,a401f892-79e0-442d-bd55-a6b031b704f7
-1.6192999969335795,-2.1869821957030515,-1.2836380715942033,1.5936943062467197,-0.7769472466014884,0.8631609610361402,-1.4297394051901076,-1.4537494992370947,-37.88357592692866,37.83379805069304,15.993193616769297,-1.4849779744246303,-8.353081594900173,4.573499492281838,-1.0,11.816333333333333,0.0,-179.84002831821627,0.9103069441422798,95.5469425634181,1297.0,1435.0,1000.0,1528.0,1253.0,1011.0,242.0,294.13,1649159621.429205,1649159622.5652332,681808e1-dd97-43ca-85fb-2857f4fe7a4e
-1.617204421256736,-2.182941702879404,-1.2783922854203915,1.5915028571198515,-0.7735231056425057,0.8617502156754656,-1.425219536779028,-1.451147150167171,-37.82323068747673,37.87221127974598,16.10532061547898,-1.4826406342794236,-8.338745157115794,4.5559040407978655,-1.0,11.824222222222224,0.0,-179.8469465409356,0.9187279270586708,95.2903019999044,1297.0,1435.0,1000.0,1528.0,1253.0,1011.0,242.0,294.13,1649159622.6734898,1649159623.8005364,681808e1-dd97-43ca-85fb-2857f4fe7a4e
-1.6140268151881465,-2.169067060640989,-1.2807754884345626,1.5887772412832926,-0.7781525444511429,0.8530118120532083,-1.4322869679363517,-1.4620633192761083,-37.9384887129004,37.87037423517023,16.40296158002477,-1.4962700902948365,-8.28834456126876,4.5775154702221705,-1.0,11.823333333333332,0.0,-179.8350999572752,0.9076827048289832,95.09755633825635,1297.0,1435.0,1000.0,1528.0,1253.0,1011.0,242.0,294.13,1649159623.9134128,1649159625.0234115,681808e1-dd97-43ca-85fb-2857f4fe7a4e
-0.5258777324806637,-0.2725154534286031,-1.1495601561380873,0.1699118958749088,-1.118594953095683,0.334270590290786,-1.557459410318881,-1.5839014709497596,-35.96171325578206,29.520411387435,21.20444114492616,0.49160289321149,-1.0488000276445049,5.26919192971661,-1.0,11.970222222222224,0.0,179.5357509797913,1.0741582612744525,94.94470049918102,1553.0,1435.0,1000.0,1528.0,1471.0,1011.0,242.0,294.13,1649159625.7307308,1649159626.7765253,453a0316-5aba-4068-847c-be3f29e2a548
-0.5168495063573487,-0.2672022837489094,-1.1391529551992006,0.1741556374181838,-1.1093355249196748,0.3229824353245987,-1.5499953248408271,-1.5805386883531052,-35.91263847539784,29.5310236539615,20.96389969484025,0.4572389790033694,-1.0269503917888447,5.2321376308036,-1.0,11.97277777777778,0.0,179.53189268182015,1.0566069992691125,95.12110834833436,1553.0,1435.0,1000.0,1528.0,1471.0,1011.0,242.0,294.13,1649159626.885266,1649159628.0926485,453a0316-5aba-4068-847c-be3f29e2a548
-0.5289298743110754,-0.2678049324083044,-1.1456725219375998,0.177264756136422,-1.1145676140153322,0.3190104336182385,-1.557131240261451,-1.5881402882915463,-35.932960447250736,29.469871555702543,20.670749991967067,0.4405129758630209,-1.0272658202551834,5.257862600499726,-1.0,11.97222222222222,0.0,179.5277778723002,1.052804659045694,95.263395608034,1553.0,1435.0,1000.0,1528.0,1471.0,1011.0,242.0,294.13,1649159628.201165,1649159629.3309906,453a0316-5aba-4068-847c-be3f29e2a548
-0.5205393602364202,-0.3006931134457797,-1.223008832453034,-0.3983090512993786,-1.2403651262053992,0.9080270481794576,-1.464826738765484,-1.4953317480673605,-35.87133439432266,27.98231691266184,24.550629856624305,3.049402933630029,-1.1195024287999011,5.400299008309226,-1.0,11.95588888888889,0.0,179.54513110625146,1.275284043283533,95.57923266217428,1553.0,1522.0,1000.0,1528.0,1471.0,1011.0,242.0,294.13,1649159631.258076,1649159632.4003174,48bab254-b084-4b71-a8c9-264c6a0182ca
-0.5306638590940703,-0.3002723550877578,-1.2339617058003265,-0.3909720772471681,-1.2500425750866733,0.9006243327773541,-1.480618340576353,-1.5047199282065082,-36.11563087376842,28.105583321392142,24.414261618341826,3.016344685238451,-1.1165822322509953,5.45059536625893,-1.0,11.953444444444443,0.0,179.5299088913212,1.2794727397978145,95.60065972451052,1553.0,1522.0,1000.0,1528.0,1471.0,1011.0,242.0,294.13,1649159632.5083091,1649159633.6256664,48bab254-b084-4b71-a8c9-264c6a0182ca
-0.543523287630068,-0.3302382384956352,-1.2483726895599212,-0.3886973524674944,-1.2568141597220577,0.92860475614819,-1.4832480830565018,-1.514502569467722,-36.09948764942508,27.95190353141827,24.45185778469977,3.072366997226639,-1.230616238925427,5.479727917951225,-1.0,11.952000000000002,0.0,179.54525101401688,1.2958863958513938,95.61235680291912,1553.0,1522.0,1000.0,1528.0,1471.0,1011.0,242.0,294.13,1649159633.7336235,1649159634.7774954,48bab254-b084-4b71-a8c9-264c6a0182ca
-0.5411061183143276,-0.3485187643282333,-1.3348632483260754,-1.0171576222378496,-1.401620341025776,1.5553028476961444,-1.394511819855787,-1.4232061408565142,-36.15146499685365,26.63503330506793,28.749384241420035,5.885916224263244,-1.265028773676072,5.667356849748653,-1.0,11.935666666666666,0.0,179.56559738864445,1.489459174435171,95.65649803879518,1553.0,1613.0,1000.0,1528.0,1471.0,1011.0,242.0,294.13,1649159636.7911725,1649159637.9260533,568b1c7f-d3e0-4918-a353-5d4438d7ce02
-0.52721780408205,-0.3311241320341781,-1.3219473814474303,-1.0219103311531903,-1.392895624383066,1.5387300099863308,-1.3858555861982158,-1.4159195642674416,-36.03208902046475,26.555150256702618,28.277833066194106,5.859494284384465,-1.1950512918530851,5.627057356388278,-1.0,11.931777777777777,0.0,179.54979081308522,1.5043282946728445,95.53531682254084,1553.0,1613.0,1000.0,1528.0,1471.0,1011.0,242.0,294.13,1649159638.033866,1649159639.3596451,568b1c7f-d3e0-4918-a353-5d4438d7ce02
-0.5280472678664949,-0.3359842196621279,-1.3273832767689735,-1.015048898545852,-1.3966375280061465,1.5395589257647937,-1.390523378102831,-1.4165841218385296,-35.97907835017708,26.551078579820462,28.577587622082493,5.845656061812901,-1.2175009539712491,5.646143239855016,-1.0,11.936222222222222,0.0,179.56152052461985,1.4926534736688828,95.47714410137982,1553.0,1613.0,1000.0,1528.0,1471.0,1011.0,242.0,294.13,1649159639.468127,1649159640.7971046,568b1c7f-d3e0-4918-a353-5d4438d7ce02
-0.5296420955960494,-0.3554081345540318,-1.4143170640579268,-1.5647602331922414,-1.5360248185824863,2.0877293110249746,-1.3260563530366578,-1.3523126814331303,-35.98877334518196,25.639500247672046,31.76155097974508,8.307613178163463,-1.256348579605606,5.8603946148411294,-1.0,11.88,0.0,179.55223146734863,1.6864058648834903,95.34266754245108,1553.0,1710.0,1000.0,1528.0,1471.0,1011.0,242.0,294.13,1649159641.892865,1649159642.844746,8834aab5-44f4-4ddb-81dc-1c0da5e82818
-0.5220383119496858,-0.3488042006279279,-1.406577952681143,-1.559997112028884,-1.5287952188112852,2.077104064002566,-1.3239777614456023,-1.3525236087230668,-36.23689654844057,25.74518501826139,31.83227469695237,8.273964723084624,-1.2305445111358746,5.837762602590918,-1.0,11.877,0.0,179.54352980634607,1.7140097898228812,95.13925312531948,1553.0,1710.0,1000.0,1528.0,1471.0,1011.0,242.0,294.13,1649159642.9542933,1649159644.0681756,8834aab5-44f4-4ddb-81dc-1c0da5e82818
-0.5338721418650806,-0.3557204161239764,-1.4060783019910894,-1.5656247607885616,-1.528992449610057,2.089319208072216,-1.317718976359775,-1.3419651954092051,-35.95004876292063,25.723689252396497,31.89341941462068,8.314144899552309,-1.2583324918185357,5.827848437302751,-1.0,11.88125,0.0,179.5558156091156,1.7110258064618549,94.92760918401166,1553.0,1710.0,1000.0,1528.0,1471.0,1011.0,242.0,294.13,1649159644.176447,1649159645.4993775,8834aab5-44f4-4ddb-81dc-1c0da5e82818
-0.5069879815693946,-0.3517374561803816,-1.4625016085596336,-2.10593949816677,-1.645871355040455,2.604500807210788,-1.2354535362633168,-1.255423137447492,-35.80582531801226,25.157153606764272,35.05919913993744,10.68465651544271,-1.209535210129346,5.947367288705959,-1.0,11.848888888888888,0.0,179.56659156062364,1.913124460576348,94.56843827927344,1553.0,1814.0,1000.0,1528.0,1471.0,1011.0,242.0,294.13,1649159647.2375982,1649159648.370401,42c509e3-bee3-4a80-83cc-63bd81282869
-0.503385785690247,-0.3474504325830106,-1.460542999439656,-2.1031180015647983,-1.6440771043616609,2.5983373504013616,-1.2389324660355348,-1.2740367764989238,-36.14365519046012,25.31718231736597,35.143475477189575,10.665443554467592,-1.1920326346794323,5.947567311801353,-1.0,11.833333333333334,0.0,179.55071971881236,1.9242575266278603,94.34462664055047,1553.0,1814.0,1000.0,1528.0,1471.0,1011.0,242.0,294.13,1649159648.478337,1649159649.6071825,42c509e3-bee3-4a80-83cc-63bd81282869
-0.5027968335024706,-0.3546411270788388,-1.4620633182029958,-2.101529197626432,-1.6452550090899936,2.6020354244066968,-1.2369053727341293,-1.2604908684168257,-35.87074811784554,25.293803996168748,34.8765127040193,10.67003380772624,-1.218859988147814,5.947325647433448,-1.0,11.855777777777778,0.0,179.56146284746688,1.942219738348263,94.15058779641956,1553.0,1814.0,1000.0,1528.0,1471.0,1011.0,242.0,294.13,1649159649.716308,1649159650.8887403,42c509e3-bee3-4a80-83cc-63bd81282869
-0.5356340677773966,-0.2598532573205794,-1.0387560135434752,0.7585921286550946,-0.9575364656882724,-0.2538311537157987,-1.6058466721973594,-1.62092824673583,-35.17921611651091,30.81044641509125,16.64925296219666,-2.144121757480879,-1.0319077649408768,4.967966158761751,-1.0,11.971111111111112,0.0,179.51217772023583,0.9364061404620218,93.95154166471715,1553.0,1349.0,1000.0,1528.0,1471.0,1011.0,242.0,294.13,1649159651.7390685,1649159652.8727238,638d762e-83b5-434e-847c-ec3692fe3d1f
-0.5371067220810058,-0.2651784799864876,-1.046408559851635,0.7481915109000792,-0.9642686021229762,-0.2360278169085988,-1.6103435319079011,-1.6272922245190278,-35.42453148888811,30.850654330238186,17.030716851966087,-2.080831217594069,-1.05272912064712,4.99358382310454,-1.0,11.96225,0.0,179.51660178554326,0.9343348470578215,94.33607979716906,1553.0,1349.0,1000.0,1528.0,1471.0,1011.0,242.0,294.13,1649159652.9812143,1649159654.1007297,638d762e-83b5-434e-847c-ec3692fe3d1f
-0.538868647828604,-0.2698857138215972,-1.0519704620076176,0.7469555335694481,-0.9684761873521118,-0.2289012226917546,-1.6138673868895692,-1.6386921576838245,-35.47736905058688,30.831867840320403,17.191782722134093,-2.06243115254655,-1.0716383992549927,5.011530925836941,-1.0,11.96377777777778,0.0,179.5409495126596,0.946870867760062,94.63073112232378,1553.0,1349.0,1000.0,1528.0,1471.0,1011.0,242.0,294.13,1649159654.209308,1649159655.3401573,638d762e-83b5-434e-847c-ec3692fe3d1f
-0.5433386580197089,-0.2513690599781287,-0.9668501310021512,1.325967655886069,-0.8403760394398203,-0.8039294794075701,-1.7042187730466865,-1.7319680402525135,-35.73484870020005,33.3835624852839,13.774189936206122,-4.640226390042566,-1.0359266082537884,4.850936446502074,-1.0,11.929666666666666,0.0,179.54581412516848,0.7389141376710611,95.22099758821612,1553.0,1264.0,1000.0,1528.0,1471.0,1011.0,242.0,294.13,1649159657.2670982,1649159658.612048,dd2d9cb9-2d64-4529-b265-b8c4707f10cd
-0.5610757065028644,-0.2520401914463812,-0.979327703372008,1.3153802158893038,-0.8519085474772448,-0.7928078686010314,-1.7147651375766009,-1.735214129632903,-35.96406407348044,33.31991224397466,13.789122773672938,-4.592508220623961,-1.0364423291449496,4.898381070167427,-1.0,11.926555555555556,0.0,179.55270047367165,0.7237061938044823,95.40927706505686,1553.0,1264.0,1000.0,1528.0,1471.0,1011.0,242.0,294.13,1649159658.7202322,1649159659.845805,dd2d9cb9-2d64-4529-b265-b8c4707f10cd
-0.5473517508479344,-0.2566970219250211,-0.9820670168682388,1.3143940636685998,-0.8541273912224131,-0.7860554622091899,-1.7165046031222404,-1.743911457706511,-36.03490664085598,33.3990768339771,13.953371629782009,-4.574731230082851,-1.0549135008032742,4.907191332055214,-1.0,11.923,0.0,179.55714920355103,0.7293167673208248,95.55729940692954,1553.0,1264.0,1000.0,1528.0,1471.0,1011.0,242.0,294.13,1649159659.958733,1649159661.069459,dd2d9cb9-2d64-4529-b265-b8c4707f10cd
-0.5518727122308659,-0.2300451593598426,-0.9100039013589176,1.864739395076397,-0.7437911509404986,-1.3438060138829055,-1.8187506582719792,-1.8417214670831152,-36.48774386372586,36.06452031975208,10.276237484582134,-7.049071718275266,-0.9823030627195866,4.805709478235184,-1.0,11.909444444444444,0.0,179.53684532787832,0.5303119547054936,95.9474420890504,1553.0,1178.0,1000.0,1528.0,1471.0,1011.0,242.0,294.13,1649159663.412736,1649159664.552047,7da077b5-ef5f-4a2e-bc6f-91229c49db10
-0.558236683039495,-0.2226292938401178,-0.9133173746171108,1.853760230453976,-0.7484589400803776,-1.3398876985071575,-1.822221919280924,-1.8478093224976424,-36.62980621399314,36.00387967439733,10.404276682597926,-7.0161185183578665,-0.9534776988006872,4.822433323202259,-1.0,11.899,0.0,179.5378880700916,0.5200972407901974,96.05940482665498,1553.0,1178.0,1000.0,1528.0,1471.0,1011.0,242.0,294.13,1649159664.6609433,1649159665.7824695,7da077b5-ef5f-4a2e-bc6f-91229c49db10
-0.5561175509993185,-0.223565042847901,-0.9115707886482376,1.852846943677043,-0.7466641424037155,-1.337438203561258,-1.820694476996144,-1.846238600033316,-36.72065876199914,36.05558731768978,10.514999148907778,-7.008152363462301,-0.9571015786203988,4.815383376210535,-1.0,11.915444444444445,0.0,179.55786409668417,0.5130118029448737,96.16505191600702,1553.0,1178.0,1000.0,1528.0,1471.0,1011.0,242.0,294.13,1649159665.8967876,1649159667.0513108,7da077b5-ef5f-4a2e-bc6f-91229c49db10
-0.5673350357392731,-0.2181001153534928,-0.8500321182048403,2.1806605055584023,-0.6663885806308011,-1.6584995988344622,-1.8668108617688493,-1.890903147858052,-37.220727005419,38.402628559485926,8.582119468702551,-8.451024067200496,-0.9523541920657804,4.687317504328356,-1.0,11.821666666666667,0.0,179.56391109082938,0.3944900085928099,96.3473041303602,1553.0,1088.0,1000.0,1528.0,1471.0,1011.0,242.0,294.13,1649159668.7043622,1649159669.8762834,17a93df1-cf6a-4654-b979-7d593a5c422b
-0.5647463853978602,-0.2156758242360118,-0.8464436182089757,2.172045366007884,-0.6654024281832138,-1.6503364395370823,-1.85966124720112,-1.88327415328632,-36.96420443153613,38.36820832187919,8.992633372310005,-8.41310164154302,-0.9474279884095012,4.671893594685352,-1.0,11.830555555555556,0.0,179.5721832088242,0.3878362541183885,96.34514427276264,1553.0,1088.0,1000.0,1528.0,1471.0,1011.0,242.0,294.13,1649159669.9839802,1649159671.1047108,17a93df1-cf6a-4654-b979-7d593a5c422b
-0.5517072576776293,-0.2107450626690074,-0.8305966920461295,2.1634713158664503,-0.6521989408918891,-1.649131140474223,-1.842499432507866,-1.874070049902438,-36.8586084819949,38.33125320264708,8.85544873350473,-8.39047683968842,-0.9264065198612348,4.608291066133074,-1.0,11.834222222222222,0.0,179.5610849103328,0.4005184716995823,96.33360960107431,1553.0,1088.0,1000.0,1528.0,1471.0,1011.0,242.0,294.13,1649159671.2131307,1649159672.3381128,17a93df1-cf6a-4654-b979-7d593a5c422b
-0.5380928744968432,-0.286426775973974,-1.1593296449420958,0.1248250176676723,-1.1270232736352377,0.3906390469267105,-1.5455072310444362,-1.562600557044859,-35.82646733593622,29.00225119070508,21.39167254193744,0.7161518158512447,-1.0986695711325594,5.275463858255101,-1.0,11.970333333333334,0.0,179.55621119090503,1.0232947793047849,96.34311267093952,1553.0,1435.0,1000.0,1528.0,1471.0,1011.0,242.0,294.13,1649159673.8575404,1649159674.995702,d37a8d74-b608-4a69-9fa8-542b76c93429
-0.5413143060852197,-0.2997332584597447,-1.163129621216431,0.1437591398226539,-1.1262475000284593,0.3843013758144888,-1.551476746323635,-1.5737506652383109,-35.97441147705556,29.125660006562995,21.077710625353976,0.6597038417909651,-1.14731722292325,5.286045334957517,-1.0,11.976,0.0,179.56005886413746,1.0643365322537452,96.38296454801684,1553.0,1435.0,1000.0,1528.0,1471.0,1011.0,242.0,294.13,1649159675.1034772,1649159676.221575,d37a8d74-b608-4a69-9fa8-542b76c93429
-0.529730301406311,-0.2984315373122891,-1.1488632747911895,0.1444165745741289,-1.112901563537083,0.3814218115644494,-1.5354747640970985,-1.5643230383973523,-35.74621321155831,29.03274150941481,21.05218749945115,0.6519552662315984,-1.14300200742112,5.225962668047577,-1.0,11.972,0.0,179.54669294284167,1.053586656415824,96.35831743094188,1553.0,1435.0,1000.0,1528.0,1471.0,1011.0,242.0,294.13,1649159676.3294466,1649159677.4536602,d37a8d74-b608-4a69-9fa8-542b76c93429
-0.4147005480341776,-0.2303859297601895,-0.7704550748774661,0.0891411002123929,-0.7748516721285367,0.3459926521453352,-1.143508464117584,-1.1648203272271618,-33.1626201129296,28.70315690233064,21.21400182070928,0.7150127969567753,-0.876720734255597,3.7015570971601672,-1.0,11.990222222222222,0.0,179.51622574568398,1.0814919753103094,96.29716902403248,1553.0,1435.0,1000.0,1435.0,1471.0,1011.0,242.0,294.13,1649159679.387303,1649159680.5364835,d2878d8a-bd47-4e3e-9c31-43bec86de0e1
-0.4085370954457853,-0.2293997774357856,-0.7602100446952087,0.0977973251531847,-0.7664008918796252,0.3385006351372443,-1.1334825757391742,-1.1555751421037572,-32.78104816320837,28.74941494211613,21.49473634067173,0.6797045202559787,-0.8786263806676488,3.662646027963559,-1.0,11.988,0.0,179.5428604478074,1.073198169093308,96.30492280656026,1553.0,1435.0,1000.0,1435.0,1471.0,1011.0,242.0,294.13,1649159680.6494446,1649159681.7503426,d2878d8a-bd47-4e3e-9c31-43bec86de0e1
-0.4186177646921655,-0.241781467833074,-0.7729067599346303,0.0911544942793678,-0.7762624182758465,0.3556213321497628,-1.1414950684086678,-1.165149044401289,-32.95595595599079,28.74233781999221,21.25578594300892,0.732356350431172,-0.9216966313593552,3.702780024332926,-1.0,11.988,0.0,179.50896449568634,1.090159876679977,96.34318780302038,1553.0,1435.0,1000.0,1435.0,1471.0,1011.0,242.0,294.13,1649159681.8587806,1649159682.9815738,d2878d8a-bd47-4e3e-9c31-43bec86de0e1
-0.2691882850301952,-0.1620127026825211,-0.3478613295465489,0.0624739008409855,-0.3968128389623286,0.28102987902455,-0.7137649951346203,-0.7404048137977245,-29.97220516484859,28.73656255290312,21.27599034983843,0.652067092287799,-0.6133358780147806,2.009093814099882,-1.0,11.988666666666669,0.0,179.49427503551138,1.0893522423845248,96.33872768949236,1553.0,1435.0,1000.0,1330.0,1471.0,1011.0,242.0,294.13,1649159684.9169283,1649159686.054253,4a9df8d1-6ef5-44b0-a66e-f6e343fe0dbf
-0.2781321389669571,-0.1582050590888791,-0.3482448331881467,0.0720340987552139,-0.3974976669668249,0.268470135553288,-0.7167508459534901,-0.7353370842817583,-29.79511811288083,28.716475488188262,21.25869968307564,0.6022123368502713,-0.6013567491266668,2.015452795991702,-1.0,11.989333333333336,0.0,179.47297091658018,1.0839335663531446,96.3631782489012,1553.0,1435.0,1000.0,1330.0,1471.0,1011.0,242.0,294.13,1649159686.1626005,1649159687.296632,4a9df8d1-6ef5-44b0-a66e-f6e343fe0dbf
-0.2798442090834908,-0.1546987398047632,-0.3571612943417707,0.0623643283795666,-0.4080577157523672,0.2728667305772176,-0.7253933778669589,-0.7530878313316601,-29.818714767331784,28.731809646554986,21.038756384306577,0.6335154393354369,-0.5854639970891933,2.0543016799807208,-1.0,11.989666666666668,0.0,179.4801061875331,1.0890859124387633,96.3739092349972,1553.0,1435.0,1000.0,1330.0,1471.0,1011.0,242.0,294.13,1649159687.4046948,1649159688.7287223,4a9df8d1-6ef5-44b0-a66e-f6e343fe0dbf
-0.1801984469174704,-0.1269199255338422,-0.008765736062146,0.0965290238787413,-0.0875395780539165,0.1961172465465926,-0.3800849548182694,-0.3961921112032726,-27.40359442168507,29.26887006715572,21.121272105586364,0.406118793104669,-0.4812123935054583,0.6564429865874252,-1.0,11.982666666666669,0.0,179.46380783835366,1.0771072784543767,96.36718225757464,1553.0,1435.0,1000.0,1210.0,1471.0,1011.0,242.0,294.13,1649159689.8328545,1649159690.971739,46b469f3-aad8-43ef-a148-ce2999be39d3
-0.1702443351737006,-0.1033640347449355,-0.0057486581336247,0.0874153339302893,-0.0901605517040776,0.1802369092600823,-0.3829108293752432,-0.4103176487645255,-27.33395714488959,29.223132330240173,20.952846381656943,0.3908470414529962,-0.3905510224976002,0.6625239579102299,-1.0,11.978333333333332,0.0,179.46924315111315,1.0805785679464606,96.39055061145498,1553.0,1435.0,1000.0,1210.0,1471.0,1011.0,242.0,294.13,1649159691.080721,1649159692.4076731,46b469f3-aad8-43ef-a148-ce2999be39d3
-0.1706552319365811,-0.109993169517924,-0.0061732513772996,0.0903463973681816,-0.0907768967717815,0.1857566221682625,-0.3830888845987419,-0.4000178347738368,-27.321814779065964,29.42259235702146,21.19290506519464,0.3979842939679145,-0.4180122939941228,0.6636845070082754,-1.0,11.975888888888887,0.0,179.46220805626805,1.075463372872421,96.41615016046418,1553.0,1435.0,1000.0,1210.0,1471.0,1011.0,242.0,294.13,1649159692.515828,1649159693.6320236,46b469f3-aad8-43ef-a148-ce2999be39d3
-0.0758503865453785,-0.0718531826041237,0.3131011907201099,0.1194603496908548,0.2000487065087748,0.1003421457014442,-0.072523766348846,-0.0960993799589889,-25.163235976266343,29.96389811305739,20.581516537272265,0.1608478487786376,-0.2681583965238487,-0.6045199522268486,-1.0,11.967333333333334,0.0,179.4320383517942,1.0543485545313651,96.35218923343656,1553.0,1435.0,1000.0,1071.0,1471.0,1011.0,242.0,294.13,1649159694.2157557,1649159695.482477,1f6ff507-f02c-4faf-bb5e-ad7a5c9178ed
-0.0719846696255586,-0.0683950753452521,0.3149288594001936,0.1223530628541078,0.2018895239267932,0.0962134551466692,-0.0745223681559063,-0.0976509260349857,-25.40340329479888,30.0678231591214,20.8541492228406,0.1457473801530151,-0.2561434111215044,-0.6060552308351881,-1.0,11.968,0.0,179.4422244405764,1.0546754431161736,96.39632439803336,1553.0,1435.0,1000.0,1071.0,1471.0,1011.0,242.0,294.13,1649159695.5951526,1649159696.7145493,1f6ff507-f02c-4faf-bb5e-ad7a5c9178ed
-0.0716953982894292,-0.0738912306312938,0.316874866322208,0.1171856253488367,0.2030992039449526,0.1040369293359216,-0.0688947259070252,-0.0932198152419433,-25.228172680368868,30.08379797038121,20.55252989809689,0.1752271681164419,-0.2745644702803479,-0.6193878086326897,-1.0,11.960111111111113,0.0,179.4410223272825,1.0492019002700548,96.38344266125873,1553.0,1435.0,1000.0,1071.0,1471.0,1011.0,242.0,294.13,1649159696.8219783,1649159697.9374015,1f6ff507-f02c-4faf-bb5e-ad7a5c9178ed
-0.6512401811876033,-0.3378217502247851,-1.523615721813436,0.2014117879952284,-1.458940499249424,0.3857674553513598,-1.9413339590839065,-1.96254996614897,-38.29651499194072,30.04728196966116,20.640451547359017,0.5198692218054838,-1.299797072057177,6.778918989717179,-1.0,11.904666666666666,0.0,179.56988978308286,1.0690849011090793,96.6041807148552,1553.0,1435.0,1000.0,1613.0,1471.0,1011.0,242.0,294.13,1649159699.8658502,1649159701.0119207,c9a73493-af05-4a19-a77b-e4b5fa1b5f75
-0.6521304579037451,-0.3465738526822901,-1.5187534379728895,0.205329003543539,-1.451311507881463,0.3925061616590845,-1.9314587237501488,-1.96442639685773,-38.16643945230295,29.88961101103467,20.94987167628842,0.5254874056022729,-1.3364625272018231,6.747407395670481,-1.0,11.912777777777778,0.0,179.5774075446293,1.0730032122527795,96.4206580853164,1553.0,1435.0,1000.0,1613.0,1471.0,1011.0,242.0,294.13,1649159701.1251214,1649159702.2288153,c9a73493-af05-4a19-a77b-e4b5fa1b5f75
-0.6636081781059262,-0.3577502464102833,-1.5255606355220224,0.2124786067865584,-1.454297360932389,0.394368893444978,-1.938197441985472,-1.968151868000088,-38.378883565778416,29.93719567218675,20.542485743571813,0.5133500722348541,-1.374577522629342,6.768315358721403,-1.0,11.902444444444445,0.0,179.54208180624198,1.060557587799828,96.30091120878774,1553.0,1435.0,1000.0,1613.0,1471.0,1011.0,242.0,294.13,1649159702.33667,1649159703.4687474,c9a73493-af05-4a19-a77b-e4b5fa1b5f75
-0.7629882558251666,-0.3840295642586601,-1.825443354779301,0.3149946028754709,-1.726328336518914,0.3408843840383023,-2.2815593248297,-2.308685146109662,-40.58126863155005,30.9637718452442,20.221661313375776,0.1526256419535474,-1.4863250119651088,8.03178376652855,-1.0,11.851666666666668,0.0,179.5881582623829,1.057564292969972,96.06223707843084,1553.0,1435.0,1000.0,1694.0,1471.0,1011.0,242.0,294.13,1649159705.3968933,1649159706.3517458,54f884dc-6d4e-4372-b450-29e5547f5066
-0.7591828022673776,-0.4001821929539996,-1.844143021308316,0.3177640468575745,-1.740185986355269,0.354991290505088,-2.296732953690244,-2.3235234834480973,-40.79492729144278,30.98411256809932,20.21019109725506,0.1771729010768418,-1.54681939859213,8.095647975287985,-1.0,11.853555555555554,0.0,179.57444779598896,1.0665371575428937,95.86775351309396,1553.0,1435.0,1000.0,1694.0,1471.0,1011.0,242.0,294.13,1649159706.4599724,1649159707.7670574,54f884dc-6d4e-4372-b450-29e5547f5066
-0.7611211400388822,-0.3908537389238746,-1.8397097121478725,0.3080783890884138,-1.7388985078362345,0.3536912132426165,-2.2908949195156545,-2.307817330843453,-40.55464674868443,30.849771547072336,20.09678393834635,0.1955329844939239,-1.5110562645441328,8.080646216231838,-1.0,11.848555555555556,0.0,179.56899578721146,1.061372929774031,95.67794862733857,1553.0,1435.0,1000.0,1694.0,1471.0,1011.0,242.0,294.13,1649159707.876076,1649159708.992551,54f884dc-6d4e-4372-b450-29e5547f5066
-0.7572652831410345,-0.3942515818696431,-1.8414584916732133,0.3156547769857502,-1.738747845689372,0.3508686266748962,-2.295130452834535,-2.319304933601645,-40.763767403264325,30.942258161753944,20.190937394803267,0.1725355507194514,-1.5241967268852494,8.08845916985696,-1.0,11.677,0.0,179.5906444512408,1.039232385402775,95.41736704467378,1553.0,1435.0,1000.0,1774.0,1471.0,1011.0,242.0,294.13,1649159710.7227137,1649159711.8584054,b1fe1128-0ffb-4ad3-a32c-850772917003
-0.7599908995538929,-0.3940598300090919,-1.8338157999591764,0.3118060442525378,-1.732817227233012,0.3531285586916118,-2.285145639564643,-2.3055124686915502,-40.53592402401146,30.919265600409933,20.102077805875396,0.1866243781907476,-1.5233446226170395,8.055780276687836,-1.0,11.692,0.0,179.577261833927,1.042233186325938,95.06973318321737,1553.0,1435.0,1000.0,1774.0,1471.0,1011.0,242.0,294.13,1649159711.9670372,1649159713.087941,b1fe1128-0ffb-4ad3-a32c-850772917003
-0.7556764817701694,-0.3890057989237543,-1.8328844323985132,0.3110801267057346,-1.7324063298249122,0.3492250397744689,-2.2843512372056742,-2.318661193750866,-40.45702653618408,30.811731504173878,20.16359159510001,0.1788731821222537,-1.5053459493906252,8.053611245407664,-1.0,11.697888888888889,0.0,179.5704635189731,1.0495450579860115,94.7590293956933,1553.0,1435.0,1000.0,1774.0,1471.0,1011.0,242.0,294.13,1649159713.1960776,1649159714.3173945,b1fe1128-0ffb-4ad3-a32c-850772917003
-0.7651955940761739,-0.39281344294297726,-1.829268535566598,0.31838039195530127,-1.7276810106111584,0.3454858795299293,-2.2816256163350954,-2.307128665707897,-40.46298199140164,30.85975989388459,20.08123243948994,0.15448548713361274,-1.5195236069234692,8.037828868267146,-1.0,11.709555555555555,0.0,179.5900965182874,1.0684857535948549,94.25900870148455,1553.0,1435.0,1000.0,1856.0,1471.0,1011.0,242.0,294.13,1649159716.2507908,1649159717.389494,7511d0e5-21d2-4eae-93fb-d1eebdf31d5b
-0.7606872329266828,-0.397112519582951,-1.826889713534117,0.31734821933862567,-1.7246584497368806,0.35081164899946976,-2.277719896992385,-2.306686540061884,-40.502801044817886,30.881897736904552,20.128512057825795,0.16903422741840093,-1.5355067041160158,8.024409035290653,-1.0,11.711,0.0,179.5929393948019,1.0746715689633266,94.10945412050803,1553.0,1435.0,1000.0,1856.0,1471.0,1011.0,242.0,294.13,1649159717.4977534,1649159718.8234122,7511d0e5-21d2-4eae-93fb-d1eebdf31d5b
-0.7608976120537893,-0.4006100734684779,-1.8297955799607784,0.3163489184974575,-1.726170551992426,0.3570967253183305,-2.278180102372912,-2.308921822412365,-40.5199103200131,30.80850907269538,20.391853955656735,0.18481398174990576,-1.5508999807717359,8.031042432765426,-1.0,11.715666666666667,0.0,179.58752077806037,1.0696590283122818,93.97050530549274,1553.0,1435.0,1000.0,1856.0,1471.0,1011.0,242.0,294.13,1649159718.932381,1649159720.0573947,7511d0e5-21d2-4eae-93fb-d1eebdf31d5b
