raw_voltage_G-,raw_voltage_G0,raw_voltage_G1,raw_voltage_G2,raw_voltage_G3,raw_voltage_G4,raw_voltage_G5,raw_voltage_G6,load_x,load_y,load_z,load_l,load_m,load_n,rpm,voltage,current,roll,pitch,yaw,aileron1_pwm,elevator_pwm,throttle_pwm,rudder_pwm,aileron2_pwm,pbaro,pdiff,Tt,sample_start_time,sample_end_time,uid
-0.288188701537826,-0.1143103250360547,-0.5105069023652609,0.0960162246728489,-0.602823925893416,0.195065350848576,-0.8995375334260969,-0.9238231896960504,-24.9949127428353,30.55814405891468,18.70236636543901,0.3893020665711635,-0.4612507939989579,2.781062047223329,-1.0,11.988,0.0,179.4538904036788,1.1422171239345809,94.47827750549956,1553.0,1435.0,1000.0,1528.0,1471.0,1011.0,242.0,294.13,1649158851.7125142,1649158852.7160883,173a4d71-6dc2-49f6-be28-1485cd051645
-0.2800496574488507,-0.1039940764742858,-0.5099464389346213,0.0919078050574913,-0.604260969179201,0.1895779618424165,-0.8986960163051543,-0.9217062485626524,-24.77528321682032,30.37700359232238,18.827758059835244,0.3851964082393453,-0.4246861241228972,2.782674271382948,-1.0,11.989333333333333,0.0,179.44433724575967,1.1293134024885458,94.9745408367549,1553.0,1435.0,1000.0,1528.0,1471.0,1011.0,242.0,294.13,1649158852.824168,1649158853.9497707,173a4d71-6dc2-49f6-be28-1485cd051645
-0.2729548391856084,-0.0953241544255897,-0.499098761690046,0.0867715956557258,-0.5975770463950625,0.1870304020578264,-0.8897384620821213,-0.906064769470397,-24.665131584555294,30.4947495062783,19.074978985573853,0.3924732810455366,-0.3938173250741197,2.7474117167512726,-1.0,11.988555555555555,0.0,179.44824107832528,1.1018775523777933,95.41303139237064,1553.0,1435.0,1000.0,1528.0,1471.0,1011.0,242.0,294.13,1649158854.0579484,1649158855.1822948,173a4d71-6dc2-49f6-be28-1485cd051645
-0.0517356766124773,0.3081178352164051,-0.4784240754004576,-0.1806455026331933,-0.6752995649298085,0.050048382918058,-0.9350521819558636,-0.9561558521683702,-24.352309117473283,29.064029769090507,20.71084178921504,0.6798471302869186,1.136833904862247,2.939192788232143,-1.0,11.962333333333332,0.0,179.29305310910337,1.0853123396440372,96.29641163194452,1616.0,1435.0,1000.0,1528.0,1519.0,1011.0,242.0,294.13,1649158857.3184435,1649158858.4558723,3abdd8bc-e9f5-41ac-84cf-94c6c7df38ca
-0.0480984183533502,0.2976027139524812,-0.4832655359389786,-0.1681076718048302,-0.6773321348481783,0.0484349283390491,-0.9400733430246818,-0.9687813474178514,-24.34375967755013,29.15234262376568,20.61906223298359,0.648273245402906,1.0962996356518009,2.9543876178117423,-1.0,11.96411111111111,0.0,179.29922911793284,1.0761129404636438,96.48709837101276,1616.0,1435.0,1000.0,1528.0,1519.0,1011.0,242.0,294.13,1649158858.5640042,1649158859.6133397,3abdd8bc-e9f5-41ac-84cf-94c6c7df38ca
-0.0406474902707218,0.3096830778479862,-0.4768418485193734,-0.1788457747375924,-0.6738121181003381,0.0460928167740917,-0.9334305085760348,-0.9621248159940724,-24.250440650372862,29.000020560418736,20.61476206927628,0.6665891216952677,1.142712702723891,2.9328683374779287,-1.0,11.964888888888888,0.0,179.3061518941116,1.076353586052213,96.675513692727,1616.0,1435.0,1000.0,1528.0,1519.0,1011.0,242.0,294.13,1649158859.7216053,1649158860.913102,3abdd8bc-e9f5-41ac-84cf-94c6c7df38ca
0.2521175411679613,0.8257688115149249,-0.4428831409275067,-0.5187642859007608,-0.7736518530409799,-0.1395821210464992,-0.9886462997468316,-1.0123402656378542,-23.34014899780964,27.74981364126357,21.535991419764173,1.010133836494019,3.107723171059458,3.163094730398472,-1.0,11.925777777777776,0.0,179.01547118559438,1.080969560702542,97.07525430845152,1679.0,1435.0,1000.0,1528.0,1567.0,1011.0,242.0,294.13,1649158862.8538733,1649158863.9844124,5075eedb-8de6-43a1-87a8-2e84850847d9
0.2473051186377594,0.8275307366488192,-0.434954475310131,-0.5219068250491303,-0.7671826915872623,-0.1408706932616242,-0.981730081258533,-1.0144309100288915,-23.37168312595241,27.824234710426605,21.243459506495714,1.01515267718338,3.11803816641305,3.133349085378204,-1.0,11.928,0.0,179.01478664885755,1.094822536147601,97.162398415342,1679.0,1435.0,1000.0,1528.0,1567.0,1011.0,242.0,294.13,1649158864.0928128,1649158865.2188065,5075eedb-8de6-43a1-87a8-2e84850847d9
0.2591290830874904,0.8198250534911992,-0.42957501380858,-0.5172877965724255,-0.7605524586008343,-0.1353318046721005,-0.974054525130131,-0.9967634337283774,-23.31257123025752,27.86466438501883,21.61142403829361,1.0178041883960047,3.085230543291756,3.105709152133091,-1.0,11.92688888888889,0.0,179.02474810030708,1.0984034406894898,97.21003974371274,1679.0,1435.0,1000.0,1528.0,1567.0,1011.0,242.0,294.13,1649158865.3277133,1649158866.4480443,5075eedb-8de6-43a1-87a8-2e84850847d9
0.5142685570363031,1.2711540278074822,-0.3917314147125852,-0.7955608783852508,-0.8391022588723298,-0.3118804643593955,-1.0231978083891722,-1.0451397111339715,-22.85016756331377,27.13996691537878,22.913915136822947,1.2463123105376963,4.799820041979318,3.2857101689786443,-1.0,11.88511111111111,0.0,178.62008215928105,1.1077673691662966,97.294840336808,1745.0,1435.0,1000.0,1528.0,1614.0,1011.0,242.0,294.13,1649158868.3770044,1649158869.5147984,5d10a621-cd84-4631-b89f-6b426f1f61a7
0.5054205810361391,1.2750438504607424,-0.3854994793606701,-0.7939035939783711,-0.8333770946211875,-0.3189341930579725,-1.017828753987027,-1.036195851741195,-22.768747644920804,27.067654845391143,22.715152055293583,1.226563456792292,4.815784401853461,3.2620645644406534,-1.0,11.882555555555555,0.0,178.61379838524465,1.1168027489428711,97.30391993494466,1745.0,1435.0,1000.0,1528.0,1614.0,1011.0,242.0,294.13,1649158869.62308,1649158870.7426891,5d10a621-cd84-4631-b89f-6b426f1f61a7
0.508187285608976,1.272236055929681,-0.3865130248102324,-0.7922463093968828,-0.83485632353117,-0.3201942765318236,-1.0170206563747188,-1.0494952188671345,-22.49770089737813,27.041053811337623,22.360166053306045,1.2198464949410557,4.806212543251337,3.263684921297404,-1.0,11.888333333333334,0.0,178.61340678773226,1.11732555486356,97.29167947704212,1745.0,1435.0,1000.0,1528.0,1614.0,1011.0,242.0,294.13,1649158870.851022,1649158871.9711368,5d10a621-cd84-4631-b89f-6b426f1f61a7
0.7630889823365519,1.704154329555785,-0.35362977308189,-1.0696028761079022,-0.9160128588228862,-0.4856953062140026,-1.0668416478136842,-1.0905487640251386,-21.99179288226393,26.454171464790893,22.62645275088748,1.471636006212333,6.456451088179537,3.451134543115342,-1.0,11.83211111111111,0.0,178.2672436936771,1.1611236211657052,97.27567634381676,1813.0,1435.0,1000.0,1528.0,1662.0,1011.0,242.0,294.13,1649158873.9068425,1649158875.249223,7ad47e90-8d97-43f8-8201-bea8f6de6e91
0.7673398458580443,1.7008014114450962,-0.3480804745567742,-1.0784223702015086,-0.9120912581426112,-0.4720480519057082,-1.0572474759115955,-1.0788332689831546,-21.885020249643848,26.51253405464409,23.001781288690736,1.5229746135817417,6.441232023122381,3.4246658697541483,-1.0,11.834555555555555,0.0,178.26881160154656,1.1464192910997255,97.23727929703269,1813.0,1435.0,1000.0,1528.0,1662.0,1011.0,242.0,294.13,1649158875.357953,1649158876.483842,7ad47e90-8d97-43f8-8201-bea8f6de6e91
0.7741470348511764,1.7193147792795869,-0.3427820967784691,-1.0759931467824548,-0.911568596983702,-0.4955962769431465,-1.058557963335412,-1.0824754587444618,-21.633391436875403,26.517607863133776,22.56515049266034,1.4649333956333368,6.512794174934209,3.4204170466119264,-1.0,11.83477777777778,0.0,178.2470915999859,1.1396290039897077,97.18381712966924,1813.0,1435.0,1000.0,1528.0,1662.0,1011.0,242.0,294.13,1649158876.5971825,1649158877.707284,7ad47e90-8d97-43f8-8201-bea8f6de6e91
-0.54122938741533,-0.5796345489746704,-0.5120831027748904,0.4168312477598938,-0.4877306152827592,0.3491428604264703,-0.8189409148668411,-0.8414991591574713,-24.94149407907572,31.72636787398402,18.07720070608145,0.0194477585265092,-2.240916111675938,2.4568817323836694,-1.0,11.974333333333334,0.0,179.5936102711604,1.0378159749236435,97.06345401829546,1491.0,1435.0,1000.0,1528.0,1420.0,1011.0,242.0,294.13,1649158879.8497794,1649158880.9831097,71f1ac13-cc67-46a6-a67f-7125278b5eec
-0.535298775868003,-0.5733889163482698,-0.5085630862318656,0.41720105475783,-0.4855528618525259,0.3436094511209881,-0.8168864300972709,-0.8395953364539984,-24.871678297038148,31.69926059591953,18.23026975397252,0.0062343744799344,-2.2191648186657216,2.4472270391820845,-1.0,11.974333333333334,0.0,179.54830183184615,1.0298371163183704,96.93668570730004,1491.0,1435.0,1000.0,1528.0,1420.0,1011.0,242.0,294.13,1649158881.0912297,1649158882.2128117,71f1ac13-cc67-46a6-a67f-7125278b5eec
-0.5395786777899568,-0.5738310414381901,-0.5083768129944702,0.4143198469674656,-0.4866288637848515,0.3468933378080493,-0.8168584890214425,-0.8408811691199751,-24.87258848783049,31.811017500410227,18.257820751974265,0.0208670640201104,-2.22069235585411,2.448312494394361,-1.0,11.976,0.0,179.54812728256738,1.003677313927712,96.82223905756727,1491.0,1435.0,1000.0,1528.0,1420.0,1011.0,242.0,294.13,1649158882.321517,1649158883.4478457,71f1ac13-cc67-46a6-a67f-7125278b5eec
-0.7678269780793421,-0.9716581737914158,-0.5313738890801278,0.6748480903291048,-0.4135615421012378,0.4857567075468296,-0.7742566936014186,-0.8044987095891973,-25.14774311195257,33.275944214695,16.74964347853408,-0.2465891327645508,-3.7309812160292672,2.27071023305272,-1.0,11.92311111111111,0.0,179.70720238833695,1.0051088788890643,96.62715823013303,1428.0,1435.0,1000.0,1528.0,1368.0,1011.0,242.0,294.13,1649158885.231114,1649158886.3144505,323fd7ee-be5d-4df9-a4ee-ae28431b040b
-0.7599377569665111,-0.961204953910234,-0.5284285801263846,0.6625409118412631,-0.4127726200377076,0.490398196913975,-0.7707196925405683,-0.8020267531361394,-25.218696454778428,33.166876388542235,17.280756759499898,-0.2089245276742193,-3.6942801950040702,2.26248613922612,-1.0,11.922666666666666,0.0,179.70908448490823,0.9929628696961104,96.40239871293524,1428.0,1435.0,1000.0,1528.0,1368.0,1011.0,242.0,294.13,1649158886.4451325,1649158887.5440614,323fd7ee-be5d-4df9-a4ee-ae28431b040b
-0.7582678716622301,-0.9620333222143336,-0.5222618398400194,0.6641976474063379,-0.4067110697695117,0.4875580788025637,-0.7648422226226737,-0.7834739338388782,-25.188718698492256,33.17965371462923,17.0247149336514,-0.2186778013963716,-3.695142787197874,2.2370247674267487,-1.0,11.929444444444446,0.0,179.70154243824476,0.9987132012151572,96.25504724742102,1428.0,1435.0,1000.0,1528.0,1368.0,1011.0,242.0,294.13,1649158887.652187,1649158888.7670543,323fd7ee-be5d-4df9-a4ee-ae28431b040b
-1.10817131664173,-1.5694170681574775,-0.5878661833824294,1.102111105733992,-0.3211804289615863,0.6869684477732916,-0.7475681155349007,-0.7795495944470617,-26.496671601497667,36.1169429783804,17.880024304906524,-0.7427186110222687,-6.029550007828859,2.114792544242172,-1.0,11.897666666666666,0.0,179.91326160649717,0.9888872981899572,95.81220662021389,1364.0,1435.0,1000.0,1528.0,1312.0,1011.0,242.0,294.13,1649158890.8370583,1649158891.8857648,68e37c3e-00f9-4da4-a496-a0b0d897a855
-1.1101984088109222,-1.5696225168551197,-0.5728958402773722,1.1125478829884263,-0.3061279087641824,0.6755729121381285,-0.7342276619727821,-0.7639629038913384,-26.34985047906977,36.12126019465518,17.705934708539246,-0.7910485159981029,-6.030152654993462,2.0548122956203123,-1.0,11.899777777777778,0.0,179.9074377318649,1.0000267082539809,95.62033142823007,1364.0,1435.0,1000.0,1528.0,1312.0,1011.0,242.0,294.13,1649158891.995509,1649158893.278745,68e37c3e-00f9-4da4-a496-a0b0d897a855
-1.1027885653650673,-1.559240512782586,-0.579703031916152,1.096755751574183,-0.3171262469858436,0.6787094237485979,-0.7431578218185182,-0.7756871631208918,-26.4555960649796,36.23410059114688,17.469416818297656,-0.7480590282683753,-5.986854410721384,2.092449933068616,-1.0,11.9,0.0,179.91948618556074,0.9684481824000728,95.46206152587264,1364.0,1435.0,1000.0,1528.0,1312.0,1011.0,242.0,294.13,1649158893.3928185,1649158894.501511,68e37c3e-00f9-4da4-a496-a0b0d897a855
-1.233262085075469,-1.7971500568198042,-0.5648422613208041,1.2562110824734465,-0.2496706866042067,0.7289073061180925,-0.696589503673049,-0.7133130086942391,-26.3654319402728,37.41869165298491,12.565226783261693,-0.9870934492811106,-6.855002476320994,1.8792837805049192,-1.0,11.75088888888889,0.0,-179.98113395518948,0.9782388909782996,95.13618561147224,1297.0,1435.0,1000.0,1528.0,1253.0,1011.0,242.0,294.13,1649158895.4253032,1649158896.7722063,36a3e90e-9c13-49ef-be3b-8470ba02d371
-1.2362068476217225,-1.7998071929660575,-0.56570514471619,1.2498969689688588,-0.2505198733110492,0.7375498337527618,-0.6947678606807326,-0.7204489184565347,-26.376531281550456,37.39700562519816,12.601160380743176,-0.9536160268501318,-6.864485940021034,1.8786979200699463,-1.0,11.751666666666669,0.0,-179.99026819483953,0.96247124512575,94.75904153825182,1297.0,1435.0,1000.0,1528.0,1253.0,1011.0,242.0,294.13,1649158896.8849018,1649158897.9818065,36a3e90e-9c13-49ef-be3b-8470ba02d371
-1.2255859791594288,-1.7993431528073816,-0.5608401257075699,1.25190488445135,-0.2458498941516547,0.7352794924223948,-0.6907492888544736,-0.7204127597080587,-26.38632667796256,37.4281306261648,12.639752539666656,-0.9627973544281504,-6.862956492465454,1.860092654065208,-1.0,11.758666666666668,0.0,-179.99235216144632,0.9559912810202102,94.52586419235696,1297.0,1435.0,1000.0,1528.0,1253.0,1011.0,242.0,294.13,1649158898.0908222,1649158899.2121944,36a3e90e-9c13-49ef-be3b-8470ba02d371
-0.2448631939427688,-0.0505364058159072,-0.4925381085472803,0.0731161268524314,-0.5950431823793737,0.1667321029518548,-0.8912313879890656,-0.9152688619656204,-25.007463491224456,30.00922807207889,20.666555161982288,0.3748531664541839,-0.2354302386901423,2.7446474520590045,-1.0,11.984,0.0,179.43127337060716,1.0709447284177651,94.13771061310436,1553.0,1435.0,1000.0,1528.0,1471.0,1011.0,242.0,294.13,1649158901.247094,1649158902.5928164,4f6726b3-9d6d-40ba-aefe-d0eb7eaa7a80
-0.2494515416523219,-0.0513855925115316,-0.497414084625911,0.0721162780869441,-0.6012614219108813,0.1646365295518695,-0.8953951439717915,-0.9115844857755082,-24.7683799775388,30.03042914853189,20.08350057336272,0.3723247067897917,-0.2353254298702317,2.764916342558486,-1.0,11.98925,0.0,179.4100440043019,1.0600999206580597,94.45508901326735,1553.0,1435.0,1000.0,1528.0,1471.0,1011.0,242.0,294.13,1649158902.7019737,1649158904.2416456,4f6726b3-9d6d-40ba-aefe-d0eb7eaa7a80
-0.2510540391960758,-0.0470163901289192,-0.486087027735413,0.0699522218757442,-0.5917970968636571,0.1619930938582719,-0.8844104979787929,-0.9081740412442464,-24.68125711038716,30.031962277847423,20.11841387980216,0.3718897303702517,-0.2188797918262307,2.721565008271814,-1.0,11.98688888888889,0.0,179.4247907621749,1.0766485767049607,94.74832193580444,1553.0,1435.0,1000.0,1528.0,1471.0,1011.0,242.0,294.13,1649158904.349553,1649158905.4574049,4f6726b3-9d6d-40ba-aefe-d0eb7eaa7a80
-0.2243517734066918,-0.0595591511351666,-0.5269427770834691,-0.4349281779401434,-0.6787313758464643,0.6617782875326619,-0.7802919477262579,-0.7945977362573013,-24.511622112311088,28.63252710687695,23.58591009502848,2.623187039056181,-0.2383079243207428,2.747059959729857,-1.0,11.973111111111113,0.0,179.42924100987412,1.234526668106578,95.09083315538334,1553.0,1522.0,1000.0,1528.0,1471.0,1011.0,242.0,294.13,1649158906.3684452,1649158907.5057151,9530e03a-3304-482e-9e23-1f2027942e87
-0.2428519910216854,-0.083003277547729,-0.5501239350143086,-0.4202016349393249,-0.6951541036537087,0.6706405079387412,-0.8015271017805325,-0.8240508293868649,-24.71287523495122,28.7595383598872,23.336676806570367,2.609428829741669,-0.325884844226551,2.828009104893736,-1.0,11.976333333333336,0.0,179.43268797867526,1.2474476310370806,95.16413019209648,1553.0,1522.0,1000.0,1528.0,1471.0,1011.0,242.0,294.13,1649158907.6142786,1649158908.729923,9530e03a-3304-482e-9e23-1f2027942e87
-0.2452187566700858,-0.0709327738342569,-0.5393814471866061,-0.4247510850534934,-0.6873043290714488,0.6619360718728128,-0.7921389284297834,-0.8109810192982063,-24.566071757565386,28.64542288859467,23.26316675228699,2.599971842633657,-0.2797614218568559,2.7907739372912483,-1.0,11.975888888888887,0.0,179.4443038537237,1.2533853658714795,95.21067110110094,1553.0,1522.0,1000.0,1528.0,1471.0,1011.0,242.0,294.13,1649158908.8378546,1649158909.9626667,9530e03a-3304-482e-9e23-1f2027942e87
-0.2448221042656643,-0.1040214696273402,-0.6339003319386082,-1.0575488002842943,-0.8387324515411226,1.3054502107998849,-0.7085192108542108,-0.730091299996638,-24.790380473289503,27.54843050796848,27.268646583120265,5.462017726352413,-0.3658766680123948,3.003198070517025,-1.0,11.946888888888887,0.0,179.4597537416263,1.4755917678438968,95.27822091308244,1553.0,1613.0,1000.0,1528.0,1471.0,1011.0,242.0,294.13,1649158910.872811,1649158912.0121448,c8619213-b7fe-45ac-94a2-3eaf2a8d26c8
-0.2365219887619846,-0.104035166158173,-0.633092234850035,-1.05398769278288,-0.8380750164944768,1.302957437134019,-0.7093547015514959,-0.7292284168986959,-24.822070807024804,27.63180836305432,27.377531873956723,5.448977509590871,-0.3670545949992552,3.00251741397724,-1.0,11.951,0.0,179.43994315739363,1.4788044706428722,95.24062223952134,1553.0,1613.0,1000.0,1528.0,1471.0,1011.0,242.0,294.13,1649158912.1208503,1649158913.2446346,c8619213-b7fe-45ac-94a2-3eaf2a8d26c8
-0.2410692468068891,-0.1062129191080862,-0.6417210696405343,-1.0489336589960512,-0.8477584882228332,1.300231821875962,-0.7191888343197942,-0.7486501444911311,-24.641491533521883,27.783266809551183,27.27451263326329,5.432100881319208,-0.3767542446122915,3.041170042290185,-1.0,11.950444444444445,0.0,179.43442588236405,1.487049671051874,95.22612402464314,1553.0,1613.0,1000.0,1528.0,1471.0,1011.0,242.0,294.13,1649158913.3524382,1649158914.4744415,c8619213-b7fe-45ac-94a2-3eaf2a8d26c8
-0.2199206622527398,-0.1119172621563577,-0.6919326720019577,-1.6409537361892494,-0.9577994397151396,1.874088120693293,-0.6081622983684876,-0.6316327291993368,-24.46975878662132,26.616524165500124,30.805051071541207,8.047499409323489,-0.3609681464843911,3.10111295644613,-1.0,11.892666666666669,0.0,179.44046528741018,1.7028545968043696,95.11712558913835,1553.0,1710.0,1000.0,1528.0,1471.0,1011.0,242.0,294.13,1649158916.402373,1649158917.5398786,0710edea-238c-4bea-8c16-77151f73179a
-0.2251143977820038,-0.1284583231022271,-0.7132335681612118,-1.636220199223522,-0.9727758135633556,1.887894255839875,-0.6272147654180357,-0.650264438298469,-24.887077732110352,26.63532714789672,30.929903062278363,8.066719777976125,-0.423092905112612,3.175590007224057,-1.0,11.908,0.0,179.42911047737,1.7010349205729922,94.9646962574312,1553.0,1710.0,1000.0,1528.0,1471.0,1011.0,242.0,294.13,1649158917.648573,1649158918.7699783,0710edea-238c-4bea-8c16-77151f73179a
-0.2383288390289864,-0.1329551775098361,-0.7165733384341283,-1.6192057646390725,-0.9736830742513292,1.8754818829082764,-0.6337891158559512,-0.6632159089147539,-24.870954064927005,26.68867355198019,30.727513617765545,8.000610318500371,-0.4405848499978761,3.190047670951293,-1.0,11.900222222222222,0.0,179.43550505225292,1.7092944691224377,94.82323393280132,1553.0,1710.0,1000.0,1528.0,1471.0,1011.0,242.0,294.13,1649158918.8782923,1649158920.002572,0710edea-238c-4bea-8c16-77151f73179a
-0.2287434383522646,-0.1517183684458487,-0.7257116863397267,-2.0317073012488227,-1.0333650448777223,2.2893241320667688,-0.5360548262091376,-0.55994601457111,-24.74850842903788,27.104294593670566,33.280426161575726,9.863840271044078,-0.4842357690548819,3.142268951303941,-1.0,11.841,0.0,179.43764821383252,1.883266928949871,94.58656332460096,1553.0,1814.0,1000.0,1528.0,1471.0,1011.0,242.0,294.13,1649158921.732272,1649158922.8775327,4cbcd06c-f6ce-472c-8d9b-4f447a500c65
-0.2052253490292117,-0.1192383471442854,-0.6901795121364893,-2.0389905962975634,-1.0091725239320612,2.2629631716157346,-0.5085356931850828,-0.5249441754141071,-24.30163066385894,27.21603781054752,33.34271583589726,9.823777902908846,-0.3629797292864694,3.025922946928296,-1.0,11.853,0.0,179.43333153427704,1.8656514441935848,94.357254142506,1553.0,1814.0,1000.0,1528.0,1471.0,1011.0,242.0,294.13,1649158922.9922874,1649158924.01241,4cbcd06c-f6ce-472c-8d9b-4f447a500c65
-0.2093228119139883,-0.1182023393676818,-0.7053574962731328,-2.0481563501268782,-1.0236350031207166,2.270942244094474,-0.5232348438010681,-0.5386714180070955,-24.54893435302889,27.17931723941428,33.30822155730351,9.861254466821896,-0.3568723191354358,3.0870775531361074,-1.0,11.853,0.0,179.44417787467904,1.875913376534706,94.18723631477616,1553.0,1814.0,1000.0,1528.0,1471.0,1011.0,242.0,294.13,1649158924.120916,1649158925.3232105,4cbcd06c-f6ce-472c-8d9b-4f447a500c65
-0.25945879643449,-0.0473308631402653,-0.421634843230702,0.6945974301657268,-0.4671161937830904,-0.4414893788403614,-0.9890933558074788,-1.012603239719663,-24.58008036731427,31.51523870333101,15.883115425112935,-2.3808446091866933,-0.2560341323907265,2.6118631456019745,-1.0,11.972888888888887,0.0,179.41681310122434,0.9461120290000866,93.86183320124832,1553.0,1349.0,1000.0,1528.0,1471.0,1011.0,242.0,294.13,1649158927.2546914,1649158928.4022162,171a0668-7b3f-4c08-a501-9b6ae235adc1
-0.272449709996646,-0.0446090829224585,-0.421845222380833,0.6921780702953767,-0.4662483795736563,-0.4393198435339595,-0.989251140197258,-1.004516786711765,-24.76290631614698,31.416549474802945,16.25446542751679,-2.3712094234361705,-0.2475402059629179,2.6119371008269443,-1.0,11.97577777777778,0.0,179.43227664950524,0.9182863600720164,94.28089414540509,1553.0,1349.0,1000.0,1528.0,1471.0,1011.0,242.0,294.13,1649158928.5145638,1649158929.624012,171a0668-7b3f-4c08-a501-9b6ae235adc1
-0.2628467776136041,-0.0364700396863608,-0.4216173115893663,0.6810378384822536,-0.4695278843511252,-0.436519170548385,-0.987189532956791,-1.0125966654412837,-24.52036599254661,31.341757395266992,16.336351165110354,-2.340135619301577,-0.2180714564584356,2.6143608973853723,-1.0,11.97477777777778,0.0,179.44514472590154,0.9319115913969378,94.6279049418272,1553.0,1349.0,1000.0,1528.0,1471.0,1011.0,242.0,294.13,1649158929.7319703,1649158930.8545902,171a0668-7b3f-4c08-a501-9b6ae235adc1
-0.2936454112659413,-0.0360229839893891,-0.3652795200958247,1.2789649013566844,-0.3603487580917991,-1.0127610239496143,-1.1069714972993494,-1.123328488083641,-25.244278305252784,33.78653209769413,12.48529035087925,-4.965771293461956,-0.2471438396611969,2.557759926319234,-1.0,11.936666666666667,0.0,179.43251039375684,0.7237211170563408,95.07924460109156,1553.0,1264.0,1000.0,1528.0,1471.0,1011.0,242.0,294.13,1649158931.762386,1649158932.8960488,19fdf81f-eebd-4ea7-b95a-3550d6541227
-0.283186169819701,-0.0304983399824723,-0.3576680671837506,1.2747425262739245,-0.354750699695905,-1.0140621979116895,-1.100857348962457,-1.133373003806921,-25.289061358509866,33.84168741637792,12.569486227015268,-4.9584350519197855,-0.2258490024898408,2.531750932316432,-1.0,11.93988888888889,0.0,179.4200187366748,0.7059458936224347,95.30740555249604,1553.0,1264.0,1000.0,1528.0,1471.0,1011.0,242.0,294.13,1649158933.0046844,1649158934.1450243,19fdf81f-eebd-4ea7-b95a-3550d6541227
-0.2804331612171754,-0.0305942158656952,-0.3617359458092886,1.2793445698766808,-0.3587090057912095,-1.0137608733380048,-1.1057744171267958,-1.136673876633441,-25.2756604329963,33.90588443895206,13.165599924260697,-4.967814231953347,-0.2324101876027491,2.550540651939787,-1.0,11.936222222222222,0.0,179.4331691275568,0.7009020479376936,95.51671821743088,1553.0,1264.0,1000.0,1528.0,1471.0,1011.0,242.0,294.13,1649158934.2576454,1649158935.5782957,19fdf81f-eebd-4ea7-b95a-3550d6541227
-0.2946912806659314,-0.0070361345043285,-0.3016354368703136,1.8222899133109147,-0.2606964176494356,-1.562281152556644,-1.2191135279173546,-1.243548210675972,-25.837116436835288,36.673993741647614,9.311679722256232,-7.404718436116998,-0.1689132100595535,2.4971378865523746,-1.0,11.921666666666663,0.0,179.43561737091932,0.5205917180269846,95.78576923466647,1553.0,1178.0,1000.0,1528.0,1471.0,1011.0,242.0,294.13,1649158936.213904,1649158937.408476,7caf03d8-70b8-431a-ba78-8424d670de4b
-0.279844209062944,0.0098243293819507,-0.3064703228416396,1.8128803751223843,-0.2674625184863119,-1.568170680047528,-1.2277560638695086,-1.24921858995958,-26.064238831656564,36.55456454477352,9.541798308854656,-7.397837478981415,-0.1052582540376903,2.5274215319309667,-1.0,11.926,0.0,179.42195243911982,0.4917095872174492,95.96272349895344,1553.0,1178.0,1000.0,1528.0,1471.0,1011.0,242.0,294.13,1649158937.5169303,1649158938.736497,7caf03d8-70b8-431a-ba78-8424d670de4b
-0.2939927560738648,-0.0122682200064254,-0.3124009336051761,1.8126338369718105,-0.2699552924776,-1.5455850276296557,-1.2269342696449683,-1.2507799994261397,-26.109188537902423,36.68090056229541,9.621985831239936,-7.345996024927724,-0.1888547758175915,2.535085245592073,-1.0,11.913222222222222,0.0,179.42307259014373,0.4906494375081508,96.12241028610872,1553.0,1178.0,1000.0,1528.0,1471.0,1011.0,242.0,294.13,1649158938.8444245,1649158939.9665306,7caf03d8-70b8-431a-ba78-8424d670de4b
-0.3137234735033132,-0.0071221489302218,-0.270661487778147,2.152262046647444,-0.2074819948434941,-1.8728576283875964,-1.2958395268367215,-1.3200857450722034,-26.645200753301467,39.05819429377928,8.14389885401776,-8.83020700602782,-0.1917889965744516,2.491370624874069,-1.0,11.831555555555555,0.0,179.40441099551143,0.3861620128915646,96.39104238507522,1553.0,1088.0,1000.0,1528.0,1471.0,1011.0,242.0,294.13,1649158941.904225,1649158943.0435553,6caa8733-91ce-44e4-b370-070f75d342d8
-0.2981291173715412,0.0176587609975127,-0.2595459067121724,2.1415979019799543,-0.202349071530224,-1.8904237675228124,-1.2895412944241684,-1.3160852501656743,-26.494446303719844,38.92937102375237,7.77049348978885,-8.845908908812921,-0.0945875700177927,2.462796926998117,-1.0,11.82988888888889,0.0,179.4081767064738,0.3664816350689336,96.42014354439893,1553.0,1088.0,1000.0,1528.0,1471.0,1011.0,242.0,294.13,1649158943.1521454,1649158944.2676666,6caa8733-91ce-44e4-b370-070f75d342d8
-0.3049500045188266,0.0047566026542183,-0.267489911695478,2.130955670776656,-0.2084440407239986,-1.8681942179429047,-1.2917875320915064,-1.324042957543842,-26.666557572969083,38.97548870676455,7.701511877838005,-8.772137347752276,-0.140341503694753,2.483234156297014,-1.0,11.847111111111111,0.0,179.41842350804865,0.3555385870145644,96.43781400269168,1553.0,1088.0,1000.0,1528.0,1471.0,1011.0,242.0,294.13,1649158944.375702,1649158945.5067413,6caa8733-91ce-44e4-b370-070f75d342d8
-0.2649943983085626,-0.0724711713830172,-0.5052079764303372,0.0756883405034933,-0.6019035168323598,0.1847830707819923,-0.8948302976600283,-0.9135409027235432,-24.906956176847924,29.83584693509243,20.453107608690367,0.4078501462817065,-0.3176413686266321,2.7735948222918108,-1.0,11.98388888888889,0.0,179.4298526912598,0.9729358419861502,96.48574978810662,1553.0,1435.0,1000.0,1528.0,1471.0,1011.0,242.0,294.13,1649158947.840999,1649158948.977563,f23ffdde-f153-478f-987b-125a13445097
-0.2627328222339934,-0.0677113431168207,-0.4988834518281226,0.0781865928355498,-0.5970384976575385,0.1775512881648904,-0.8902151027104669,-0.905112584721148,-24.79351859205155,29.846584387415604,20.456464117492256,0.386407655559569,-0.3005282157679486,2.752453914310684,-1.0,11.981666666666667,0.0,179.44642424800608,1.0165736241441787,96.4951617887829,1553.0,1435.0,1000.0,1528.0,1471.0,1011.0,242.0,294.13,1649158949.085262,1649158950.2031052,f23ffdde-f153-478f-987b-125a13445097
-0.2589432578582325,-0.0711634238870042,-0.4986741683169859,0.0864017885752539,-0.5956458310833872,0.1738680097280134,-0.89219014746502,-0.9162002283394244,-24.89028897597318,29.95672584012742,20.519779720640685,0.3603013113037127,-0.3143481961562858,2.7527145711271177,-1.0,11.987333333333334,0.0,179.44505517453243,1.0256027429140144,96.50523555889876,1553.0,1435.0,1000.0,1528.0,1471.0,1011.0,242.0,294.13,1649158950.3114853,1649158951.436252,f23ffdde-f153-478f-987b-125a13445097
-0.147028666478986,-0.0132680688190762,-0.1652040011248466,0.0557078009571919,-0.2958965779226383,0.1269983875933398,-0.5494199317373755,-0.5720192610683613,-22.435616909023185,29.64276093464964,20.49743189442681,0.339972461958437,-0.0894669191803896,1.4104071195036418,-1.0,11.988666666666669,0.0,179.4196817806757,1.0233961056354408,96.49926369683446,1553.0,1435.0,1000.0,1435.0,1471.0,1011.0,242.0,294.13,1649158952.3467245,1649158953.4992788,8322852d-c916-4a2c-bb0d-5a6c54b936a2
-0.1539667957263435,-0.0266611119882936,-0.1758725254577618,0.0645513949187504,-0.3021526189566949,0.1315702987586314,-0.557986857725519,-0.5823382513723492,-22.51188296903095,29.629084045350936,20.366109901035728,0.3296159645989574,-0.1397606732385884,1.4438919661230036,-1.0,11.992,0.0,179.42613251489186,1.028310165867984,96.54234701229908,1553.0,1435.0,1000.0,1435.0,1471.0,1011.0,242.0,294.13,1649158953.6119318,1649158954.711965,8322852d-c916-4a2c-bb0d-5a6c54b936a2
-0.1543563258674453,-0.0219516871511365,-0.1696553830382482,0.0616384108131048,-0.2984715313255126,0.127929753546693,-0.5535425971130996,-0.5867019758658242,-22.45901750116652,29.7210478793654,20.16301071687164,0.3289195993690743,-0.1199172286168833,1.4243329345641438,-1.0,11.988111111111111,0.0,179.43166193247995,1.0455361756880042,96.5529239396838,1553.0,1435.0,1000.0,1435.0,1471.0,1011.0,242.0,294.13,1649158954.820041,1649158955.9432952,8322852d-c916-4a2c-bb0d-5a6c54b936a2
-0.030750356664427,0.0441183209528181,0.2083060874650033,0.046274707106715,0.0400159277153944,0.0592130242052329,-0.1716123474772604,-0.1854710750894107,-19.5339178859582,29.68145325934965,20.4964167401393,0.2292437326011158,0.1300790379063444,-0.0852977568094443,-1.0,11.982,0.0,179.3856704742487,1.0319440043759402,96.48954054309598,1553.0,1435.0,1000.0,1330.0,1471.0,1011.0,242.0,294.13,1649158957.8749056,1649158959.0158348,cf2c639b-4645-499e-a8e3-5e04df4a23c8
-0.0446194923896345,0.0189051478283843,0.1884000578815536,0.0471337552056244,0.0264656482678012,0.0831283111273663,-0.185351640577609,-0.2105122216567515,-19.83658999275981,29.75335313596048,20.367965709356213,0.2803593858198521,0.0374285222571822,-0.0236114590420776,-1.0,11.982,0.0,179.39752768264785,1.0444595078302443,96.49758878266798,1553.0,1435.0,1000.0,1330.0,1471.0,1011.0,242.0,294.13,1649158959.1233962,1649158960.241862,cf2c639b-4645-499e-a8e3-5e04df4a23c8
-0.0320323546551137,0.0495854392539908,0.2089175018045916,0.0445588021226982,0.0400663310452832,0.0554064765839004,-0.172380998429734,-0.1953090401050187,-19.582377305639262,29.631340128566563,20.49243931118147,0.2242337841730437,0.1512114663817526,-0.0844778924646276,-1.0,11.980333333333334,0.0,179.39601593411157,1.050655521050602,96.50955299736412,1553.0,1435.0,1000.0,1330.0,1471.0,1011.0,242.0,294.13,1649158960.3502576,1649158961.6809552,cf2c639b-4645-499e-a8e3-5e04df4a23c8
0.069166587207895,0.086102107919615,0.5569568911813021,0.0473266027460846,0.3541777150086059,-0.0036771905101223,0.1749215489751197,0.1433383811897032,-17.250885692227847,30.27743758596485,20.19904992834237,0.1079613567704619,0.2960037773432519,-1.4758154914643102,-1.0,11.974333333333334,0.0,179.3090311983017,1.0504413305870983,96.40565671316934,1553.0,1435.0,1000.0,1210.0,1471.0,1011.0,242.0,294.13,1649158962.7980564,1649158963.930822,359208c6-4dc5-4f58-8560-5938ab9176b5
0.0648707986198962,0.0838816218497952,0.5657676125562993,0.0475994382528658,0.3617299968697995,-0.0018588353359634,0.1858251049492241,0.1586511335053574,-17.00990794605706,30.3017783458763,20.258254330250885,0.1121628061032967,0.2859706698348752,-1.5136605485016768,-1.0,11.97177777777778,0.0,179.31101195316103,1.0651440242535897,96.43597516398512,1553.0,1435.0,1000.0,1210.0,1471.0,1011.0,242.0,294.13,1649158964.0387251,1649158965.356809,359208c6-4dc5-4f58-8560-5938ab9176b5
0.07152020385266,0.079764436347056,0.5566150251008714,0.0476553202287244,0.354401242808203,-0.0003242728925162,0.1755395376591089,0.150938327693901,-17.258890520743627,30.35455071502772,19.836346984956293,0.1151866274690446,0.2754441020624615,-1.477846611357352,-1.0,11.977,0.0,179.3195178154074,1.062006548399223,96.45518469157082,1553.0,1435.0,1000.0,1210.0,1471.0,1011.0,242.0,294.13,1649158965.4657362,1649158966.5897,359208c6-4dc5-4f58-8560-5938ab9176b5
0.1753291585236887,0.1381577954107979,0.8899475923586722,0.0853131861529973,0.6534814610077403,-0.1100369985084739,0.4904770890545712,0.4639956171508887,-14.953841110615304,31.11058261118634,19.777560523628573,-0.1935389398864729,0.495168991065238,-2.779363066474417,-1.0,11.961666666666666,0.0,179.2960629457976,1.0364753605715515,96.36940055123507,1553.0,1435.0,1000.0,1086.4444444444443,1471.0,1011.0,242.0,294.13,1649158968.2123826,1649158969.2484033,ed98b093-528d-4cc7-9030-d3663b094978
0.1748295080845663,0.1394069215102062,0.883176014336481,0.0817761868662111,0.6457763257592818,-0.107972653136412,0.4836660650365282,0.4678350361055612,-14.9316953156993,31.1468589996912,19.729183920182287,-0.1810147390738939,0.5001328051274293,-2.7498880412262228,-1.0,11.952222222222222,0.0,179.28642175432915,1.039192056455957,96.36733707519583,1553.0,1435.0,1000.0,1071.0,1471.0,1011.0,242.0,294.13,1649158969.3580828,1649158970.4816034,ed98b093-528d-4cc7-9030-d3663b094978
0.174882102839607,0.1379079701743958,0.8789289858078956,0.0833277329133973,0.6435410476154318,-0.1074598539565831,0.4792349547931926,0.4511230446695958,-15.098239877710814,31.085815617224046,19.764589113117623,-0.1840566467206001,0.4949144896544875,-2.734954635908324,-1.0,11.956333333333331,0.0,179.28273496999716,1.0431369413043972,96.38133592735474,1553.0,1435.0,1000.0,1071.0,1471.0,1011.0,242.0,294.13,1649158970.5899131,1649158971.916509,ed98b093-528d-4cc7-9030-d3663b094978
-0.3840887334973561,-0.1346606731155329,-0.8837941527646453,0.1353532880739262,-0.9434974849080562,0.2085339981161877,-1.2934996029533627,-1.3191806749050967,-27.48611494054421,30.47206500019576,19.991414231653906,0.3106267705057283,-0.5598787696707608,4.312815183239271,-1.0,11.950111111111111,0.0,179.42702195730377,1.079039949256242,96.6671634070117,1553.0,1435.0,1000.0,1613.0,1471.0,1011.0,242.0,294.13,1649158972.8288014,1649158973.961861,daf793da-9641-4d90-b7e0-a78743a6ec91
-0.3840613404398461,-0.1347017627931579,-0.8791510168959591,0.1445573752343573,-0.9408814406387304,0.1982067934335976,-1.2934311201066242,-1.315989373941185,-27.3874117335979,30.750439220821303,19.73687247302645,0.2687436798146023,-0.5593096298277141,4.302496923412208,-1.0,11.95977777777778,0.0,179.45655721309473,1.0740272307356875,96.55617814536836,1553.0,1435.0,1000.0,1613.0,1471.0,1011.0,242.0,294.13,1649158974.070638,1649158975.1915543,daf793da-9641-4d90-b7e0-a78743a6ec91
-0.3936763264081941,-0.1426868570173383,-0.883862635533851,0.1501729641137408,-0.94047054365375,0.2007406566875502,-1.2957732337326144,-1.3209612295472308,-27.57189621297725,30.545354546092096,19.69626533914889,0.2600767401488691,-0.5885865210549668,4.310675316594962,-1.0,11.960888888888888,0.0,179.447725019588,1.0772913259649803,96.48609736884438,1553.0,1435.0,1000.0,1613.0,1471.0,1011.0,242.0,294.13,1649158975.3000622,1649158976.4298909,daf793da-9641-4d90-b7e0-a78743a6ec91
-0.4808302873106834,-0.170783979561141,-1.1951467220788954,0.2323944978205466,-1.2252309639955574,0.1689388923812455,-1.6445827809023748,-1.6741542395169404,-29.779083883502107,31.52046882533012,19.483679635931225,-0.0070383545160157,-0.7063021846140473,5.61455184545282,-1.0,11.924,0.0,179.46542886991665,1.053210474260912,96.29902835330654,1553.0,1435.0,1000.0,1694.0,1471.0,1011.0,242.0,294.13,1649158978.352947,1649158979.4475796,be087776-0b22-496a-aa89-8bb2cdb7aae5
-0.4946199859083069,-0.1712715770658383,-1.187844259095759,0.2310511394592043,-1.2177164778508889,0.1705534426866223,-1.6346127692494303,-1.6618278676304878,-29.64832721652182,31.39059561344844,19.536765078965114,-0.0008030066699871,-0.7089007993840891,5.5803164484897785,-1.0,11.926,0.0,179.47189933579045,1.0535349438203894,96.1613932113416,1553.0,1435.0,1000.0,1694.0,1471.0,1011.0,242.0,294.13,1649158979.5554676,1649158980.505431,be087776-0b22-496a-aa89-8bb2cdb7aae5
-0.4868918377564085,-0.1749784139941571,-1.1874678774056644,0.232815256053977,-1.2161189099815046,0.1720551332575212,-1.6336693490323857,-1.6519460624009406,-29.70523841233312,31.38827823549867,19.47030168638094,-0.0014437854536508,-0.7220052039991138,5.575718575512227,-1.0,11.92488888888889,0.0,179.4748454240524,1.061946132055783,96.07089699938848,1553.0,1435.0,1000.0,1694.0,1471.0,1011.0,242.0,294.13,1649158980.6140156,1649158981.7502174,be087776-0b22-496a-aa89-8bb2cdb7aae5
-0.5796690643813298,-0.2245095576370713,-1.4625914580192387,0.3425937143700468,-1.4602378388201118,0.1334505621818227,-1.947016397119932,-1.9725775075426208,-31.95782129086693,32.61124184877736,19.185492262556597,-0.3425981544000958,-0.9202463259480153,6.721870900908825,-1.0,11.874111111111112,0.0,179.47459346596304,1.0232806446077527,95.83608572046217,1553.0,1435.0,1000.0,1774.0,1471.0,1011.0,242.0,294.13,1649158983.885249,1649158985.0274608,bc320286-1351-44dc-853a-4b1bef567c93
-0.584058538931861,-0.2308927025108211,-1.4655285514312386,0.3433766096302459,-1.4619674422227549,0.1390376622435619,-1.948456181945104,-1.9666452433994577,-31.99457084315524,32.65265673561421,19.175971550587487,-0.3317009342559237,-0.9441243988721608,6.729458589610457,-1.0,11.879444444444443,0.0,179.48681191547823,1.0103584365906828,95.69111723205836,1553.0,1435.0,1000.0,1774.0,1471.0,1011.0,242.0,294.13,1649158985.136876,1649158986.2654965,bc320286-1351-44dc-853a-4b1bef567c93
-0.5774995288598948,-0.2161075397971479,-1.451046890197237,0.3382283475557813,-1.451467648931829,0.1277703255517555,-1.9360240682972985,-1.9611512711742736,-31.796957741061632,32.553080752368366,19.06355522513888,-0.3452643839204317,-0.8875231306814659,6.67948108820649,-1.0,11.863,0.0,179.47631619145366,0.9979667658889868,95.58283748423622,1553.0,1435.0,1000.0,1774.0,1471.0,1011.0,242.0,294.13,1649158986.3744602,1649158987.5287735,bc320286-1351-44dc-853a-4b1bef567c93
-0.664553241048947,-0.25821734012953973,-1.6964254209718963,0.45549662938212254,-1.6704430139958777,0.07126709140888147,-2.222196122104115,-2.248931861670305,-33.56910594525095,33.86022813126291,18.464241337576034,-0.7413037714711878,-1.0575777088054028,7.712971294908236,-1.0,11.666555555555554,0.0,179.51065382914106,0.97121739722169,95.34764523253618,1553.0,1435.0,1000.0,1856.0,1471.0,1011.0,242.0,294.13,1649158989.4122105,1649158990.5562537,e6699646-0816-4586-af3c-f6cf0484a1d4
-0.6527495426399045,-0.24312811365743317,-1.6900247370966497,0.44550855186376076,-1.6662255646428628,0.0656164392094194,-2.215131970670454,-2.2412058897726523,-33.439354419223015,33.552736091933106,18.5100684586144,-0.733117957496006,-1.0006781488938414,7.690464088751435,-1.0,11.683333333333334,0.0,179.51396115851915,0.9534077501086856,94.98536289203983,1553.0,1435.0,1000.0,1856.0,1471.0,1011.0,242.0,294.13,1649158990.6647842,1649158991.7858984,e6699646-0816-4586-af3c-f6cf0484a1d4
-0.6568387885517921,-0.2525162838649463,-1.6743646177218379,0.45496246365738413,-1.6482249748006255,0.06637906362657241,-2.1982490087769055,-2.231173414430914,-33.467225080149056,33.590926233648,18.673251304330556,-0.7516850280225695,-1.0373090820396726,7.61970434135714,-1.0,11.68988888888889,0.0,179.49492010893297,0.9648194072441574,94.69689288808397,1553.0,1435.0,1000.0,1856.0,1471.0,1011.0,242.0,294.13,1649158991.8975499,1649158993.21396,e6699646-0816-4586-af3c-f6cf0484a1d4
