raw_voltage_G-,raw_voltage_G0,raw_voltage_G1,raw_voltage_G2,raw_voltage_G3,raw_voltage_G4,raw_voltage_G5,raw_voltage_G6,load_x,load_y,load_z,load_l,load_m,load_n,rpm,voltage,current,roll,pitch,yaw,aileron1_pwm,elevator_pwm,throttle_pwm,rudder_pwm,aileron2_pwm,pbaro,pdiff,Tt,sample_start_time,sample_end_time,uid
0.6096924717284454,0.6248408640634399,1.4183646435228738,-0.4161249907817438,0.9285894160045488,-0.116375766495273,1.177811982348769,1.1594585946853124,11.392486913219562,25.266179037977626,25.63276887715124,0.9251024846625228,2.1772964808077657,-4.769405517199462,-1.0,11.981000000000002,0.0,178.61792989078262,1.32712112365911,91.11572756577807,1553.0,1435.0,1000.0,1528.0,1471.0,1011.0,242.0,294.13,1649159794.1976197,1649159795.2124803,8193de0b-363c-4d3d-92c2-66b462cbc0bb
0.6224576630981681,0.6240190706280205,1.4253087992680815,-0.4252058111103322,0.9357801087550396,-0.1063361884612827,1.1875091456871258,1.1679367642745853,11.246267658959567,25.19986349492824,25.82231955207236,0.9680096341322314,2.175126317991157,-4.802458595305551,-1.0,11.982666666666669,0.0,178.62764697324178,1.3126422609835446,91.11035676036072,1553.0,1435.0,1000.0,1528.0,1471.0,1011.0,242.0,294.13,1649159795.32069,1649159796.6500857,8193de0b-363c-4d3d-92c2-66b462cbc0bb
0.6169790401898495,0.6145273564464406,1.4224325217633738,-0.420617462879902,0.9327394729659114,-0.1040077732597547,1.1870982488560555,1.1597325257048536,11.558356159480306,25.302330528953025,25.416547493144645,0.963520166450336,2.140168553972306,-4.795315803474241,-1.0,11.981333333333332,0.0,178.63220498614794,1.3387127017325622,91.1457371402614,1553.0,1435.0,1000.0,1528.0,1471.0,1011.0,242.0,294.13,1649159796.7592323,1649159797.877959,8193de0b-363c-4d3d-92c2-66b462cbc0bb
0.8243356037692352,1.0060900175520415,1.4704888183649798,-0.4681023466461722,0.9027018266694452,-0.4465384800138726,1.1118581244525076,1.0833386036615331,12.070577493361084,24.627041468824608,24.94885932384865,0.2990217937852745,3.618167799033407,-4.665845062535298,-1.0,11.955555555555556,0.0,178.45891853344526,1.2877312448461369,91.17525038766502,1616.0,1435.0,1000.0,1528.0,1519.0,1011.0,242.0,294.13,1649159798.784705,1649159799.9244816,9a1aa536-67f1-4eb2-b1b2-d8c201137660
0.8227561167686576,0.9967982727569064,1.4676448644936455,-0.4802659894333597,0.9008675836414428,-0.4237539754390664,1.1152871945413898,1.0860998296832385,11.96219354236588,24.62215007249287,25.30400735000089,0.377487835175633,3.582254783995618,-4.665156237246172,-1.0,11.954777777777776,0.0,178.4778715494821,1.2700515847707745,91.24003169630298,1616.0,1435.0,1000.0,1528.0,1519.0,1011.0,242.0,294.13,1649159800.0327034,1649159801.3573828,9a1aa536-67f1-4eb2-b1b2-d8c201137660
0.81360681647949,0.9927440917012876,1.4567834928985048,-0.479362016182691,0.8917730695354789,-0.4213022909591702,1.1057680868085664,1.0920304395158689,11.952333612063674,24.558814250462905,25.128614934784213,0.3799643489657902,3.567872499197076,-4.625121660872904,-1.0,11.951,0.0,178.46734546906123,1.278923241592713,91.28449470997992,1616.0,1435.0,1000.0,1528.0,1519.0,1011.0,242.0,294.13,1649159801.4661,1649159802.586272,9a1aa536-67f1-4eb2-b1b2-d8c201137660
1.0941994260387775,1.5088698657765405,1.525871131687302,-0.5561591890189471,0.8514745104134889,-0.8560679216544206,1.0170954756064683,1.0005281195047369,13.10909009202986,23.903325516327364,25.08759366432412,-0.4241059356808763,5.509658333287449,-4.475358695907591,-1.0,11.927375,0.0,178.15427445180734,1.228023469796342,91.42289397935824,1679.0,1435.0,1000.0,1528.0,1567.0,1011.0,242.0,294.13,1649159804.935089,1649159806.0679576,32ef8425-dfce-4a1c-849f-fbae22f23de3
1.104261465374462,1.504831024108327,1.5346210422179976,-0.5527208044476742,0.861448891406658,-0.8548533106451573,1.0270950585067224,1.013973756225453,13.10433020165886,23.877314879293824,25.22023725490345,-0.4288506881293252,5.493499211784569,-4.515372653578802,-1.0,11.925777777777778,0.0,178.13669752916073,1.2068813588612786,91.5940775875702,1679.0,1435.0,1000.0,1528.0,1567.0,1011.0,242.0,294.13,1649159806.1764145,1649159807.296426,32ef8425-dfce-4a1c-849f-fbae22f23de3
1.0978514762505878,1.5096796062876277,1.5236090078484388,-0.5611715827825815,0.849149382836022,-0.8536617085801241,1.013508073179462,0.99412744435373,12.87394512099766,23.96727025048291,24.86439771010616,-0.4072348073440584,5.516812641761775,-4.464452022916813,-1.0,11.931666666666665,0.0,178.1260788617311,1.1981091785270952,91.72071764279124,1679.0,1435.0,1000.0,1528.0,1567.0,1011.0,242.0,294.13,1649159807.4057596,1649159808.527633,32ef8425-dfce-4a1c-849f-fbae22f23de3
1.3579628176388392,1.946531433355456,1.6074182599266766,-0.6133143977377656,0.8393289512007568,-1.235563109067678,0.9613926713857504,0.9409574075524242,14.069801643882384,23.500322086807813,24.718768068108947,-1.1461403961311405,7.159824367434189,-4.437891787558374,-1.0,11.889,0.0,177.9054182169452,1.151134410214725,91.9044611151132,1745.0,1435.0,1000.0,1528.0,1614.0,1011.0,242.0,294.13,1649159810.2276008,1649159811.1752894,181ffbf2-9ed7-4a9c-9ff7-491adecc48b2
1.3465398874490944,1.934368885295412,1.6068840943541651,-0.6135609362870373,0.8413149520691855,-1.221113228176168,0.9658851423708756,0.9369032265523902,14.052229404413575,23.489408755506044,25.06179722867265,-1.1131665620805362,7.111287836477795,-4.447262816034145,-1.0,11.881777777777778,0.0,177.88208173728103,1.1707523973423597,91.98898622391192,1745.0,1435.0,1000.0,1528.0,1614.0,1011.0,242.0,294.13,1649159811.2849152,1649159812.2337656,181ffbf2-9ed7-4a9c-9ff7-491adecc48b2
1.350401769162118,1.9498509323882665,1.611153585997931,-0.6257815591596583,0.8397721718230124,-1.2257832121661532,0.9674854481124574,0.9431998080552032,14.184183412643748,23.552947424181347,24.97585975191928,-1.0954073874740602,7.170959010561358,-4.451548603381503,-1.0,11.886,0.0,177.87526824412896,1.145529303221312,92.08776366077872,1745.0,1435.0,1000.0,1528.0,1614.0,1011.0,242.0,294.13,1649159812.3435967,1649159813.4404364,181ffbf2-9ed7-4a9c-9ff7-491adecc48b2
1.597981329724135,2.374302565755844,1.6903646328055515,-0.662512453471979,0.8257419663884679,-1.6121092956486696,0.9041547576213044,0.8732142343051678,15.13993486909626,23.666565183237307,24.42515354379228,-1.8755870993727173,8.770572865639743,-4.399361265163022,-1.0,11.85,0.0,177.60119248439392,1.0748016034328378,92.2627288221974,1813.0,1435.0,1000.0,1528.0,1662.0,1011.0,242.0,294.13,1649159815.375106,1649159816.5126522,f1fb2617-7355-462e-b5be-0fa717bf806e
1.602035511673699,2.379849675588257,1.6963363329849666,-0.6731135949514293,0.8280292914118658,-1.609137140405988,0.9115098089103882,0.8936631945566126,15.338068733721416,23.68029161380117,24.28275777682079,-1.8445293100110745,8.792921641591173,-4.420578456514878,-1.0,11.844,0.0,177.59478273131285,1.076315166238132,92.37840187034112,1813.0,1435.0,1000.0,1528.0,1662.0,1011.0,242.0,294.13,1649159816.6214457,1649159817.7377405,f1fb2617-7355-462e-b5be-0fa717bf806e
1.6033432591141292,2.384599645440053,1.6864956275433542,-0.6732220706738735,0.8179716353812969,-1.6138410903923828,0.9005454406696575,0.8761677598871508,15.381631111017713,23.60459462737788,24.182114372835823,-1.855840939908972,8.810708816306676,-4.377361297757159,-1.0,11.84325,0.0,177.58664987328615,1.0534493040982378,92.48311094704714,1813.0,1435.0,1000.0,1528.0,1662.0,1011.0,242.0,294.13,1649159817.846679,1649159819.171489,f1fb2617-7355-462e-b5be-0fa717bf806e
0.3176111932398847,0.0797118415918598,1.335859310783159,-0.243062370252682,0.965000344624326,0.2607693828371474,1.2391506492555753,1.2218469652673354,10.895560432731452,26.43858237994682,25.87756249123793,1.385663791163706,0.107560506944935,-4.85879452754742,-1.0,11.960555555555556,0.0,178.73999447816962,1.2557035391905624,92.61643396291606,1491.0,1435.0,1000.0,1528.0,1420.0,1011.0,242.0,294.13,1649159820.2902665,1649159821.6457126,fcccb8b9-3816-46b3-acf5-ea8bb1020434
0.3088278647641821,0.0830121643193284,1.335083537666984,-0.2460339760721636,0.9636854750767092,0.2588365245977413,1.2383748762069955,1.2235037010535852,10.92593500546822,26.37008183096901,25.668310650993345,1.3875128223971418,0.1218938604513913,-4.854714119645248,-1.0,11.962,0.0,178.7260897308393,1.2305840599878612,92.57377260136016,1491.0,1435.0,1000.0,1528.0,1420.0,1011.0,242.0,294.13,1649159821.7538652,1649159822.859579,fcccb8b9-3816-46b3-acf5-ea8bb1020434
0.3218056270860023,0.0898626349880787,1.3332953149127136,-0.2609314507587023,0.9591491751968302,0.2628337280080453,1.2360081108226633,1.2207030285372815,10.800109046241555,26.40288221731321,25.22514324784052,1.4300945403059524,0.1541270277159794,-4.842756419493159,-1.0,11.961888888888888,0.0,178.72907376459668,1.219930020241732,92.54580069997922,1491.0,1435.0,1000.0,1528.0,1420.0,1011.0,242.0,294.13,1649159822.9705667,1649159824.0920684,fcccb8b9-3816-46b3-acf5-ea8bb1020434
0.104303190385443,-0.2875690691111751,1.2744959881473226,-0.1806537206348485,0.9766917261568584,0.5592069616086309,1.285014945179275,1.2643742318456546,10.4710668200586,27.340250501065608,25.245996225512908,1.9181216839015025,-1.272922852103061,-4.901826145047313,-1.0,11.919333333333334,0.0,178.97027202930687,1.2731786849037456,92.49207139632829,1428.0,1435.0,1000.0,1528.0,1368.0,1011.0,242.0,294.13,1649159826.2296512,1649159827.2717235,4bd183d8-8a67-4e10-a8ea-05e8f1d743d0
0.1037827211534909,-0.2854871919407213,1.2729208839339092,-0.1754490279049114,0.976075381081312,0.5539200904845591,1.2808374948747,1.264675555801779,10.332541494589366,27.348428424824323,25.444103165903368,1.894438498971193,-1.2666304391495369,-4.892415096720989,-1.0,11.915555555555557,0.0,178.9615324228089,1.2409426584784855,92.34645935232268,1428.0,1435.0,1000.0,1528.0,1368.0,1011.0,242.0,294.13,1649159827.380513,1649159828.5959623,4bd183d8-8a67-4e10-a8ea-05e8f1d743d0
0.1103981588684816,-0.2781321389070803,1.2764819891694124,-0.1733671508274948,0.9795406101488054,0.5440859623422,1.282823495837315,1.2592380222382868,10.37425562766581,27.195098306684088,25.36614336813031,1.8668131413142048,-1.238681974021323,-4.903926322551716,-1.0,11.922999999999998,0.0,178.98875452120092,1.2194797969389422,92.25171096815627,1428.0,1435.0,1000.0,1528.0,1368.0,1011.0,242.0,294.13,1649159828.704501,1649159829.8230202,4bd183d8-8a67-4e10-a8ea-05e8f1d743d0
-0.2396568575618618,-0.8806034004565872,1.1708957682787586,0.0386484630760519,1.0059716792646791,0.9386766567548704,1.3214614880185422,1.3091674573582657,9.262629497872064,29.074395053927912,25.02176012428049,2.281841972770952,-3.5201608195991465,-4.924087540130165,-1.0,11.889666666666669,0.0,179.54327481261703,1.260420057545704,91.98702747743994,1364.0,1435.0,1000.0,1528.0,1312.0,1011.0,242.0,294.13,1649159831.762642,1649159832.9029014,a0ec659b-9ca4-42c3-a58d-36c0e47f2ea0
-0.2396995907860097,-0.8855473128957344,1.1765108093210148,0.0380392403133231,1.0098373957171098,0.944230884693615,1.328898719530266,1.3132846427261198,9.468126324261933,29.23010311431261,25.090190194399487,2.297123470972952,-3.5403308343952187,-4.948022975376968,-1.0,11.895111111111111,0.0,179.52878266901809,1.2516317385180136,91.71651555863188,1364.0,1435.0,1000.0,1528.0,1312.0,1011.0,242.0,294.13,1649159833.02021,1649159834.1320963,a0ec659b-9ca4-42c3-a58d-36c0e47f2ea0
-0.2294534680971484,-0.8914247833122068,1.1591539828802295,0.0348353412371944,0.9941378534279208,0.9539948866578442,1.3146767606649783,1.2944014713449368,9.470313337346791,29.17652629440648,25.11917569270745,2.325077998505721,-3.563354069129289,-4.883406193864304,-1.0,11.884666666666668,0.0,179.55417731235218,1.2563229401129503,91.50514700675684,1364.0,1435.0,1000.0,1528.0,1312.0,1011.0,242.0,294.13,1649159834.2448766,1649159835.3380938,a0ec659b-9ca4-42c3-a58d-36c0e47f2ea0
-0.4987974377645043,-1.365160065112624,1.1149310841026756,0.148940273832878,1.0453251768663925,1.311709538199642,1.4030655869190625,1.3824659624511408,9.177115460150157,30.421562435868697,25.07810690704755,2.8774151662336123,-5.354541370884299,-5.075786840663619,-1.0,11.783333333333331,0.0,179.73216597084345,1.2740072247955636,91.13989732852104,1297.0,1435.0,1000.0,1528.0,1253.0,1011.0,242.0,294.13,1649159836.264686,1649159837.4023,24ebeaf2-140c-421b-97fd-299dbf3a51a1
-0.5158222642326616,-1.3741450164860345,1.1009742914983434,0.1561720565694214,1.0348473101569091,1.31592807832591,1.3903962695803067,1.368385899382382,9.105705656165478,30.407705779762363,25.270885355661807,2.8697896306919835,-5.3912189792996585,-5.025248680035798,-1.0,11.801,0.0,179.72416098913618,1.2900603393531114,90.8076837574808,1297.0,1435.0,1000.0,1528.0,1253.0,1011.0,242.0,294.13,1649159837.5108263,1649159838.6361856,24ebeaf2-140c-421b-97fd-299dbf3a51a1
-0.510730430308512,-1.3715497899488662,1.089755166952981,0.1481902503013365,1.023761864177012,1.3225791272816207,1.378237560059473,1.3517955311890502,8.8065704565427,30.440464420495413,25.444108252483428,2.90227598432275,-5.380631312571183,-4.977279872587116,-1.0,11.802111111111111,0.0,179.73773636956656,1.267126354673272,90.48849383936796,1297.0,1435.0,1000.0,1528.0,1253.0,1011.0,242.0,294.13,1649159838.7450268,1649159839.8554716,24ebeaf2-140c-421b-97fd-299dbf3a51a1
0.6050022226605657,0.6160076803561305,1.4066124477825546,-0.3286735436458688,0.9269874666332284,-0.1943727429625203,1.1397991026966403,1.1153951235560955,11.020735751092706,25.75170056142625,24.5675032097256,0.554840285579643,2.144735320081217,-4.699345565249239,-1.0,11.972333333333331,0.0,178.55466867868995,1.123388284531364,90.18948561243263,1553.0,1435.0,1000.0,1528.0,1471.0,1011.0,242.0,294.13,1649159840.7694051,1649159841.9084196,35f50af8-d4d2-4801-a16b-4d5e58880d06
0.6053046426475531,0.6189266906390426,1.4006560880992711,-0.3260963987081339,0.921399271179689,-0.1967658058529356,1.1325278739360156,1.116210342623993,10.981731634462855,25.72871923841605,24.92060387583616,0.5432370658587375,2.152134629745964,-4.672406416669695,-1.0,11.977,0.0,178.5070759205533,1.1593446296201648,90.55647622999687,1553.0,1435.0,1000.0,1528.0,1471.0,1011.0,242.0,294.13,1649159842.0173242,1649159843.1454296,35f50af8-d4d2-4801-a16b-4d5e58880d06
0.6001109081322166,0.6153370969117785,1.4079667636194122,-0.3337489412300097,0.928683648339117,-0.1867464984303537,1.143967239242015,1.1151715955717625,11.014788514538816,25.66216804482241,24.915995997940463,0.5829528008818768,2.139882862808073,-4.709037983053152,-1.0,11.972333333333331,0.0,178.51407914118226,1.1479793489948389,90.88833690793004,1553.0,1435.0,1000.0,1528.0,1471.0,1011.0,242.0,294.13,1649159843.25406,1649159844.3657296,35f50af8-d4d2-4801-a16b-4d5e58880d06
0.6380169521425549,0.6117195622062169,1.4116259364171302,-0.9205694328004292,0.867201445487896,0.3812201981737083,1.3068335632758743,1.2939451016846235,11.416127536953343,24.827635004571224,28.98205341487731,3.1784732203830344,2.159904946681656,-4.8613968280483375,-1.0,11.960666666666668,0.0,178.52381140183962,1.3711624680185677,91.44369731261403,1553.0,1522.0,1000.0,1528.0,1471.0,1011.0,242.0,294.13,1649159846.300279,1649159847.6439743,a08dd2e1-9005-40a6-97bd-fa64ee1c6d10
0.6399892563881924,0.6118565277788129,1.410708266951031,-0.9209803296741158,0.8660235415473249,0.3812475913608769,1.3042723068888789,1.27486579550602,11.289031918603788,24.92531917851337,28.937372867484097,3.179992426552539,2.1617082764691053,-4.855073932767456,-1.0,11.962333333333332,0.0,178.4988842470087,1.3536154274495895,91.56449072590551,1553.0,1522.0,1000.0,1528.0,1471.0,1011.0,242.0,294.13,1649159847.7532222,1649159848.8705423,a08dd2e1-9005-40a6-97bd-fa64ee1c6d10
0.6556033316601749,0.6321822187523265,1.4256375166317583,-0.9291434834405344,0.8739949379594067,0.3701122900158816,1.3188865350570536,1.2982595178795504,11.864545618763666,24.78115900931348,29.229202007860778,3.173507932508469,2.233231205648781,-4.903827949290062,-1.0,11.952333333333334,0.0,178.51101466297467,1.368098404839811,91.6316853680502,1553.0,1522.0,1000.0,1528.0,1471.0,1011.0,242.0,294.13,1649159848.9796193,1649159850.1001165,a08dd2e1-9005-40a6-97bd-fa64ee1c6d10
0.6894694391315781,0.6268947997877572,1.4264669804314962,-1.5477162155606137,0.802140606575711,0.9699574027652036,1.4809551814863935,1.4595359535058336,12.077902197972817,24.51411750535508,33.41804442838777,5.915834701308402,2.2509720776608955,-5.037738307522073,-1.0,11.934222222222225,0.0,178.5061591573847,1.5720302562329052,91.81005424040528,1553.0,1613.0,1000.0,1528.0,1471.0,1011.0,242.0,294.13,1649159852.2390907,1649159853.5809202,c4c3002d-fbf9-49bc-ba9d-dc2c0a9fc4d1
0.6694368544875836,0.6117195622070966,1.412420337045991,-1.5390654587109704,0.7920210421580375,0.9745961529185934,1.466809374707973,1.439539524638085,11.864964534327214,24.67693192905733,32.987040081428226,5.906948599716276,2.197429996964442,-4.987251341832558,-1.0,11.935,0.0,178.47367629551192,1.5918244646127195,91.72213225085932,1553.0,1613.0,1000.0,1528.0,1471.0,1011.0,242.0,294.13,1649159853.690031,1649159854.806556,c4c3002d-fbf9-49bc-ba9d-dc2c0a9fc4d1
0.6697463966818239,0.6158630447096312,1.4188012899415985,-1.547873999846575,0.7974202250314291,0.9808445225155684,1.47619535294554,1.4551837349880337,11.92586454723294,24.52830931624569,33.3613028421924,5.940282237953893,2.2107089766361634,-5.015611219749951,-1.0,11.939333333333334,0.0,178.4984425614424,1.6059893283139413,91.6926379762034,1553.0,1613.0,1000.0,1528.0,1471.0,1011.0,242.0,294.13,1649159854.9159355,1649159856.0394022,c4c3002d-fbf9-49bc-ba9d-dc2c0a9fc4d1
0.7138273965675811,0.6254161194664377,1.4374028613008525,-2.0805597265983367,0.7405356832688144,1.484971012472068,1.6174441424007764,1.586928205714792,11.981044792590431,25.4681819228683,37.22791622705848,8.28253116375777,2.278658760710367,-5.163004936884206,-1.0,11.872555555555556,0.0,178.4923363723244,1.7866464089047014,91.62243122063477,1553.0,1710.0,1000.0,1528.0,1471.0,1011.0,242.0,294.13,1649159856.7456229,1649159857.8789322,c726152d-444c-4a72-b442-435f26648688
0.727866367762382,0.6391400698393195,1.4389231793403876,-2.080422761290633,0.7389468826108927,1.4758354072641695,1.6140610918599665,1.5993783791966223,11.967364008761017,25.537792622532947,37.85044350568747,8.26232278618899,2.324792001608939,-5.155594867307001,-1.0,11.884666666666666,0.0,178.4789309877134,1.7730405416403956,91.4380047293958,1553.0,1710.0,1000.0,1528.0,1471.0,1011.0,242.0,294.13,1649159857.989435,1649159859.1102493,c726152d-444c-4a72-b442-435f26648688
0.7039067062059161,0.6098014963280572,1.4150933578818865,-2.061028945533221,0.7258781755547992,1.482598768380959,1.5962955579011469,1.5778216372432023,11.884805377405304,25.33141470508493,37.10730934463238,8.231058576881178,2.218023244786112,-5.084418893844156,-1.0,11.8725,0.0,178.47224537088078,1.7979494352016552,91.29288901246989,1553.0,1710.0,1000.0,1528.0,1471.0,1011.0,242.0,294.13,1649159859.2185023,1649159860.3399365,c726152d-444c-4a72-b442-435f26648688
0.7344511246376908,0.6087627494262582,1.4589968575350567,-2.603966147375093,0.690061130420743,2.0055488301079323,1.7642964797914624,1.7351458139310452,11.852507688248942,26.80742715822235,41.02693767187136,10.643509817645214,2.249271811007418,-5.334663894516563,-1.0,11.839,0.0,178.4704524462237,1.9666088260545629,90.99055524231872,1553.0,1814.0,1000.0,1528.0,1471.0,1011.0,242.0,294.13,1649159862.2742746,1649159863.418761,93a4ad84-0fac-4435-8c21-68e604211f62
0.7407756469308937,0.6115765701488394,1.4599172663440192,-2.6005737752175504,0.6904555912771161,1.999802847781922,1.7644411155311257,1.743547832027349,11.983387208024933,26.773263227907883,41.04991447555065,10.622834365135311,2.2583354695974367,-5.336153540765472,-1.0,11.844,0.0,178.44931073401278,1.9889917828515176,90.770518421477,1553.0,1814.0,1000.0,1528.0,1471.0,1011.0,242.0,294.13,1649159863.53167,1649159864.6397698,93a4ad84-0fac-4435-8c21-68e604211f62
0.7307563413477577,0.6088284928970706,1.450489650239313,-2.607042950996217,0.6794501335711639,2.0111238794570974,1.7576432378833535,1.7305437695165882,12.119460606046037,26.87193141733733,41.365088824310334,10.66317049802245,2.244472539487252,-5.298524151867899,-1.0,11.842666666666666,0.0,178.46023903668478,1.9846841390671592,90.55159492147006,1553.0,1814.0,1000.0,1528.0,1471.0,1011.0,242.0,294.13,1649159864.7481182,1649159865.8656652,93a4ad84-0fac-4435-8c21-68e604211f62
0.562370866339248,0.6177460474032646,1.3935464781152735,0.219765175600998,0.969021653900744,-0.7141348022860247,0.9697612680224909,0.9405465108099408,10.32997872615796,27.443864583146222,21.99450435527646,-1.840468742558581,2.110624525862126,-4.496477088885231,-1.0,11.973,0.0,178.47560240885787,1.0633320675589302,90.37773245614738,1553.0,1349.0,1000.0,1528.0,1471.0,1011.0,242.0,294.13,1649159866.7141678,1649159867.6569383,3033179a-47f9-48b0-a9db-ffc9fb675b4d
0.5576592506351093,0.6089939473130143,1.3770147313321113,0.1913174245563026,0.9536541163509348,-0.6790168125711115,0.9642004656857376,0.93527333618705,10.200199913320818,27.23656456890443,21.961926968387104,-1.6996506818530552,2.0814570911658503,-4.446454021647685,-1.0,11.971333333333334,0.0,178.48204858961455,1.0314376454559095,90.859361727651,1553.0,1349.0,1000.0,1528.0,1471.0,1011.0,242.0,294.13,1649159867.7882004,1649159869.1526475,3033179a-47f9-48b0-a9db-ffc9fb675b4d
0.5670550889290016,0.6108665406213339,1.3781060732132844,0.1727520140682616,0.9533111545534568,-0.6640574255268045,0.969378860219578,0.9462634540867304,10.10917361604762,27.154147501269858,21.944682305995457,-1.6246965046226998,2.091631142282761,-4.454837797566651,-1.0,11.969,0.0,178.48870726514542,1.041278845258938,91.2559080915737,1553.0,1349.0,1000.0,1528.0,1471.0,1011.0,242.0,294.13,1649159869.2656372,1649159870.3772686,3033179a-47f9-48b0-a9db-ffc9fb675b4d
0.5213765224570368,0.6164284385943951,1.384601529371218,0.7577374634651393,1.0134006921843832,-1.230372108706738,0.804691453391504,0.7853365743169164,9.618893268218388,29.24112632081913,18.161402195397848,-4.203556671165416,2.077915782487078,-4.311789350378014,-1.0,11.95322222222222,0.0,178.49006874951996,0.8499764227410697,91.70351846755123,1553.0,1264.0,1000.0,1528.0,1471.0,1011.0,242.0,294.13,1649159871.287954,1649159872.4228718,5b562d6a-e3a1-4807-b180-5a490b31c74a
0.5250581570646338,0.6143640934842007,1.39897305490807,0.7523070524450617,1.0271542275612309,-1.222851048133497,0.8199044935361951,0.7895836028209348,9.453592504359085,29.33688919654797,18.345694151323112,-4.173109568319809,2.071291118417081,-4.371964636149382,-1.0,11.946555555555555,0.0,178.48952233438635,0.8643139918071641,92.03760882279342,1553.0,1264.0,1000.0,1528.0,1471.0,1011.0,242.0,294.13,1649159872.5311787,1649159873.853634,5b562d6a-e3a1-4807-b180-5a490b31c74a
0.530725244625989,0.6201889653562477,1.396382761688587,0.7513209003150252,1.0246691241490964,-1.22872852038034,0.8149079894291174,0.7927261409345384,9.312871356652693,29.276237434143777,18.16479959788088,-4.184723233883918,2.095693360025812,-4.357567512912918,-1.0,11.948333333333332,0.0,178.51336424804916,0.8636600486260045,92.28312073141944,1553.0,1264.0,1000.0,1528.0,1471.0,1011.0,242.0,294.13,1649159873.9648757,1649159875.295721,5b562d6a-e3a1-4807-b180-5a490b31c74a
0.4994351854623548,0.6263611819170433,1.4163512493582948,1.312271097220181,1.091482576796838,-1.77007192078924,0.6657935702623207,0.6427285678398081,8.730548517976088,31.79943494040562,14.97677969800066,-6.649640783396696,2.0834635142682383,-4.263755854772982,-1.0,11.922555555555554,0.0,178.49760320708435,0.6578784195515188,92.59015215389977,1553.0,1178.0,1000.0,1528.0,1471.0,1011.0,242.0,294.13,1649159876.4074764,1649159877.543479,e63e64b4-e635-4bd1-a9fd-399095b2b5bf
0.5005719997202721,0.6213619385188485,1.4016411447833246,1.305189976300011,1.0803883649451878,-1.7549372014294156,0.6535077583975974,0.6384963316377629,8.301819008351671,31.70582331630937,15.404223581793616,-6.601158476517452,2.0638970374942933,-4.21142679295824,-1.0,11.926666666666668,0.0,178.48580215801843,0.6212417235883608,92.83488162641086,1553.0,1178.0,1000.0,1528.0,1471.0,1011.0,242.0,294.13,1649159877.6520298,1649159878.7763083,e63e64b4-e635-4bd1-a9fd-399095b2b5bf
0.5055986362616495,0.6383593660763878,1.4269660828000308,1.2945066607016529,1.0969064137322928,-1.7648672217134254,0.6784080994945522,0.6554526695498347,8.927964228744711,31.73750600718093,15.15146728300862,-6.597627679446885,2.128377544100584,-4.3018670279404,-1.0,11.921,0.0,178.48951322746746,0.6131730230937709,93.03629631593545,1553.0,1178.0,1000.0,1528.0,1471.0,1011.0,242.0,294.13,1649159878.8846085,1649159880.0028255,e63e64b4-e635-4bd1-a9fd-399095b2b5bf
0.4733048933210007,0.6366248340648561,1.4027072852063986,1.718617898493274,1.1080713001332183,-2.1656796215630867,0.5164194643268075,0.4918445533160633,7.667855166454689,34.38052180151561,12.708717126951528,-8.439708454312454,2.0987305440197024,-4.055271776924624,-1.0,11.887,0.0,178.50591478839436,0.4787157392908817,93.23752583144255,1553.0,1088.0,1000.0,1528.0,1471.0,1011.0,242.0,294.13,1649159880.7074652,1649159881.8451378,9c54a991-a43f-4cf6-b9fd-435adc000597
0.4826799129211372,0.6537444349096436,1.4154483722302251,1.71178057511845,1.1157501382699386,-2.173713491241892,0.5292262933599109,0.5100554959977457,8.082501640942498,34.21350449036675,13.15407879724552,-8.442531346964106,2.1577041660827176,-4.098334146130616,-1.0,11.874000000000002,0.0,178.4854014535871,0.4307569612773044,93.3217420639088,1553.0,1088.0,1000.0,1528.0,1471.0,1011.0,242.0,294.13,1649159881.954789,1649159883.0794852,9c54a991-a43f-4cf6-b9fd-435adc000597
0.4931462742013104,0.6455659466414184,1.4090975515275277,1.7136345416517538,1.1127259381969314,-2.1662844627660376,0.5237695849454683,0.500128231135009,7.795441745493105,34.22956278715628,13.26949539729853,-8.430355298961926,2.1274080687634536,-4.078806914246265,-1.0,11.874333333333333,0.0,178.47949409886496,0.4529511095897809,93.41812969347605,1553.0,1088.0,1000.0,1528.0,1471.0,1011.0,242.0,294.13,1649159883.2116978,1649159884.3011262,9c54a991-a43f-4cf6-b9fd-435adc000597
0.6074599328909939,0.6167325021657383,1.4129545025490635,-0.4340674861230169,0.9149476447167508,-0.0853667559887771,1.170319964957989,1.1404066821358054,11.187297262108926,26.26326062986752,26.501669923800424,1.0416333512610054,2.1425194686819573,-4.733248918074418,-1.0,11.973333333333333,0.0,178.48841736156064,1.138855615503844,93.54603788715296,1553.0,1435.0,1000.0,1528.0,1471.0,1011.0,242.0,294.13,1649159886.2360103,1649159887.374301,6a17e0fd-b702-49d0-bdb1-0142911c2e69
0.5957219833196905,0.6002418472211181,1.4111191636133562,-0.4244935896681612,0.9188374670531054,-0.0798744356501416,1.171785496708276,1.1442554149726456,11.047024815063423,26.188115860514376,26.239120892850394,1.0316769708323792,2.082692889058888,-4.740480816144981,-1.0,11.97411111111111,0.0,178.48341614526836,1.1300467466188069,93.51151203980844,1553.0,1435.0,1000.0,1528.0,1471.0,1011.0,242.0,294.13,1649159887.482257,1649159888.6006691,6a17e0fd-b702-49d0-bdb1-0142911c2e69
0.6041042763642507,0.609596595829049,1.4034490905017991,-0.4298900348304329,0.908975945676088,-0.0822576369356655,1.162622499340835,1.144734794627262,11.094280162991224,26.15848535887046,26.432110630678466,1.0379708656930329,2.1159116327201417,-4.702145745983443,-1.0,11.974222222222222,0.0,178.48880136997397,1.1340298022640145,93.49026408021044,1553.0,1435.0,1000.0,1528.0,1471.0,1011.0,242.0,294.13,1649159888.7091134,1649159889.8307264,6a17e0fd-b702-49d0-bdb1-0142911c2e69
0.7472973996366332,0.6882466104975825,1.8021384355038688,-0.442357193278572,1.2679462938318382,-0.1676940359557708,1.5602549760962343,1.5424253421286642,13.79407670873903,25.988133297551013,26.663222138246315,0.8942253569902379,2.4165470383272494,-6.288986465803272,-1.0,11.949222222222224,0.0,178.45096819325136,1.1303706351378862,93.41291370567986,1553.0,1435.0,1000.0,1435.0,1471.0,1011.0,242.0,294.13,1649159891.766065,1649159893.1108313,7153d19d-abf7-4632-8580-423d73b811f9
0.7413026904535828,0.682270528634405,1.7866514590638236,-0.4339990034197595,1.2562521721611206,-0.1707921976416568,1.542592440021875,1.5154184652570415,13.52685941387896,26.004303536824853,26.35829956735327,0.8675622750920914,2.3967163277311925,-6.22807390330696,-1.0,11.944222222222225,0.0,178.4360252571672,1.113408773397642,93.37289714515256,1553.0,1435.0,1000.0,1435.0,1471.0,1011.0,242.0,294.13,1649159893.2192109,1649159894.3365414,7153d19d-abf7-4632-8580-423d73b811f9
0.7448385936769485,0.6900479817071095,1.790015334991284,-0.4456443678230354,1.2561650621948204,-0.1651431884547716,1.5488682040825206,1.5251085074611537,13.787831559477628,25.90768964408249,26.75688063368292,0.9062473782197744,2.422152201682101,-6.239852655721253,-1.0,11.945333333333334,0.0,178.4410143309009,1.1580641944521666,93.33568931019396,1553.0,1435.0,1000.0,1435.0,1471.0,1011.0,242.0,294.13,1649159894.4443636,1649159895.5626843,7153d19d-abf7-4632-8580-423d73b811f9
0.8526578929590233,0.7330047681852794,2.170709676538132,-0.3653847096932739,1.6096809316140623,-0.3071885704449143,1.9057370422637208,1.886526791574322,16.005586868128006,26.68102732476451,25.872914146500733,0.4310643513485921,2.5896695390398152,-7.742499248983822,-1.0,11.893999999999998,0.0,178.4121089703334,1.128963248571877,93.18027518581953,1553.0,1435.0,1000.0,1330.0,1471.0,1011.0,242.0,294.13,1649159896.213206,1649159897.2035244,e990de1d-bf35-477e-a119-e092225bb635
0.8339872938241227,0.7259351531856799,2.1533084644285574,-0.3642150234215267,1.5940641135170897,-0.3011149677226513,1.887663606130894,1.8667489549930136,15.79429113917771,26.82248820749065,25.76762380626952,0.4420221742892056,2.5643381109667645,-7.672975581826236,-1.0,11.889555555555551,0.0,178.40123075571535,1.094646457191029,93.05629586873516,1553.0,1435.0,1000.0,1330.0,1471.0,1011.0,242.0,294.13,1649159897.311313,1649159898.4376724,e990de1d-bf35-477e-a119-e092225bb635
0.8384112818363061,0.730893306916328,2.1560066873554944,-0.3643108993710666,1.595926845517355,-0.3067990403805057,1.8885675789345424,1.8732548221568923,15.785527878786842,26.805050734021226,25.65185368827573,0.429461469470642,2.584204855425702,-7.68004088844794,-1.0,11.894666666666666,0.0,178.41624654715062,1.123340674792618,92.96991067175246,1553.0,1435.0,1000.0,1330.0,1471.0,1011.0,242.0,294.13,1649159898.5458615,1649159899.661535,e990de1d-bf35-477e-a119-e092225bb635
0.9694314548919304,0.7814182631642757,2.5221219631625647,-0.3224936555317796,1.930219922467424,-0.4142452746122892,2.240384655376169,2.2220159164804887,18.097970413450767,27.411300149285253,25.63370615267547,0.1170961068070043,2.775569541680752,-9.127505202585844,-1.0,11.703444444444443,0.0,178.403850512717,1.0731036018040183,92.770716552618,1553.0,1435.0,1000.0,1210.0,1471.0,1011.0,242.0,294.13,1649159900.776954,1649159901.912526,6c21d8f3-8577-4553-8da4-4f05e2f3877e
0.9520094336971974,0.7897808332005457,2.505725526076572,-0.3048612507942106,1.912377136141136,-0.4380707171091879,2.2171640450720065,2.195968335909509,18.421316592984063,27.49377089484192,25.56451138091008,0.02366478078804,2.802049996006257,-9.046530175052968,-1.0,11.76088888888889,0.0,178.37082275353043,1.054799264010815,92.48463483814196,1553.0,1435.0,1000.0,1210.0,1471.0,1011.0,242.0,294.13,1649159902.0197213,1649159903.15216,6c21d8f3-8577-4553-8da4-4f05e2f3877e
0.9461056694892752,0.7760272982130841,2.4988619009125683,-0.3124480503874938,1.908471972059396,-0.415691631933506,2.215086549839685,2.195771104916333,18.107798375517483,27.559334519308592,25.80331445409299,0.091040650371403,2.7510684690799634,-9.030537462816572,-1.0,11.748666666666669,0.0,178.37389633865692,1.041311679970417,92.24516081674224,1553.0,1435.0,1000.0,1210.0,1471.0,1011.0,242.0,294.13,1649159903.28559,1649159904.3714416,6c21d8f3-8577-4553-8da4-4f05e2f3877e
0.9340269493486094,0.7791873679126772,2.4875320992066645,-0.2991700563377182,1.8981414767845823,-0.4313007809829096,2.1974798889141915,2.1751818795629903,18.00542291357404,27.6537089410149,25.650763433747017,0.0259985270850803,2.762645842202532,-8.975781749214326,-1.0,11.69277777777778,0.0,178.39108868370778,1.038312017412116,91.79016245281248,1553.0,1435.0,1000.0,1071.0,1471.0,1011.0,242.0,294.13,1649159906.3061495,1649159907.4554226,87c0532c-7b5b-45b6-b6dc-f5962b7376f5
0.9250967938419632,0.7632034855451538,2.4970923045552134,-0.2902809883249957,1.909345265123649,-0.42516472119697,2.211436689256874,2.189261949269198,18.273358307026708,27.743059013939146,25.54837889271549,0.020922411114972,2.7012207627866496,-9.025794648949123,-1.0,11.704777777777776,0.0,178.37600003692128,1.0572734763217175,91.56663919985446,1553.0,1435.0,1000.0,1071.0,1471.0,1011.0,242.0,294.13,1649159907.5640726,1649159908.6721628,87c0532c-7b5b-45b6-b6dc-f5962b7376f5
0.946038830283372,0.7737087449890283,2.5189109394999627,-0.2994165942465907,1.9288628671079755,-0.4273698677073349,2.233789484764776,2.2158880737430846,18.282743142634576,27.583736525018463,25.674139151800247,0.0366298665180696,2.7419461110155603,-9.112504786280049,-1.0,11.700777777777777,0.0,178.36064425384728,1.057813037550214,91.37845155111256,1553.0,1435.0,1000.0,1071.0,1471.0,1011.0,242.0,294.13,1649159908.780503,1649159909.897467,87c0532c-7b5b-45b6-b6dc-f5962b7376f5
0.4821638266450462,0.5621106317616857,0.9744591872757354,-0.3691046956097398,0.5175968205045663,-0.0693691747146766,0.7059518761376103,0.6912143805352912,8.223504142965638,26.753258550267663,26.205493915005047,0.9109169190758594,1.925467979744458,-2.941895272097752,-1.0,11.98577777777778,0.0,178.4923849425585,1.1319209220679367,91.299660765577,1553.0,1435.0,1000.0,1613.0,1471.0,1011.0,242.0,294.13,1649159911.836519,1649159912.9781258,3f0097af-3fe8-45a8-8e8c-77cd5466180a
0.4663443028598125,0.5517834275521984,0.97011737859474,-0.366789976897605,0.5157888749037788,-0.0618086742027533,0.7044041651730854,0.681243286855041,8.183593943040906,26.75600520160129,26.122365660750443,0.9224536088109966,1.8871937309208733,-2.932686390645029,-1.0,11.987000000000002,0.0,178.4764630126933,1.1436993817061796,91.61113484665744,1553.0,1435.0,1000.0,1613.0,1471.0,1011.0,242.0,294.13,1649159913.095186,1649159914.2023532,3f0097af-3fe8-45a8-8e8c-77cd5466180a
0.4637693500846669,0.5509753306828679,0.9733497660952498,-0.3697073444173577,0.5168982960842846,-0.0569463955828455,0.7103210779025749,0.6850098400906469,8.480363660242936,26.789484941514644,26.35221942393009,0.9405295833516952,1.880589899445292,-2.9466333589631746,-1.0,11.992555555555557,0.0,178.48824888356114,1.167025319637452,91.8552329061253,1553.0,1435.0,1000.0,1613.0,1471.0,1011.0,242.0,294.13,1649159914.3104317,1649159915.429982,3f0097af-3fe8-45a8-8e8c-77cd5466180a
0.356032228891659,0.4932717346628126,0.6478099905727143,-0.2934175014506444,0.2307224219468011,-0.0604527152522299,0.3551693456443938,0.3278721062378972,5.279380205947448,27.491134208032225,25.19154977945411,0.7472045195979633,1.667090591708981,-1.6179212722908336,-1.0,11.989777777777778,0.0,178.54239255202168,1.15976596691459,92.22943392672332,1553.0,1435.0,1000.0,1694.0,1471.0,1011.0,242.0,294.13,1649159917.365877,1649159918.507579,bcd7925a-6046-43fd-bd8c-162006623ff3
0.3489648051757716,0.4884094568017175,0.6358665926545135,-0.299526166585466,0.2200528034106206,-0.0480847217900468,0.3475677562918508,0.3318578045702696,5.300385018864417,27.3942526393662,25.39851647051476,0.7875833280938248,1.6468644026644632,-1.5765811945641808,-1.0,11.989444444444445,0.0,178.5350842496098,1.1645122843415796,92.34830653903822,1553.0,1435.0,1000.0,1694.0,1471.0,1011.0,242.0,294.13,1649159918.6158638,1649159919.7336566,bcd7925a-6046-43fd-bd8c-162006623ff3
0.3522519789643117,0.4873411253341643,0.6508506262918196,-0.2940749359814809,0.2356257897685529,-0.0538920633827183,0.3596207269132132,0.3328439567455744,5.095736218582441,27.49933874082153,25.2417594481459,0.7635515457739506,1.645975824413659,-1.635866722597625,-1.0,11.991111111111111,0.0,178.52834209398907,1.1925587604789116,92.47124235499938,1553.0,1435.0,1000.0,1694.0,1471.0,1011.0,242.0,294.13,1649159919.8425455,1649159920.9566257,bcd7925a-6046-43fd-bd8c-162006623ff3
0.2529327602878988,0.4470995439869575,0.3681547780285832,-0.2264424166500478,-0.0192189498615308,-0.0627148387990215,0.0521521742876575,0.0300623644376876,3.123378991724658,28.160383643364675,24.966245469450115,0.5804322255449992,1.4852099515243682,-0.4719591465319531,-1.0,11.982666666666669,0.0,178.51856429873723,1.1637852249339926,92.65869234331092,1553.0,1435.0,1000.0,1720.6666666666667,1471.0,1011.0,242.0,294.13,1649159922.8955128,1649159924.034231,3080080e-b2c0-4647-8b9d-24489a94ef69
0.2594939593844228,0.4501631899606448,0.3863920183599191,-0.2205386513302608,-0.0053602236488095,-0.0690393618505487,0.0698634681177468,0.045906543547441,3.6109277853708592,28.32996074681368,25.40023047242393,0.5552495689365514,1.4898354777987854,-0.5396057864952384,-1.0,11.973555555555556,0.0,178.5431241411728,1.1517135059062298,92.73774647058448,1553.0,1435.0,1000.0,1774.0,1471.0,1011.0,242.0,294.13,1649159924.1436512,1649159925.0968597,3080080e-b2c0-4647-8b9d-24489a94ef69
0.2683035853781297,0.4583022322276375,0.3904944111853524,-0.2248119780805384,-0.0020861983780334,-0.0748642345544677,0.0739395637610959,0.0577403701897696,3.676123115730072,28.138048866408703,25.18004922407744,0.5507296646355336,1.5226348122428923,-0.5546994653156863,-1.0,11.966555555555557,0.0,178.54884328623783,1.1496401877541116,92.79688300732836,1553.0,1435.0,1000.0,1774.0,1471.0,1011.0,242.0,294.13,1649159925.2062874,1649159926.2863815,3080080e-b2c0-4647-8b9d-24489a94ef69
0.1925227218201151,0.4203101733675149,0.15298075849368434,-0.13640013665898698,-0.21501838948674137,-0.10465151187131345,-0.1975141858610238,-0.2185110126575065,1.6748944970721045,29.28778416462448,25.26438725761197,0.27915943847374125,1.3676352205185847,0.43999716167115316,-1.0,11.95188888888889,0.0,178.5624596478032,1.1277107863487605,92.92199158235547,1553.0,1435.0,1000.0,1856.0,1471.0,1011.0,242.0,294.13,1649159928.2213285,1649159929.356659,cdab6876-3d2e-4015-a2bc-7fe82626cf51
0.18342820724319453,0.4228988227202404,0.13885960700317335,-0.140289959232301,-0.230947488830199,-0.10589789843297748,-0.21195036000677425,-0.23335808356504192,1.8441277558710591,29.319160768547466,24.827613247268264,0.2846535518027024,1.3796018019451477,0.5012644513738224,-1.0,11.950333333333333,0.0,178.57826925900204,1.1566999708871621,92.91079234884637,1553.0,1435.0,1000.0,1856.0,1471.0,1011.0,242.0,294.13,1649159929.464627,1649159930.585594,cdab6876-3d2e-4015-a2bc-7fe82626cf51
0.17602603941987902,0.41571360867633395,0.15055701560785262,-0.13526934841646174,-0.2179483575371654,-0.10318652751901813,-0.19717341542970515,-0.2203019747895406,1.9896755474120116,29.27575914715218,24.971037762608802,0.27981196234048694,1.3504742339728586,0.4460715836468323,-1.0,11.951,0.0,178.58229167124074,1.1111266497814252,92.91754342165851,1553.0,1435.0,1000.0,1856.0,1471.0,1011.0,242.0,294.13,1649159930.6947184,1649159931.811992,cdab6876-3d2e-4015-a2bc-7fe82626cf51
