raw_voltage_G-,raw_voltage_G0,raw_voltage_G1,raw_voltage_G2,raw_voltage_G3,raw_voltage_G4,raw_voltage_G5,raw_voltage_G6,load_x,load_y,load_z,load_l,load_m,load_n,rpm,voltage,current,roll,pitch,yaw,aileron1_pwm,elevator_pwm,throttle_pwm,rudder_pwm,aileron2_pwm,pbaro,pdiff,Tt,sample_start_time,sample_end_time,uid
0.4591125205439404,0.5034208836604805,1.094756054112498,-0.3168386191927306,0.6705736687391619,-0.0799429183943627,0.82293417201103,0.8008142319912334,5.324369647790718,26.37975429463067,24.30401495706127,0.7710083608537085,1.7439026353875686,-3.4919902061447003,-1.0,11.980444444444446,0.0,178.74886309935192,1.231390591492354,93.23417676201952,1553.0,1435.0,1000.0,1528.0,1471.0,1011.0,242.0,294.13,1649159399.424085,1649159400.5653446,a7ad3858-6dec-47c1-8670-55aa0b21f31e
0.4749594374604711,0.5163093441228034,1.1025356990490345,-0.3339593201709481,0.6742991323128446,-0.0745601705991064,0.8323984931478088,0.8087993249747498,5.406202388264869,26.259545314172925,24.690434589043644,0.8214175052423688,1.7908372528512568,-3.5190831477660023,-1.0,11.981333333333334,0.0,178.7425580758381,1.248262605414297,92.97723642909224,1553.0,1435.0,1000.0,1528.0,1471.0,1011.0,242.0,294.13,1649159400.6738694,1649159401.8243935,a7ad3858-6dec-47c1-8670-55aa0b21f31e
0.4727679882707259,0.5027497523565821,1.1006455740347287,-0.3216187188923969,0.6757646639386943,-0.0757654678430513,0.8316314859329719,0.8038548677204158,5.457666786272877,26.310053161223152,24.234982575286395,0.7910656795773919,1.742014587492314,-3.5195703739554607,-1.0,11.983666666666668,0.0,178.72280516875844,1.2618977618578562,92.81355777582208,1553.0,1435.0,1000.0,1528.0,1471.0,1011.0,242.0,294.13,1649159401.9337225,1649159403.02615,a7ad3858-6dec-47c1-8670-55aa0b21f31e
0.6938085084707888,0.9276054552884004,1.1508440071343982,-0.3980460772529438,0.637808216610966,-0.4183213710233285,0.7555679287929857,0.7434053860124987,6.089565875472244,25.592482002158377,24.616825160218,0.1918198527194313,3.340205083089351,-3.3759875885286954,-1.0,11.954555555555556,0.0,178.5164530113738,1.23288277438259,92.56255211837365,1616.0,1435.0,1000.0,1528.0,1519.0,1011.0,242.0,294.13,1649159404.7491338,1649159405.8870354,b3d52479-5f2d-4e34-b36f-fc98fe195c0f
0.6979897934701613,0.9170996478156884,1.1389707348025262,-0.3974149398693323,0.6294193492245053,-0.407026638629749,0.7463769909896806,0.7235245591233657,5.894698712698758,25.58616536236232,24.76165572929982,0.2150688453993013,3.3000669939832723,-3.3364862156249884,-1.0,11.952,0.0,178.51530553959324,1.2316336798221892,92.49725247426868,1616.0,1435.0,1000.0,1528.0,1519.0,1011.0,242.0,294.13,1649159405.9948947,1649159407.3172724,b3d52479-5f2d-4e34-b36f-fc98fe195c0f
0.6952022701359744,0.9167446330570836,1.1384842330838183,-0.4081311293208762,0.6270131380442756,-0.3976910623969425,0.7485202282722392,0.7276401006552912,5.96834612367958,25.61901930892527,24.642193389813983,0.2604318271091317,3.300562114078972,-3.3358646157733416,-1.0,11.952666666666666,0.0,178.52498923001653,1.233651229954053,92.46604230431127,1616.0,1435.0,1000.0,1528.0,1519.0,1011.0,242.0,294.13,1649159407.4262087,1649159408.5536134,b3d52479-5f2d-4e34-b36f-fc98fe195c0f
0.975842539602675,1.4395943105086,1.2041778569684018,-0.516534485441753,0.5791217559024123,-0.8133116264583444,0.6608628096456582,0.6394140009950147,7.039489963767217,24.913984655352447,24.11415520538473,-0.4299393042924995,5.276164432715995,-3.1727689171619367,-1.0,11.932555555555556,0.0,178.3079607280493,1.189741366736118,92.4678500277116,1672.0,1435.0,1000.0,1528.0,1561.6666666666667,1011.0,242.0,294.13,1649159410.2017376,1649159411.211723,a1a09fcf-2267-4e7b-ad92-65232afb5635
0.9818306746114313,1.444506992438383,1.196259602664418,-0.5073117683246785,0.5728668121251986,-0.8266411237855615,0.6473936152417972,0.6167440072637514,6.805383932805838,24.909669507574467,24.029855453429185,-0.4812508175252873,5.295356506188176,-3.1338842841335675,-1.0,11.93277777777778,0.0,178.28148387918668,1.1784973931163636,92.5222274404238,1679.0,1435.0,1000.0,1528.0,1567.0,1011.0,242.0,294.13,1649159411.3197,1649159412.4364307,a1a09fcf-2267-4e7b-ad92-65232afb5635
0.9806089416677556,1.438567068542402,1.1963982118842882,-0.5019613433822868,0.5749306093684967,-0.8284189380033483,0.6490152876194806,0.6369897103421102,6.888724081915115,24.839220017779784,23.65755427904537,-0.4977925632762804,5.275136855439858,-3.140302826954612,-1.0,11.937333333333337,0.0,178.26597024285184,1.190145083091122,92.57055178771154,1679.0,1435.0,1000.0,1528.0,1567.0,1011.0,242.0,294.13,1649159412.5455446,1649159413.6709816,a1a09fcf-2267-4e7b-ad92-65232afb5635
1.2331548437802191,1.8832790620052515,1.253798296709412,-0.5899907946459749,0.5345515148761014,-1.1802097919625778,0.578152587502522,0.5524205913192536,8.148511828111491,24.227447916154578,24.01672659588954,-1.0902466802482007,6.945444204072795,-3.007977278491879,-1.0,11.888333333333334,0.0,178.03548778603948,1.1400641558160478,92.66081197868334,1745.0,1435.0,1000.0,1528.0,1614.0,1011.0,242.0,294.13,1649159414.7848904,1649159415.9303284,d36abd30-eaa2-4932-abd5-8cd2a7ac78c8
1.232891869817844,1.8863295604080856,1.2637387110371296,-0.5892939132574141,0.5437161553029083,-1.181682446382502,0.5897760338741411,0.5669367506650325,8.35592767313482,24.11198834788463,24.40657614665174,-1.0952318020702374,6.952504572805205,-3.049441532995357,-1.0,11.891,0.0,178.00882424533955,1.1397745723963937,92.73622106166982,1745.0,1435.0,1000.0,1528.0,1614.0,1011.0,242.0,294.13,1649159416.0428994,1649159417.0950077,d36abd30-eaa2-4932-abd5-8cd2a7ac78c8
1.241320184092389,1.899373071086105,1.2704182487920708,-0.596446806311563,0.5447417535092051,-1.189834644719806,0.590985713804461,0.5651353794368349,8.36019593178527,24.344789827811137,24.15585990257568,-1.0955776575349647,7.004925619767967,-3.060596331926163,-1.0,11.892333333333331,0.0,178.03006158019883,1.1359854063746555,92.81482743209776,1745.0,1435.0,1000.0,1528.0,1614.0,1011.0,242.0,294.13,1649159417.2041864,1649159418.175649,d36abd30-eaa2-4932-abd5-8cd2a7ac78c8
1.4988867172270808,2.33734922595101,1.3434855547940512,-0.6730451109422327,0.5180351103183711,-1.5491324414569236,0.528184259314125,0.5056397258987243,9.382863023773316,24.3433300859781,24.0915517661722,-1.7260476517734524,8.654997206530112,-2.9814551969468472,-1.0,11.833,0.0,177.73447527803776,1.0986089748368577,92.97382133450724,1813.0,1435.0,1000.0,1528.0,1662.0,1011.0,242.0,294.13,1649159420.3140075,1649159421.4527514,dcc7de73-e000-4afa-8b3b-d3ec4873f614
1.4844094536975687,2.3332402557155536,1.345307197104698,-0.6778663009596176,0.5193499798343971,-1.5430511615777631,0.5311153225707791,0.5106389693010827,9.337225985048596,24.439085156858948,23.77018234503807,-1.700855503525995,8.643468064762569,-2.990966341735364,-1.0,11.838111111111113,0.0,177.73042421695,1.109161830547939,93.03235833242398,1813.0,1435.0,1000.0,1528.0,1662.0,1011.0,242.0,294.13,1649159421.5614517,1649159422.6864662,dcc7de73-e000-4afa-8b3b-d3ec4873f614
1.4706855007551825,2.327446607769552,1.3341171084275445,-0.6647176003010447,0.5112416179000077,-1.5479271427296517,0.5160217164105864,0.5010650757282783,9.076040999985407,24.585288464440936,23.88962160892897,-1.741173158339689,8.620202579465854,-2.943838999789308,-1.0,11.845888888888888,0.0,177.71846986808268,1.0819888715724275,93.10092811932157,1813.0,1435.0,1000.0,1528.0,1662.0,1011.0,242.0,294.13,1649159422.7988317,1649159423.9094155,dcc7de73-e000-4afa-8b3b-d3ec4873f614
0.1796550794540239,-0.0181013104951778,1.0416703872988309,-0.1716123474996351,0.7258255807256976,0.2962840093486372,0.9143910166212372,0.8929980897109835,5.230197766397973,27.526983538317605,24.29009513702577,1.2937578006711588,-0.2325591335059688,-3.68748597536033,-1.0,11.971666666666668,0.0,179.00723549527518,1.282353704103352,93.1565182700664,1491.0,1435.0,1000.0,1528.0,1420.0,1011.0,242.0,294.13,1649159424.82014,1649159425.957596,374c5e4e-6608-4d9a-b06e-9267014a3a6a
0.1860584942801206,-0.0203102915518783,1.0408025734337136,-0.170994358783478,0.726601353735254,0.2982300162629671,0.9137861766644138,0.8965350886670257,5.081167841846444,27.48924650487168,24.33549691822136,1.2963755516545057,-0.2403234955943838,-3.6867850825706863,-1.0,11.970999999999998,0.0,179.04009174082253,1.2619178018226085,93.03684348997896,1491.0,1435.0,1000.0,1528.0,1420.0,1011.0,242.0,294.13,1649159426.0664332,1649159427.1867783,374c5e4e-6608-4d9a-b06e-9267014a3a6a
0.1779769771362199,-0.0110766193913506,1.0311492395054949,-0.1660805809467331,0.7141424173802248,0.2846594668442844,0.8991966036380766,0.8854589566172253,5.263852086564556,27.594260568441964,24.24021086232243,1.255088685005429,-0.2073552673845717,-3.634773937822891,-1.0,11.972666666666663,0.0,179.02347920294127,1.2547894914964788,93.000848393053,1491.0,1435.0,1000.0,1528.0,1420.0,1011.0,242.0,294.13,1649159427.2952852,1649159428.4180963,374c5e4e-6608-4d9a-b06e-9267014a3a6a
-0.014939049042976,-0.38008933755799,0.9907717873951708,-0.0909549520477983,0.7500410939914562,0.5745197126547089,0.9651729212019952,0.9340954323118984,4.714710136445591,28.360891521736523,23.97310135904462,1.7397309059964137,-1.59691952834927,-3.767633810319625,-1.0,11.930555555555555,0.0,179.27148337170445,1.2694248200506872,92.90085670033372,1428.0,1435.0,1000.0,1528.0,1368.0,1011.0,242.0,294.13,1649159430.3489542,1649159431.4940712,44203fc7-8baa-45b2-a13f-f37a0a7581eb
-0.0190217193384025,-0.3880136200010157,0.9842763319024987,-0.0908136035299589,0.7455617718960414,0.5815975455974678,0.9607270186181232,0.9389527793036152,4.634259279823595,28.370723946728,23.85226022117769,1.7549988843674516,-1.6254289956105783,-3.747537104915004,-1.0,11.929,0.0,179.27140140943436,1.2410478267905498,92.7699720619985,1428.0,1435.0,1000.0,1528.0,1368.0,1011.0,242.0,294.13,1649159431.6064825,1649159432.7116158,44203fc7-8baa-45b2-a13f-f37a0a7581eb
-0.0306583158469757,-0.3853049881145008,0.9837635328032844,-0.0852254073805814,0.7454960284259968,0.5750889415795156,0.9598197586664124,0.9331542047247648,4.766537694469756,28.26517428006332,24.03080629421486,1.727137392095923,-1.6185109879804838,-3.7446924223792486,-1.0,11.930777777777775,0.0,179.2788372087108,1.232225510970584,92.64986394435374,1428.0,1435.0,1000.0,1528.0,1368.0,1011.0,242.0,294.13,1649159432.820506,1649159433.944618,44203fc7-8baa-45b2-a13f-f37a0a7581eb
-0.3509737360176488,-0.9710796307037411,0.8987572180711922,0.0850370634869198,0.7830749987432091,0.9961890498844466,1.0297445205545357,1.018423493911885,4.193506102127814,29.9075747312996,24.514099786650064,2.295778656267119,-3.842073734467815,-3.849340414599488,-1.0,11.90111111111111,0.0,179.62907716679052,1.275101217143562,92.36357352965302,1364.0,1435.0,1000.0,1528.0,1312.0,1011.0,242.0,294.13,1649159435.8795404,1649159437.016484,821880aa-6374-4d75-aa8b-63af02c9d41b
-0.3472526543302562,-0.9708955488482438,0.8974949433155053,0.0804350198388759,0.7825490509337559,1.000278294147406,1.029073937059454,1.004919783638194,4.029393183138378,29.85881460761759,24.51265180615405,2.3148798864070685,-3.83972316963084,-3.8460635427407057,-1.0,11.9,0.0,179.62669722531973,1.2621914244182646,92.14890144294944,1364.0,1435.0,1000.0,1528.0,1312.0,1011.0,242.0,294.13,1649159437.1252096,1649159438.4471369,821880aa-6374-4d75-aa8b-63af02c9d41b
-0.3577058697053053,-0.9781010387714308,0.892945494820136,0.09157196544352,0.7799324606404114,0.9960838603258704,1.0247743136964833,1.000817390812899,4.173686348514005,29.873877639318888,24.335691858290748,2.280249960403776,-3.867860369438557,-3.831105581662424,-1.0,11.901,0.0,179.62661222741008,1.2589823738732209,92.0012775287783,1364.0,1435.0,1000.0,1528.0,1312.0,1011.0,242.0,294.13,1649159438.5561924,1649159439.6790972,821880aa-6374-4d75-aa8b-63af02c9d41b
-0.5207256335609741,-1.2576008903501494,0.8539157847848368,0.1598838238772444,0.797198340779797,1.1775654442386898,1.052776104227688,1.0330530612745583,3.572175444599404,30.860363738437385,20.09699891421537,2.537586154260257,-4.885198169670476,-3.88131349887678,-1.0,11.749444444444444,0.0,179.71997180644527,1.2936751458235367,91.65158246801236,1297.0,1435.0,1000.0,1528.0,1253.0,1011.0,242.0,294.13,1649159441.8179982,1649159442.9564674,934bf025-92cf-4d6e-850c-068fe694a0c1
-0.5144526079912953,-1.2706537222716892,0.8573673172656476,0.1559940013669096,0.8029645914239535,1.1943163349635395,1.0619254049016271,1.033778978717239,3.509539454436609,30.853340028394484,20.199817432921645,2.5841122916618287,-4.933924571182652,-3.9084082181801794,-1.0,11.759666666666666,0.0,179.71921593217712,1.2757423062881583,91.3233789769248,1297.0,1435.0,1000.0,1528.0,1253.0,1011.0,242.0,294.13,1649159443.064706,1649159444.1841877,934bf025-92cf-4d6e-850c-068fe694a0c1
-0.5206434541894933,-1.2663119092689212,0.8608188497064239,0.1582676300221639,0.8053751855019845,1.1888240150994354,1.0630759157219984,1.048831495649704,3.5114156943235333,30.89898736860144,20.33851583777881,2.5671390851613256,-4.918943042100826,-3.917310940710743,-1.0,11.763333333333334,0.0,179.73412395840555,1.2736646836939072,91.03920667977673,1297.0,1435.0,1000.0,1528.0,1253.0,1011.0,242.0,294.13,1649159444.2921083,1649159445.4094903,934bf025-92cf-4d6e-850c-068fe694a0c1
0.4600986726958214,0.5052151326841073,1.0806759925868263,-0.2761050480524974,0.6604793060429585,-0.1181563189455979,0.7951164640717515,0.7717227442416328,5.156898739874592,26.59173305110128,24.29085743224029,0.5938705325183706,1.7460299125809435,-3.4190905704821457,-1.0,11.978666666666667,0.0,178.6727307752233,1.1589203159759451,90.68238849061636,1553.0,1435.0,1000.0,1528.0,1471.0,1011.0,242.0,294.13,1649159447.347484,1649159448.6898887,02188219-2914-4b1c-bece-40e851e189f7
0.4638926190861379,0.5100363208652668,1.0738551067297466,-0.2692704643677399,0.6543843380648001,-0.1302366844140104,0.7835702662485987,0.7547937993964355,5.017756410145599,26.60083575181031,24.069812090351977,0.5509226237182737,1.7657824970560554,-3.3848215759180698,-1.0,11.980666666666668,0.0,178.65966234661136,1.1612699840562009,91.15388707376104,1553.0,1435.0,1000.0,1528.0,1471.0,1011.0,242.0,294.13,1649159448.7978823,1649159449.9150257,02188219-2914-4b1c-bece-40e851e189f7
0.4570991266248667,0.5000515305635839,1.0733072444568883,-0.2707633896081103,0.6551102555987575,-0.118937022924877,0.7862137018207577,0.7709283439024714,4.9819315927241705,26.67309900685775,24.097309513035142,0.5801202573258224,1.7284936180528494,-3.390064373678653,-1.0,11.98388888888889,0.0,178.66768705997623,1.186333718954582,91.54386810807154,1553.0,1435.0,1000.0,1528.0,1471.0,1011.0,242.0,294.13,1649159450.0232437,1649159451.1477864,02188219-2914-4b1c-bece-40e851e189f7
0.4971478603997772,0.5178844482145294,1.0887158720871697,-0.8419100548281063,0.6033920553875832,0.4131057841286549,0.9534212748267924,0.9329175284657808,5.704976154723201,25.594336059861504,28.15928815150352,3.0586858912763155,1.8255380647146733,-3.5748665603924,-1.0,11.972888888888887,0.0,178.63721227371946,1.3573402995725776,92.32078087668307,1553.0,1522.0,1000.0,1528.0,1471.0,1011.0,242.0,294.13,1649159453.2877834,1649159454.4204547,d900b7ae-be8b-418f-8f26-531e3aab3dc5
0.4988051438301544,0.5063245538276832,1.07892283317408,-0.825802893852997,0.5992283019793295,0.4089420306598994,0.9424777253249874,0.9145504447013226,5.4893214742949255,25.58357072352717,27.9872514518882,3.012300601004909,1.7826283948558306,-3.54191166111268,-1.0,11.971,0.0,178.6447998549774,1.3775796560451736,92.43027412144774,1553.0,1522.0,1000.0,1528.0,1471.0,1011.0,242.0,294.13,1649159454.5292015,1649159455.6600907,d900b7ae-be8b-418f-8f26-531e3aab3dc5
0.4948742318768648,0.5125153977470817,1.0944136401545113,-0.833103163295065,0.6101581546794922,0.4095857688480693,0.95769460076348,0.937670233725461,5.669157214778853,25.71239963854977,28.10109481673037,3.0319488191841644,1.8054490383597328,-3.5986612400110576,-1.0,11.971,0.0,178.63218829012996,1.3640234973798273,92.53647293830272,1553.0,1522.0,1000.0,1528.0,1471.0,1011.0,242.0,294.13,1649159455.7828596,1649159456.8863,d900b7ae-be8b-418f-8f26-531e3aab3dc5
0.5496988115263708,0.5174319139671129,1.111292730403891,-1.4829456624687387,0.55026420540689,1.0264573467203215,1.146820506280598,1.1217722408837458,6.316921448733333,24.954832051421448,32.207927597211416,5.880826266376292,1.863972209389946,-3.8079133040418447,-1.0,11.949333333333334,0.0,178.6395132885598,1.5759027837648256,92.7249588386384,1553.0,1613.0,1000.0,1528.0,1471.0,1011.0,242.0,294.13,1649159458.8170917,1649159459.9539518,3196ca72-8589-400b-b4a7-70a39a02eef5
0.5397715468080825,0.5114361090244276,1.094449251235123,-1.4718875965584204,0.5365369678250237,1.0206587720157654,1.1272946930275969,1.1063619696179172,6.171478903045068,25.015774975343984,31.856241966894768,5.842287839722876,1.843202445077045,-3.739707476380474,-1.0,11.944888888888888,0.0,178.6466075783777,1.594444719649,92.70676776814894,1553.0,1613.0,1000.0,1528.0,1471.0,1011.0,242.0,294.13,1649159460.063,1649159461.182844,3196ca72-8589-400b-b4a7-70a39a02eef5
0.5348276374761279,0.5151308923325495,1.0963295147244894,-1.4675485217538862,0.5371681051810988,1.0144131416652102,1.127413031300843,1.1048235721140025,6.302180723138672,25.05624674163913,32.0574164770294,5.818924961860098,1.853937701003818,-3.7424549568264767,-1.0,11.943333333333332,0.0,178.6295594262094,1.5862487535202656,92.7096835000146,1553.0,1613.0,1000.0,1528.0,1471.0,1011.0,242.0,294.13,1649159461.290779,1649159462.617823,3196ca72-8589-400b-b4a7-70a39a02eef5
0.5817377983397333,0.5176105170699082,1.122669639345024,-2.0420586283940745,0.4862864903914061,1.5670407997763605,1.2917947417875444,1.264237266047079,6.304953481627199,25.784631406016725,36.47993145419401,8.363553624987476,1.896438205091528,-3.941898137297666,-1.0,11.884888888888888,0.0,178.6365838963158,1.789818344012068,92.6524153994637,1553.0,1710.0,1000.0,1528.0,1471.0,1011.0,242.0,294.13,1649159463.2222145,1649159464.3909914,076c19e6-ec9a-403b-ad49-0f9dc21d15ef
0.5804503219553968,0.508255768412051,1.1132464074137671,-2.033169546247873,0.4801778258067872,1.5688487458378009,1.2829604614315535,1.2616623128919442,6.233084527097721,25.80461216991253,36.52736721532482,8.347199355097056,1.859748978754024,-3.909200421472558,-1.0,11.881555555555556,0.0,178.63146732571755,1.786632072622225,92.44715379561654,1553.0,1710.0,1000.0,1528.0,1471.0,1011.0,242.0,294.13,1649159464.4991596,1649159465.6892831,076c19e6-ec9a-403b-ad49-0f9dc21d15ef
0.5898872499189998,0.5232671952450171,1.123669488121876,-2.0366895676243204,0.4866836905436788,1.5529881290087726,1.2898772236499054,1.269222813244168,6.421423057950712,25.72727128921964,35.96983031709437,8.31951096515692,1.9207522239495365,-3.9409548309286087,-1.0,11.884666666666666,0.0,178.61787980272868,1.7959510001130938,92.30687840608246,1553.0,1710.0,1000.0,1528.0,1471.0,1011.0,242.0,294.13,1649159465.797721,1649159466.9170198,076c19e6-ec9a-403b-ad49-0f9dc21d15ef
0.5941194861154435,0.5071874369427715,1.136366197454546,-2.551421077223902,0.4285965905720834,2.066253097832204,1.4233227982249208,1.40084674445733,6.089119976121791,27.176542755963244,39.85859471994841,10.6446862837222,1.892533241124284,-4.070944480328364,-1.0,11.82877777777778,0.0,178.61385150893818,1.951586109566336,92.01309299713252,1553.0,1814.0,1000.0,1528.0,1471.0,1011.0,242.0,294.13,1649159467.828725,1649159468.965391,7bc57b10-74e5-451c-b72b-c97c3c15f800
0.599296784764947,0.5043111598843503,1.1373660462548438,-2.541682798825061,0.4309523984070759,2.06169214213272,1.4244870059022927,1.4029423182796037,6.226288275063467,27.13783946009837,40.09229363308735,10.61236955405742,1.8775670805137992,-4.076994885745156,-1.0,11.833666666666668,0.0,178.59952480769914,1.958779650570632,91.81341772911657,1553.0,1814.0,1000.0,1528.0,1471.0,1011.0,242.0,294.13,1649159469.073825,1649159470.195216,7bc57b10-74e5-451c-b72b-c97c3c15f800
0.6067641477871277,0.502613334640974,1.1397728054458327,-2.5457435646082165,0.4313342584425699,2.0665456562887856,1.428636515445747,1.4086504961249844,6.413102909677157,27.227355690124508,40.03739601021625,10.633234682305638,1.8710175927892745,-4.086928253681897,-1.0,11.827875,0.0,178.61183565449565,1.9869493072723703,91.6032092658993,1553.0,1814.0,1000.0,1528.0,1471.0,1011.0,242.0,294.13,1649159470.303398,1649159471.4226332,7bc57b10-74e5-451c-b72b-c97c3c15f800
0.4256381341897615,0.5126249702016152,1.0778681982070628,0.3283514859329644,0.7164160458838253,-0.7008354384544221,0.616992736752265,0.5992556950565476,4.4739970460371135,28.474515393948664,20.90319810445364,-2.067535483179758,1.7341118523476753,-3.237672635876359,-1.0,11.979777777777777,0.0,178.59871429191764,1.01538837287977,91.4130403879794,1553.0,1349.0,1000.0,1528.0,1471.0,1011.0,242.0,294.13,1649159472.3342755,1649159473.4675045,b70f52ee-08f7-4379-bfa0-ec9dffaeeadb
0.4183104759767128,0.5109539902084053,1.0708144709122536,0.3076422907174652,0.7098006087252209,-0.6796331575935338,0.6165133572469784,0.6025428688174236,4.331586262641386,28.28376391321342,20.947612825935988,-1.974856605622868,1.730558304857998,-3.218707059482565,-1.0,11.97711111111111,0.0,178.61839889710558,1.0165250894839828,91.89075368435888,1553.0,1349.0,1000.0,1528.0,1471.0,1011.0,242.0,294.13,1649159473.5764616,1649159474.6991909,b70f52ee-08f7-4379-bfa0-ec9dffaeeadb
0.423364505660764,0.5124332183971426,1.0685545388630189,0.3050810344512337,0.7053355310586306,-0.6774143142625122,0.6127194108868638,0.5914349608418834,4.331570054665042,28.47306100319307,21.108116805865333,-1.962925080911944,1.73485917010131,-3.2038379511365407,-1.0,11.977333333333334,0.0,178.62137685958373,1.0255293183804368,92.23053282826976,1553.0,1349.0,1000.0,1528.0,1471.0,1011.0,242.0,294.13,1649159474.8077743,1649159475.9282267,b70f52ee-08f7-4379-bfa0-ec9dffaeeadb
0.3940840050879764,0.5173267243999338,1.085192569525759,0.8906707705453688,0.7779470076862275,-1.2462557472235287,0.4577236896379625,0.4428262180050596,3.5702077447980862,30.44183758366272,17.031054538698477,-4.549288145085935,1.7237259492478287,-3.106100170908506,-1.0,11.947111111111113,0.0,178.62926952262464,0.8164342293587507,92.93095279054651,1553.0,1264.0,1000.0,1528.0,1471.0,1011.0,242.0,294.13,1649159477.8640316,1649159479.0020735,246de2d1-f15f-45d0-a7fa-4443cace1bd5
0.3848667697297934,0.516130193156851,1.086928197313635,0.8846355194675327,0.778486104174666,-1.2400890033448662,0.4622731381551173,0.4482040343808981,3.718796707596393,30.425480777986014,16.97463369504641,-4.521772806880851,1.7195394306960414,-3.115844386569547,-1.0,11.93988888888889,0.0,178.6256829144005,0.7966530291690744,93.16651539028156,1553.0,1264.0,1000.0,1528.0,1471.0,1011.0,242.0,294.13,1649159479.1113112,1649159480.2296398,246de2d1-f15f-45d0-a7fa-4443cace1bd5
0.3923746746912435,0.5232041910846672,1.0815372321517005,0.8812563048428922,0.7729899496680338,-1.2404834646348448,0.4544496645477366,0.432675425388184,3.473042604423505,30.407059294522043,17.411932510341,-4.515481084497351,1.7440088254295352,-3.088592191659747,-1.0,11.936222222222222,0.0,178.63086930471025,0.7987858802460677,93.35369748339566,1553.0,1264.0,1000.0,1528.0,1471.0,1011.0,242.0,294.13,1649159480.3382244,1649159481.462312,246de2d1-f15f-45d0-a7fa-4443cace1bd5
0.3677701787195562,0.5386758222234359,1.1153145876303217,1.4401695660021192,0.8522174116659761,-1.7894114894725257,0.3161478530534143,0.2842622665206218,2.757830127495584,32.898695137231385,14.27022574307827,-6.992428617160146,1.7683131901105036,-3.0448140081004618,-1.0,11.926,0.0,178.62114463315194,0.5957108322098725,93.77303542966878,1553.0,1178.0,1000.0,1528.0,1471.0,1011.0,242.0,294.13,1649159483.393052,1649159484.5372777,50199061-d937-42c8-b681-f9ce64e32391
0.3619628383106453,0.5297456668552729,1.1030287751388417,1.4363756190836476,0.8413286485540626,-1.7768791199908556,0.3059028278950731,0.2733324132934149,2.6049776431867766,33.00637302153065,14.224076294830184,-6.955690735130381,1.7360006389124905,-2.9999794629544976,-1.0,11.923,0.0,178.6224378156348,0.59622284738031,93.96453420233836,1553.0,1178.0,1000.0,1528.0,1471.0,1011.0,242.0,294.13,1649159484.6489117,1649159485.7593467,50199061-d937-42c8-b681-f9ce64e32391
0.3619080520845872,0.5340874755247712,1.1038368720760483,1.435964722279916,0.8433831321674562,-1.780905914133579,0.304971461937322,0.2828789141264512,2.377193343227349,32.900441996650386,14.204646021588104,-6.964592346559511,1.7541694952284994,-3.002174669461727,-1.0,11.92711111111111,0.0,178.61211056960974,0.5794928504038437,94.1081320994487,1553.0,1178.0,1000.0,1528.0,1471.0,1011.0,242.0,294.13,1649159485.866988,1649159486.9921875,50199061-d937-42c8-b681-f9ce64e32391
0.3420069538990857,0.5400591745086508,1.1067816320242243,1.8101136696725133,0.8714610748204903,-2.1423176286676946,0.1850444010848997,0.1708958563940011,1.7234062152488956,35.41677479721415,12.160838092466586,-8.604548274952736,1.7534721736057743,-2.8740507134254614,-1.0,11.880999999999998,0.0,178.60655079562537,0.4662827850759997,94.335421822279,1553.0,1098.0,1000.0,1528.0,1471.0,1011.0,242.0,294.13,1649159487.700763,1649159488.6473205,c0249538-346d-4cea-9f1a-243f808853b9
0.353625469788641,0.5523942940186057,1.1035218513166647,1.8039924023244551,0.8654384246397221,-2.148257564219763,0.1796945254052361,0.1520165205881948,1.790852142473758,35.35095552857062,12.200544261578372,-8.604646383078363,1.7994529810538782,-2.8522180622217417,-1.0,11.874000000000002,0.0,178.62055723688331,0.4601457000241845,94.39110835458212,1553.0,1088.0,1000.0,1528.0,1471.0,1011.0,242.0,294.13,1649159488.760205,1649159489.8614,c0249538-346d-4cea-9f1a-243f808853b9
0.3427054783393645,0.5384429807462301,1.1020152299349686,1.8004438970064396,0.8674616800999484,-2.1309768563120066,0.1846198076811731,0.1666362268831106,1.7026258362129274,35.26097551219684,12.26401746632416,-8.558515567408946,1.7475288158426252,-2.8615871409518427,-1.0,11.871111111111112,0.0,178.61340982337185,0.4316726572288439,94.44207522616875,1553.0,1088.0,1000.0,1528.0,1471.0,1011.0,242.0,294.13,1649159489.9850438,1649159491.0892518,c0249538-346d-4cea-9f1a-243f808853b9
0.4671113100756041,0.513624818889537,1.0834290007149168,-0.317331695383616,0.652370944148077,-0.0831342167307192,0.8020195289566386,0.777749229474281,5.212051264648024,27.03567243160335,25.075212471714035,0.768799890536263,1.7754872116160485,-3.420009109158216,-1.0,11.981000000000002,0.0,178.59826957071166,1.1071789531124867,94.5031204213307,1553.0,1435.0,1000.0,1528.0,1471.0,1011.0,242.0,294.13,1649159492.4045515,1649159493.5368128,6404fa79-e0c7-42e5-9a8e-1e0244bd2130
0.4695629938465047,0.523486340165504,1.08531912570232,-0.3160305221419122,0.6525763925070458,-0.092297214903208,0.7995541486458904,0.7690793086684399,5.135247459343214,27.07507541053604,25.314137421332344,0.7456290297877829,1.810860214626324,-3.417883455395746,-1.0,11.979333333333331,0.0,178.6036092608228,1.1138523918126413,94.51433635085776,1553.0,1435.0,1000.0,1528.0,1471.0,1011.0,242.0,294.13,1649159493.644766,1649159494.7765634,6404fa79-e0c7-42e5-9a8e-1e0244bd2130
0.4738637128646976,0.5205004906636477,1.0800596474880306,-0.3120585194980292,0.648083921726744,-0.0942284296997439,0.7927058699900189,0.7784340573076923,5.054619596503635,27.167345655777225,25.09649033933673,0.7326039709477881,1.8013402318295588,-3.3955724980608064,-1.0,11.979666666666668,0.0,178.61300760112076,1.1094075632044842,94.51227818718787,1553.0,1435.0,1000.0,1528.0,1471.0,1011.0,242.0,294.13,1649159494.90956,1649159495.9986556,6404fa79-e0c7-42e5-9a8e-1e0244bd2130
0.5970094597021492,0.5827650401427191,1.4726715018093774,-0.316633170789774,1.0042628966882547,-0.1722029431823476,1.188002221613872,1.1640606379205651,7.848660477296986,27.044815169389192,25.105865629959748,0.5878492436049576,2.040462178916687,-4.969180733123074,-1.0,11.965888888888887,0.0,178.5813747183447,1.0930091683548318,94.40735358006808,1553.0,1435.0,1000.0,1435.0,1471.0,1011.0,242.0,294.13,1649159497.7281995,1649159498.8658578,b30c8d7d-930d-421e-a487-f17b5ae320d9
0.5919718659388054,0.5928002337250752,1.460140793374384,-0.3260569525619242,0.991481816941585,-0.1728351764850261,1.1743538752619491,1.1527505680318,7.664580045118698,26.87647093950049,25.082403111747336,0.6058499524718279,2.079974114088503,-4.914220469639617,-1.0,11.967666666666666,0.0,178.57481318328203,1.1022095043146427,94.37777354859251,1553.0,1435.0,1000.0,1435.0,1471.0,1011.0,242.0,294.13,1649159498.974345,1649159500.0969918,b30c8d7d-930d-421e-a487-f17b5ae320d9
0.5820446012268636,0.5803747169671194,1.4566695373718892,-0.3205082017222397,0.9902195422034094,-0.1669051138779573,1.172486760473512,1.157444652439685,7.632855776423887,26.9956851007382,24.899308477173854,0.6072312566740196,2.034316963976974,-4.906895317081164,-1.0,11.960777777777777,0.0,178.58001778742957,1.1017319958290746,94.3537517732816,1553.0,1435.0,1000.0,1435.0,1471.0,1011.0,242.0,294.13,1649159500.2054129,1649159501.3241184,b30c8d7d-930d-421e-a487-f17b5ae320d9
0.7094444982383022,0.6292100658286668,1.8723782418188983,-0.273078108188734,1.3723852942223942,-0.2818302103137572,1.5763407641946572,1.5521800324449295,10.29621829211862,27.550365081972327,24.70752511791232,0.2676752055550349,2.220851822233173,-6.561388299279973,-1.0,11.913666666666666,0.0,178.53623172139035,1.084033374863985,94.26384599323671,1553.0,1435.0,1000.0,1330.0,1471.0,1011.0,242.0,294.13,1649159503.2589314,1649159504.3929126,eab6aa6d-b370-4423-81f6-c40f0f88f145
0.7186211916086972,0.6418245950622196,1.8698032879617148,-0.2804605543273106,1.3669203671135353,-0.2854871920074567,1.572533120400282,1.552001977195219,10.387986511132196,27.461817545482944,24.95418910830313,0.2754807748021721,2.2660724838911945,-6.543103607542013,-1.0,11.913888888888888,0.0,178.5416032857176,1.0824665935014075,94.16192363371208,1553.0,1435.0,1000.0,1330.0,1471.0,1011.0,242.0,294.13,1649159504.503072,1649159505.6253338,eab6aa6d-b370-4423-81f6-c40f0f88f145
0.719210143569312,0.6490974669649245,1.868406238628744,-0.2846517018616242,1.3631264202842843,-0.2905549194428114,1.569602056525287,1.540318811194748,10.487653666726318,27.46054028925189,24.68115249714394,0.2734757320787861,2.295492105194364,-6.531330172695557,-1.0,11.91411111111111,0.0,178.55526214623782,1.0838531456188547,94.06499641920044,1553.0,1435.0,1000.0,1330.0,1471.0,1011.0,242.0,294.13,1649159505.734293,1649159506.8577232,eab6aa6d-b370-4423-81f6-c40f0f88f145
0.8024578188018013,0.6676289089300376,2.202218899856842,-0.1794210302450625,1.675640828899802,-0.4261371769719584,1.877076162935027,1.8550110016990504,12.541692166948843,28.67666188979094,24.20721260210881,-0.2429284564971518,2.362885236669289,-7.846353262387313,-1.0,11.818,0.0,178.51478037393707,1.049594982992874,93.78977736168936,1553.0,1435.0,1000.0,1210.0,1471.0,1011.0,242.0,294.13,1649159508.788348,1649159509.9252765,afbe8165-403d-4de7-82a2-aa4b2c8e66ff
0.8012333465749137,0.6753477407360488,2.1934437840499537,-0.1897838475227279,1.6656812375823598,-0.4252112894950157,1.867671555386764,1.8464889997877243,12.431461266222472,28.59222828391401,23.98919061226398,-0.2185587909867603,2.3952662166883183,-7.806943150400066,-1.0,11.829444444444444,0.0,178.53408855981078,1.0564391734577872,93.61862989656174,1553.0,1435.0,1000.0,1210.0,1471.0,1011.0,242.0,294.13,1649159510.034355,1649159511.1557057,afbe8165-403d-4de7-82a2-aa4b2c8e66ff
0.8007320525726908,0.6730390490445192,2.1989180275162696,-0.1857077511554369,1.6727645510981903,-0.4251373278830706,1.8731178564739832,1.8610511851607108,12.319991275382558,28.569354778758253,24.25446359959316,-0.227480139682805,2.3848898637890046,-7.831745282311317,-1.0,11.836777777777778,0.0,178.51662756065258,1.0469036601940187,93.4815092955143,1553.0,1435.0,1000.0,1210.0,1471.0,1011.0,242.0,294.13,1649159511.2635314,1649159512.5877087,afbe8165-403d-4de7-82a2-aa4b2c8e66ff
0.803964440100048,0.6689437784255269,2.1865637250167325,-0.1886525115287477,1.6609581154713509,-0.4160975973236053,1.8614209919062403,1.849710431464307,12.192257400304635,28.669862602711632,24.49034992126241,-0.2004995797906696,2.3679245941909066,-7.782489601973684,-1.0,11.692777777777776,0.0,178.51592329225818,1.0419257922393852,93.2401751859306,1553.0,1435.0,1000.0,1086.4444444444443,1471.0,1011.0,242.0,294.13,1649159514.1996062,1649159515.2500336,41f1e980-a8f7-4714-942f-0b58bea35d16
0.8107031463150213,0.6790381411220364,2.1914260057654835,-0.1932408591236273,1.6633824067069132,-0.4228089125039427,1.8651327602014725,1.846149324991224,12.313606321706386,28.57831038002762,24.375224494860905,-0.2055526824161453,2.406817681343106,-7.796562914783407,-1.0,11.686,0.0,178.52885511708675,1.0474343753789026,92.88512222121574,1553.0,1435.0,1000.0,1071.0,1471.0,1011.0,242.0,294.13,1649159515.3580468,1649159516.4873705,41f1e980-a8f7-4714-942f-0b58bea35d16
0.8075710175794358,0.6752425511756296,2.1875268675952304,-0.1871278104871374,1.662486103857192,-0.4261711443164215,1.859716591732589,1.836614326242888,12.080374512221365,28.552180779160505,24.13463641686194,-0.227420727663682,2.395364719982358,-7.783213069312456,-1.0,11.691,0.0,178.5431256589926,1.021697475534354,92.60302857830504,1553.0,1435.0,1000.0,1071.0,1471.0,1011.0,242.0,294.13,1649159516.59968,1649159517.707688,41f1e980-a8f7-4714-942f-0b58bea35d16
0.3163883645768454,0.443601991089477,0.6586357494366336,-0.2532657597354575,0.2708938783876455,-0.0538526167447711,0.3526919124017351,0.3229758608443467,1.865039649815164,27.779168821796635,24.514680572271963,0.6720852079570898,1.5067114336261982,-1.6929842115383495,-1.0,11.98688888888889,0.0,178.6350220597256,1.0952985979611571,92.4495868607809,1553.0,1435.0,1000.0,1613.0,1471.0,1011.0,242.0,294.13,1649159518.823863,1649159519.871495,7da4970d-0551-46d5-8feb-341a04656b20
0.3173876654533857,0.4459161614179012,0.662369978806865,-0.253147421456286,0.2727741418634579,-0.0543259698119594,0.3579250931445363,0.3369134780351313,2.167074987644038,27.753911498491448,24.81825495242692,0.6709735124994386,1.5107844073245729,-1.70715549438357,-1.0,11.988777777777775,0.0,178.6307797533411,1.1106532189543654,92.647911269161,1553.0,1435.0,1000.0,1613.0,1471.0,1011.0,242.0,294.13,1649159519.9799433,1649159520.9306047,7da4970d-0551-46d5-8feb-341a04656b20
0.3386885519275929,0.456829578378974,0.6740591686299399,-0.2649681008713146,0.2824778791238154,-0.057363318806775,0.3679838450364405,0.3521002211249949,1.9689686450302333,27.66020125181036,24.44536051230742,0.690614404280737,1.5586182799226875,-1.7500366422924274,-1.0,11.988555555555555,0.0,178.62607754755248,1.1246446361677576,92.82314508468706,1553.0,1435.0,1000.0,1613.0,1471.0,1011.0,242.0,294.13,1649159521.0389285,1649159522.2195654,7da4970d-0551-46d5-8feb-341a04656b20
0.2396936674800913,0.4109691211803947,0.3921500511434683,-0.1891181945740688,0.0284379526694236,-0.0667394353408227,0.0607207413610973,0.0357930042889478,0.1047259517415168,28.48743279079024,24.38533952335924,0.4889448591162977,1.3731440460532454,-0.5888866659118773,-1.0,11.967,0.0,178.6676718817781,1.1377655125691233,93.2840371429606,1553.0,1435.0,1000.0,1694.0,1471.0,1011.0,242.0,294.13,1649159524.3534784,1649159525.4959853,192cbe32-ea27-45d1-84c6-5498ef34f815
0.2331604093561362,0.4099281828145368,0.3967110048232007,-0.1905837264539255,0.0329578170826667,-0.0630276677623516,0.0678566484039535,0.0518727643093259,0.2294013148972953,28.41002222151857,24.621317046579225,0.5004058929429062,1.3667342755426148,-0.6111069965878277,-1.0,11.987777777777778,0.0,178.66233370948677,1.1448304302020185,93.2823971386499,1553.0,1435.0,1000.0,1694.0,1471.0,1011.0,242.0,294.13,1649159525.6046543,1649159526.9201815,192cbe32-ea27-45d1-84c6-5498ef34f815
0.2363927970346035,0.4065862227844737,0.3935607965910652,-0.185310550947488,0.0325195272047476,-0.0660683039565931,0.0645694743567785,0.0336426448391631,0.1240329058218761,28.31793212021505,24.39087429899256,0.4808210759886331,1.356137564526419,-0.6022547660748659,-1.0,11.987000000000002,0.0,178.65109425375255,1.1490630842011147,93.36934544678417,1553.0,1435.0,1000.0,1694.0,1471.0,1011.0,242.0,294.13,1649159527.0317967,1649159528.35789,192cbe32-ea27-45d1-84c6-5498ef34f815
0.135298501879983,0.3538544762565221,0.1196570323471328,-0.0920780700506981,-0.2107039729658654,-0.0867364118973735,-0.2401789703175666,-0.2617510528411058,-2.0357451614835136,29.360817701131595,24.08360298953834,0.216206120594184,1.1475459051118395,0.528347407527267,-1.0,11.950333333333331,0.0,178.7081020482051,1.133216393138483,93.58117541588314,1553.0,1435.0,1000.0,1774.0,1471.0,1011.0,242.0,294.13,1649159529.2682,1649159530.407439,836b2199-f47a-4a05-a578-11389c390903
0.16069192080162,0.373947326219485,0.1311895344060718,-0.102487455107221,-0.2050199006123802,-0.0967212036321382,-0.2309200956669098,-0.2612168874237972,-1.7868884777205964,29.266855366908697,24.18007281283224,0.2173419826554155,1.222301076480201,0.494391385028899,-1.0,11.955666666666666,0.0,178.72397844347583,1.1400670847339731,93.58532513525888,1553.0,1435.0,1000.0,1774.0,1471.0,1011.0,242.0,294.13,1649159530.5160072,1649159531.636282,836b2199-f47a-4a05-a578-11389c390903
0.1499653243306687,0.3637499651632982,0.1220111967758372,-0.0928385028381511,-0.2104535998663579,-0.0942980082266313,-0.2407350506605771,-0.2714109633134577,-2.008230178457861,29.355104920953625,24.29417780699342,0.2010563222097493,1.1828417114778818,0.5270984163489966,-1.0,11.956875,0.0,178.7042686045334,1.127164360839438,93.57789635589909,1553.0,1435.0,1000.0,1774.0,1471.0,1011.0,242.0,294.13,1649159531.7446034,1649159532.8726475,836b2199-f47a-4a05-a578-11389c390903
0.07355441673307496,0.3387608697684286,-0.11006165236439225,-0.024869054273240692,-0.422000815338272,-0.12121065173948524,-0.5016874120027555,-0.5214378556197068,-3.626944303899807,30.15724042308184,23.98609998567727,-0.01984455875262445,1.0802376857319944,1.49879131708971,-1.0,11.926666666666668,0.0,178.77074398981298,1.1051311058741484,93.67244951049173,1553.0,1435.0,1000.0,1856.0,1471.0,1011.0,242.0,294.13,1649159533.7741635,1649159534.9128773,13337846-73e9-419b-b198-fa53a9710b61
0.07775268581857514,0.338320388473675,-0.10756504344694479,-0.03155242723876368,-0.4224369137683215,-0.1167954288973348,-0.4971083772626773,-0.5244050788687712,-3.364177659861555,30.238060897646932,23.70255603950951,0.00590024311656866,1.0802213668143,1.4891013526948231,-1.0,11.923666666666668,0.0,178.78368492156045,1.0998767812696721,93.64654715642932,1553.0,1435.0,1000.0,1856.0,1471.0,1011.0,242.0,294.13,1649159535.0213473,1649159535.9791002,13337846-73e9-419b-b198-fa53a9710b61
0.0744523630917695,0.34142348057113237,-0.11061554123330428,-0.028028576579310956,-0.423607148074591,-0.12181823115346833,-0.5016183813493763,-0.5360153806409159,-3.5166534233342337,30.110446698445365,23.85519259167672,-0.01438589358337131,1.0909568099168074,1.5018421008392542,-1.0,11.92311111111111,0.0,178.7883506996735,1.1013731263064335,93.63007653470078,1553.0,1435.0,1000.0,1856.0,1471.0,1011.0,242.0,294.13,1649159536.1130822,1649159537.0662768,13337846-73e9-419b-b198-fa53a9710b61
