raw_voltage_G-,raw_voltage_G0,raw_voltage_G1,raw_voltage_G2,raw_voltage_G3,raw_voltage_G4,raw_voltage_G5,raw_voltage_G6,load_x,load_y,load_z,load_l,load_m,load_n,rpm,voltage,current,roll,pitch,yaw,aileron1_pwm,elevator_pwm,throttle_pwm,rudder_pwm,aileron2_pwm,pbaro,pdiff,Tt,sample_start_time,sample_end_time,uid
-0.1086695340430143,0.0270250157585472,-0.0992024721393096,0.0848529817885528,-0.2650732903525711,0.043013830472531,-0.488206707600344,-0.5021969246755947,-17.927242349633328,30.24563475588411,18.4457272283108,0.094728867200584,0.0485376595853291,1.1964454006508178,-1.0,11.988777777777775,0.0,179.36443617502906,1.0950259951506895,95.7987951643236,1553.0,1435.0,1000.0,1528.0,1471.0,1011.0,242.0,294.13,1649158181.2499025,1649158182.2012842,e9cb0fc4-2dcc-409a-99c2-6333ea7342e2
-0.1153096261081726,0.0310222194335495,-0.1033311630459698,0.0760302066670855,-0.2706877844242002,0.0477342124186278,-0.4904025404904022,-0.5117297314783154,-17.832211865186665,30.16358774004021,18.494694091752493,0.1245443754938741,0.0632461531714638,1.2134223001923352,-1.0,11.986,0.0,179.3558544217919,1.081794958233023,95.99357318670468,1553.0,1435.0,1000.0,1528.0,1471.0,1011.0,242.0,294.13,1649158182.3102973,1649158183.541911,e9cb0fc4-2dcc-409a-99c2-6333ea7342e2
-0.1114570578174318,0.0310748142164039,-0.0976640746261066,0.0813554286095256,-0.2643632606952451,0.0411467155891395,-0.487167960378596,-0.5086397873743378,-17.938456104020744,30.20477134444134,18.297115559755323,0.0981992129790568,0.0656508325651656,1.192161039279185,-1.0,11.984111111111112,0.0,179.3555022875947,1.0652368721376193,96.15482029263032,1553.0,1435.0,1000.0,1528.0,1471.0,1011.0,242.0,294.13,1649158183.6744995,1649158184.7634952,e9cb0fc4-2dcc-409a-99c2-6333ea7342e2
0.1274503739868017,0.4520040072830952,-0.0757380746833152,-0.1538769462387609,-0.3444919754337543,-0.1482202671177542,-0.5484063861038918,-0.578716880205893,-17.386246820703608,29.095901933353712,19.073839467647225,0.1974356450320538,1.6639320694429494,1.409408874761714,-1.0,11.957666666666666,0.0,179.15303119547843,1.0662091898830597,96.478546215262,1616.0,1435.0,1000.0,1528.0,1519.0,1011.0,242.0,294.13,1649158186.905084,1649158188.0400438,e9722dae-9312-4411-bb30-8884196d2bc6
0.1311758378289491,0.4605232659909148,-0.0711908170009948,-0.1558081611519807,-0.34146503544094,-0.1516033173186309,-0.5455164113619847,-0.56004846481004,-17.403594643589468,29.061359309062407,19.55560594832315,0.1942553269671472,1.6922628286862775,1.396668384477164,-1.0,11.959555555555555,0.0,179.17031916317762,1.058434703344358,96.55852165916356,1616.0,1435.0,1000.0,1528.0,1519.0,1011.0,242.0,294.13,1649158188.1485069,1649158189.1811912,e9722dae-9312-4411-bb30-8884196d2bc6
0.1175340657997077,0.4511000344930045,-0.0726563488298643,-0.1520005175621914,-0.3404104002302622,-0.1485489845264995,-0.5452561766677345,-0.5632123705518071,-17.45234314002658,29.059708191690945,19.171552099852644,0.1923600311984198,1.660107133406043,1.395177181995523,-1.0,11.961,0.0,179.17010970404309,1.0620241930545786,96.61938471594765,1616.0,1435.0,1000.0,1528.0,1519.0,1011.0,242.0,294.13,1649158189.2950487,1649158190.507141,e9722dae-9312-4411-bb30-8884196d2bc6
0.4149115382626293,0.9684978975130676,-0.0340769768812319,-0.4226735903460976,-0.4286036536081781,-0.3999394898563506,-0.6163933847165266,-0.6356825287497428,-16.735345346148016,28.038294197541333,19.95297249317788,0.2336595361799364,3.624417304326711,1.6262505312067572,-1.0,11.927,0.0,178.77781095887426,1.077797981334194,96.74444092619112,1679.0,1435.0,1000.0,1528.0,1567.0,1011.0,242.0,294.13,1649158192.4322555,1649158193.570513,80d3e4e7-5137-45c5-b394-2066e04c8534
0.4190402285073605,0.9694709009661058,-0.0349316421949725,-0.4264998618391659,-0.4294188729965485,-0.3970467761517806,-0.6167089535828085,-0.6380624438106095,-16.805720062617652,28.005500358880663,19.99508655793305,0.2485023186024023,3.628607856438944,1.629083022268836,-1.0,11.928444444444445,0.0,178.7854440747267,1.0791764818918383,96.77774796422374,1679.0,1435.0,1000.0,1528.0,1567.0,1011.0,242.0,294.13,1649158193.679144,1649158194.7983923,80d3e4e7-5137-45c5-b394-2066e04c8534
0.4128077470303309,0.9578211569595424,-0.0390734816145766,-0.423133794829789,-0.4312991369347698,-0.3887630958225472,-0.6160778159204953,-0.6458727720168301,-16.63219306429232,27.955664768114453,19.976786740218785,0.2590716617462135,3.583170392207458,1.6351270757595358,-1.0,11.927888888888887,0.0,178.7961173836697,1.075993708602351,96.78693532756732,1679.0,1435.0,1000.0,1528.0,1567.0,1011.0,242.0,294.13,1649158194.9067056,1649158196.027918,80d3e4e7-5137-45c5-b394-2066e04c8534
0.6505766951463152,1.3963405761483554,-0.0180070782084928,-0.6467203152096107,-0.5177808725150991,-0.6030556716160452,-0.6922613894013212,-0.7173397984898625,-16.211056658287614,27.331416553170044,21.11857730249056,0.2791887888639699,5.243637667936873,1.88593325149262,-1.0,11.88922222222222,0.0,178.40768148993143,1.0789128318466892,96.77213127199629,1745.0,1435.0,1000.0,1528.0,1614.0,1011.0,242.0,294.13,1649158196.9418306,1649158198.08697,25a3bc9b-8f3f-4572-b4b8-dd720d524137
0.6684780954814532,1.4084483344990746,-0.0022286423662098,-0.6533357553632714,-0.5056183252491916,-0.6095752355724238,-0.6769897207791212,-0.6922066033501667,-16.019446569402252,27.2289589771003,21.1320144249169,0.2796663210492328,5.289386894587119,1.8277181105183231,-1.0,11.884777777777778,0.0,178.39612632767563,1.0860681783382833,96.78966892105512,1745.0,1435.0,1000.0,1528.0,1614.0,1011.0,242.0,294.13,1649158198.1963031,1649158199.2745202,25a3bc9b-8f3f-4572-b4b8-dd720d524137
0.6524120338194036,1.3885061442817317,-0.0125695442971746,-0.6442686303801002,-0.5098505629395986,-0.5973442048155634,-0.6837010369488049,-0.7085055146781167,-16.239632418754905,27.25403144940385,21.21510624233707,0.2862515777079804,5.213642047167878,1.854753259644172,-1.0,11.89122222222222,0.0,178.4115215740648,1.0875791916806063,96.79851629276004,1745.0,1435.0,1000.0,1528.0,1614.0,1011.0,242.0,294.13,1649158199.3825788,1649158200.5322278,25a3bc9b-8f3f-4572-b4b8-dd720d524137
0.7723801789440525,1.6119381246530733,-0.0044611814648695,-0.7802070289290025,-0.5617057483584663,-0.7195997310991108,-0.7252153224909553,-0.7394597501951868,-15.698601894962872,26.970610440941297,17.03678753396782,0.3163020114058146,6.102097018128563,1.9938817016199248,-1.0,11.748333333333331,0.0,178.30353476546705,1.0956854522866477,96.75950377004074,1813.0,1435.0,1000.0,1528.0,1662.0,1011.0,242.0,294.13,1649158202.2275937,1649158203.3963091,57db4c6f-0795-4320-b496-a66692ef1a2c
0.7765400973370506,1.6117058309679713,-0.0069380671518247,-0.779200605322436,-0.5636670961136692,-0.7225165514485306,-0.7273947197560585,-0.7500893793277907,-15.640014678652935,26.90030613886985,16.704334548732923,0.3068643898399428,6.10347550613464,2.0026140402130315,-1.0,11.75822222222222,0.0,178.3046473273919,1.080874139639606,96.60059866009048,1813.0,1435.0,1000.0,1528.0,1662.0,1011.0,242.0,294.13,1649158203.5053234,1649158204.632933,57db4c6f-0795-4320-b496-a66692ef1a2c
0.7821677387978769,1.6136912843682212,-0.0082529367988103,-0.7823299964219709,-0.5658760777311184,-0.7217802241768209,-0.7302611367005661,-0.753508041911116,-15.759420199570208,26.98923786005704,16.65940675337439,0.3160349550969584,6.112468927896701,2.0115256642700188,-1.0,11.765,0.0,178.31126805742736,1.0784017060237998,96.43064154515324,1813.0,1435.0,1000.0,1528.0,1662.0,1011.0,242.0,294.13,1649158204.7420635,1649158205.8576095,57db4c6f-0795-4320-b496-a66692ef1a2c
-0.3751037893893765,-0.4455725977679439,-0.1224570386357839,0.3365009377355702,-0.1772295806124092,0.2689084254027689,-0.413741788746871,-0.4415732024962689,-18.275780153438628,31.55019409617439,17.855931111368434,0.0419087467865014,-1.7487318557656326,0.9458865494149694,-1.0,11.974555555555556,0.0,179.54709364727296,1.0400054655814883,96.10556552179564,1491.0,1435.0,1000.0,1528.0,1420.0,1011.0,242.0,294.13,1649158207.7924392,1649158208.9363718,45cebf97-1066-4d7b-8ace-173af62ee75f
-0.37988388924477,-0.4546671146929604,-0.1303599534191551,0.3425959058882041,-0.1815439969150704,0.2709766056244367,-0.421617311519494,-0.4447781977715971,-18.489025231476305,31.571090947649463,17.621304832326427,0.0324077414479559,-1.7805041099177268,0.9722129297526952,-1.0,11.977444444444444,0.0,179.5300227278074,1.0251743026971711,96.0350369884261,1491.0,1435.0,1000.0,1528.0,1420.0,1011.0,242.0,294.13,1649158209.048186,1649158210.375263,45cebf97-1066-4d7b-8ace-173af62ee75f
-0.3735697745307021,-0.4433948443977015,-0.1186767881626738,0.3373775174500689,-0.1729151642146348,0.2656075549851892,-0.410728545152944,-0.4334100514468011,-18.348489793609133,31.48731596270172,17.83208905078871,0.0322449048947385,-1.739707368398654,0.9307795699052268,-1.0,11.975,0.0,179.52048930154584,1.0228308600497529,95.98827295990876,1491.0,1435.0,1000.0,1528.0,1420.0,1011.0,242.0,294.13,1649158210.5055397,1649158211.5926297,45cebf97-1066-4d7b-8ace-173af62ee75f
-0.5754351828555586,-0.8178183441730685,-0.1464851869151926,0.5444130361406607,-0.113771228430795,0.4355286922788176,-0.366962553360049,-0.3906565085474553,-18.707919567598363,32.81733624945369,16.984090439468257,-0.0458249286492981,-3.1611942459132063,0.7803326273459719,-1.0,11.93311111111111,0.0,179.62728158594874,1.0136781456866548,95.81903984502353,1428.0,1435.0,1000.0,1528.0,1368.0,1011.0,242.0,294.13,1649158212.9128945,1649158214.0556946,ac452414-4c7b-4666-b476-3facf574d0c9
-0.5730158221465163,-0.8082723861002578,-0.1456699676939015,0.5299889177107828,-0.1163746704565139,0.4410248468536033,-0.3651480329590978,-0.3918398914662914,-18.660240664903164,32.77279637016696,17.217148020014555,-0.0011305749075453,-3.125967299358683,0.7815928055998895,-1.0,11.934444444444445,0.0,179.64489284926864,1.022091029611374,95.67933212010044,1428.0,1435.0,1000.0,1528.0,1368.0,1011.0,242.0,294.13,1649158214.164344,1649158215.282117,ac452414-4c7b-4666-b476-3facf574d0c9
-0.578078071704561,-0.8145443172056867,-0.1539404983020642,0.5420068249572247,-0.1219497180362808,0.4372117252493297,-0.3752856796654427,-0.3975727242231494,-18.753167257102824,32.84874172054634,17.303323672392622,-0.0367500289198735,-3.151599596532153,0.814265572211814,-1.0,11.934333333333331,0.0,179.66297160109175,1.0314257993465676,95.57600046487704,1428.0,1435.0,1000.0,1528.0,1368.0,1011.0,242.0,294.13,1649158215.3901918,1649158216.507557,ac452414-4c7b-4666-b476-3facf574d0c9
-0.9030515243671992,-1.395634938540119,-0.1786266296808901,0.8635307680664227,-0.0136104827930242,0.7081433252957975,-0.2873225310296196,-0.3098533734713896,-19.201243156001567,35.02605708918359,17.18720819010488,-0.1402493674486116,-5.367956749557432,0.5062491458824413,-1.0,11.891333333333334,0.0,179.85059082631278,1.0158185917917095,95.27260953322435,1364.0,1435.0,1000.0,1528.0,1312.0,1011.0,242.0,294.13,1649158218.4425652,1649158219.584317,2e77bca7-2368-48aa-ae03-d1c21fa39fc2
-0.91014634564832,-1.395429489969479,-0.1775993876868906,0.8784737122092182,-0.0100767705936344,0.6940084782031355,-0.290856243629968,-0.3126200789824491,-19.35114129600285,35.02977674242896,17.153673254777697,-0.2057248698700738,-5.367602642549017,0.5050693403812848,-1.0,11.899666666666668,0.0,179.85719486033025,1.0195793698397095,95.08357342320556,1364.0,1435.0,1000.0,1528.0,1312.0,1011.0,242.0,294.13,1649158219.6932063,1649158221.0125122,2e77bca7-2368-48aa-ae03-d1c21fa39fc2
-0.9055853891961082,-1.3971141684419994,-0.180722203318685,0.8782408707398764,-0.013144799772392,0.6973093485039025,-0.2945269218473318,-0.3140034319454677,-19.44708958963417,35.12430180029283,17.330891305786313,-0.1973310659422994,-5.3749804907838525,0.5186692809546763,-1.0,11.895666666666664,0.0,179.85838179542603,1.015768954340554,94.94503366063054,1364.0,1435.0,1000.0,1528.0,1312.0,1011.0,242.0,294.13,1649158221.121105,1649158222.2433777,2e77bca7-2368-48aa-ae03-d1c21fa39fc2
-1.053713761339426,-1.6558561590154195,-0.1798319269357144,1.0089471194115427,0.0425864978355333,0.795869774717611,-0.2488762860315197,-0.2732972536563913,-19.629800925124474,36.31202638603323,12.58068203289321,-0.2636251854897922,-6.318042253427876,0.3390741627194283,-1.0,11.743111111111112,0.0,179.92724831609752,1.0058997934506106,94.65383309882648,1297.0,1435.0,1000.0,1528.0,1253.0,1011.0,242.0,294.13,1649158223.358832,1649158224.4934292,5a8119e5-9fea-4f2f-8b3e-0cfed9293218
-1.038688626449819,-1.6575819277278423,-0.1869952277452909,1.0043176829183005,0.0362586877271744,0.8012251286260028,-0.2543549101704252,-0.2850352061830717,-19.691812973620127,36.248205507810674,12.448096716790992,-0.2419802267094354,-6.322786143725492,0.3648040471216385,-1.0,11.752,0.0,179.9509020201032,1.0024296186074535,94.3211656996614,1297.0,1435.0,1000.0,1528.0,1253.0,1011.0,242.0,294.13,1649158224.6023166,1649158225.9284928,5a8119e5-9fea-4f2f-8b3e-0cfed9293218
-1.0411359291632871,-1.6506311889479517,-0.1862205502818612,1.0069052365982238,0.0358346422921207,0.7934756164943566,-0.2559612427209772,-0.2769465648219149,-19.627023040597297,36.23205922587578,12.649858157417928,-0.2652349886941707,-6.299233167715548,0.3678129475994252,-1.0,11.754888888888887,0.0,179.933186027216,0.9994575139651788,94.0395107066774,1297.0,1435.0,1000.0,1528.0,1253.0,1011.0,242.0,294.13,1649158226.0368984,1649158227.1594894,5a8119e5-9fea-4f2f-8b3e-0cfed9293218
-0.1010356197557621,0.0425728012741435,-0.1043501870063206,0.0796219921527353,-0.2685171534854796,0.0328619411838041,-0.4976058363537238,-0.5187533290923563,-18.394161501967066,29.943245235992872,18.433577650180485,0.0812181770681872,0.1105763094120627,1.2231511858076838,-1.0,11.99,0.0,179.35933326480915,1.0318597298022754,93.62871808596586,1553.0,1435.0,1000.0,1528.0,1471.0,1011.0,242.0,294.13,1649158228.747336,1649158229.8234072,eb63be49-129a-48c0-b213-dd2946e69b09
-0.1003727062337354,0.0528753526769142,-0.098584483412785,0.0797381389676841,-0.2657044278912588,0.0205164110126452,-0.4953333028222022,-0.5182909329543827,-18.25947271518664,29.956629957443383,18.159042444610662,0.05361398249993,0.1510484872496832,1.2091743778997135,-1.0,11.989,0.0,179.37099163881243,1.0611165249469074,93.96547373280416,1553.0,1435.0,1000.0,1528.0,1471.0,1011.0,242.0,294.13,1649158229.9319584,1649158231.0568502,eb63be49-129a-48c0-b213-dd2946e69b09
-0.1013780337338862,0.0515988334202122,-0.0938586225683317,0.0759924041571162,-0.2620523770137538,0.025876696245958,-0.4898124925732958,-0.5044267249088213,-18.266497573923747,30.04457186168564,18.29125871728744,0.0749445528893719,0.1459009205975258,1.1898559984202557,-1.0,11.98988888888889,0.0,179.37488181099968,1.073045687491681,94.26821427866592,1553.0,1435.0,1000.0,1528.0,1471.0,1011.0,242.0,294.13,1649158231.165271,1649158232.2839055,eb63be49-129a-48c0-b213-dd2946e69b09
-0.0990446878447022,0.0211869945602769,-0.1448941945580898,-0.4178348692024486,-0.3563121075038388,0.5308698802675219,-0.3952717017750177,-0.4235939999425835,-18.12561353551312,28.898714358062115,21.37829816007163,2.314110756292585,0.0610264304339461,1.2501153618086904,-1.0,11.966,0.0,179.37466324494628,1.2648431742157185,94.77513042829676,1553.0,1522.0,1000.0,1528.0,1471.0,1011.0,242.0,294.13,1649158234.417774,1649158235.5554698,246c59fe-8fcf-46b1-a881-e351c0d8177b
-0.0918786480400902,0.0268409340033466,-0.1471294730940915,-0.4220030066968534,-0.360690624119754,0.5282006951924436,-0.3966128690368134,-0.4200175532136276,-17.863709140492407,28.81217686185222,21.226724918329133,2.316937742906448,0.0820918503862159,1.261687999416874,-1.0,11.974444444444446,0.0,179.38509066707917,1.277589718305072,94.82359289718772,1553.0,1522.0,1000.0,1528.0,1471.0,1011.0,242.0,294.13,1649158235.6681623,1649158236.7899723,246c59fe-8fcf-46b1-a881-e351c0d8177b
-0.1041595309425541,0.0242900869061135,-0.1440789753568595,-0.4163885123444664,-0.3561148770600879,0.5275695578168522,-0.3942329545495637,-0.4135483932495223,-17.97192104799595,28.83071120291768,21.53773534809253,2.3031244358030265,0.070036477750218,1.2480049575767809,-1.0,11.971222222222224,0.0,179.37738166023595,1.2752059467108356,94.91359050533144,1553.0,1522.0,1000.0,1528.0,1471.0,1011.0,242.0,294.13,1649158236.9017951,1649158238.0194244,246c59fe-8fcf-46b1-a881-e351c0d8177b
-0.0736972873698831,0.0124814618111695,-0.1865021516256018,-1.0363191200758193,-0.4623371894175909,1.13302423715062,-0.266284614227557,-0.2889113325065167,-17.666100461076997,27.756114604817697,25.14960975372908,5.053567183408411,0.0651895785604477,1.2672245499668278,-1.0,11.944,0.0,179.39577915422035,1.4815930020932355,95.02558739388184,1553.0,1613.0,1000.0,1528.0,1471.0,1011.0,242.0,294.13,1649158239.747382,1649158240.889944,7cfa420c-d48b-4549-967b-b3af7aeafdf7
-0.0740670944698877,0.0092627704854566,-0.1875430901554793,-1.0372093970225755,-0.4639670802340221,1.138187839534497,-0.2665174557514778,-0.2907877613572898,-17.629568021532545,27.86192650535788,25.31231288933259,5.067872667497133,0.0514623444248405,1.2710092819574503,-1.0,11.94822222222222,0.0,179.39631494461523,1.4986654749525383,94.93864212138722,1553.0,1613.0,1000.0,1528.0,1471.0,1011.0,242.0,294.13,1649158240.998969,1649158242.108502,7cfa420c-d48b-4549-967b-b3af7aeafdf7
-0.0782171519685312,0.0042498299614362,-0.1932682521770661,-1.0311966037345075,-0.4680897453331178,1.1372290804699945,-0.2739272949225095,-0.3021285133518852,-17.773637895944464,27.97180596318815,25.213803862966227,5.052509924690096,0.0334521589759323,1.2941399270679532,-1.0,11.961555555555556,0.0,179.37861109428655,1.485648936805525,94.89389375758492,1553.0,1613.0,1000.0,1528.0,1471.0,1011.0,242.0,294.13,1649158242.2165773,1649158243.335806,7cfa420c-d48b-4549-967b-b3af7aeafdf7
-0.0609397642846778,-0.005031506168673,-0.2442063068259299,-1.6126445566185186,-0.5797216590906253,1.7064290545188,-0.1678255226007086,-0.1981201220409197,-17.61867462227175,27.13670546207144,28.942332143861982,7.635782389721071,0.0328441859270157,1.364043126524202,-1.0,11.886666666666663,0.0,179.38378989549722,1.6853974159116594,94.83920291508085,1553.0,1710.0,1000.0,1528.0,1471.0,1011.0,242.0,294.13,1649158245.271272,1649158246.4086974,a59d5843-8808-4db9-8dc4-dff414384526
-0.062205874222562,-0.0091454045890153,-0.2468354985607019,-1.6050281646508466,-0.5821684131029315,1.7039653170526894,-0.1705867490729795,-0.1934737007733033,-17.44787283943826,27.21551917545192,28.99344454407803,7.613551002731046,0.0146495836977271,1.3746191576624158,-1.0,11.884,0.0,179.38066166885736,1.692211561251903,94.63068634663922,1553.0,1710.0,1000.0,1528.0,1471.0,1011.0,242.0,294.13,1649158246.517053,1649158247.6375072,a59d5843-8808-4db9-8dc4-dff414384526
-0.0625071985438726,-0.0134598206135694,-0.2488214997889083,-1.6034667552259074,-0.5812781365447752,1.7058417460156663,-0.1731343091856517,-0.1950351089657859,-17.763582585996247,27.19652666963904,28.84818225347816,7.613838562928143,0.0016714055458192,1.378814667483779,-1.0,11.877666666666666,0.0,179.38273045726595,1.6950584101854926,94.46955383610964,1553.0,1710.0,1000.0,1528.0,1471.0,1011.0,242.0,294.13,1649158247.7458427,1649158248.865981,a59d5843-8808-4db9-8dc4-dff414384526
-0.0590556656787113,-0.0293478289893042,-0.2717084521823346,-2.0116659124366163,-0.654897163762256,2.1134788536561016,-0.0936120846291972,-0.1134036132361646,-17.7736966740859,27.74944551354767,31.358699681697065,9.45357170991099,-0.0312808335579802,1.3948664589720536,-1.0,11.812222222222225,0.0,179.40333486126218,1.868178163583732,94.27017681968742,1553.0,1814.0,1000.0,1528.0,1471.0,1011.0,242.0,294.13,1649158249.7779896,1649158250.9135904,d59785b1-6d71-490a-9f0f-2a796332f800
-0.047523162866831,-0.0139528967754315,-0.2559711043249077,-2.027416981980496,-0.6438303404415863,2.112136589762739,-0.0781075795129599,-0.0932011882299981,-17.713801818322903,27.64825067458305,31.37153052543231,9.486230994476289,0.0288571233099465,1.3380923928547634,-1.0,11.824,0.0,179.37500171876513,1.8532794102857533,93.95875282666088,1553.0,1814.0,1000.0,1528.0,1471.0,1011.0,242.0,294.13,1649158251.0221596,1649158252.3507245,d59785b1-6d71-490a-9f0f-2a796332f800
-0.0538372766322749,-0.02600586862608,-0.2610251351091869,-2.01966471561467,-0.6455424108759121,2.116327738638669,-0.0796552906682337,-0.0955569963550063,-17.60481876868843,27.585674572970003,31.27809630798313,9.47753533581426,-0.0175680291680054,1.3480967837720168,-1.0,11.838,0.0,179.38863477634848,1.8541923314729425,93.76173905569148,1553.0,1814.0,1000.0,1528.0,1471.0,1011.0,242.0,294.13,1649158252.46004,1649158253.576472,d59785b1-6d71-490a-9f0f-2a796332f800
-0.1251711489106633,0.048654621186986,-0.0509862008500759,0.7066416347574385,-0.1572145239069633,-0.5765922684498558,-0.6210743222239974,-0.6522367432396201,-18.57394623104544,31.78095731430305,14.433188927126642,-2.68859809917949,0.0963292680942941,1.1743163225588575,-1.0,11.987111111111112,0.0,179.38851942204252,0.936786046018669,93.47593434333176,1553.0,1349.0,1000.0,1528.0,1471.0,1011.0,242.0,294.13,1649158255.2483432,1649158256.2395089,94891687-abc1-45da-8b93-36c9ef982e99
-0.1319821739632921,0.0418304478067385,-0.0571660882974342,0.7013821567695647,-0.1618297166403037,-0.5639826649403296,-0.6216265676164381,-0.6466748427958975,-18.4815852267524,31.644586988143374,14.561865126858036,-2.649543271267847,0.0691937761123295,1.1892427328690889,-1.0,11.981555555555556,0.0,179.38712909909145,0.9155465055774568,93.8998606589073,1553.0,1349.0,1000.0,1528.0,1471.0,1011.0,242.0,294.13,1649158256.347932,1649158257.4668093,94891687-abc1-45da-8b93-36c9ef982e99
-0.1324292297677816,0.0407785520799269,-0.0574027648352685,0.7004880455136453,-0.1623293671354096,-0.5620761034155229,-0.6224680844453997,-0.6487654863732876,-18.556915731228464,31.729309272988253,14.564565800506704,-2.642729716621923,0.0658542794164681,1.191225269628767,-1.0,11.982,0.0,179.3853562855469,0.9106834583202768,94.24372425594188,1553.0,1349.0,1000.0,1528.0,1471.0,1011.0,242.0,294.13,1649158257.5764716,1649158258.7048676,94891687-abc1-45da-8b93-36c9ef982e99
-0.1568764929041287,0.0577759813407352,0.0005654556362526,1.2874118429340262,-0.0576175268828907,-1.1420703242771917,-0.742144275958356,-0.761031839778011,-18.997944060804,34.18768040343821,11.049804545861283,-5.25160946891232,0.0953313903983252,1.1409085389307918,-1.0,11.937333333333331,0.0,179.38868031094296,0.7288227881186643,94.90706539794434,1553.0,1264.0,1000.0,1528.0,1471.0,1011.0,242.0,294.13,1649158260.8359768,1649158261.973045,0f30a2d9-edfd-4af9-a78e-79d44000ba1c
-0.153986518757832,0.0612823003369363,-0.003803746623896,1.279728073504628,-0.0613292944013695,-1.1383448574454806,-0.7454314513827618,-0.7679486044104703,-19.14767800325264,34.03571385807498,11.03512147034325,-5.227207820722974,0.1103386093232389,1.156893882612792,-1.0,11.942888888888888,0.0,179.3677586826053,0.7237927154629529,95.11131689270422,1553.0,1264.0,1000.0,1528.0,1471.0,1011.0,242.0,294.13,1649158262.0824566,1649158263.2024662,0f30a2d9-edfd-4af9-a78e-79d44000ba1c
-0.1486585570738982,0.0645831709504688,-0.0027765046991726,1.2743042363136654,-0.0620552120226441,-1.135386398635835,-0.7445822643862666,-0.7597032721633962,-19.15337839524165,34.09034924490782,11.211952400640866,-5.207886268091847,0.1219258176264464,1.1558481471045858,-1.0,11.942333333333332,0.0,179.37506091373794,0.7074995067123154,95.2886043184407,1553.0,1264.0,1000.0,1528.0,1471.0,1011.0,242.0,294.13,1649158263.3107712,1649158264.4330587,0f30a2d9-edfd-4af9-a78e-79d44000ba1c
-0.1565044943125711,0.0988168970166089,0.0582268720336809,1.823991574089658,0.0356505605357341,-1.6971776362840734,-0.861669267964915,-0.8843639299185692,-19.69127603217725,36.84832660204406,7.829787671729998,-7.689755525121716,0.220342037728597,1.1090056395193273,-1.0,11.92088888888889,0.0,179.3732622972565,0.5001226075087922,95.6147549582277,1553.0,1178.0,1000.0,1528.0,1471.0,1011.0,242.0,294.13,1649158266.3702743,1649158267.50929,b84a3569-9139-4fca-83a0-b025647d9561
-0.1618165679745415,0.0927684968373723,0.0540192892365942,1.818810986491319,0.0336782560825943,-1.6849887783074795,-0.861735011486581,-0.8875985114398709,-19.80164574932753,36.735847524138094,8.027256332423539,-7.651658623982423,0.197057064962058,1.1169912032791642,-1.0,11.921,0.0,179.37022058634614,0.4746400907079411,95.79647669455534,1553.0,1178.0,1000.0,1528.0,1471.0,1011.0,242.0,294.13,1649158267.6214664,1649158268.7329423,b84a3569-9139-4fca-83a0-b025647d9561
-0.1681279427204844,0.0837221939215945,0.0397923998532748,1.826871139366944,0.0235406111718386,-1.6823327380566664,-0.8757515290187974,-0.8995112364842511,-19.98664060103809,36.73238919441981,8.092136794455403,-7.664685986207649,0.1619678981936157,1.169088017612055,-1.0,11.919333333333334,0.0,179.36650040997822,0.4764334363229089,95.90786645517952,1553.0,1178.0,1000.0,1528.0,1471.0,1011.0,242.0,294.13,1649158268.8411858,1649158269.9056213,b84a3569-9139-4fca-83a0-b025647d9561
-0.1704223904973431,0.0958387173617281,0.0697741664853219,2.1122735560532546,0.0670759444319677,-1.967590308427597,-0.9441823133800352,-0.9670692775936294,-20.365424755938506,38.96552535029898,6.416890145848531,-8.933656856203093,0.1917402482139147,1.1667780623866546,-1.0,11.810333333333334,0.0,179.36675995716666,0.3744177101281557,96.04701714023032,1553.0,1088.0,1000.0,1528.0,1471.0,1011.0,242.0,294.13,1649158270.871333,1649158271.8554752,3579f556-119a-41fb-853a-61a8acc3aed3
-0.1746546274069686,0.0998928986591838,0.0709520705482608,2.1379135250746586,0.0697330768459578,-1.9922304595400653,-0.953002902227241,-0.986039021912363,-20.54218168299899,39.16907576945284,6.804034206057618,-9.045483303897248,0.2016869829756155,1.1751662294957126,-1.0,11.809666666666669,0.0,179.33889278535304,0.3641166287079638,96.00139830676378,1553.0,1088.0,1000.0,1528.0,1471.0,1011.0,242.0,294.13,1649158271.968612,1649158273.0417864,3579f556-119a-41fb-853a-61a8acc3aed3
-0.1866528137896326,0.0933048540240905,0.057050063688699,2.148624239084374,0.057515746679002,-1.9925728741665747,-0.9694250858460488,-1.0000780032452214,-20.64833254364035,39.37454275114217,7.120943600509787,-9.069746580080844,0.17272381316023,1.233723500748256,-1.0,11.823333333333332,0.0,179.3433976745656,0.3390423668991041,96.01104556951148,1553.0,1088.0,1000.0,1528.0,1471.0,1011.0,242.0,294.13,1649158273.1745472,1649158274.262101,3579f556-119a-41fb-853a-61a8acc3aed3
-0.1071968799556938,0.0312457472713086,-0.1093795636206731,0.0887975906023226,-0.2725548995034826,0.0393847902935268,-0.503117332973957,-0.5219988660353108,-18.434323195428743,30.243101901493468,18.93995359232382,0.0769758474608155,0.0624457646546509,1.2426264562751743,-1.0,11.98,0.0,179.38098496447807,0.9732452163532432,96.06407212258782,1553.0,1435.0,1000.0,1528.0,1471.0,1011.0,242.0,294.13,1649158276.4029045,1649158277.5415533,63733b2c-554a-4946-80c3-834ba86e1c0d
-0.1071837312652903,0.036663010160237,-0.0964412458071132,0.0893892818732376,-0.261891305494515,0.0322844942473601,-0.4897319567797642,-0.5068910097989472,-18.12017789305308,30.166181983754303,18.863259624350302,0.059966061357619,0.0819661536218754,1.1922117467253566,-1.0,11.980444444444444,0.0,179.3756422387273,1.0170881057718166,96.1094230608569,1553.0,1435.0,1000.0,1528.0,1471.0,1011.0,242.0,294.13,1649158277.6495273,1649158278.7740028,63733b2c-554a-4946-80c3-834ba86e1c0d
-0.1056847799519082,0.0380041771301709,-0.0959810414240651,0.0918217907141122,-0.2625487403828462,0.0283924801255928,-0.4907707040676502,-0.5152009882867645,-18.042123401477934,30.24805059797049,18.811618731584105,0.0463297328057787,0.0866326556466217,1.194090602251759,-1.0,11.983333333333333,0.0,179.37470119044167,1.0262884298736603,96.15676234308434,1553.0,1435.0,1000.0,1528.0,1471.0,1011.0,242.0,294.13,1649158278.8828127,1649158279.9233658,63733b2c-554a-4946-80c3-834ba86e1c0d
-0.0091043149334547,0.0775812049674981,0.1767990731959138,0.0580362158922472,-0.0156512700565317,0.0046196370233383,-0.2062251978267399,-0.2377272866065071,-16.215977188652953,29.953113125481764,18.661766881210628,0.0816437600981974,0.2449212220299692,0.0865251794676948,-1.0,11.987333333333334,0.0,179.35626423314207,1.0245366286471596,96.12056234048327,1553.0,1435.0,1000.0,1435.0,1471.0,1011.0,242.0,294.13,1649158281.9299605,1649158283.0673704,2635809b-f3da-4403-8d75-bc9a5733226a
-0.020965535017216,0.0772935772291142,0.1747856791436467,0.0651036401544633,-0.0170620156374143,7.237953402903369e-05,-0.2112929250482353,-0.2274137765270359,-16.334055171393867,30.06637382337292,18.87231145055659,0.0561077775944942,0.2418162500464368,0.0986015677748647,-1.0,11.985,0.0,179.35279905050317,1.0244360493684443,96.15676613763388,1553.0,1435.0,1000.0,1435.0,1471.0,1011.0,242.0,294.13,1649158283.1752064,1649158284.2984023,2635809b-f3da-4403-8d75-bc9a5733226a
-0.0108985641844451,0.0973864284696565,0.1870714917683763,0.0491060597132793,-0.0116929645199694,-0.0067895965045482,-0.1988290554614671,-0.2311940272014215,-15.918462389972328,29.911935092512607,18.69643466777752,0.0765437447402071,0.3185398668885353,0.0591928451314025,-1.0,11.987000000000002,0.0,179.35555085782875,1.022522197160698,96.18475549394267,1553.0,1435.0,1000.0,1435.0,1471.0,1011.0,242.0,294.13,1649158284.4068782,1649158285.5257938,2635809b-f3da-4403-8d75-bc9a5733226a
0.1078631998824544,0.143154299867748,0.5440580213835219,0.0256312539042166,0.3113261169066351,-0.0517356765321536,0.168610175025841,0.1504912720188002,-13.347212842378331,29.839481414843767,18.38548650081101,0.0470372884206911,0.5002745294957436,-1.383816534028608,-1.0,11.974222222222222,0.0,179.2883175112788,1.0097053471831694,96.11878573238916,1553.0,1435.0,1000.0,1330.0,1471.0,1011.0,242.0,294.13,1649158286.435758,1649158287.5781202,3044470d-a3aa-41cd-9932-cc29305e6f22
0.10149539592299,0.1485156806190423,0.5416753682728043,0.016069960188799,0.3070944284370772,-0.0474409834799389,0.1657322542261322,0.1481047835829308,-13.45484262772406,29.873676867883443,18.47103633162863,0.0783234778546669,0.5214132505115617,-1.3701112056205893,-1.0,11.977111111111112,0.0,179.2806115400752,1.0201750785434145,96.16040359282188,1553.0,1435.0,1000.0,1330.0,1471.0,1011.0,242.0,294.13,1649158287.6900375,1649158288.804631,3044470d-a3aa-41cd-9932-cc29305e6f22
0.0910854637110414,0.1268104708476229,0.5282927360596597,0.0250790086889072,0.2999656440863642,-0.0330776759215506,0.1571313635792821,0.1322934769023418,-13.602893516582885,29.88612376762344,18.58483689100006,0.0896373032559483,0.4380873903913946,-1.3324091859071134,-1.0,11.97488888888889,0.0,179.2922592893398,1.01705715647714,96.2077997932924,1553.0,1435.0,1000.0,1330.0,1471.0,1011.0,242.0,294.13,1649158288.912915,1649158290.0365648,3044470d-a3aa-41cd-9932-cc29305e6f22
0.2133277934572298,0.1969330135721944,0.9040040952862428,0.0301911122355766,0.6337436262811864,-0.1275932483962476,0.5225960639344466,0.5006815721167529,-10.912373995261367,30.454023605296744,18.41777744601887,-0.1104831584079954,0.7067256862340369,-2.809564162413714,-1.0,11.957666666666666,0.0,179.24962069508112,1.0153214702282125,96.17582691887766,1553.0,1435.0,1000.0,1210.0,1471.0,1011.0,242.0,294.13,1649158290.9420707,1649158292.0783126,749d56ca-9b55-4b25-a261-b2dbac390773
0.2177791748009565,0.1882904854238881,0.9022920256165866,0.0345466178943904,0.6348941370903333,-0.1231007769119846,0.5231439262238068,0.5100500173632637,-10.95982760268321,30.40965136754818,18.419061245634868,-0.1106160096563769,0.6739898931655404,-2.810598220364352,-1.0,11.960333333333333,0.0,179.24314264010837,1.0212638652437638,96.16927828528344,1553.0,1435.0,1000.0,1210.0,1471.0,1011.0,242.0,294.13,1649158292.1861942,1649158293.308534,749d56ca-9b55-4b25-a261-b2dbac390773
0.2025896919746398,0.1854826910209206,0.8997444659302932,0.0322455960058888,0.6321685221955875,-0.1175810634538638,0.5216099117973498,0.4985723023200381,-10.968550251093168,30.47153742453109,18.49496130619678,-0.0927308280508079,0.6629708463618679,-2.8015134881659214,-1.0,11.96277777777778,0.0,179.2405441325841,1.0185820792151163,96.14213739025152,1553.0,1435.0,1000.0,1210.0,1471.0,1011.0,242.0,294.13,1649158293.4163086,1649158294.5369942,749d56ca-9b55-4b25-a261-b2dbac390773
0.304475646565473,0.2351425752552508,1.2074754404289625,0.071914664775763,0.9085004012172284,-0.2189871046104455,0.8108581913685714,0.7858362247473962,-8.900945663590823,31.33771489437762,18.466274891194008,-0.3879862928072174,0.8494849363931134,-4.001779964626759,-1.0,11.92777777777778,0.0,179.21140047430555,1.011621630274214,96.08409671941448,1553.0,1435.0,1000.0,1071.0,1471.0,1011.0,242.0,294.13,1649158295.4496562,1649158296.790374,031ad768-ce3c-4da7-921e-5a9fef66e0fd
0.3055538395808603,0.2405992839198332,1.21311623102807,0.0639071087715094,0.9116429393685402,-0.2186715358710294,0.8163280485006321,0.7859019681784807,-8.86424106399964,31.351293677054283,18.26551184995904,-0.3688567207567171,0.8728142110428828,-4.021210156610347,-1.0,11.9365,0.0,179.2072966689792,1.0027415127926,96.07812808271728,1553.0,1435.0,1000.0,1071.0,1471.0,1011.0,242.0,294.13,1649158296.8983324,1649158298.0254714,031ad768-ce3c-4da7-921e-5a9fef66e0fd
0.3130091498853293,0.2518808647248929,1.207080979540364,0.056898853668121,0.9015315927685256,-0.2231026470417766,0.8083073445350583,0.7863358751511936,-8.68565591162972,31.3847538222259,18.23413672694681,-0.3629989227729161,0.9146219242298196,-3.986421123647285,-1.0,11.94611111111111,0.0,179.21415531727078,1.0043364746144876,96.04404449012152,1553.0,1435.0,1000.0,1071.0,1471.0,1011.0,242.0,294.13,1649158298.135196,1649158299.24722,031ad768-ce3c-4da7-921e-5a9fef66e0fd
-0.2389873695775298,-0.0325939134729559,-0.4751845644583484,0.1301212028854101,-0.6024804160275566,0.0774168462544088,-0.8822601371829779,-0.9078727163246642,-20.937447542737832,30.69987714095548,18.004044649956942,0.0526271834353121,-0.1792505021973684,2.719827730461246,-1.0,11.969333333333337,0.0,179.39797847513307,1.050112556585488,96.32884895922282,1553.0,1435.0,1000.0,1613.0,1471.0,1011.0,242.0,294.13,1649158301.3904965,1649158302.7264092,26e380ef-b73f-479e-a6bb-869cd5bd6b3a
-0.2239211535180762,-0.0210066245951392,-0.4499965872045899,0.1319839348229197,-0.5816205506123148,0.0632409081827231,-0.8587294371679469,-0.891299871143237,-20.54726297152334,30.659103518721107,18.032618829825733,0.0177549546096255,-0.1374392568228376,2.6253274478076585,-1.0,11.969888888888889,0.0,179.3890931579328,1.038175698219931,96.24260036602352,1553.0,1435.0,1000.0,1613.0,1471.0,1011.0,242.0,294.13,1649158302.8350904,1649158304.1170497,26e380ef-b73f-479e-a6bb-869cd5bd6b3a
-0.2302352677127874,-0.0235541845584486,-0.4479694960988127,0.1349560879622877,-0.5792921349564054,0.062720438952289,-0.857729587867403,-0.8873278675442204,-20.61407021054244,30.75302529406293,18.003747405848756,0.0105662645193973,-0.1465012597204284,2.6175611581858,-1.0,11.974444444444446,0.0,179.4052989201035,1.0407806920522846,96.15399080410111,1553.0,1435.0,1000.0,1613.0,1471.0,1011.0,242.0,294.13,1649158304.230019,1649158305.40139,26e380ef-b73f-479e-a6bb-869cd5bd6b3a
-0.3240189041624106,-0.0719715208532011,-0.7533897032469647,0.1985892013444172,-0.8554367827832361,0.0670627958873607,-1.186889334157584,-1.2175389706366484,-22.792315344918865,31.563254547543643,17.765695606078218,-0.1341877928300739,-0.337751647465643,3.871162712138631,-1.0,11.947,0.0,179.41680854776484,1.0373558620761176,96.05335176123054,1553.0,1435.0,1000.0,1694.0,1471.0,1011.0,242.0,294.13,1649158307.326352,1649158308.466961,d3f03e7d-9644-40ab-892c-0d4108225508
-0.3271658259587073,-0.0612745081426629,-0.7424319038123901,0.1954811783973745,-0.8459368449324179,0.0609398863572015,-1.1771609346599203,-1.1930352597544225,-22.7895943354496,31.426099814671844,18.059510112879284,-0.1412512344121129,-0.2991796711212286,3.83117527987621,-1.0,11.944333333333333,0.0,179.42431568457263,1.0467203360194208,95.97291869465457,1553.0,1435.0,1000.0,1694.0,1471.0,1011.0,242.0,294.13,1649158308.5752642,1649158309.696102,d3f03e7d-9644-40ab-892c-0d4108225508
-0.3314939392249423,-0.0831753063157763,-0.7595663060154375,0.2003023668302869,-0.8568530076969183,0.0786495365228642,-1.1893371851036056,-1.2147580191515186,-23.03069702942334,31.453960517028804,18.04574341441794,-0.1131227520864048,-0.3811718490676671,3.883928764314355,-1.0,11.949,0.0,179.4436360130049,1.0434750000944106,95.8771139078965,1553.0,1435.0,1000.0,1694.0,1471.0,1011.0,242.0,294.13,1649158309.808252,1649158310.9201984,d3f03e7d-9644-40ab-892c-0d4108225508
-0.4051540447448516,-0.1041584351845575,-1.0131171346843322,0.2726612822183528,-1.0906944951222313,0.0465584997745261,-1.4765268997883698,-1.5095767349703644,-24.723606377856992,32.43266654312376,17.948543482244663,-0.3554644212887974,-0.4719939667669732,4.953316800395164,-1.0,11.899777777777778,0.0,179.4244173785003,1.0060543739124514,95.74946526140803,1553.0,1435.0,1000.0,1774.0,1471.0,1011.0,242.0,294.13,1649158312.856917,1649158313.994547,ad4bee29-891d-4865-a003-58560ac105f8
-0.4191930202711496,-0.1212654379198803,-1.022800607836983,0.2807148581975195,-1.0953513283530196,0.0561734839406128,-1.4829231997755925,-1.5081933812910495,-24.851829718683412,32.44737174693711,17.925420122897133,-0.3524780824278484,-0.5366483517122421,4.979838530737898,-1.0,11.902,0.0,179.4344653456793,0.9953418388135864,95.61825884527192,1553.0,1435.0,1000.0,1774.0,1471.0,1011.0,242.0,294.13,1649158314.1025207,1649158315.226656,ad4bee29-891d-4865-a003-58560ac105f8
-0.421503356177996,-0.1202403874055481,-1.0266460562356357,0.2869747329559245,-1.098345946176232,0.0498117063921845,-1.4879947672776996,-1.5120043145965285,-24.80395627426657,32.399303177299295,17.949246821094924,-0.3813768234212836,-0.5343691216573494,4.996645640567898,-1.0,11.909,0.0,179.43537148410917,1.0098158634384895,95.48476962813318,1553.0,1435.0,1000.0,1774.0,1471.0,1011.0,242.0,294.13,1649158315.3347387,1649158316.6556685,ad4bee29-891d-4865-a003-58560ac105f8
-0.4163490661870097,-0.10586886153032328,-1.019558904256221,0.27741563136706704,-1.0956767588088474,0.043421440012661607,-1.4826958366194154,-1.5091510436335431,-24.662955948417387,32.35258502032334,17.83886084395994,-0.37407704167135863,-0.47886135398150026,4.977422224648747,-1.0,11.652555555555555,0.0,179.42701588602452,1.000824690164043,95.27319313494343,1553.0,1435.0,1000.0,1856.0,1471.0,1011.0,242.0,294.13,1649158317.7693236,1649158318.907387,57057700-25ef-4788-bc8b-271d3bf00fed
-0.40792075022296836,-0.10156923760687249,-1.0084613975239107,0.27202466621722127,-1.085447065879707,0.04233009822823255,-1.4717298119281497,-1.4955815740889338,-24.736692618725655,32.29297214738303,17.663073722467075,-0.3642764736323189,-0.4592890083169432,4.932946561833848,-1.0,11.674666666666667,0.0,179.4223592148304,0.9993264597104792,94.82918530429814,1553.0,1435.0,1000.0,1856.0,1471.0,1011.0,242.0,294.13,1649158319.0157802,1649158320.1376946,57057700-25ef-4788-bc8b-271d3bf00fed
-0.4273019324863458,-0.1291157579730881,-1.0390189875403228,0.2870010303610626,-1.1080102448592863,0.058542440691386324,-1.4981981670057243,-1.5227994063110262,-24.937468409281436,32.39954719450315,17.87141772664267,-0.36251110297800343,-0.5668100055977954,5.039924969586425,-1.0,11.68277777777778,0.0,179.43343778166414,1.0096143847159418,94.5136753403281,1553.0,1435.0,1000.0,1856.0,1471.0,1011.0,242.0,294.13,1649158320.2463713,1649158321.3655977,57057700-25ef-4788-bc8b-271d3bf00fed
