raw_voltage_G-,raw_voltage_G0,raw_voltage_G1,raw_voltage_G2,raw_voltage_G3,raw_voltage_G4,raw_voltage_G5,raw_voltage_G6,load_x,load_y,load_z,load_l,load_m,load_n,rpm,voltage,current,roll,pitch,yaw,aileron1_pwm,elevator_pwm,throttle_pwm,rudder_pwm,aileron2_pwm,pbaro,pdiff,Tt,sample_start_time,sample_end_time,uid
0.0108515712414212,0.1378597583181798,0.1697042560864577,0.0236441571727619,-0.057247719782623,-0.0180344713051249,-0.2018559952163965,-0.2190040887954903,-12.127641801550997,29.68704111549697,19.305906672989625,0.1083605577150826,0.4401373311645472,0.1575001837795725,-1.0,11.99,0.0,179.2941049582355,1.0923068772764617,95.23612285240564,1553.0,1435.0,1000.0,1528.0,1471.0,1011.0,242.0,294.13,1649158015.7951882,1649158016.9324732,e69e912f-f2a6-4206-8a5b-4d7022b98d50
0.0069480519777815,0.1245740968038154,0.1553639597065588,0.0269450278134387,-0.0670681526845674,-0.0071731001291993,-0.2137172161561197,-0.243575717554626,-12.367916304848762,29.692920408133148,19.331794829332864,0.124529655711331,0.3904637742207564,0.2055986684053118,-1.0,11.985444444444443,0.0,179.29964196492267,1.0897196615015956,95.26793768383205,1553.0,1435.0,1000.0,1528.0,1471.0,1011.0,242.0,294.13,1649158017.0412686,1649158018.1628466,e69e912f-f2a6-4206-8a5b-4d7022b98d50
0.0140565660192877,0.1263272562674797,0.1608836726568885,0.0277531247963582,-0.0631783298713161,-0.011597088603545,-0.2092658341425516,-0.2394804462674778,-12.249850537255826,29.76021258591016,19.08996655965115,0.1135073094066684,0.3985984330596675,0.1863718820155378,-1.0,11.987888888888891,0.0,179.29625267327452,1.0734085294333704,95.29543223088098,1553.0,1435.0,1000.0,1528.0,1471.0,1011.0,242.0,294.13,1649158018.2718046,1649158019.3913329,e69e912f-f2a6-4206-8a5b-4d7022b98d50
0.2622814828439002,0.5804141630514992,0.1979317665536832,-0.1648539170057666,-0.1298520849959524,-0.2752503826059731,-0.2790109102596719,-0.3015477790784998,-11.770758445025631,28.7089367729519,19.530070468726727,-0.0492955172436835,2.120453762180696,0.3806284418260721,-1.0,11.964777777777776,0.0,179.0496767729578,1.0732561782693837,95.32954523123568,1616.0,1435.0,1000.0,1528.0,1519.0,1011.0,242.0,294.13,1649158021.322966,1649158022.4678009,327bf522-0fd2-47b8-9f1b-90ac25af4dc6
0.2683561801769183,0.5744052094425679,0.2009428178842034,-0.1621715827485244,-0.1263545315449041,-0.2709244609514669,-0.2734621596713723,-0.2962094076261595,-11.62012717081816,28.72304823874056,19.691062824894765,-0.0452803186634563,2.095284401573822,0.3634830635647359,-1.0,11.962555555555554,0.0,179.02534156785498,1.0721407585744578,95.34917443600035,1616.0,1435.0,1000.0,1528.0,1519.0,1011.0,242.0,294.13,1649158022.577296,1649158023.6881597,327bf522-0fd2-47b8-9f1b-90ac25af4dc6
0.2626490984740928,0.5838607647267517,0.2024116367594145,-0.1728329848893499,-0.1268947238590786,-0.2703524926385937,-0.2719412936515775,-0.2919930583509562,-11.64604337200852,28.61263595277332,19.70677644830404,-0.020614858045579,2.132196531436325,0.3611512711626564,-1.0,11.9675,0.0,179.041808015579,1.072488282986876,95.36644115422216,1616.0,1435.0,1000.0,1528.0,1519.0,1011.0,242.0,294.13,1649158023.7972133,1649158024.9174817,327bf522-0fd2-47b8-9f1b-90ac25af4dc6
0.5536872490212758,1.089167858462756,0.2457749391848546,-0.3930051948487574,-0.2036365480541111,-0.5584733596363841,-0.3484776746969734,-0.3688718544092461,-10.963683722147366,27.79322606139753,20.188932388174496,-0.1742587768422069,4.04814546439238,0.5762442042421813,-1.0,11.92511111111111,0.0,178.50215211307162,1.064484744987141,95.521070565752,1679.0,1435.0,1000.0,1528.0,1567.0,1011.0,242.0,294.13,1649158026.8499668,1649158027.906747,9ce479f4-5d21-43cf-a96f-502919673b83
0.546729397911649,1.0848808358415194,0.2480622643732859,-0.3989221093205605,-0.2028147544088099,-0.5487624967497977,-0.3422731325696307,-0.3693512338644559,-10.745681992810946,27.83294767612481,20.22874527845101,-0.138596766094458,4.031044876473353,0.5627947633021874,-1.0,11.927666666666664,0.0,178.5073673419579,1.0747299220204545,95.61096344432843,1679.0,1435.0,1000.0,1528.0,1567.0,1011.0,242.0,294.13,1649158028.037006,1649158029.2164354,9ce479f4-5d21-43cf-a96f-502919673b83
0.5514957998488129,1.0865655124473876,0.2417618477585218,-0.3836093537853193,-0.2074852813464651,-0.5652394615342957,-0.3541891405633247,-0.3838969819862733,-10.822452437067271,27.885489034057816,20.05533265132928,-0.2101962337829758,4.037159902380915,0.5947284827424685,-1.0,11.930777777777775,0.0,178.5235548902908,1.0905182007361216,95.70220945927046,1679.0,1435.0,1000.0,1528.0,1567.0,1011.0,242.0,294.13,1649158029.3245156,1649158030.4552,9ce479f4-5d21-43cf-a96f-502919673b83
0.7956845972722154,1.532406034192783,0.2774024826982513,-0.5790247779969128,-0.2782351370643709,-0.8160169718996376,-0.4218978170994042,-0.4407136058000918,-10.02354025795227,27.08965438070974,20.807013178786,-0.3358965080892491,5.72332204889262,0.79309179513441,-1.0,11.884666666666666,0.0,178.35921598540085,1.0724161480072434,95.84319518847822,1745.0,1435.0,1000.0,1528.0,1614.0,1011.0,242.0,294.13,1649158032.3840904,1649158033.5194194,eb0d82e7-3e37-4144-9d01-2b5a143085e3
0.7925946539507721,1.5295133207210718,0.2748516357719669,-0.574685706964304,-0.2795368581633163,-0.8152543471695388,-0.4232389843971225,-0.4523896509987586,-9.95062491013853,27.03832059299668,21.065593239568173,-0.3443600598063479,5.708967935958842,0.8003761988679656,-1.0,11.883111111111113,0.0,178.35187125531334,1.071622672124758,95.87436741294025,1745.0,1435.0,1000.0,1528.0,1614.0,1011.0,242.0,294.13,1649158033.6399765,1649158034.9520028,eb0d82e7-3e37-4144-9d01-2b5a143085e3
0.7995897597143852,1.5327741977364926,0.2809263330641008,-0.5858621022207702,-0.2743431224791103,-0.8058004300775196,-0.4141269360460456,-0.4452367588280083,-9.991157439236211,26.92577286122459,21.460509676215707,-0.29830570054883,5.719744200381034,0.7729194585916672,-1.0,11.884666666666668,0.0,178.36712382663993,1.0661553072796073,95.91029724361417,1745.0,1435.0,1000.0,1528.0,1614.0,1011.0,242.0,294.13,1649158035.061076,1649158036.179237,eb0d82e7-3e37-4144-9d01-2b5a143085e3
1.057409375893978,1.985746885784624,0.32590802007685,-0.758123235883701,-0.3400997622361509,-1.0931390585521974,-0.4854586294078436,-0.5024336011349736,-8.9665940364358,26.60619810999442,21.05496083880764,-0.5548426711225105,7.439065158811146,0.9563035313977528,-1.0,11.833375,0.0,178.14606968706684,1.0554104488441038,96.00010512428094,1813.0,1435.0,1000.0,1528.0,1662.0,1011.0,242.0,294.13,1649158038.3199644,1649158039.459962,1ca79bdf-1282-4fd6-bb6d-7774221c4439
1.0521186695273963,1.990908298853432,0.3275844787230873,-0.7769609430407911,-0.3407528142856746,-1.0804083722428972,-0.4788004567546858,-0.4971949398998673,-8.864761494563675,26.436462500662447,21.15124599041552,-0.4847169801701255,7.459272202251135,0.946164034085708,-1.0,11.836333333333334,0.0,178.15385951781525,1.0573748619422096,95.94606239083804,1813.0,1435.0,1000.0,1528.0,1662.0,1011.0,242.0,294.13,1649158039.569209,1649158040.7036602,1ca79bdf-1282-4fd6-bb6d-7774221c4439
1.0458867357049744,1.985580335589243,0.3174353294829545,-0.7611551074146586,-0.3482174400068645,-1.0895713764004882,-0.4942090890425542,-0.5203421304681889,-9.095749464427422,26.63021766132864,21.076126564318823,-0.5403107481335653,7.439003605625783,0.9912510384438776,-1.0,11.832444444444445,0.0,178.14569061156791,1.0577846258605412,95.94585976189268,1813.0,1435.0,1000.0,1528.0,1662.0,1011.0,242.0,294.13,1649158040.812041,1649158042.1261642,1ca79bdf-1282-4fd6-bb6d-7774221c4439
-0.2495315294882332,-0.3517232117043242,0.1360145579557422,0.2231246674729048,0.0201482475095793,0.2764820740110083,-0.1156383434519736,-0.1411599648851062,-12.49665142406534,30.6921870943861,19.284848872627304,0.3249960066021062,-1.419977097314663,-0.0829395342477818,-1.0,11.973999999999998,0.0,178.7392993166941,1.057521616145627,95.91995664892036,1491.0,1435.0,1000.0,1528.0,1420.0,1011.0,242.0,294.13,1649158042.8441565,1649158043.9281237,b7bab11b-3846-44a7-a0da-591d5180e719
-0.2658052346566574,-0.3770350043822507,0.1208486329217167,0.2337904510607763,0.0108789644164442,0.2866043780728926,-0.1274288896951707,-0.1419061534186776,-12.621243408239616,30.82415953565669,18.49010893097824,0.3236130776077042,-1.5092585046712823,-0.0370858004031373,-1.0,11.976,0.0,179.50013078435978,1.0700813261020587,95.77308557337776,1491.0,1435.0,1000.0,1528.0,1420.0,1011.0,242.0,294.13,1649158044.0368354,1649158045.1909907,b7bab11b-3846-44a7-a0da-591d5180e719
-0.2587093206353814,-0.3723140737026283,0.1279675560833925,0.2345114378671946,0.0161510438441164,0.2818467417622521,-0.1217261901505125,-0.1435398789084529,-12.522328574415564,30.8625225955229,18.614032195600345,0.3119739974728168,-1.492987384493898,-0.0612841019055039,-1.0,11.974000000000002,0.0,179.51133229459862,1.070363569439949,95.63784555108178,1491.0,1435.0,1000.0,1528.0,1420.0,1011.0,242.0,294.13,1649158045.2995713,1649158046.4185684,b7bab11b-3846-44a7-a0da-591d5180e719
-0.4367821445490705,-0.6984675763887226,0.1143323583392938,0.3927822842673658,0.0745575526959044,0.4473625179018816,-0.0661597969003641,-0.0926149750864237,-12.612250381755466,31.96755676390884,17.58115545296959,0.3333263459053423,-2.726802701266564,-0.2414143737661713,-1.0,11.924666666666669,0.0,179.60822080470496,1.0554750139938556,95.4291840308478,1428.0,1435.0,1000.0,1528.0,1368.0,1011.0,242.0,294.13,1649158048.3553178,1649158049.492766,45bb748f-9290-4fd0-911a-61b3aa200866
-0.4417786502644658,-0.6970688832912026,0.1103570692631066,0.3800833839852886,0.0714862364415382,0.4596055966348198,-0.0683693258005301,-0.0853530594300067,-12.958777486368922,31.882381218660683,17.832994487052527,0.3885869161724898,-2.7200261113178,-0.2284607585284671,-1.0,11.919888888888888,0.0,179.62007345964463,1.0639626386865235,95.2675119353738,1428.0,1435.0,1000.0,1528.0,1368.0,1011.0,242.0,294.13,1649158049.6008766,1649158050.7231014,45bb748f-9290-4fd0-911a-61b3aa200866
-0.4403679043946243,-0.6874675919867714,0.1148632369564854,0.3805353703888799,0.0726093542387699,0.4500043098946816,-0.0658080692259853,-0.0951460993189276,-12.674653071902137,31.88324595823286,17.890274478452998,0.3663742335789976,-2.6863040327998284,-0.2383347229844351,-1.0,11.924666666666669,0.0,179.6152968806851,1.067446331612413,95.11271556366428,1428.0,1435.0,1000.0,1528.0,1368.0,1011.0,242.0,294.13,1649158050.8355496,1649158051.950689,45bb748f-9290-4fd0-911a-61b3aa200866
-0.7725210647914946,-1.2952872789271297,0.0783312285116242,0.6705221696833721,0.1731201776938916,0.7824307126765142,0.029602160236481,0.0141261444869047,-13.277571753547177,33.885663150125445,18.650145925789666,0.4705144242511124,-5.006450378063001,-0.5324561331952344,-1.0,11.899222222222225,0.0,179.80527935135888,1.0754779818881457,94.8200503057382,1364.0,1435.0,1000.0,1528.0,1312.0,1011.0,242.0,294.13,1649158052.8606691,1649158053.9985306,9537ec19-4718-4ff3-83cf-e86dbd47c190
-0.771534912080837,-1.2901987289002173,0.0832356921681141,0.6661436542606874,0.1765782846854178,0.7793539180490991,0.0342042039528346,0.0179787126317723,-13.226363515735123,33.83165770909041,18.385507891744734,0.4733471069970567,-4.984533090836652,-0.5501418022251054,-1.0,11.899,0.0,179.83343642675734,1.071727034095045,94.62560013243728,1364.0,1435.0,1000.0,1528.0,1312.0,1011.0,242.0,294.13,1649158054.1074953,1649158055.2340062,9537ec19-4718-4ff3-83cf-e86dbd47c190
-0.7863534995436231,-1.303847088118861,0.0752149874966792,0.6756238633312686,0.1719893898452823,0.7852050873331312,0.0274457740045511,0.0038044175715667,-13.30797372779272,33.94021006642823,18.49938243978669,0.465407737547202,-5.037828231847664,-0.5248452373818714,-1.0,11.899666666666668,0.0,179.83157102620402,1.0770411702866285,94.4663603432177,1364.0,1435.0,1000.0,1528.0,1312.0,1011.0,242.0,294.13,1649158055.3534396,1649158056.455651,9537ec19-4718-4ff3-83cf-e86dbd47c190
-0.9125706379989496,-1.555624616980734,0.0676922897134522,0.776174125308863,0.2151220425831621,0.904278026449424,0.0714040570754581,0.0493799907044157,-13.337775920181867,34.97084827069745,13.649933261717726,0.5118333876957583,-5.951794875629479,-0.6727934611269631,-1.0,11.749,0.0,179.898886335024,1.0647397268581875,94.10931751672464,1297.0,1435.0,1000.0,1528.0,1253.0,1011.0,242.0,294.13,1649158058.391791,1649158059.528415,87272c88-44ef-456a-94c9-dd1b16713938
-0.9144607641534892,-1.557706496370814,0.0766635355263939,0.7735580828710912,0.2249835642925401,0.9091813940398052,0.0823202141747495,0.0590771542197511,-13.423900789961415,34.9054271469677,13.7922785872287,0.5287454214011429,-5.95936551102173,-0.7141037464829537,-1.0,11.755000000000004,0.0,179.91292009703864,1.0751160648679066,93.76319085034508,1297.0,1435.0,1000.0,1528.0,1253.0,1011.0,242.0,294.13,1649158059.6372092,1649158060.766277,87272c88-44ef-456a-94c9-dd1b16713938
-0.9245140437685117,-1.5568710053086068,0.0674046619733321,0.7749688282606576,0.2157246911271075,0.9055518062812,0.070623353233319,0.0550366694063907,-13.5088817924034,34.98094373573874,13.496394255027072,0.5173565926696079,-5.953767397001289,-0.6726124023561821,-1.0,11.759333333333332,0.0,179.90526117824936,1.0706687935184835,93.44576919231731,1297.0,1435.0,1000.0,1528.0,1253.0,1011.0,242.0,294.13,1649158060.8781526,1649158062.0933297,87272c88-44ef-456a-94c9-dd1b16713938
0.0264382551473279,0.1429411814158221,0.1654583230853689,0.0250001165013793,-0.0596857072908811,-0.0287040907257056,-0.2089782063665248,-0.2361521819326695,-12.341801200200946,29.52559080112376,18.634151929815783,0.0798292094785473,0.4662264149582183,0.1763447825367076,-1.0,11.988666666666669,0.0,179.2858996243126,1.056135360477362,93.11562744532532,1553.0,1435.0,1000.0,1528.0,1471.0,1011.0,242.0,294.13,1649158063.3057096,1649158064.444404,9a8c8a8d-12a4-42c4-9089-bf7e8f8cea7a
0.0081122595100003,0.1399279386247025,0.1597057686365114,0.0290132081966818,-0.0636714060276684,-0.0289643253391191,-0.2154840724373904,-0.2361658784103595,-12.468127639048364,29.53838678994952,18.65608693991597,0.0699301703090453,0.4547660587439666,0.198485707345392,-1.0,11.991888888888887,0.0,179.28546552784536,1.0705132525612908,93.46574521890992,1553.0,1435.0,1000.0,1528.0,1471.0,1011.0,242.0,294.13,1649158064.5525334,1649158065.671888,9a8c8a8d-12a4-42c4-9089-bf7e8f8cea7a
0.0188229684668783,0.1342575634866508,0.1641434534984671,0.0283420768080118,-0.0586995550345347,-0.0233076464884074,-0.2089645098235971,-0.234535987891203,-12.455332636928196,29.56875379243812,18.624320009048887,0.0845790414165135,0.4340541652444667,0.1756420252794433,-1.0,11.987777777777778,0.0,179.3012174618912,1.0744681336761726,93.7359163871694,1553.0,1435.0,1000.0,1528.0,1471.0,1011.0,242.0,294.13,1649158065.7795477,1649158066.9009154,9a8c8a8d-12a4-42c4-9089-bf7e8f8cea7a
0.0301363259696056,0.1207664535981742,0.1309703895115319,-0.4754721922313898,-0.1420294221550938,0.473945892224538,-0.0997892327746837,-0.1223063769496178,-12.107633307487284,28.52912724722608,21.783340679972884,2.330590675098974,0.4129047431385124,0.1779919627348571,-1.0,11.978444444444444,0.0,179.29620713868007,1.2679833181127298,94.30822021445448,1553.0,1512.3333333333333,1000.0,1528.0,1471.0,1011.0,242.0,294.13,1649158068.834378,1649158069.979662,9e632240-4ba0-410e-a982-802b2c7bf5da
0.0464489273164761,0.1340932048108772,0.1396677039932811,-0.4807042788271132,-0.1367151570433463,0.4651116127198591,-0.0934203326909559,-0.1226487906507355,-12.002658306095748,28.465235134511094,21.75708633859502,2.3225993512805263,0.4635723287343112,0.1514596553117657,-1.0,11.975666666666667,0.0,179.2934492600752,1.2651389356363407,94.39734659402409,1553.0,1522.0,1000.0,1528.0,1471.0,1011.0,242.0,294.13,1649158070.0870578,1649158071.2008164,9e632240-4ba0-410e-a982-802b2c7bf5da
0.051653619586006,0.1385582827764433,0.1450915410655095,-0.4868677318503231,-0.1336334311272399,0.4694260282868871,-0.0852571833375762,-0.1144171583879308,-11.748616113498768,28.388607450558933,22.237117226945127,2.346164153864738,0.4753679317920681,0.1296187425487882,-1.0,11.977777777777778,0.0,179.27490605538853,1.268155033337332,94.48400272184384,1553.0,1522.0,1000.0,1528.0,1471.0,1011.0,242.0,294.13,1649158071.3092177,1649158072.63463,9e632240-4ba0-410e-a982-802b2c7bf5da
0.0665762940723353,0.1251405864452997,0.1055753267921297,-1.1079050552210874,-0.2379606754027289,1.0775926234589683,0.0440525774649446,0.0212790353623705,-11.564821546147996,27.51003291065815,25.88021747390303,5.106585171791647,0.4653968241630994,0.1400301547363036,-1.0,11.96,0.0,179.3053201288527,1.444225890917742,94.69399537005609,1553.0,1613.0,1000.0,1528.0,1471.0,1011.0,242.0,294.13,1649158074.7754638,1649158075.9076746,15da54bd-7729-4196-9abf-089d82cb3dce
0.0622766704651798,0.1158181610033862,0.1019068406117402,-1.095887138107713,-0.2386838537516772,1.0749497356401627,0.040988931246317,0.0190832030205677,-11.49831068190018,27.512538169734995,25.752964545703403,5.073383909944685,0.4293769699117106,0.1492210448910212,-1.0,11.956555555555555,0.0,179.30759230511657,1.486802230848036,94.6170168613803,1553.0,1613.0,1000.0,1528.0,1471.0,1011.0,242.0,294.13,1649158076.0157993,1649158077.140303,15da54bd-7729-4196-9abf-089d82cb3dce
0.0709022150970146,0.126074143849621,0.1026168701843641,-1.106708522919096,-0.2398409391634051,1.0758044008667949,0.0426062208890537,0.0220679571134592,-11.465047647143075,27.336029397438068,25.89726650084492,5.098619852791613,0.4677031317061147,0.1489718341057764,-1.0,11.954555555555554,0.0,179.29884207387988,1.4890923837903671,94.59073808800365,1553.0,1613.0,1000.0,1528.0,1471.0,1011.0,242.0,294.13,1649158077.2483375,1649158078.2998936,15da54bd-7729-4196-9abf-089d82cb3dce
0.0706233532192936,0.094263613159045,0.0677744690681533,-1.6830164714381308,-0.3350139552616527,1.6618483919618068,0.1663896890037918,0.1496798878979428,-11.449520243527402,27.04403694448995,29.67928822744658,7.712488606291688,0.383506507980256,0.1464163735866223,-1.0,11.899,0.0,179.29977401524664,1.6696382485057362,94.472809559614,1553.0,1710.0,1000.0,1528.0,1471.0,1011.0,242.0,294.13,1649158080.3059244,1649158081.4410944,53c90769-931d-4054-96ff-030266147839
0.0825256625353932,0.1073635494640923,0.0731900883079646,-1.6833714864134215,-0.3318292309449534,1.6481408737939114,0.1692281637304563,0.1375661037572938,-11.288949932242426,26.89815860672693,29.54163299257427,7.681848310036528,0.433107348825036,0.1322151876941082,-1.0,11.902,0.0,179.26334178621377,1.7090597525175224,94.26376175423697,1553.0,1710.0,1000.0,1528.0,1471.0,1011.0,242.0,294.13,1649158081.549075,1649158082.8751495,53c90769-931d-4054-96ff-030266147839
0.0826352349946481,0.1039881696223036,0.0714725398817072,-1.6758394647476795,-0.3323294293234808,1.644549635528861,0.164609136468012,0.1405442832675656,-11.45775102557802,27.04069321720284,29.5217325802884,7.657559136919936,0.420784912498763,0.1412672010388816,-1.0,11.898,0.0,179.28792439594656,1.7027030994140293,94.10442558345908,1553.0,1710.0,1000.0,1528.0,1471.0,1011.0,242.0,294.13,1649158082.9835148,1649158084.108529,53c90769-931d-4054-96ff-030266147839
0.0920847645904094,0.0933733368694161,0.0558601066623379,-2.096359562680207,-0.4031609211860359,2.057709730344506,0.2505922924747377,0.229357148858138,-11.472639800565736,27.7964587604173,31.989509800514647,9.539193898421528,0.4100044648820375,0.1347904597137287,-1.0,11.831666666666663,0.0,179.29904849737477,1.8731346516233072,93.79236714174964,1553.0,1814.0,1000.0,1528.0,1471.0,1011.0,242.0,294.13,1649158085.7379544,1649158086.9675825,bea0c1f6-5a60-4020-a3f5-244ea9cfe0ad
0.0900450731388752,0.094167737229343,0.0618712522069103,-2.0762042141025945,-0.3965936940713038,2.04002417809267,0.2511713829675874,0.2282433448096691,-11.385555077202154,27.92636726344124,32.24764096150915,9.4552320507051,0.4079814979148778,0.1174718057614926,-1.0,11.843666666666666,0.0,179.28229328443084,1.8476654691066952,93.55015952686207,1553.0,1814.0,1000.0,1528.0,1471.0,1011.0,242.0,294.13,1649158087.0827491,1649158088.1997137,bea0c1f6-5a60-4020-a3f5-244ea9cfe0ad
0.1043393493602861,0.1064694381396358,0.0732295343416515,-2.092073077205085,-0.3899727762322102,2.043574875106895,0.263938218470722,0.2432684689927253,-11.227451595510306,27.8547304680777,32.481355427265555,9.499214726609798,0.4536025690219132,0.0766130016788705,-1.0,11.846375,0.0,179.28377429711588,1.852737397422516,93.36608621332148,1553.0,1814.0,1000.0,1528.0,1471.0,1011.0,242.0,294.13,1649158088.3082151,1649158089.424914,bea0c1f6-5a60-4020-a3f5-244ea9cfe0ad
-0.0203902795129719,0.1364490128207402,0.2053016105103392,0.682804694367599,0.0437507053366697,-0.6519387059037811,-0.3532577743853973,-0.3774459018882166,-12.844439048079757,31.650307056267,14.819210957502987,-2.7893003593738563,0.4008181708370464,0.1849511967278803,-1.0,11.983444444444444,0.0,179.26078122418494,0.9281159390670825,93.09795243357316,1553.0,1349.0,1000.0,1528.0,1471.0,1011.0,242.0,294.13,1649158091.3631809,1649158092.4193757,8eb95169-1c8e-4851-ba5f-6dee73e5b191
-0.004146160621685,0.1457215827366506,0.2131908279046465,0.6699710202197967,0.0496813152111449,-0.6478297368255692,-0.3442317407518359,-0.3747613757823803,-12.91082862967231,31.51623942217544,15.08185529490909,-2.751604804593993,0.4358159852934848,0.1546569590205035,-1.0,11.988,0.0,179.26828532535305,0.9173944749188334,93.50146331371954,1553.0,1349.0,1000.0,1528.0,1471.0,1011.0,242.0,294.13,1649158092.5297968,1649158093.7290716,8eb95169-1c8e-4851-ba5f-6dee73e5b191
0.0093794651888954,0.1469674216796371,0.2097392953077862,0.6656834499367599,0.0453674471227009,-0.6436243439880539,-0.3454118364044083,-0.3712753268779885,-12.753862125807691,31.448012376067226,15.273989287358118,-2.7329975256792114,0.437982715563453,0.167439539909327,-1.0,11.98857142857143,0.0,179.27952348009882,0.9168965470135592,93.87433461574346,1553.0,1349.0,1000.0,1528.0,1471.0,1011.0,242.0,294.13,1649158093.8370593,1649158094.954819,8eb95169-1c8e-4851-ba5f-6dee73e5b191
-0.0289226879013612,0.1732385159415908,0.253169436886062,1.2285659487740102,0.1347259858011319,-1.2127791380921764,-0.4766752981392612,-0.4960170354827966,-13.40437200013148,33.634126534418385,11.34880317682961,-5.265987954689987,0.50939569711533,0.1746470605224603,-1.0,11.950777777777777,0.0,179.2854321358094,0.7136203404199334,94.51714279969674,1553.0,1264.0,1000.0,1528.0,1471.0,1011.0,242.0,294.13,1649158096.8936305,1649158098.032168,17dfd096-262d-4303-bfa3-c075f53e50ae
-0.0258278133585827,0.1604042931099475,0.2459119047862985,1.2327214845857457,0.1314223759301079,-1.2023900159036491,-0.4800879335659614,-0.5116722065686291,-13.481395544376497,33.5902246529112,11.541742107665549,-5.252676504264741,0.459122230403921,0.1926181483611499,-1.0,11.949111111111112,0.0,179.27633735947458,0.7022810998908179,94.74170575922842,1553.0,1264.0,1000.0,1528.0,1471.0,1011.0,242.0,294.13,1649158098.1412604,1649158099.264573,17dfd096-262d-4303-bfa3-c075f53e50ae
-0.0294749331350754,0.159853143618332,0.2524988534060761,1.2267777261137274,0.1372505354021315,-1.197013838353153,-0.4708898703946009,-0.497844704464449,-13.40556661286622,33.541103409662085,11.512150544630508,-5.227152043890709,0.4579292036969351,0.1625178147292063,-1.0,11.941222222222224,0.0,179.27989057566282,0.7096809220944227,94.93137024665089,1553.0,1264.0,1000.0,1528.0,1471.0,1011.0,242.0,294.13,1649158099.3739092,1649158100.4230964,17dfd096-262d-4303-bfa3-c075f53e50ae
-0.0506048886555424,0.1814422063817078,0.3047249239608176,1.8055801075169604,0.233187802518572,-1.7680311300690297,-0.6011792424414009,-0.6243127384125703,-14.270468895972462,36.407216481290526,8.783878870981473,-7.795210459498328,0.5012999838250104,0.148220342862271,-1.0,11.919333333333334,0.0,179.26960279295295,0.4980910827624549,95.24562421472352,1553.0,1178.0,1000.0,1528.0,1471.0,1011.0,242.0,294.13,1649158102.4278686,1649158103.559356,9279b772-850a-4580-8d27-e53e0d2d2c86
-0.0525498000744113,0.1778400115792747,0.3011638189510683,1.8380957460412783,0.2318318432861293,-1.7944655271287662,-0.6145881777137426,-0.6302159568889748,-14.312007755754149,36.71483764100111,8.711949361487308,-7.926129830408239,0.4844971653848997,0.1736053346518103,-1.0,11.928333333333333,0.0,179.28974881536487,0.477347163851875,95.43935266470214,1553.0,1178.0,1000.0,1528.0,1471.0,1011.0,242.0,294.13,1649158103.6683524,1649158104.79131,9279b772-850a-4580-8d27-e53e0d2d2c86
-0.0474135904464129,0.1832775451732291,0.3019582192899077,1.8322473139047064,0.2312154981631219,-1.794136809181173,-0.6143416395898127,-0.6455150181277829,-14.349193021889192,36.69750347863138,8.754874361986477,-7.912285757308685,0.5055441012760263,0.1736592602925983,-1.0,11.922666666666666,0.0,179.28984292019342,0.4663849177484325,95.57365998672148,1553.0,1178.0,1000.0,1528.0,1471.0,1011.0,242.0,294.13,1649158104.8998244,1649158106.016177,9279b772-850a-4580-8d27-e53e0d2d2c86
-0.0592748105675702,0.1886739890430601,0.3185584471561827,2.09356404762621,0.2612931391994892,-2.0471948476886666,-0.6880291514554262,-0.7136691197183144,-14.886769764545724,38.89187224444456,7.4973783581963955,-9.055505225392782,0.5096499360381548,0.2148738866139021,-1.0,11.82511111111111,0.0,179.2696938621419,0.3564992483781398,95.74141474510633,1553.0,1088.0,1000.0,1528.0,1471.0,1011.0,242.0,294.13,1649158106.927892,1649158108.0679348,b45ea142-f0fc-419b-8ed1-f6b38d043949
-0.0689856710316577,0.1873591194841053,0.3094913259786723,2.1003986352237187,0.2550064191302714,-2.051550364139143,-0.6973976010241065,-0.7143676442593764,-14.933625276370485,38.75665757643787,7.520623714949097,-9.08207752444964,0.5034254002356254,0.2490911267857884,-1.0,11.832666666666666,0.0,179.27176872182977,0.3579554186216584,95.76314461249576,1553.0,1088.0,1000.0,1528.0,1471.0,1011.0,242.0,294.13,1649158108.1769717,1649158109.293849,b45ea142-f0fc-419b-8ed1-f6b38d043949
-0.0516567844445913,0.1941449422075078,0.3125489455564328,2.060825971258644,0.2541424403230194,-2.023686579749136,-0.6843064251564163,-0.7107879104504689,-14.863826807665662,38.45866071790057,7.312141557686699,-8.932018952571994,0.5352911417820096,0.2278121579601767,-1.0,11.83311111111111,0.0,179.2687968306309,0.3523301175099182,95.78061471857283,1553.0,1088.0,1000.0,1528.0,1471.0,1011.0,242.0,294.13,1649158109.4024704,1649158110.4715576,b45ea142-f0fc-419b-8ed1-f6b38d043949
0.0234113156220716,0.1399964213910411,0.1722929055698888,0.0086875150094669,-0.0564670159194949,-0.0064608790483905,-0.1986373036556104,-0.22086682080293,-12.381396020357933,29.7818223986651,19.3134728745818,0.1687371718945075,0.451887264478408,0.1482472019857946,-1.0,11.989444444444445,0.0,179.2642813166796,1.0067461795832289,95.81271508985208,1553.0,1435.0,1000.0,1528.0,1471.0,1011.0,242.0,294.13,1649158111.4344597,1649158112.5740726,fa831251-92fc-4fbf-907e-8550db987342
0.0239591780082963,0.1435164368724701,0.1707999807433108,0.0157412427953325,-0.0585351963339903,-0.015637573493112,-0.2034584927142821,-0.2285642879924304,-12.340273988407864,29.84897492061205,19.3972142547598,0.1326093056090615,0.463094243833862,0.1605705821050057,-1.0,11.991444444444443,0.0,179.25198394053393,1.039809417807968,95.82737647036046,1553.0,1435.0,1000.0,1528.0,1471.0,1011.0,242.0,294.13,1649158112.6827571,1649158113.8047764,fa831251-92fc-4fbf-907e-8550db987342
0.0196173688712418,0.1424344087709756,0.1791548811955038,0.0199323897805039,-0.0494680741986336,-0.0187056027021495,-0.1953227361060133,-0.2159908458359107,-12.344344392221586,29.82720988951304,19.42275434862119,0.1165345911079564,0.4588516958114406,0.1251965322217422,-1.0,11.988666666666669,0.0,179.25481771012957,1.037754645516721,95.81871123703344,1553.0,1435.0,1000.0,1528.0,1471.0,1011.0,242.0,294.13,1649158113.9125652,1649158115.0309708,fa831251-92fc-4fbf-907e-8550db987342
0.1194734984702956,0.1914231621627319,0.4672170475088254,-0.0179698235634219,0.2071621509362036,-0.0491979780716284,0.1053780963333462,0.0819339711363309,-9.959249081329896,29.521850976425505,19.207956411712843,0.1469979272296272,0.6505349366833286,-1.0380518277025723,-1.0,11.991444444444443,0.0,179.21536957312324,1.043922555354556,95.75498481316733,1553.0,1435.0,1000.0,1435.0,1471.0,1011.0,242.0,294.13,1649158115.9393933,1649158117.085605,0fd3f0dd-70f0-435d-8987-3696f2d0bd94
0.0960425221258632,0.1671243724146126,0.4283232073509437,-0.0059387662229909,0.179089685582308,-0.0367198649053404,0.0688904646675301,0.0544926420366026,-10.535740543120935,29.44224649874871,18.886167665931463,0.1450929485040381,0.5623836791894751,-0.8985079211042967,-1.0,11.991666666666667,0.0,179.22712812323437,1.036152574843432,95.76593208858704,1553.0,1435.0,1000.0,1435.0,1471.0,1011.0,242.0,294.13,1649158117.1982334,1649158118.3127432,0fd3f0dd-70f0-435d-8987-3696f2d0bd94
0.1224845498540388,0.1835076473646086,0.4374484017782361,-0.0181802027007748,0.1818640603856265,-0.0412167191755934,0.076148544947615,0.0534801926036343,-10.309766943912654,29.479109515209974,18.987833239239,0.1634302966390058,0.6234167728904767,-0.9228979904444208,-1.0,11.989444444444445,0.0,179.21676293171387,1.0507558868859057,95.77429072231132,1553.0,1435.0,1000.0,1435.0,1471.0,1011.0,242.0,294.13,1649158118.4211757,1649158119.7423122,0fd3f0dd-70f0-435d-8987-3696f2d0bd94
0.2347766031846783,0.2523081973251429,0.8372607710076828,-0.053522255737869,0.5391552017296068,-0.095652871835035,0.4819309851707196,0.4588248927491978,-7.636707539920375,29.53301028052773,19.29261200663301,0.1424874409228118,0.8895384113353852,-2.521985376694462,-1.0,11.967444444444444,0.0,179.17500922640772,1.0506141841765628,95.7316460567734,1553.0,1435.0,1000.0,1330.0,1471.0,1011.0,242.0,294.13,1649158120.856135,1649158121.9893596,a01b7118-aa03-47fa-b171-982cecf3bf9c
0.2244904881882018,0.2388992671597886,0.8305631544529146,-0.0499200607165171,0.5342792273296119,-0.0867227151928509,0.4775069971426743,0.4580441890411444,-7.637790632910917,29.6816542218781,19.12142029279703,0.1550530737526958,0.8399061247805588,-2.5018098303886385,-1.0,11.973666666666666,0.0,179.17600643402653,1.0530330790699685,95.74007451020918,1553.0,1435.0,1000.0,1330.0,1471.0,1011.0,242.0,294.13,1649158122.098424,1649158123.2236168,a01b7118-aa03-47fa-b171-982cecf3bf9c
0.2326536366849244,0.2442546212849328,0.8293578574296211,-0.0477833974558894,0.5329095715810478,-0.0919411042811414,0.4746581131833089,0.456592353939274,-7.644320632290136,29.62617161795353,19.3901628845724,0.1381186033282269,0.8573158983643934,-2.4931811783884767,-1.0,11.966333333333331,0.0,179.17852449710057,1.0570385462733904,95.71872182104391,1553.0,1435.0,1000.0,1330.0,1471.0,1011.0,242.0,294.13,1649158123.333253,1649158124.4494123,a01b7118-aa03-47fa-b171-982cecf3bf9c
0.3566348774243991,0.2938224640135038,1.2262156193649316,-0.0389491168448868,0.8907595242296118,-0.1727371089323419,0.8683108666099034,0.8407533932116861,-4.849072228674536,30.226405960807785,18.98677354550981,-0.0382861325706566,1.0510977505520696,-4.074809543119723,-1.0,11.945444444444442,0.0,179.10023079755462,1.0502766945689797,95.63919109834828,1553.0,1435.0,1000.0,1210.0,1471.0,1011.0,242.0,294.13,1649158125.3600266,1649158126.500924,61b37d4b-2b21-4402-a7a2-bb846530f18b
0.37100804494931,0.3070133448239713,1.236218489955309,-0.0376008276669606,0.8981260807030867,-0.1841825022343064,0.8736300616570396,0.8519478634497523,-4.872511906880437,30.249186350939866,19.4321490775859,-0.0663385829562245,1.0972586334964065,-4.103841132055545,-1.0,11.94025,0.0,179.0992464914042,1.0466618302909638,95.62086228571056,1553.0,1435.0,1000.0,1210.0,1471.0,1011.0,242.0,294.13,1649158126.6093204,1649158127.95424,61b37d4b-2b21-4402-a7a2-bb846530f18b
0.3521791133052766,0.2975462841278331,1.218217924970742,-0.0310922227682517,0.882768404749344,-0.1813292348540214,0.8558004310736241,0.83296114776708,-4.931943048459214,30.32948396054768,19.232625549184764,-0.0750344549439434,1.0619992843568904,-4.034445450619341,-1.0,11.945,0.0,179.08909455356786,1.0405859723711028,95.5851551950946,1553.0,1435.0,1000.0,1210.0,1471.0,1011.0,242.0,294.13,1649158128.0621288,1649158129.171506,61b37d4b-2b21-4402-a7a2-bb846530f18b
0.4490455508515693,0.3408153534220788,1.5311695090741526,0.0382583852679202,1.16848462627529,-0.3050595769871466,1.1402149303240046,1.1196974866995255,-3.278987380325953,31.496823407885785,19.02582852930591,-0.4853906102766969,1.2257389392301308,-5.248905557640113,-1.0,11.928555555555556,0.0,179.04821966593488,1.023414414336966,95.50976660267564,1553.0,1435.0,1000.0,1071.0,1471.0,1011.0,242.0,294.13,1649158130.275302,1649158131.421216,46f3d69b-aab2-45e7-8bdf-fddec50c6c8b
0.4482374539648358,0.3548132352921098,1.5488380714983612,0.0331495688929403,1.180167790408485,-0.315920949549008,1.1579519730640646,1.1308053949611512,-2.7179381673103493,31.41508251600489,18.89717547349585,-0.497673510538618,1.277156498279572,-5.312263014646429,-1.0,11.921,0.0,179.02872478822388,1.0088521308613814,95.4666058784004,1553.0,1435.0,1000.0,1071.0,1471.0,1011.0,242.0,294.13,1649158131.5300744,1649158132.6831686,46f3d69b-aab2-45e7-8bdf-fddec50c6c8b
0.4399647332720939,0.336035254783612,1.5211299306682091,0.043052180822378,1.1586504975235117,-0.3053609013221423,1.1306547327965335,1.1062474664219282,-3.1020767146968287,31.56460488009687,18.86757751133898,-0.4968681007885399,1.2067355825924653,-5.20887804399637,-1.0,11.924111111111111,0.0,179.02249262006114,1.0163155710595992,95.4146190318977,1553.0,1435.0,1000.0,1071.0,1471.0,1011.0,242.0,294.13,1649158132.7915485,1649158133.7361772,46f3d69b-aab2-45e7-8bdf-fddec50c6c8b
-0.0935353838575187,0.0859443235703577,-0.1800538112033974,0.0783180797927763,-0.3741943376306132,-0.0037560826059231,-0.5764081866619304,-0.6015485023175379,-14.830427302695837,30.487302557885226,18.47809431599752,0.0035119710132456,0.2429986632913279,1.5900456865980117,-1.0,11.989666666666668,0.0,179.35996619567223,1.0598989962954837,95.78184263480364,1553.0,1435.0,1000.0,1613.0,1471.0,1011.0,242.0,294.13,1649158135.8048878,1649158136.9494486,2d5f2018-a5ae-425f-b7a4-12b44cdd0467
-0.0883810945779823,0.0903491367297993,-0.1699424629016968,0.0793568267792836,-0.364845612899417,-0.0088577768604656,-0.5673355834654414,-0.5925547909631829,-14.806226091949188,30.45007183432818,18.576491204723915,-0.010010837892195,0.258988493549707,1.5513251264444647,-1.0,11.989444444444445,0.0,179.3561853065117,1.039912736277132,95.70937736334945,1553.0,1435.0,1000.0,1613.0,1471.0,1011.0,242.0,294.13,1649158137.0608015,1649158138.1709564,2d5f2018-a5ae-425f-b7a4-12b44cdd0467
-0.0836475636844318,0.0780288085116747,-0.1764642168075751,0.09151937070781,-0.3678303674734149,-0.0062937810223407,-0.572608212280917,-0.5996682376737761,-14.804506264447747,30.502663650228723,18.77085146587682,-0.0316291705912941,0.2091349674449392,1.5706570659290435,-1.0,11.987333333333332,0.0,179.350249113213,1.053650167688731,95.69408305197796,1553.0,1435.0,1000.0,1613.0,1471.0,1011.0,242.0,294.13,1649158138.2794352,1649158139.4055564,2d5f2018-a5ae-425f-b7a4-12b44cdd0467
-0.1924464585960218,0.0449560025006275,-0.4406692287337611,0.1427631261391567,-0.6077946824866135,-0.0070361345334544,-0.8605647770566307,-0.8849720576214829,-16.88069312376571,31.199839367256057,18.6435497647686,-0.1584900713587976,0.0778682803819736,2.662156332540948,-1.0,11.965777777777776,0.0,179.36869214179188,1.0497193701054544,95.6675917838271,1553.0,1435.0,1000.0,1694.0,1471.0,1011.0,242.0,294.13,1649158141.334263,1649158142.4768856,dd7ba467-8f84-410e-a00d-a5e57956a668
-0.1876115729992054,0.0350396940016525,-0.4577488412263764,0.1446943408676639,-0.6211625280887202,0.0012776766965911,-0.8744667912252551,-0.8965456558836268,-16.951069838417272,31.11287468554937,18.57916529651476,-0.1456368138825581,0.0404228363587942,2.7221514453358626,-1.0,11.96322222222222,0.0,179.35285824547594,1.0395190991943406,95.58477649905062,1553.0,1435.0,1000.0,1694.0,1471.0,1011.0,242.0,294.13,1649158142.5855362,1649158143.7006714,dd7ba467-8f84-410e-a00d-a5e57956a668
-0.1935147902433732,0.0300130569812597,-0.4486954138347983,0.1496798880474045,-0.6121501894841052,0.0005243659625071,-0.8658105615823212,-0.8854651342887511,-16.921644374514972,31.24693173479878,18.49101497460144,-0.1572355356819548,0.0221052842139016,2.684487589963165,-1.0,11.96588888888889,0.0,179.3587048874055,1.0588960494204838,95.50412031296176,1553.0,1435.0,1000.0,1694.0,1471.0,1011.0,242.0,294.13,1649158143.809398,1649158144.9344604,dd7ba467-8f84-410e-a00d-a5e57956a668
-0.2773514350487904,0.0099749915457266,-0.7197093036921935,0.2167656295429983,-0.8601812730711981,-0.0270331105392221,-1.168888206696643,-1.194213164276121,-18.86786382785476,31.967819008854235,18.35572406631025,-0.3802069386060369,-0.0635040018296462,3.819570532187583,-1.0,11.930666666666667,0.0,179.40596676082234,1.0351447424859013,95.4080810230422,1553.0,1435.0,1000.0,1774.0,1471.0,1011.0,242.0,294.13,1649158145.8398209,1649158146.97369,f0a9a262-2fbb-43fa-a553-45d17d8af3b4
-0.2820630519056791,0.0034828226832879,-0.7237908798138294,0.2202993414956195,-0.8634410556944904,-0.0237048467022262,-1.1726821564214018,-1.1976236100681554,-18.882283792045296,32.08266690044395,18.35552217492437,-0.3801482592853953,-0.0884416099429409,3.834163813656243,-1.0,11.93311111111111,0.0,179.39696305367644,1.0401994737846318,95.28591322390773,1553.0,1435.0,1000.0,1774.0,1471.0,1011.0,242.0,294.13,1649158147.08158,1649158148.207072,f0a9a262-2fbb-43fa-a553-45d17d8af3b4
-0.2845969155322854,-0.0106520260638958,-0.7283518357508986,0.2251068333257559,-0.8645367809809882,-0.0150486214486982,-1.1720247212261543,-1.1965826710147114,-18.75911610044941,32.00013859215588,18.231935329208447,-0.3722729853305597,-0.1421147352637958,3.839214799777641,-1.0,11.934888888888889,0.0,179.40875044236407,1.0311365598079654,95.184279250148,1553.0,1435.0,1000.0,1774.0,1471.0,1011.0,242.0,294.13,1649158148.3159957,1649158149.446632,f0a9a262-2fbb-43fa-a553-45d17d8af3b4
-0.36351649869177827,-0.03542910118878081,-0.9471818612481354,0.31398379695622164,-1.0634383245921954,-0.06137038409848348,-1.4305338065050843,-1.4613784899239732,-20.661538667215915,33.278444943695916,17.987262785904537,-0.6802676862981566,-0.24420405952437363,4.772058275006223,-1.0,11.882444444444443,0.0,179.41461529813142,1.009348801822121,95.04076635094735,1553.0,1435.0,1000.0,1856.0,1471.0,1011.0,242.0,294.13,1649158151.3701346,1649158152.5089748,0697bf4c-4081-4e96-98ee-d868078cd078
-0.3617222491882723,-0.03460730767017514,-0.9439768646404612,0.3173120604693664,-1.0603702932948127,-0.06449319957411026,-1.4277123123130844,-1.4569271035185214,-20.587937400716335,33.27042387235237,18.11631137128221,-0.6946287818171445,-0.24299325702440813,4.759858930158571,-1.0,11.881999999999998,0.0,179.4005785004771,1.0027208977164335,94.91801191445415,1553.0,1435.0,1000.0,1856.0,1471.0,1011.0,242.0,294.13,1649158152.6173694,1649158153.737035,0697bf4c-4081-4e96-98ee-d868078cd078
-0.35457264435874897,-0.024334888417595995,-0.9377997131355054,0.31154580967486084,-1.0563982885800687,-0.07108124455876381,-1.4224939179964842,-1.4449289057293024,-20.5026365407103,33.149005709980884,17.90079370795407,-0.6969144807395949,-0.20205956196611172,4.739596818385732,-1.0,11.883555555555555,0.0,179.39296056282285,0.9899867570608849,94.78767065561289,1553.0,1435.0,1000.0,1856.0,1471.0,1011.0,242.0,294.13,1649158153.8456428,1649158154.9657638,0697bf4c-4081-4e96-98ee-d868078cd078
