raw_voltage_G-,raw_voltage_G0,raw_voltage_G1,raw_voltage_G2,raw_voltage_G3,raw_voltage_G4,raw_voltage_G5,raw_voltage_G6,load_x,load_y,load_z,load_l,load_m,load_n,rpm,voltage,current,roll,pitch,yaw,aileron1_pwm,elevator_pwm,throttle_pwm,rudder_pwm,aileron2_pwm,pbaro,pdiff,Tt,sample_start_time,sample_end_time,uid
-0.0276472643786738,0.097922785704112,0.0113123235387956,0.1756841732508305,-0.0829638314954973,0.0501798698772982,-0.2656649818467765,-0.2913969846115908,-13.84392501111182,19.524313572413345,42.60497905288016,-0.1537244716840778,0.0670648049954955,0.5316152423595181,6518.19482421875,12.044,0.21,179.42609153375685,-4.157327827017076,97.70471543544102,1525.0,1435.0,1200.0,1528.0,1475.0,1021.7000000000002,250.0,289.15,1637182158.6258926,1637182159.6189566,90aec5d7-9f12-4ff0-bb3e-9f23bbaa502b
-0.0214542281754751,0.0969366334611671,0.0086431381412606,0.1709900889146867,-0.0860143292009113,0.0545189396698609,-0.2682026805598404,-0.2834288728668243,-13.938469979115537,19.58564521630948,42.44978624103023,-0.1331839611886272,0.0658205408035286,0.5425510085927043,6410.450520833333,12.046,0.2144444444444444,179.44083108198572,-4.160119192521626,97.25263356228685,1525.0,1435.0,1200.0,1528.0,1475.0,1021.7000000000002,250.0,289.15,1637182159.72804,1637182160.8511188,90aec5d7-9f12-4ff0-bb3e-9f23bbaa502b
-0.0142131315544739,0.0950169238192146,0.0167547881007516,0.1899340722659052,-0.0768064063715874,0.0505441983025477,-0.2645725442578847,-0.286281594365727,-14.07926461143551,19.841904016936443,44.13906270756035,-0.1825476363269711,0.0428311290737844,0.5158966310396377,6408.815158420139,12.045,0.21,179.46437702078447,-4.166036602800058,96.86657533328967,1525.0,1435.0,1200.0,1528.0,1475.0,1021.7000000000002,250.0,289.15,1637182160.9594347,1637182162.0822875,90aec5d7-9f12-4ff0-bb3e-9f23bbaa502b
0.125521898510288,0.3734405535788119,0.0358872370470493,0.0464982348445877,-0.1301939511323994,-0.090892495730076,-0.3004695857004876,-0.3247026368464694,-12.76034041578722,19.25209710118799,43.97350673148441,-0.1791383763213984,1.0980842322192252,0.6470050514962583,6578.22412109375,12.033,0.25,179.3748651149818,-4.168172459871764,96.2071759693482,1576.0,1435.0,1200.0,1528.0,1515.0,1021.7000000000002,250.0,289.15,1637182163.637216,1637182164.626358,9ea7fccb-9bdc-45c8-a56e-7c028aeeb096
0.1291377899449138,0.3875359548757483,0.0425667747635615,0.0498905984493053,-0.1268278846945288,-0.1030418917961132,-0.3002986527182468,-0.3317766365841554,-12.817858950037444,19.39259003113435,44.67836454430808,-0.2127446866169526,1.1451186792209267,0.6357035743768316,6638.251410590277,12.036888888888887,0.24,179.37333667042748,-4.155908712921399,95.9292775804077,1576.0,1435.0,1200.0,1528.0,1515.0,1021.7000000000002,250.0,289.15,1637182164.7350166,1637182165.8768206,9ea7fccb-9bdc-45c8-a56e-7c028aeeb096
0.1615098792060087,0.3907836825909998,0.034743300464975,0.0444470382683038,-0.1331129619760794,-0.1027263230123645,-0.3083851019421835,-0.3412831454361301,-13.05711916162337,19.237880250069107,44.40506241707236,-0.2013353733912642,1.161586956016167,0.666297666727081,6707.500651041667,12.036,0.24,179.38236162705078,-4.149054855248636,95.71660825695074,1576.0,1435.0,1200.0,1528.0,1515.0,1021.7000000000002,250.0,289.15,1637182165.9855824,1637182166.9971638,9ea7fccb-9bdc-45c8-a56e-7c028aeeb096
0.3479715307935821,0.7735158974634689,0.0674046619393906,-0.1430533772305691,-0.1954640847119496,-0.3058211059128439,-0.3623210628473062,-0.3861859511207405,-12.400590015651346,18.69830525068606,44.22077582332742,-0.236410955135161,2.6191987562722674,0.828581709587832,6738.54248046875,12.024555555555557,0.28,179.2656868178288,-4.144148407831106,95.2385883609685,1627.0,1435.0,1200.0,1528.0,1556.0,1021.7000000000002,250.0,289.15,1637182168.6347206,1637182169.7502506,f63a5125-1861-43aa-aaee-e7343c0ab57b
0.3572375258997318,0.7825156313360896,0.0679525243072001,-0.1449193962486925,-0.1936243627558168,-0.3141951829122,-0.3610511177137182,-0.3765556253673157,-12.367322186802904,18.313546806124744,44.0511903485222,-0.2535529596048766,2.65447875354002,0.824535612718357,6713.947645399306,12.026333333333334,0.28,179.26209262050557,-4.131284695166771,95.03798722286506,1627.0,1435.0,1200.0,1528.0,1556.0,1021.7000000000002,250.0,289.15,1637182169.859342,1637182170.8869526,f63a5125-1861-43aa-aaee-e7343c0ab57b
0.349049723819225,0.7755670938825809,0.0707575795014978,-0.1489834395343622,-0.1905727692301446,-0.3063076075740171,-0.3532484609874139,-0.3779022710981437,-12.151396702315187,18.238393284181576,43.7134035825055,-0.2269647212275573,2.6305599632028818,0.8042753325454796,6660.0048828125,12.024888888888889,0.29,179.24801332389646,-4.124499661136271,94.84537968282024,1627.0,1435.0,1200.0,1528.0,1556.0,1021.7000000000002,250.0,289.15,1637182170.9950497,1637182172.317097,f63a5125-1861-43aa-aaee-e7343c0ab57b
0.5586004780479049,1.161547045488981,0.1090071363948182,-0.3228486701332306,-0.2523453509453683,-0.5087449765550007,-0.4076051815340361,-0.4303261340929918,-11.352506541709513,18.305384404123814,45.87028392376891,-0.2865765312398418,4.077281216723166,0.9624182792977516,6664.048177083333,12.015777777777778,0.3244444444444444,179.0624249415887,-4.140950456343463,94.43677272264313,1678.0,1435.0,1200.0,1528.0,1596.0,1021.7000000000002,250.0,289.15,1637182174.1419504,1637182175.3924468,34dac275-4881-41c8-9d32-255fe9730a85
0.5819262629533699,1.1584045072160174,0.1051282710241957,-0.3220991943907129,-0.2535813286326505,-0.5073512143794677,-0.4111553303414588,-0.4305759593043159,-11.562885831043648,18.21985405090449,45.70245565797236,-0.2860279802022628,4.068131631704758,0.9737212985194816,6711.591959635417,12.016222222222222,0.32,179.0624158346698,-4.12510522381081,94.29218293028332,1678.0,1435.0,1200.0,1528.0,1596.0,1021.7000000000002,250.0,289.15,1637182175.5008135,1637182176.5089629,34dac275-4881-41c8-9d32-255fe9730a85
0.5907227399090779,1.170292571822905,0.1157398166343066,-0.3254811492149853,-0.2484379961865117,-0.5147950219930725,-0.4031543468452905,-0.423069147590509,-11.280138876606978,18.33796720995033,45.92602761881619,-0.2936370115169013,4.109827485334238,0.9427328815320573,6730.315049913194,12.016444444444444,0.32,179.071820246247,-4.127006435425405,94.1506287775546,1678.0,1435.0,1200.0,1528.0,1596.0,1021.7000000000002,250.0,289.15,1637182176.6170807,1637182177.737455,34dac275-4881-41c8-9d32-255fe9730a85
0.7669941447561456,1.4995474391622856,0.1384339179766581,-0.4935056338186684,-0.312540090617414,-0.6896316492187924,-0.4597923684340961,-0.4786607520378269,-10.756194425710657,18.376905474952384,44.80502860684075,-0.3060229986587128,5.37308721490181,1.1168841422340303,6694.697916666667,12.005,0.37,178.96941142547143,-4.09228108963889,93.8496268942916,1729.0,1435.0,1200.0,1528.0,1636.0,1021.7000000000002,250.0,289.15,1637182179.671923,1637182180.8850887,70fe2bb1-10e8-4d14-a072-b45967f2578b
0.7764086103776409,1.5059245574252944,0.1425889058672511,-0.4965561321310943,-0.3118563582755565,-0.696889732338741,-0.4599107068020466,-0.4770960569340209,-10.772077861926396,18.57889763812144,44.27569313667991,-0.3139981570684018,5.402451602983657,1.1103619517289198,6657.137532552083,12.006111111111112,0.37,178.95103973442394,-4.084100657447331,93.71158345879628,1729.0,1435.0,1200.0,1528.0,1636.0,1021.7000000000002,250.0,289.15,1637182180.9938242,1637182182.1518974,70fe2bb1-10e8-4d14-a072-b45967f2578b
0.7527409593784207,1.4992976139519405,0.1426677980694409,-0.4937423104364734,-0.3089504959472203,-0.6892897830341915,-0.4574913459886396,-0.4885354260457472,-10.901896406596393,18.524434918424696,44.81200576476869,-0.3036043162310091,5.373419670280272,1.1027626690983614,6647.380099826389,12.006555555555556,0.3655555555555556,178.9197301472686,-4.094012352866011,93.59710189920776,1729.0,1435.0,1200.0,1528.0,1636.0,1021.7000000000002,250.0,289.15,1637182182.2605274,1637182183.386772,70fe2bb1-10e8-4d14-a072-b45967f2578b
-0.2237732306407774,-0.2681237883588194,-0.0123290327426126,0.360081479107677,-0.0255697702146169,0.2324602412783867,-0.2147532240275275,-0.2440222253687564,-14.01725836979758,20.90790956494917,41.75923049923901,-0.1522985086079347,-1.321288269424603,0.3686239479507834,6666.360460069444,12.037111111111107,0.2355555555555555,179.3955302317706,-4.109514273529133,93.4399688438922,1474.0,1435.0,1200.0,1528.0,1435.0,1021.7000000000002,250.0,289.15,1637182184.2901242,1637182185.4243753,6626a0c8-a9e1-4a55-8edb-e8e7b33991d1
-0.2212223833060439,-0.2781562449142549,-0.0115006648676798,0.3698772571127389,-0.0214542282133342,0.2346692221841619,-0.212517945468805,-0.236474872956336,-14.057086077944236,20.91030643013991,41.97000035555285,-0.1693608227862878,-1.3616557535668543,0.3578471121013325,6727.96435546875,12.037,0.24,179.36669620873442,-4.111515186932862,93.49562501979898,1474.0,1435.0,1200.0,1528.0,1435.0,1021.7000000000002,250.0,289.15,1637182185.5340834,1637182186.663397,6626a0c8-a9e1-4a55-8edb-e8e7b33991d1
-0.2084681465897269,-0.2715424498088746,-0.0084764646837211,0.3695090936767593,-0.0214673768688458,0.222519827460703,-0.2148715622764792,-0.2342790404042943,-14.07756110674746,21.0973565474279,41.116863364320025,-0.194587387204608,-1.3289035327064278,0.3565964319168423,6743.84423828125,12.037666666666668,0.24,179.3513328365613,-4.088590083870536,93.55482909952468,1474.0,1435.0,1200.0,1528.0,1435.0,1021.7000000000002,250.0,289.15,1637182186.7991092,1637182187.7733033,6626a0c8-a9e1-4a55-8edb-e8e7b33991d1
-0.3484491858220885,-0.536370394770182,-0.0303953419174246,0.4938563037121738,0.0182942812975494,0.3619354451965952,-0.18167110103868,-0.2040764817435088,-14.6577956168614,21.91334056370642,40.36283515173199,-0.1578931485282733,-2.328065154566665,0.2522889978662671,6694.684244791667,12.024,0.2866666666666667,179.41776780988832,-4.109514652984085,93.65002372271684,1423.0,1435.0,1200.0,1528.0,1394.0,1021.7000000000002,250.0,289.15,1637182188.8032143,1637182189.820976,cc9807db-3aaf-4de5-ae29-2531234692ec
-0.3754566128202943,-0.5418402540599703,-0.0318679959756377,0.5067683222574134,0.0199378682798037,0.35647873664952,-0.1818288854686748,-0.2060093408850547,-14.496512371565336,21.768038865180152,40.50999062605958,-0.2002133591445618,-2.3527117794556744,0.25211374780664,6681.926649305556,12.023444444444443,0.2822222222222222,179.43340438962818,-4.110228360320484,93.62302322601788,1423.0,1435.0,1200.0,1528.0,1394.0,1021.7000000000002,250.0,289.15,1637182189.9288952,1637182190.9833622,cc9807db-3aaf-4de5-ae29-2531234692ec
-0.3839112261683003,-0.5396707185161138,-0.0294091896699186,0.5107655255435449,0.0222257415320393,0.3522054106683612,-0.1811320045662897,-0.1974100920859297,-14.510738792948764,21.799520379902724,40.73965932530666,-0.2184722282975284,-2.346845291039356,0.245252368008009,6674.412326388889,12.024,0.29,179.45638569945558,-4.125310414077126,93.58290421265303,1423.0,1435.0,1200.0,1528.0,1394.0,1021.7000000000002,250.0,289.15,1637182191.091302,1637182192.186125,cc9807db-3aaf-4de5-ae29-2531234692ec
-0.5807850604751336,-0.9118447197420424,-0.0583845342887587,0.6866397304114663,0.0776359911433691,0.5449762385673574,-0.1360029360081538,-0.169888225216677,-15.344618547562144,23.22047061396749,39.37659779418141,-0.1746797172423818,-3.748207962643584,0.0984441855777743,6670.37109375,12.013,0.3400000000000001,179.55193093902517,-4.125445073153887,93.52518835525652,1372.0,1435.0,1200.0,1528.0,1354.0,1021.7000000000002,250.0,289.15,1637182193.190028,1637182194.2352068,2c407897-4a9d-48ee-93e3-05ff0cac34fc
-0.6118439346160577,-0.9423234150306324,-0.0571266422819313,0.707746125143936,0.0853920782614843,0.5593499536660783,-0.1296154085378592,-0.1493779007054383,-15.331614552518117,23.424456492811924,39.964043701748125,-0.1884758458115777,-3.8703356040444894,0.0743220437939694,6685.988118489583,12.012,0.3333333333333333,179.5585471156012,-4.120110695412108,93.43156239884372,1372.0,1435.0,1200.0,1528.0,1354.0,1021.7000000000002,250.0,289.15,1637182194.3435328,1637182195.4641426,2c407897-4a9d-48ee-93e3-05ff0cac34fc
-0.6086093542036967,-0.9445718434356828,-0.0564823561444225,0.7035253940644418,0.0873643826803131,0.5642412682013328,-0.1248687289383434,-0.1587397737675557,-15.24818066642041,23.213006873119525,39.8166294833907,-0.1693146178351615,-3.877495653038941,0.0636273481669508,6731.663623046875,12.0142,0.34,179.56438100784425,-4.119050635823361,93.35372852281088,1372.0,1435.0,1200.0,1528.0,1354.0,1021.7000000000002,250.0,289.15,1637182195.572396,1637182196.7841396,2c407897-4a9d-48ee-93e3-05ff0cac34fc
-0.7306950441387436,-1.1474563630788246,-0.0736677028098804,0.792252787887758,0.1126230278287593,0.654940966151252,-0.1083013705535579,-0.1245663091010359,-15.840923447023124,24.33664303399228,36.05490491196017,-0.1599525561829194,-4.612895241303511,-0.0008910477034287,6731.487467447917,11.976666666666668,0.5,179.62816951054083,-4.109268481582751,93.17440577659276,1321.0,1435.0,1200.0,1528.0,1314.0,1021.7000000000002,250.0,289.15,1637182197.695266,1637182198.8322089,0653c176-9b93-4305-843d-35e291cde496
-0.7229373101168507,-1.1410529430905365,-0.0685397111551423,0.7949614190469704,0.1176852757233325,0.645920961405436,-0.1035020962021243,-0.1282610929028176,-15.69862017140644,24.145800090032807,36.05890037946057,-0.1872692319335761,-4.589932762146585,-0.0206271326679887,6713.3271484375,11.97777777777778,0.49,179.6226856275472,-4.110250511003418,92.80010078533732,1321.0,1435.0,1200.0,1528.0,1314.0,1021.7000000000002,250.0,289.15,1637182198.9400158,1637182200.1740897,0653c176-9b93-4305-843d-35e291cde496
-0.7048972917573394,-1.1388834065238436,-0.0676324509562433,0.7873877707165405,0.1179745471347328,0.6504704098626019,-0.1025553899288128,-0.1338361403851475,-15.858315804047816,24.15647037199989,36.024291596365934,-0.1599317121840257,-4.579368483117696,-0.023574497544564,6712.158203125,11.976,0.48,179.65482090868224,-4.107558372969309,92.53448762998396,1321.0,1435.0,1200.0,1528.0,1314.0,1021.7000000000002,250.0,289.15,1637182200.2818997,1637182201.2863865,0653c176-9b93-4305-843d-35e291cde496
-0.0549702560628883,0.030732948092132,0.0027393734403656,0.2309349926134243,-0.0748642342091769,0.07731877885654,-0.2633376623507454,-0.2890433672713263,-13.781660844518855,19.84925047398804,44.30739952759678,-0.2153421433530989,-0.2078076643640647,0.5236213293737889,6706.90625,12.046,0.2,179.669314570101,-4.115152689552717,92.17859379309128,1525.0,1435.0,1200.0,1528.0,1475.0,1021.7000000000002,250.0,289.15,1637182202.3133993,1637182203.338136,60bb03c5-44a2-4472-90f8-6dd49892c1f6
-0.0508152678858846,0.0475106845877841,0.0124036653341408,0.2224540838971284,-0.0689210232461672,0.0658136696299409,-0.2582359675121896,-0.273172889052015,-13.870583096133949,19.812853838737706,43.95661124919927,-0.22192554709707,-0.1394863255311129,0.4965029840022639,6717.41845703125,12.04377777777778,0.21,179.3139565236032,-4.119501243324292,92.5670737036042,1525.0,1435.0,1200.0,1528.0,1475.0,1021.7000000000002,250.0,289.15,1637182203.4470465,1637182204.5634568,60bb03c5-44a2-4472-90f8-6dd49892c1f6
-0.048495618633011,0.0447916437758931,0.0093723429390064,0.220970472752414,-0.0739164322927627,0.0722669402285491,-0.2621756461305921,-0.2978004003940887,-13.879357493249394,20.08845425636629,44.27074912035979,-0.2023558157172914,-0.1524113061254856,0.5130300041669074,6722.68701171875,12.045666666666667,0.21,179.28435144810075,-4.108377711078495,92.88798862393742,1525.0,1435.0,1200.0,1528.0,1475.0,1021.7000000000002,250.0,289.15,1637182204.671522,1637182205.908498,60bb03c5-44a2-4472-90f8-6dd49892c1f6
-0.0321967133849083,0.0333276241712525,-0.0267591793860222,-0.2520949779961822,-0.1517676760915765,0.536963752552829,-0.1609854607955678,-0.1868582633701557,-13.677759504374954,18.57104711018708,47.07370532659147,1.8976898269323648,-0.1657495384739997,0.5234262391214252,6675.597981770833,12.04,0.23,179.24112545757347,-3.958355451871319,93.2544760842328,1525.0,1521.0,1200.0,1528.0,1475.0,1021.7000000000002,250.0,289.15,1637182206.8189993,1637182207.8462446,3a55b16d-11fc-474d-ab67-f981f0f602d6
-0.0436360794520001,0.0217392397870363,-0.0306977619395164,-0.2425627198098147,-0.1529411973876539,0.5387590972784716,-0.1637757239402844,-0.1807638409132545,-13.66050652845935,18.63766504183881,46.935882773088906,1.880453985395331,-0.2095358004475887,0.5328378009555301,6634.801920572917,12.038222222222222,0.23,179.2313355197631,-3.964567793512661,93.37062648670847,1525.0,1521.0,1200.0,1528.0,1475.0,1021.7000000000002,250.0,289.15,1637182207.9587548,1637182209.0687733,3a55b16d-11fc-474d-ab67-f981f0f602d6
-0.0141961477206851,0.0391744111126985,-0.0191400575696306,-0.2586435772677295,-0.1487730602879307,0.537654606897848,-0.1533751044246576,-0.172624797296207,-13.411765588663473,18.69725051846905,47.18470052296817,1.91538189130996,-0.1453954950394669,0.4990670482541523,6624.546278211806,12.03622222222222,0.2211111111111111,179.24771886685224,-3.9488498206851697,93.48549281362024,1525.0,1521.0,1200.0,1528.0,1475.0,1021.7000000000002,250.0,289.15,1637182209.177036,1637182210.208269,3a55b16d-11fc-474d-ab67-f981f0f602d6
0.0014770985228334,0.0442366592202218,-0.0577183335947247,-0.8363448665810241,-0.2488214998105148,1.087664524306547,-0.0417163696624675,-0.0576262928131541,-13.491701731730084,17.794809961509813,50.74473181594069,4.447104109009085,-0.088729253955963,0.5298276107049343,6640.514214409723,12.027666666666669,0.2688888888888889,179.27162149330763,-3.77430637601587,93.6738223785149,1525.0,1607.0,1200.0,1528.0,1475.0,1021.7000000000002,250.0,289.15,1637182211.211729,1637182212.253001,42da2c9f-1ec5-490f-8b0a-86c470b92859
-0.0137096459070596,0.0399896302934631,-0.0596511921109666,-0.8332680702049626,-0.2495446782363685,1.0920956347184136,-0.0427814141582045,-0.0653708752251709,-13.5326283961843,17.826783962739402,51.1738806237059,4.45028443037949,-0.108672870943779,0.5350403207461365,6651.965603298611,12.033222222222223,0.25,179.27142569455145,-3.7583758609823312,93.64127197366037,1525.0,1607.0,1200.0,1528.0,1475.0,1021.7000000000002,250.0,289.15,1637182212.3617709,1637182213.3733432,42da2c9f-1ec5-490f-8b0a-86c470b92859
0.0015822880779808,0.0377017571382244,-0.0586518910963573,-0.8273117076596013,-0.2474803327157752,1.0868098590707005,-0.0428997524197461,-0.0606899393479172,-13.541144012606257,17.835919460698047,50.88700476656288,4.425030794769222,-0.1153207917987741,0.5303960141051857,6669.219292534723,12.033,0.25,179.27793107028094,-3.755784705397827,93.64968145434844,1525.0,1607.0,1200.0,1528.0,1475.0,1021.7000000000002,250.0,289.15,1637182213.4820912,1637182214.7168355,42da2c9f-1ec5-490f-8b0a-86c470b92859
0.0157171367336772,0.0246056556016487,-0.0816095157083606,-1.3503540711734734,-0.3332361417507105,1.6093653628279458,0.0655375470967362,0.0350325717229767,-13.799795398197933,18.282238853249616,55.20201735800261,6.781511418627986,-0.1379024233050247,0.5236518581445717,6666.915256076389,12.023666666666664,0.3011111111111111,179.30910101801322,-3.595863604808533,93.68342107102848,1525.0,1693.0,1200.0,1528.0,1475.0,1021.7000000000002,250.0,289.15,1637182216.6528285,1637182217.7873764,aacd0d43-5801-4592-adc0-0851cec5b326
0.0077561488618529,0.0156179737631039,-0.0877773502955468,-1.3482447990604225,-0.3379724125156692,1.6185809566312894,0.0613096933526793,0.0399567579725804,-13.8342939525472,18.38407418026957,55.49506410755347,6.797859396632792,-0.1746137656324144,0.5438082102066057,6744.445421006944,12.023,0.3022222222222221,179.34623144416122,-3.5707144688295926,93.52852907667058,1525.0,1693.0,1200.0,1528.0,1475.0,1021.7000000000002,250.0,289.15,1637182217.896166,1637182219.0162392,aacd0d43-5801-4592-adc0-0851cec5b326
-0.003374770489468,0.0163745716225383,-0.0926018263493434,-1.3506564915886676,-0.3414277808923814,1.6242233917711555,0.0596995259292992,0.0295232676240211,-13.789520182119436,18.17679948463364,56.06400343500013,6.8144778437541484,-0.1771478866262887,0.5583725960901461,6778.215386284723,12.020777777777775,0.2944444444444444,179.33786066787843,-3.562767235423133,93.4130662465713,1525.0,1693.0,1200.0,1528.0,1475.0,1021.7000000000002,250.0,289.15,1637182219.125435,1637182220.2518218,aacd0d43-5801-4592-adc0-0851cec5b326
0.0434608859934758,0.0220153623368854,-0.1007277210422851,-1.7725855169718896,-0.4095643374572378,2.024522406135304,0.1450082659505547,0.1205648399689255,-13.951736912063184,19.1723378454917,58.80724836820401,8.672322248001688,-0.1277064331096073,0.5411221682586627,6791.340494791667,12.012333333333332,0.3433333333333334,179.36393225885027,-3.4257853488772607,93.26644029892891,1525.0,1780.0,1200.0,1528.0,1475.0,1021.7000000000002,250.0,289.15,1637182221.1550496,1637182222.1800776,2122bb52-c6a7-47fd-a87d-6c3d5ef009f1
0.0125483008142166,0.010220981696676,-0.1042515719144337,-1.7636180932032204,-0.410471597815328,2.017790270913819,0.1408664267097282,0.1053517983258323,-13.948289285468991,19.24284037363316,57.3517593376923,8.637027557887935,-0.1603932498140221,0.5496305253120384,6786.560546875,12.009222222222222,0.36,179.37283427206853,-3.392081092655729,93.0179686416626,1525.0,1780.0,1200.0,1528.0,1475.0,1021.7000000000002,250.0,289.15,1637182222.2879417,1637182223.3321865,2122bb52-c6a7-47fd-a87d-6c3d5ef009f1
0.0185572552102499,0.0177157386762086,-0.1010564385412107,-1.7293262439520354,-0.4041733710725452,1.974189178017168,0.1324907074011416,0.1058383000167336,-13.96137686041122,19.193800096202786,56.6675573344386,8.461414418754728,-0.130146996532771,0.5488755424486452,6782.384548611111,12.011111111111113,0.3444444444444445,179.3948502484932,-3.413944741632351,92.80906427025812,1525.0,1780.0,1200.0,1528.0,1475.0,1021.7000000000002,250.0,289.15,1637182223.44424,1637182224.54202,2122bb52-c6a7-47fd-a87d-6c3d5ef009f1
-0.0894724364674919,0.054479493578514,0.0490753793780505,0.8150263276823541,0.0245925068698637,-0.5146092966862986,-0.3847658914992047,-0.4141663823283169,-13.738846228280654,21.1465397642392,39.62601075369744,-2.852868090820356,-0.1465103700867513,0.4987740266025525,6665.18359375,12.045,0.21,179.35739349108485,-4.1944678344026665,92.41948773492848,1525.0,1349.0,1200.0,1528.0,1475.0,1021.7000000000002,250.0,289.15,1637182226.132542,1637182227.204444,6eb9b679-b4dd-4f8e-87fe-652e592fed2b
-0.0691363332435595,0.0510920607276095,0.0548038280739612,0.817222707629757,0.0302048087849854,-0.5123981237523636,-0.3799660685851263,-0.4157688806169835,-13.83563968256903,21.3035525909425,39.795087974592256,-2.85154946101634,-0.1599333551346554,0.4762031531300317,6662.306532118056,12.043111111111113,0.21,179.33696211854763,-4.233117218731092,92.80723757411008,1525.0,1349.0,1200.0,1528.0,1475.0,1021.7000000000002,250.0,289.15,1637182227.3122084,1637182228.4374468,6eb9b679-b4dd-4f8e-87fe-652e592fed2b
-0.0934959377849217,0.0449072426936476,0.0477473611038799,0.8137114581793551,0.0256969974169619,-0.5047214744082027,-0.3813077836744161,-0.4061456764920946,-13.711220288511107,21.046182756691174,39.53551777798216,-2.828414734545208,-0.1817296261216024,0.4929194001825426,6664.608181423611,12.040555555555557,0.2011111111111111,179.34312143135915,-4.223956369802419,93.1594446266708,1525.0,1349.0,1200.0,1528.0,1475.0,1021.7000000000002,250.0,289.15,1637182228.5459642,1637182229.6653745,6eb9b679-b4dd-4f8e-87fe-652e592fed2b
-0.0962440154283117,0.0575431398111129,0.0952536003273377,1.4008270211692744,0.1188423610214049,-1.078359913617798,-0.5168182782178827,-0.553319070364818,-14.574369065602008,24.006124253817475,36.23671016226516,-5.420818799649782,-0.1682155773275619,0.4944396009180032,6663.460286458333,12.037333333333336,0.2366666666666666,179.31850694741024,-4.4168818456667305,93.66318322051774,1525.0,1262.0,1200.0,1528.0,1475.0,1021.7000000000002,250.0,289.15,1637182230.672896,1637182231.8011,454f82b9-2389-404d-b8e8-3cf380c66074
-0.0909412555463613,0.0663637235284648,0.1000161676184589,1.3817126510975706,0.1215334608019194,-1.067574688060884,-0.5047417453637831,-0.5409828506448778,-14.279668987070488,23.60597638533197,36.56424871888148,-5.355680550379309,-0.1374732829871136,0.4688198908370776,6674.411512586806,12.032111111111114,0.2555555555555555,179.31264664510238,-4.419746635704858,93.90831036182053,1525.0,1262.0,1200.0,1528.0,1475.0,1021.7000000000002,250.0,289.15,1637182231.9107585,1637182233.0417602,454f82b9-2389-404d-b8e8-3cf380c66074
-0.0954611200895183,0.0645557777806458,0.0896067832583622,1.379397932592214,0.1110418971554513,-1.062383689116997,-0.5168084167547499,-0.5330525402237765,-14.493393953900672,23.780151824945705,36.659805877787086,-5.338250283953532,-0.1439603608448394,0.5141540553152016,6681.926649305556,12.032777777777778,0.25,179.28609086960938,-4.433460280034036,94.09392378815524,1525.0,1262.0,1200.0,1528.0,1475.0,1021.7000000000002,250.0,289.15,1637182233.153662,1637182234.259528,454f82b9-2389-404d-b8e8-3cf380c66074
-0.1284057285077462,0.0630787409232165,0.1371584944957142,1.922146620441564,0.2011400482777434,-1.5849796651527652,-0.6341967256942382,-0.6485419583270964,-15.072842029924736,26.60801786437647,32.91375436963415,-7.716676084153573,-0.1759592928075882,0.4914856827889424,6701.66259765625,12.022333333333332,0.2966666666666666,179.2862229199333,-4.6297139552989135,94.40880537472164,1525.0,1176.0,1200.0,1528.0,1475.0,1021.7000000000002,250.0,289.15,1637182235.288501,1637182236.3120985,827bff41-1433-41f8-98f8-6ff1b87b9415
-0.1402790018427522,0.0735319543601401,0.1356200970277981,1.9017924321623128,0.1951442430432346,-1.578365862766164,-0.6345517406230207,-0.6585612687617545,-15.023664910928842,26.57943148165172,32.63848354786904,-7.656185154907477,-0.1322537068945188,0.5029989073584401,6691.19921875,12.023333333333332,0.3,179.2773725125888,-4.65066295182512,94.5339670734423,1525.0,1176.0,1200.0,1528.0,1475.0,1021.7000000000002,250.0,289.15,1637182236.420535,1637182237.5412378,827bff41-1433-41f8-98f8-6ff1b87b9415
-0.1097345785286696,0.0598310129349994,0.1318727186789453,1.8843178096626003,0.1944999569271532,-1.5518843564938254,-0.6275040371567306,-0.6631107191048738,-15.072951101147224,26.319665043529152,32.22347060326061,-7.559258789795208,-0.1777039517635815,0.4966258818015761,6685.41796875,12.021888888888888,0.29,179.2886984840525,-4.642803633388288,94.65028823064726,1525.0,1176.0,1200.0,1528.0,1475.0,1021.7000000000002,250.0,289.15,1637182237.649588,1637182238.7654476,827bff41-1433-41f8-98f8-6ff1b87b9415
-0.1314419817636814,0.0681853658270551,0.1575691054903954,2.176496750085088,0.2362147416992939,-1.8403764624083927,-0.7020955227260623,-0.7278998497093222,-15.653466666073191,28.579156522670544,30.41207945592513,-8.85094618968737,-0.1605131364699758,0.5106688317073717,6596.226345486111,12.009444444444444,0.35,179.31785276706975,-4.745742220711327,94.87166300965634,1525.0,1090.0,1200.0,1528.0,1475.0,1021.7000000000002,250.0,289.15,1637182240.7045949,1637182241.6528158,2d2f113f-de30-4f6f-b76f-2eae2012c98f
-0.1377150059670981,0.0868778809471743,0.1631008714082782,2.180899921622105,0.2356948204347663,-1.8569871262405009,-0.7054758344744441,-0.732207145194899,-15.570287004738002,28.864391511956143,31.234727996355687,-8.895865737739785,-0.0984712810699757,0.5120512017926672,6585.525499131944,12.012555555555556,0.3455555555555555,179.32508366067103,-4.750588002768105,94.83230821856864,1525.0,1090.0,1200.0,1528.0,1475.0,1021.7000000000002,250.0,289.15,1637182241.760002,1637182242.8614194,2d2f113f-de30-4f6f-b76f-2eae2012c98f
-0.1298394843017209,0.0790604332578563,0.1561583600615785,2.194315983243285,0.2348450859771325,-1.8577711198865767,-0.7121351040701845,-0.7342550562855762,-15.827445341305198,28.70979168726092,31.7411715637559,-8.929310092762229,-0.1325545003982444,0.5319229879444085,6637.090983072917,12.012111111111112,0.3400000000000001,179.3030312565708,-4.742818710019084,94.8629659021132,1525.0,1090.0,1200.0,1528.0,1475.0,1021.7000000000002,250.0,289.15,1637182242.9703157,1637182244.0942545,2d2f113f-de30-4f6f-b76f-2eae2012c98f
-0.0713825689428782,0.0283146836958753,0.0052907683691587,0.2316948776438081,-0.07365619773259,0.0773894531301631,-0.2637918403033273,-0.2866240077599116,-13.922299246551782,20.13396452863731,44.08561182518349,-0.2149891450101531,-0.2138435080094813,0.5183307972700747,6680.7685546875,12.045,0.21,179.36016654788787,-4.160615282441968,94.8801658362631,1525.0,1435.0,1200.0,1528.0,1475.0,1021.7000000000002,250.0,289.15,1637182245.6308775,1637182246.6631696,1c93c8e3-aed1-4200-af07-dac74224d21d
-0.0538657655691962,0.0379647310828633,0.0074071606313053,0.2313426021501803,-0.0741410559150514,0.0689299107202415,-0.2645341938351732,-0.289332639018167,-13.817766606535567,20.14871784508871,44.18555524331025,-0.2329324847863932,-0.179097824606688,0.5185358457555475,6706.90625,12.043333333333331,0.2033333333333333,179.36161454799193,-4.141444222102212,94.96191409370928,1525.0,1435.0,1200.0,1528.0,1475.0,1021.7000000000002,250.0,289.15,1637182246.7716398,1637182247.986471,1c93c8e3-aed1-4200-af07-dac74224d21d
-0.0504996991684777,0.040423537296977,0.0152569324412503,0.2387058716877551,-0.0655418081726974,0.0618427634638158,-0.25426506084941,-0.2694649562631124,-13.462236151580944,19.884737579355416,44.55525072178855,-0.2665891773021173,-0.1760821845613521,0.4827426730187094,6717.41845703125,12.043444444444445,0.2077777777777777,179.35312993522297,-4.137647253537984,95.03648230451792,1525.0,1435.0,1200.0,1528.0,1475.0,1021.7000000000002,250.0,289.15,1637182248.0943854,1637182249.2142932,1c93c8e3-aed1-4200-af07-dac74224d21d
0.0247502912073064,0.0721118951880581,0.2382062212930437,0.2179177839509538,0.1367771823271431,0.0300492158659862,-0.0286991600788823,-0.0459239531254039,-12.32052447598865,19.88666346375212,43.449538937924856,-0.279628086309465,-0.0388191477608687,-0.4149951593267598,6713.917154947917,12.039888888888887,0.22,179.3565981535015,-4.149778475845704,95.07324314154084,1525.0,1435.0,1200.0,1439.0,1475.0,1021.7000000000002,250.0,289.15,1637182250.2357094,1637182251.2624638,a8f06757-692b-4e7e-8e5d-af9f0757b987
0.0148098767045931,0.0829464208410424,0.2367993108578002,0.1994964612243261,0.1291377899825589,0.033112862106117,-0.0293302974913088,-0.0644899125127691,-12.042597934704109,19.937505676592416,42.97310668359081,-0.2308587338106654,0.0062521528355371,-0.4011226645127191,6656.5576171875,12.039333333333332,0.22,179.37823467497228,-4.155651442462661,95.12096870891136,1525.0,1435.0,1200.0,1439.0,1475.0,1021.7000000000002,250.0,289.15,1637182251.3706515,1637182252.6039765,a8f06757-692b-4e7e-8e5d-af9f0757b987
0.0364000360934291,0.089599661054082,0.2473971595033826,0.2016134012023112,0.1383944719168516,0.0315350185238725,-0.020297142891379,-0.0502104279099325,-12.055780768146938,19.964398903493453,44.027343147355296,-0.2383122609092041,0.0223671450068289,-0.4387476663475553,6637.085774739583,12.041,0.2144444444444444,179.35093364994984,-4.137125502976386,95.15403896705271,1525.0,1435.0,1200.0,1439.0,1475.0,1021.7000000000002,250.0,289.15,1637182252.7125752,1637182253.924925,a8f06757-692b-4e7e-8e5d-af9f0757b987
0.1006708630927411,0.1045891745867274,0.5249792648933624,0.1995227586451947,0.396569108461512,0.0049615031065167,0.2678696783933515,0.2416380306979964,-10.329927804874435,19.94864700782145,44.23296951858866,-0.2786916779301788,0.0824036709745828,-1.5757551576016735,6655.983940972223,12.038222222222224,0.2288888888888889,179.35301761655663,-4.121168520959814,95.095559646289,1525.0,1435.0,1200.0,1351.0,1475.0,1021.7000000000002,250.0,289.15,1637182254.6312332,1637182255.5799892,5de21370-ef73-4286-a59e-f91d0f560d4d
0.0986854100556248,0.1184741975832988,0.540599914582849,0.1923304220778086,0.4053655855494402,-0.0025726999458798,0.2779547278374328,0.2500268984125096,-10.279177894696147,20.24333918363712,44.249598202063865,-0.2766383379827117,0.1358551685022292,-1.6218328810285334,6685.97998046875,12.037666666666668,0.2277777777777778,179.36984264921207,-4.143911485644271,95.11900009661058,1525.0,1435.0,1200.0,1351.0,1475.0,1021.7000000000002,250.0,289.15,1637182255.6882555,1637182256.7004535,5de21370-ef73-4286-a59e-f91d0f560d4d
0.1152741335955407,0.1092202548917313,0.5275542176577863,0.1942895777718125,0.3980395708587235,0.0052633752971549,0.2680866318677331,0.2436656691172732,-10.557764901090366,20.029200874381644,44.24688556911958,-0.2656588092192135,0.1020711961365698,-1.581235109348805,6712.746365017361,12.039888888888887,0.2244444444444444,179.3721694669893,-4.146881906455188,95.11975597087871,1525.0,1435.0,1200.0,1351.0,1475.0,1021.7000000000002,250.0,289.15,1637182256.8085926,1637182257.9339335,5de21370-ef73-4286-a59e-f91d0f560d4d
0.1906868351403066,0.1544884756802394,0.8135931199178803,0.1911601881691979,0.6531790410261089,-0.0485405433027359,0.5516711157734647,0.5387722458982379,-8.548082379879771,20.45301458661224,44.67101699854929,-0.3613726901260611,0.2723972655247564,-2.7151309833065245,6717.41845703125,12.037,0.2366666666666666,179.39232763195974,-4.157754429248986,95.08057269343018,1525.0,1435.0,1200.0,1262.0,1475.0,1021.7000000000002,250.0,289.15,1637182259.6624985,1637182260.79585,1e084519-8b92-4ec7-90cf-10284ca9e957
0.1992203386988805,0.1661908149567928,0.8148290972479757,0.1763153106040499,0.649786677724472,-0.0502235764342549,0.5504745845241642,0.5280560595009461,-8.58607144296436,20.53186395040696,44.11825274614946,-0.3311912746899131,0.32336357942013,-2.7100443596164383,6700.514322916667,12.03722222222222,0.2255555555555556,179.41589178459628,-4.1724194145794335,95.06836183301402,1525.0,1435.0,1200.0,1262.0,1475.0,1021.7000000000002,250.0,289.15,1637182260.9038346,1637182261.9148724,1e084519-8b92-4ec7-90cf-10284ca9e957
0.2031255012872711,0.1597874001467497,0.8091620096877264,0.178945049832908,0.6459998535752302,-0.0444907446925098,0.549080822858099,0.5252027924954965,-8.39004373933634,20.397674307674578,44.35877220223032,-0.3252756106512146,0.2951424107842453,-2.695397648190311,6681.347601996527,12.034666666666668,0.23,179.3996875402454,-4.156688255692296,95.06807268833914,1525.0,1435.0,1200.0,1262.0,1475.0,1021.7000000000002,250.0,289.15,1637182262.026397,1637182263.253313,1e084519-8b92-4ec7-90cf-10284ca9e957
0.282859191285956,0.1918439204554505,1.0191072260323568,0.1908709168969332,0.8327244712395898,-0.0970592345993845,0.7512551568436899,0.7315847091478593,-6.921659156793655,20.989958586945296,44.48371290133022,-0.4551666029312915,0.4157247632478102,-3.518811522015588,6681.347601996527,12.026333333333334,0.27,179.3908993635133,-4.148416564584325,95.00888454572151,1525.0,1435.0,1200.0,1173.0,1475.0,1021.7000000000002,250.0,289.15,1637182264.1645825,1637182265.185629,65ac5a32-2a69-46b5-a3e1-85f14c6a546d
0.2499348577266794,0.1849540038733859,1.0128090008576602,0.1882017316189657,0.8295556357173512,-0.0906295218207314,0.749243406536684,0.723971614753916,-6.949607580744619,20.77949640744209,44.05958586507129,-0.43648761738344,0.3937660169731484,-3.504434420982204,6680.7685546875,12.02722222222222,0.27,179.38117469195504,-4.12903922304526,94.92822760072276,1525.0,1435.0,1200.0,1173.0,1475.0,1021.7000000000002,250.0,289.15,1637182265.2933135,1637182266.4172258,65ac5a32-2a69-46b5-a3e1-85f14c6a546d
0.2529196115749759,0.177524990770136,1.0080360244373592,0.1963802203870238,0.8264393949866605,-0.0866717640368011,0.7417486503710129,0.7202505340737956,-7.2385868895010255,21.054757543868327,44.60869560987736,-0.4445135306991622,0.3617764197025965,-3.4833807535217822,6680.7685546875,12.028,0.27,179.40542338132838,-4.129434615107213,94.88204413828484,1525.0,1435.0,1200.0,1173.0,1475.0,1021.7000000000002,250.0,289.15,1637182266.525637,1637182267.759153,65ac5a32-2a69-46b5-a3e1-85f14c6a546d
-0.1476291237177438,-0.0054785618452004,-0.3065179868393518,0.2755748139495669,-0.3596913231622836,0.0863913792011288,-0.5969727542657242,-0.6117255962964592,-15.971649011699697,20.7000036873377,43.92328467042161,-0.3065741195176674,-0.349805201701819,1.8017306009697,6673.834309895833,12.041,0.22,179.46090728468613,-4.106009200688185,95.01797400968702,1525.0,1435.0,1200.0,1617.0,1475.0,1021.7000000000002,250.0,289.15,1637182269.682969,1637182270.8310814,23ad6a03-9da1-40c3-af4d-a7a8bec9c26f
-0.1404762324924075,-0.0025595512638588,-0.3090688342496382,0.2680274627337539,-0.3609404494660774,0.0905726645684567,-0.596012898992865,-0.618234203734052,-15.977661379256654,20.400444825506703,43.93379750406867,-0.2822674154964436,-0.3381453081660939,1.805963004621146,6690.039388020833,12.041777777777778,0.22,179.45657846257214,-4.095186528788954,94.97617021632688,1525.0,1435.0,1200.0,1617.0,1475.0,1021.7000000000002,250.0,289.15,1637182270.9388907,1637182272.0668008,23ad6a03-9da1-40c3-af4d-a7a8bec9c26f
-0.1764116221379034,-0.0260957180391407,-0.3123560088268123,0.2892889033370746,-0.3599805944718114,0.0942148533882836,-0.6026398441106997,-0.6345517406555549,-16.31547088851879,20.923816731911725,43.91378250354134,-0.3189109507806952,-0.4266691700476233,1.815431060475936,6686.559895833333,12.04211111111111,0.22,179.4649143289992,-4.105791867863346,94.94927596701504,1525.0,1435.0,1200.0,1617.0,1475.0,1021.7000000000002,250.0,289.15,1637182272.1796167,1637182273.1779354,23ad6a03-9da1-40c3-af4d-a7a8bec9c26f
-0.2627065249792318,-0.0665937039216568,-0.6277275648385799,0.3515479758876915,-0.6441108459733478,0.0910328688733169,-0.9399960945054058,-0.9675557783823472,-18.3790761971834,21.28635418272796,43.46433560712428,-0.4809130131788158,-0.5876242630959534,3.1060561063896728,6687.7197265625,12.035333333333334,0.24,179.44520240305454,-4.120427872321691,94.9620165465468,1525.0,1435.0,1200.0,1706.0,1475.0,1021.7000000000002,250.0,289.15,1637182275.2231014,1637182276.3626404,33f7ec10-2957-4264-b835-6be104a5c2b1
-0.2613259117382005,-0.0554173116585293,-0.6157490984713146,0.3343494824327864,-0.636432004754193,0.0908619358608479,-0.927820394730233,-0.9515406569085216,-18.336277640567594,21.22691367586502,42.83929065565931,-0.4423772176257244,-0.5375932914647964,3.062307978046625,6695.845920138889,12.036666666666669,0.2311111111111111,179.46324776284172,-4.119662796270911,94.89547229019313,1525.0,1435.0,1200.0,1706.0,1475.0,1021.7000000000002,250.0,289.15,1637182276.4753027,1637182277.6521804,33f7ec10-2957-4264-b835-6be104a5c2b1
-0.2468097491182949,-0.0478568110077796,-0.6051775432470841,0.3302207920924024,-0.6298971004304561,0.0864308252541383,-0.9176958929022064,-0.9360120386634564,-18.054286500358725,21.26379594928317,42.79976610519736,-0.4421146643032035,-0.5097032402732744,3.025586816052585,6691.19921875,12.036111111111111,0.2344444444444444,179.47994529863269,-4.1249273068693055,94.83701345999688,1525.0,1435.0,1200.0,1706.0,1475.0,1021.7000000000002,250.0,289.15,1637182277.760679,1637182278.8208525,33f7ec10-2957-4264-b835-6be104a5c2b1
-0.3664760515328259,-0.0813991365458006,-0.8689405009905685,0.4126631113532961,-0.8668104110098142,0.0523494047126503,-1.2126082050140845,-1.2412986845447191,-19.92186427387825,21.971152600716888,41.925829451351646,-0.7141937239380901,-0.6414030025463507,4.121536822087557,6592.841688368056,12.023222222222223,0.2988888888888888,179.4314327416878,-4.148121633221414,94.78472987972025,1525.0,1435.0,1200.0,1795.0,1475.0,1021.7000000000002,250.0,289.15,1637182280.6405537,1637182281.6852255,962d8fda-df6b-4ad9-bf3e-9cbe4d96d447
-0.3453329443370386,-0.082358991391634,-0.8647460649357384,0.4138990886837947,-0.8641938191913251,0.0522573638853235,-1.2094393668525116,-1.2332253784044127,-19.85965616279232,22.136478650457487,41.9668451074856,-0.7158459406257571,-0.6456903228112542,4.107671895382141,6580.469563802083,12.028888888888888,0.2844444444444445,179.45338952313966,-4.160086322236245,94.61899382169008,1525.0,1435.0,1200.0,1795.0,1475.0,1021.7000000000002,250.0,289.15,1637182281.7933135,1637182282.9151428,962d8fda-df6b-4ad9-bf3e-9cbe4d96d447
-0.3414277809469335,-0.0912869566264028,-0.8726089889839693,0.4200395293367164,-0.8677045227314139,0.0568725562921038,-1.2144621727444365,-1.245690353142341,-19.934331954291974,21.99216346742199,42.135590601925685,-0.7206852115448135,-0.6813996053860162,4.129541599825397,6578.22412109375,12.027888888888889,0.2844444444444445,179.41541670699405,-4.154854397332016,94.51223720605286,1525.0,1435.0,1200.0,1795.0,1475.0,1021.7000000000002,250.0,289.15,1637182283.0230515,1637182284.0301068,962d8fda-df6b-4ad9-bf3e-9cbe4d96d447
-0.3972703041720333,-0.1044225048388618,-1.0572956889193794,0.4944742923745403,-1.038716568041474,0.0147046871885977,-1.432441466740467,-1.4475230369107843,-21.18712893514349,23.049272107907587,42.49874821659257,-0.9861098329710588,-0.7458723018691902,4.922836040696763,6624.546278211806,11.996777777777778,0.4111111111111111,179.4349768509571,-4.201833624240095,94.32783424102104,1525.0,1435.0,1200.0,1883.0,1475.0,1021.7000000000002,250.0,289.15,1637182286.1727617,1637182287.2160425,bd33302d-b2bd-4f0b-9c2e-186717f9ba81
-0.3921028654402094,-0.1100238498271503,-1.055954520110577,0.5014693981437515,-1.0362051649749924,0.0121801374707248,-1.4332961320265385,-1.4492323706290682,-21.32879081408521,23.2094453264908,42.27618128449112,-1.0065402766422842,-0.7646790059655126,4.91770897323991,6629.10009765625,11.997333333333334,0.4066666666666667,179.4416461512267,-4.213137445020858,94.02921533486844,1525.0,1435.0,1200.0,1883.0,1475.0,1021.7000000000002,250.0,289.15,1637182287.324496,1637182288.3321145,bd33302d-b2bd-4f0b-9c2e-186717f9ba81
-0.4097221220603855,-0.1029498508634081,-1.0564936171783117,0.5052430735996338,-1.0377567122103182,0.0026210350102237,-1.438279492947813,-1.471282756415954,-21.40992888701177,23.27462163657553,42.374935587047474,-1.0361532261290956,-0.738945881206197,4.928597164850055,6629.10009765625,11.996222222222222,0.4000000000000001,179.4368073416547,-4.211046316201841,93.75917469911307,1525.0,1435.0,1200.0,1883.0,1475.0,1021.7000000000002,250.0,289.15,1637182288.4403064,1637182289.5641854,bd33302d-b2bd-4f0b-9c2e-186717f9ba81
-0.0473314110655232,0.0262875930201272,-0.0296217601940734,0.252253411043942,-0.0860789769291761,0.0747871069768576,-0.2790087188265356,-0.2948693362860124,-13.69913061728212,17.93478010075036,45.95566819501866,-0.2831186136810795,-0.2443818859936422,0.6081374677082368,8435.521592881945,11.860333333333331,6.621111111111111,-179.81213079000634,-4.330648478097467,81.95407836660846,1525.0,1435.0,1350.0,1528.0,1475.0,1021.7000000000002,250.0,289.15,1637182292.6130192,1637182293.5643632,5bf14ce3-eb51-4a9b-90b6-e5aebfde2b16
-0.0552332299508058,0.0427771539145042,-0.0236106143971559,0.2368519055252598,-0.0850150281999431,0.0648538148002984,-0.2707009331109391,-0.2940530215888424,-13.180146521667744,17.59117077623354,44.88141343989116,-0.2725865362994522,-0.1744166539428803,0.5875149777865382,8435.521592881945,11.861555555555556,6.662222222222222,-179.62757604299296,-4.297542598622282,77.13976792425122,1525.0,1435.0,1350.0,1528.0,1475.0,1021.7000000000002,250.0,289.15,1637182293.673213,1637182294.7869003,5bf14ce3-eb51-4a9b-90b6-e5aebfde2b16
-0.0630172585148455,0.0294049297394283,-0.0297642044303975,0.2508947124906534,-0.0858565448559093,0.074767931818018,-0.2764337654807614,-0.2932903971356473,-13.515811292944631,17.704817875926672,46.22029037038704,-0.2814938913306518,-0.2361784520879754,0.6053235809366261,8438.290364583334,11.862222222222222,6.67,-179.444293228985,-4.244804858197714,72.16227287897378,1525.0,1435.0,1350.0,1528.0,1475.0,1021.7000000000002,250.0,289.15,1637182294.8948414,1637182296.0232131,5bf14ce3-eb51-4a9b-90b6-e5aebfde2b16
0.1259558055250446,0.3668267598690911,-0.0117767874981882,0.0753464743789682,-0.149259562088338,-0.1037124753044634,-0.3312112422070299,-0.360743219983972,-12.979879095876832,16.86453136080327,44.73376003236864,-0.2912112760787582,1.0614802473395315,0.7830653008614503,8444.7548828125,11.851000000000004,6.75,-179.5051168224539,-4.081068338047061,64.26317352314229,1576.0,1435.0,1350.0,1528.0,1515.0,1021.7000000000002,250.0,289.15,1637182297.6311104,1637182298.681631,fa4fe496-167a-480c-a866-bcc2aa1b9958
0.120236122774831,0.3411079118625693,-0.0181276079170365,0.0874301260029467,-0.1483128558713807,-0.0928910977079735,-0.3312769856438711,-0.3532090149948079,-13.009084522369465,16.788959566269817,44.24818886044014,-0.2950612604122095,0.9676375983107282,0.7868460287323399,8444.7548828125,11.849777777777778,6.773333333333334,-179.6017473031916,-4.067957220752791,61.062446701966486,1576.0,1435.0,1350.0,1528.0,1515.0,1021.7000000000002,250.0,289.15,1637182298.7897942,1637182300.0053532,fa4fe496-167a-480c-a866-bcc2aa1b9958
0.1145953321687783,0.3538752950175132,-0.0121318022879916,0.0717831777140241,-0.1470374322398161,-0.095205268327969,-0.3244002163863741,-0.3497377585039263,-12.7687811932379,16.666436090788057,43.6994025656229,-0.2654460179373732,1.0209906172692274,0.7679968402936391,8409.773003472223,11.849333333333334,6.822222222222222,-179.69001156110593,-4.037482244768532,58.8660847789528,1576.0,1435.0,1350.0,1528.0,1515.0,1021.7000000000002,250.0,289.15,1637182300.1135938,1637182301.2343311,fa4fe496-167a-480c-a866-bcc2aa1b9958
0.3374049104905228,0.7565469587009833,0.0104406745457193,-0.1299627533952385,-0.2197984888433781,-0.3000603324626684,-0.3894577854208509,-0.4044418243221179,-12.37716946676954,15.73800377908386,44.101514987256,-0.2754628120969127,2.551173005970074,0.9771358145883248,8378.7158203125,11.839555555555554,6.858888888888888,-99.98218357811886,-3.990111515211778,55.627299384811785,1627.0,1435.0,1350.0,1528.0,1556.0,1021.7000000000002,250.0,289.15,1637182302.144819,1637182303.189433,03b83f29-36a0-4eb1-91cd-016eefd3343f
0.3342968876125185,0.7409597286524174,0.0153226759585882,-0.1115622475989574,-0.2119788487773065,-0.3032176635972331,-0.3832537910870101,-0.417755977827813,-12.157564223175113,15.84540144001715,43.93056514751736,-0.3230264532167649,2.490718046663165,0.9491409792481924,8370.5341796875,11.83788888888889,6.889999999999999,179.8804266104272,-3.9714168605666296,54.08230566164051,1627.0,1435.0,1350.0,1528.0,1556.0,1021.7000000000002,250.0,289.15,1637182303.2972453,1637182304.415328,03b83f29-36a0-4eb1-91cd-016eefd3343f
0.3420940639981478,0.752885595003853,0.0101026434533074,-0.1315088209881332,-0.220275677017674,-0.2971035188861299,-0.3878426869653351,-0.4121546315541552,-12.258092814199316,15.737601128537444,43.81392994879976,-0.2653363109641809,2.5393156474963456,0.9751682232846164,8370.5341796875,11.838,6.91,179.80632816485146,-3.975264438935332,52.62288510185059,1627.0,1435.0,1350.0,1528.0,1556.0,1021.7000000000002,250.0,289.15,1637182304.5229518,1637182305.6547668,03b83f29-36a0-4eb1-91cd-016eefd3343f
0.5691457314329993,1.1172753868604297,0.0422643546949378,-0.291751998889719,-0.2772358361735599,-0.4975422844608431,-0.4417392042640683,-0.4572941156361352,-11.64238013150264,15.342909711462395,45.01627032634676,-0.354793055182794,3.912746290983203,1.130621765004201,8378.7158203125,11.828333333333337,6.993333333333333,179.47625547866105,-3.9600669834408375,50.61335807066822,1678.0,1435.0,1350.0,1528.0,1596.0,1021.7000000000002,250.0,289.15,1637182306.6503556,1637182307.7843263,23a65e08-ee35-4461-8123-86d75f22ea48
0.5539195426275808,1.116236639929179,0.0432110608996135,-0.2848489323662813,-0.2771174977968301,-0.5028412103755359,-0.4426464643377313,-0.4594373537266669,-11.518543212578038,15.476245003963772,45.01982718045948,-0.3812781373071509,3.90715470902301,1.1304335978537532,8378.7158203125,11.827,6.976666666666667,179.33329203023357,-3.995600188824183,49.612388155978536,1678.0,1435.0,1350.0,1528.0,1596.0,1021.7000000000002,250.0,289.15,1637182307.8921444,1637182309.0193512,23a65e08-ee35-4461-8123-86d75f22ea48
0.5538932452295505,1.116539059897668,0.0377412032181515,-0.2996675151359153,-0.2829686684559694,-0.4899686334346203,-0.4442900517986441,-0.4725597555426749,-11.59372248721762,15.36970596979533,44.926419068101794,-0.3199560016406068,3.911124860015615,1.1479653094270306,8372.352322048611,11.823777777777778,7.017777777777777,179.18489023340703,-3.971792331243504,48.78019563077446,1678.0,1435.0,1350.0,1528.0,1596.0,1021.7000000000002,250.0,289.15,1637182309.1279974,1637182310.2464736,23a65e08-ee35-4461-8123-86d75f22ea48
0.7703733593736034,1.5088435682649208,0.0715727986264887,-0.4785161162497741,-0.3574691931218445,-0.6979416284405565,-0.511335270451618,-0.530519224241659,-10.723492682955484,16.128231277961916,46.4507826955129,-0.3764664770744724,5.3870133142447685,1.3471275995239895,8418.957465277777,11.815,6.986666666666666,178.83706968011327,-3.986542788802316,47.15269967316364,1729.0,1435.0,1350.0,1528.0,1636.0,1021.7000000000002,250.0,289.15,1637182312.1291587,1637182313.3183584,0650a3f8-1e75-4fa9-b7ac-e0b2f01ce5d3
0.7674149030033961,1.523188797226856,0.0736371439488857,-0.4777534916636163,-0.3562069180392453,-0.7124709435823873,-0.511322121732676,-0.5389343916540553,-10.602572542588389,15.846716700701414,46.49401801596534,-0.4125317258575006,5.439609806869132,1.3445792260672482,8444.7548828125,11.817777777777778,6.9688888888888885,178.7647835113973,-3.968773861949051,46.66011288095653,1729.0,1435.0,1350.0,1528.0,1636.0,1021.7000000000002,250.0,289.15,1637182313.4262593,1637182314.659156,0650a3f8-1e75-4fa9-b7ac-e0b2f01ce5d3
0.7617478154591392,1.5111051442185852,0.0782391875831221,-0.482763146226894,-0.3488699442534051,-0.697783844023727,-0.50257823643084,-0.5402098158578221,-10.83997762117028,15.85255123252402,46.29568672271919,-0.3681105887333139,5.398635501001466,1.3139092860342665,8449.381618923611,11.817,6.982222222222223,178.70016688620933,-3.9677871367733295,46.21710074011024,1729.0,1435.0,1350.0,1528.0,1636.0,1021.7000000000002,250.0,289.15,1637182314.767677,1637182315.887811,0650a3f8-1e75-4fa9-b7ac-e0b2f01ce5d3
-0.2327669399195183,-0.2719106133033779,-0.0604927085797478,0.3701402310335095,-0.0503682121040771,0.2269903839567156,-0.2398014930911514,-0.2747770300068624,-13.637576258729943,18.42593858201789,41.51703416782666,-0.2059790885058779,-1.3403657424911457,0.5042886732725663,8436.443359375,11.846666666666668,6.882222222222222,179.06324759992873,-3.958087793833219,45.44484578105771,1474.0,1435.0,1350.0,1528.0,1435.0,1021.7000000000002,250.0,289.15,1637182317.709997,1637182318.7562416,25d39b2c-8b34-4c80-9aad-a2ad25a606ec
-0.233082508589736,-0.276118196692729,-0.0564429099867842,0.3696142831439691,-0.0440436890266285,0.234485140424305,-0.2336741999408866,-0.2591037818679572,-13.821749130367138,18.35544212998356,41.96829252338314,-0.1882374117330921,-1.358522403995588,0.4814530301203749,8430.912760416666,11.849,6.866666666666668,179.02643439812218,-3.982664948901041,45.26041359799443,1474.0,1435.0,1350.0,1528.0,1435.0,1021.7000000000002,250.0,289.15,1637182318.8645744,1637182319.9836304,25d39b2c-8b34-4c80-9aad-a2ad25a606ec
-0.2403274411138023,-0.2876890510025776,-0.0659757151247381,0.3807775255021111,-0.047251970970664,0.2371937717293381,-0.2401170618237799,-0.2658753612879744,-13.927923556266256,18.13860357365644,42.14452600352978,-0.2092697671851982,-1.4047130596057698,0.5069514631861723,8428.1474609375,11.84722222222222,6.865555555555556,178.99801473989567,-3.966140539432795,45.06493396340362,1474.0,1435.0,1350.0,1528.0,1435.0,1021.7000000000002,250.0,289.15,1637182320.0919333,1637182321.3053343,25d39b2c-8b34-4c80-9aad-a2ad25a606ec
-0.3909457800107763,-0.5514125076756768,-0.0807811477750582,0.5158672192403583,-0.0026910382056303,0.3677471685369864,-0.2033138570741783,-0.2359752228347255,-14.296825100263618,19.195366022252323,41.72777828178517,-0.2146120380869546,-2.405084841900825,0.3820338055069994,8419.869140625,11.835444444444445,6.945555555555556,179.08112599953617,-3.965907506659237,44.85431331724271,1423.0,1435.0,1350.0,1528.0,1394.0,1021.7000000000002,250.0,289.15,1637182322.215988,1637182323.2573433,892df579-1987-46dd-b282-94fa6652b898
-0.3814655682240539,-0.5533716640014107,-0.079926482498447,0.510818120323666,-0.001862670345265,0.3663402581099879,-0.2014598907202379,-0.2128203660616396,-14.273972210337709,19.14113265040788,40.60556914560521,-0.2068683695628715,-2.401973591549501,0.3752750164532494,8419.869140625,11.834,6.973333333333334,179.0459277580134,-3.9703296272599977,44.74682321517964,1423.0,1435.0,1350.0,1528.0,1394.0,1021.7000000000002,250.0,289.15,1637182323.3655405,1637182324.4899666,892df579-1987-46dd-b282-94fa6652b898
-0.3937990477090786,-0.5707410968719462,-0.0944820899740874,0.5219550650080778,-0.0094494682303494,0.374768571768263,-0.2109795477868211,-0.2280728553768841,-14.32826712145682,18.95906929267204,40.75191255709815,-0.2149867368071403,-2.4703293091099967,0.4172424714726612,8427.227647569445,11.836444444444446,6.96,179.04612507458944,-3.9569575398211896,44.64677915767673,1423.0,1435.0,1350.0,1528.0,1394.0,1021.7000000000002,250.0,289.15,1637182324.598838,1637182325.719373,892df579-1987-46dd-b282-94fa6652b898
-0.5891624261555534,-0.9105035519977848,-0.119517209122207,0.6686156089155021,0.0420671242725014,0.5516974131654551,-0.169824124661928,-0.1898890376677845,-15.452363266081642,20.309672710121703,37.830390403014206,-0.1415590787369719,-3.730416876137074,0.2773177515149064,8320.875651041666,11.817,7.17,179.11866168357494,-3.921162415655923,44.29095362267575,1372.0,1435.0,1350.0,1528.0,1354.0,1021.7000000000002,250.0,289.15,1637182327.6532094,1637182328.6750946,fa9b45e1-76ee-4c3d-9478-8a3a7e429274
-0.5980246502920219,-0.9160654536283928,-0.1123774665729108,0.6785954683945661,0.0505085873154415,0.5535250817816713,-0.1601203859975285,-0.186075914807009,-15.225640392731936,20.27403907898793,38.685453821062936,-0.1595944607880052,-3.761237200150591,0.243065545103669,8313.701171875,11.819333333333336,7.153333333333332,179.14353571471233,-3.939459875828087,44.14057790117902,1372.0,1435.0,1350.0,1528.0,1354.0,1021.7000000000002,250.0,289.15,1637182328.782896,1637182330.0235443,fa9b45e1-76ee-4c3d-9478-8a3a7e429274
-0.5950267465338743,-0.9176038519106507,-0.1150992468655686,0.6766626102340823,0.0478131045696143,0.5570752294323316,-0.1610276461374795,-0.1957139099624022,-15.142176336788388,20.236645163399928,38.70884960663889,-0.1475944227045483,-3.767740427697713,0.2516423407571899,8341.574869791666,11.820888888888888,7.110000000000001,179.17168368319184,-3.9435737841425498,44.04437772235903,1372.0,1435.0,1350.0,1528.0,1354.0,1021.7000000000002,250.0,289.15,1637182330.1322358,1637182331.2484744,fa9b45e1-76ee-4c3d-9478-8a3a7e429274
-0.7154294015507885,-1.128430185143553,-0.1214237701910897,0.7777629259785945,0.0848792791256023,0.6485375517024139,-0.1306147094647298,-0.1489702912623851,-15.390966719054418,21.36575329995401,35.661786595146616,-0.1635647939060035,-4.542529843833674,0.1369177940502132,8363.274631076389,11.784,7.245555555555557,179.22705678570304,-3.948581735760246,44.00425984735905,1321.0,1435.0,1350.0,1528.0,1314.0,1021.7000000000002,250.0,289.15,1637182332.1589806,1637182333.187893,6e0ca2eb-b00c-4c29-a8a6-208a61edb12e
-0.7149166021855373,-1.1356093788653794,-0.11596706090044,0.7770134503668521,0.0929394298338834,0.65407315228284,-0.124737241851462,-0.1552159221709246,-15.731731703554258,21.397730145258866,35.39584964346319,-0.149165165157595,-4.564248596852544,0.1086314561175794,8375.079535590277,11.788000000000002,7.231111111111111,179.22467987987187,-3.9538843341496377,43.930385659661056,1321.0,1435.0,1350.0,1528.0,1314.0,1021.7000000000002,250.0,289.15,1637182333.295562,1637182334.412274,6e0ca2eb-b00c-4c29-a8a6-208a61edb12e
-0.7177435730266903,-1.1381207815763827,-0.1295233675727613,0.78516564127183,0.0861415539735147,0.6574918129741019,-0.1352167534451583,-0.1573065651573708,-15.938371312366682,20.981471633057264,36.51208592173787,-0.1632328476359862,-4.583968679775072,0.1526580228352498,8378.7158203125,11.788,7.199999999999999,179.22568012313033,-3.9156198120081953,43.87434509588597,1321.0,1435.0,1350.0,1528.0,1314.0,1021.7000000000002,250.0,289.15,1637182334.520938,1637182335.6378758,6e0ca2eb-b00c-4c29-a8a6-208a61edb12e
-0.0809153742042715,0.0299034844851802,-0.0547275529265265,0.2560199644253844,-0.103542090062707,0.0695139319815809,-0.2990193937296058,-0.3138253764984902,-13.686840854783716,17.122087013388533,46.03872341486817,-0.3100826792942214,-0.2337122942611192,0.6955655851400966,8387.826822916666,11.853111111111112,6.919999999999999,178.97465245729458,-3.939320758155617,43.89052733184954,1525.0,1435.0,1350.0,1528.0,1475.0,1021.7000000000002,250.0,289.15,1637182336.664479,1637182337.801967,cd23d193-84ea-46f6-a00f-fb3b594f14a9
-0.0495913434177009,0.0516262264978656,-0.0495502535622393,0.2423097100146426,-0.1043364904808371,0.0559132493111057,-0.2997179183011915,-0.3171810343965942,-13.719622192234922,17.137440470962844,45.35394800970628,-0.3094843379092537,-0.1439211396811594,0.6920981082269227,8396.043402777777,11.855666666666666,6.876666666666667,178.9697757022272,-3.9409475764066793,44.11161486345854,1525.0,1435.0,1350.0,1528.0,1475.0,1021.7000000000002,250.0,289.15,1637182337.9097044,1637182339.2360728,cd23d193-84ea-46f6-a00f-fb3b594f14a9
-0.0659587314707386,0.0413538075470229,-0.0467835486471969,0.2610739943090162,-0.0998577155823591,0.0652953919467875,-0.2923902584320738,-0.3166468678323302,-13.289032986067092,17.187851978406396,47.747697670924616,-0.3296587661904972,-0.2088463394703225,0.6743716728780541,8437.388346354166,11.855444444444444,6.830000000000001,179.00328309247547,-3.9762504526330136,44.34330398702426,1525.0,1435.0,1350.0,1528.0,1475.0,1021.7000000000002,250.0,289.15,1637182339.3450673,1637182340.667183,cd23d193-84ea-46f6-a00f-fb3b594f14a9
-0.0449640978266022,0.0253419826119509,-0.0943900491019331,-0.2769071187294671,-0.1978834450212709,0.5840563515608855,-0.1955824229528918,-0.2232472828474448,-13.634585331568235,16.193212924534354,49.04155432808064,2.040688198687372,-0.2147199792007485,0.7302823648855926,8511.84375,11.849555555555556,6.782222222222222,179.04801931371924,-3.773351857079361,44.74673252544565,1525.0,1521.0,1350.0,1528.0,1475.0,1021.7000000000002,250.0,289.15,1637182341.6725032,1637182342.719868,0aac879f-ab6a-405c-bfea-3430ec79b657
-0.0356153744991717,0.0510345351934527,-0.0771258100628472,-0.2969325859946032,-0.1884689776136908,0.5703554113729443,-0.1800012164208798,-0.2053519055988364,-13.289791566761966,15.987630655176291,48.178754871999416,2.054605743907298,-0.1095941439747068,0.6737839546971118,8507.151909722223,11.854333333333331,6.827777777777777,179.05632178811032,-3.788249258569067,44.92140968055433,1525.0,1521.0,1350.0,1528.0,1475.0,1021.7000000000002,250.0,289.15,1637182342.8331764,1637182343.943636,0aac879f-ab6a-405c-bfea-3430ec79b657
-0.0327034860565419,0.0476405279565071,-0.080285332373548,-0.2811727758192077,-0.1905837264982005,0.5586317061744609,-0.1855159993331081,-0.2019929613151092,-13.096770776763668,16.052201201238613,48.06728307380738,1.9930608577055065,-0.1248414883663151,0.6885017418912138,8461.427734375,11.84911111111111,6.853333333333333,179.09160958100222,-3.800059888872619,45.02816364000686,1525.0,1521.0,1350.0,1528.0,1475.0,1021.7000000000002,250.0,289.15,1637182344.0521476,1637182345.174258,0aac879f-ab6a-405c-bfea-3430ec79b657
-0.022782246546777,0.0256838486815681,-0.1205165100566601,-0.878486459395448,-0.2873340361495075,1.157615585445415,-0.0589411623904291,-0.092194216789965,-13.294103073896718,14.984403500773931,52.311798027706416,4.677946403682199,-0.1724411966192718,0.6932957830799534,8428.1474609375,11.836888888888888,6.973333333333334,179.10697143535552,-3.611886374827737,45.23345749752507,1525.0,1607.0,1350.0,1528.0,1475.0,1021.7000000000002,250.0,289.15,1637182347.2016327,1637182348.2473288,18c97699-226a-4cf3-be08-2b941c6e05f3
-0.0138022347166768,0.0436822224894198,-0.112855750426768,-0.8805206733431975,-0.2849941157502576,1.143995180204335,-0.0557137051937855,-0.0773405729543878,-13.054016392570192,15.009971476954815,52.65637730038785,4.652654952097007,-0.1089530836262844,0.6778744293034121,8419.869140625,11.837666666666667,6.96,179.12983435523725,-3.601457007988212,45.239617948701465,1525.0,1607.0,1350.0,1528.0,1475.0,1021.7000000000002,250.0,289.15,1637182348.356377,1637182349.472669,18c97699-226a-4cf3-be08-2b941c6e05f3
