raw_voltage_G-,raw_voltage_G0,raw_voltage_G1,raw_voltage_G2,raw_voltage_G3,raw_voltage_G4,raw_voltage_G5,raw_voltage_G6,load_x,load_y,load_z,load_l,load_m,load_n,rpm,voltage,current,roll,pitch,yaw,aileron1_pwm,elevator_pwm,throttle_pwm,rudder_pwm,aileron2_pwm,pbaro,pdiff,Tt,sample_start_time,sample_end_time,uid
-0.0528100347847103,0.0556256216228751,0.0267395794417106,0.2392005913464458,-0.0756285022133914,-0.0490023912474592,-0.2912671404837085,-0.303005093547837,-13.97223510816894,22.080776926788506,30.86629370756264,-0.5040982566407662,0.0065736737403808,0.514790855138502,6707.489800347223,12.041444444444446,0.24,179.16444975395086,-1.7221259636895934,93.84678477668696,1525.0,1435.0,1200.0,1528.0,1475.0,1021.7000000000002,241.0,294.77,1637178350.4370425,1637178351.4813387,5aa32601-dc02-4699-81e1-ab9b1695196a
-0.0447838511208936,0.0587484369597708,0.0214253146106705,0.2295171249377296,-0.0828054992744742,-0.0503446541455859,-0.2965403164098129,-0.3140856109481512,-13.91786595685551,22.06150033064152,29.802665741124,-0.4858055550357771,0.0281832452617544,0.5381567265813857,6686.0126953125,12.042666666666667,0.2466666666666666,179.18871969280167,-1.7463141299978089,93.54758909900444,1525.0,1435.0,1200.0,1528.0,1475.0,1021.7000000000002,241.0,294.77,1637178351.5906627,1637178352.827327,5aa32601-dc02-4699-81e1-ab9b1695196a
-0.0529196071706765,0.059611320166985,0.0159466911243648,0.2277365724096053,-0.0861611562924842,-0.0477833974745197,-0.3007999467363209,-0.3251113426249815,-14.059876736591423,21.883783642238853,30.0191499455738,-0.4775214590932835,0.0303748999170933,0.556627781067839,6603.56396484375,12.041111111111112,0.24,179.23682395621617,-1.7402817330103817,93.28728224172627,1525.0,1435.0,1200.0,1528.0,1475.0,1021.7000000000002,241.0,294.77,1637178352.9359603,1637178354.057243,5aa32601-dc02-4699-81e1-ab9b1695196a
0.1195063701040372,0.3471294664685808,0.0359573633975073,0.0910449218731987,-0.1344278316188449,-0.2074167985950846,-0.347162804941372,-0.3791442762416643,-13.765859586125549,21.31297509590924,29.38502286950238,-0.5306367957563776,1.1303705865833915,0.694239523707243,6600.739800347223,12.03122222222222,0.28,179.19038474113935,-1.7389673840558793,92.78163271273154,1576.0,1435.0,1200.0,1528.0,1515.0,1021.7000000000002,241.0,294.77,1637178356.1067097,1637178357.2472131,bb573589-665f-408a-b5f4-1e562ba94909
0.1024404583846672,0.3473623079444426,0.0344370454137549,0.0903600939634154,-0.1359892394305356,-0.2024038577188508,-0.3476421845875037,-0.3742272111276453,-13.756898724743513,21.31054722852691,30.032329073179067,-0.5178113455783707,1.1254312981038923,0.7000635133528424,6608.089572482639,12.032000000000002,0.2811111111111111,179.1812307698317,-1.7344694317541778,92.571346366385,1576.0,1435.0,1200.0,1528.0,1515.0,1021.7000000000002,241.0,294.77,1637178357.3854096,1637178358.3573608,bb573589-665f-408a-b5f4-1e562ba94909
0.0977151457709134,0.3429520164029707,0.0343411694879874,0.0936883575852494,-0.1347839421825232,-0.2012396500877876,-0.3476695776666528,-0.3589555448427776,-13.829009188213766,21.346589216708264,30.018691605410243,-0.5225072826342003,1.1091060247910864,0.6980026277441217,6625.115505642361,12.030444444444443,0.28,179.18241922274728,-1.735451117293792,92.39879529738296,1576.0,1435.0,1200.0,1528.0,1515.0,1021.7000000000002,241.0,294.77,1637178358.465626,1637178359.5022116,bb573589-665f-408a-b5f4-1e562ba94909
0.3299709668441774,0.7585789799412842,0.0660371975175879,-0.1021214829479185,-0.2024854891659789,-0.4223843189687619,-0.4081442780664975,-0.4436983604856078,-13.139083311881471,20.479929053898623,30.73695775117244,-0.58145501221768,2.682813780310505,0.8835377475977461,6656.5576171875,12.021333333333336,0.3133333333333333,179.12280836731108,-1.731712359491085,92.01415926555296,1627.0,1435.0,1200.0,1528.0,1556.0,1021.7000000000002,241.0,294.77,1637178361.6038074,1637178362.5653846,36a20f5d-2da7-4763-bf0f-7354dae89a90
0.3548680214471355,0.7734896000720255,0.0722943333674195,-0.1187589676705537,-0.2032804374733139,-0.4216994909578142,-0.4042363751490261,-0.4192888968839712,-13.039473830280874,20.64877195918057,30.76983766402721,-0.5408997971757493,2.740189209110126,0.8722323547320086,6677.302734375,12.023333333333332,0.31,179.11888783872746,-1.7078164802190705,91.84507793264927,1627.0,1435.0,1200.0,1528.0,1556.0,1021.7000000000002,241.0,294.77,1637178362.673878,1637178363.7982852,36a20f5d-2da7-4763-bf0f-7354dae89a90
0.3403770634823375,0.7487399210519925,0.0663637235152046,-0.112116136380733,-0.2036091549406099,-0.4086466679209843,-0.4054416725729884,-0.4419293130180748,-13.18685812233882,20.73333853151153,30.020343703249363,-0.5264813267789953,2.653856351397176,0.8783488996039366,6701.66259765625,12.023999999999996,0.31,179.12769726493696,-1.684415410206928,91.68877436586293,1627.0,1435.0,1200.0,1528.0,1556.0,1021.7000000000002,241.0,294.77,1637178363.9097335,1637178365.029383,36a20f5d-2da7-4763-bf0f-7354dae89a90
0.5611792658419416,1.14702211952843,0.1025500309728142,-0.2893085323751543,-0.265312158387521,-0.6247373310443765,-0.4588993523604229,-0.4870320920526192,-12.160424135239722,20.118520321358417,31.51724434089648,-0.6138818390613774,4.15122467780142,1.0388969829877313,6704.575737847223,12.011,0.35,179.00095172123875,-1.6743280390025634,91.4486287091948,1678.0,1435.0,1200.0,1528.0,1596.0,1021.7000000000002,241.0,294.77,1637178366.139065,1637178367.254547,61687473-3524-4b12-be1a-e238db4df858
0.5563854707965372,1.1470632091848576,0.1016597546539838,-0.2941982045065783,-0.2648738685202665,-0.6157112959611445,-0.4564887575455256,-0.4943049658706108,-12.2266872634749,19.951935621700827,32.17382456109261,-0.5836465631063632,4.146571288560282,1.0369915648955734,6706.90625,12.010777777777776,0.3499999999999999,179.02063632642674,-1.6635924045833803,91.2833707644065,1678.0,1435.0,1200.0,1528.0,1596.0,1021.7000000000002,241.0,294.77,1637178367.3633392,1637178368.3013198,61687473-3524-4b12-be1a-e238db4df858
0.5578373058648881,1.1394342263323742,0.096770083333333,-0.2891989600588219,-0.2695306990198413,-0.6122460654582461,-0.4623097963010107,-0.4885250168737015,-12.26441774123882,20.19355271741284,32.21425048467193,-0.5857911106365637,4.116945322170615,1.0573396088773712,6712.158203125,12.012777777777778,0.35,179.05590590548087,-1.65726103266619,91.09778465882846,1678.0,1435.0,1200.0,1528.0,1596.0,1021.7000000000002,241.0,294.77,1637178368.4095805,1637178369.5767622,61687473-3524-4b12-be1a-e238db4df858
0.7741470348425482,1.5164457068972597,0.1314497690190471,-0.4745956125038224,-0.3368492944582712,-0.8165851056038266,-0.5216980893573157,-0.5525838387869998,-11.55399218798756,20.539927268056328,31.307898620343853,-0.6225226841933741,5.559003029206088,1.2293831983738428,6717.41845703125,11.999333333333333,0.4044444444444444,178.930112034807,-1.660754342403567,90.75679733034436,1729.0,1435.0,1200.0,1528.0,1636.0,1021.7000000000002,241.0,294.77,1637178371.5611408,1637178372.6936083,4a501451-47cf-442a-abbb-2bbe8ddc3c83
0.7750099179621457,1.5133913739845786,0.1347917292475076,-0.4851556616913512,-0.3340278029394376,-0.8046143077241767,-0.5146717530239444,-0.5499130090159506,-11.578793986726543,20.52282382401434,31.242140555760045,-0.5717717595493451,5.549817517343052,1.2104155224745408,6705.1611328125,11.998,0.4,178.95656611637236,-1.6413799060664929,90.59133751552064,1729.0,1435.0,1200.0,1528.0,1636.0,1021.7000000000002,241.0,294.77,1637178372.801936,1637178373.76909,4a501451-47cf-442a-abbb-2bbe8ddc3c83
0.761765347054426,1.5015164566002586,0.1284502227702481,-0.4724589488014787,-0.3354796383589158,-0.8072029583922443,-0.5215474272178896,-0.551296362280584,-11.77419318588348,20.529865960128216,30.832465177454896,-0.6066622219285037,5.508328151919002,1.2287837523686873,6685.97998046875,12.000888888888888,0.39,178.9827697576682,-1.6304677658039148,90.43658440167584,1729.0,1435.0,1200.0,1528.0,1636.0,1021.7000000000002,241.0,294.77,1637178373.876982,1637178374.9426298,4a501451-47cf-442a-abbb-2bbe8ddc3c83
-0.2344127186651104,-0.2886784905180704,0.0039211125098471,0.3988202746568808,-0.0214038248472284,0.1186982731970699,-0.2416034127003342,-0.2754476139237294,-14.1864484132663,23.10453890559731,27.73721164114423,-0.4822715591430637,-1.276608763716952,0.3560838575382408,6685.97998046875,12.036,0.26,179.42315151677408,-1.6221107329052216,90.08802618795175,1474.0,1435.0,1200.0,1528.0,1435.0,1021.7000000000002,241.0,294.77,1637178376.9936588,1637178378.1314228,4766d7ca-2fda-4bfb-bcaa-69dd0b48fe33
-0.2309337923696716,-0.2759132961559773,0.0059618997630783,0.3962727149494683,-0.0216914526058492,0.1049058389961203,-0.2441783659558436,-0.255834139398528,-14.22121488335125,23.06721581826189,27.219973955540336,-0.5077640827527078,-1.2234587894171838,0.3581437235587619,6685.97998046875,12.034222222222224,0.26,179.43705474628462,-1.622651942391174,90.0725603629411,1474.0,1435.0,1200.0,1528.0,1435.0,1021.7000000000002,241.0,294.77,1637178378.2391708,1637178379.3595908,4766d7ca-2fda-4bfb-bcaa-69dd0b48fe33
-0.237001368549104,-0.2788580566121258,0.0100434743310702,0.4015321929870839,-0.0166100292168078,0.1080971370156659,-0.2381381828997806,-0.2618469302764564,-14.11639488161663,23.025225300602617,27.99040819552156,-0.5123564535260511,-1.2424631773511094,0.3379260377865509,6693.522569444444,12.035555555555554,0.26,179.43208843984812,-1.618473669030157,90.07528560841996,1474.0,1435.0,1200.0,1528.0,1435.0,1021.7000000000002,241.0,294.77,1637178379.468914,1637178380.680723,4766d7ca-2fda-4bfb-bcaa-69dd0b48fe33
-0.3969224116422615,-0.5636369637184435,-0.0064334859716508,0.5376896700893131,0.0308211539364024,0.2528834527174213,-0.1974593995466432,-0.2336731049387179,-14.605362832286032,24.10173544350905,26.81329572110141,-0.4882580788988762,-2.3144539042667014,0.2021566265140123,6712.158203125,12.022333333333334,0.31,179.47182496261942,-1.6190403731458238,90.01753104661813,1423.0,1435.0,1200.0,1528.0,1394.0,1021.7000000000002,241.0,294.77,1637178382.5232074,1637178383.6677697,36f12848-fe81-4dbd-b244-553a2325d84f
-0.3918409873447581,-0.5724164604354547,-0.0068854724019099,0.5423054098996398,0.0319853613791122,0.2587044897637935,-0.1968019646615534,-0.2120599330241786,-14.661053172705897,24.20707105147453,27.02182369294296,-0.4849084255368392,-2.34943153393132,0.1994410782181096,6716.833984375,12.018444444444444,0.3188888888888889,179.49804378211337,-1.6276855902240293,89.90501278696108,1423.0,1435.0,1200.0,1528.0,1394.0,1021.7000000000002,241.0,294.77,1637178383.7763538,1637178384.8896482,36f12848-fe81-4dbd-b244-553a2325d84f
-0.3890879785495831,-0.5605141474913415,-0.0182536163103166,0.5320192953561086,0.0192749549341246,0.2587044897665844,-0.2067593637604698,-0.2313720833510357,-14.545491312377386,23.932721294428763,27.253633925554897,-0.4639951038002099,-2.307121962160371,0.2482967102649837,6711.574652777777,12.02211111111111,0.3011111111111111,179.485752477247,-1.6027910448032137,89.82452507887173,1423.0,1435.0,1200.0,1528.0,1394.0,1021.7000000000002,241.0,294.77,1637178384.9974155,1637178386.0057786,36f12848-fe81-4dbd-b244-553a2325d84f
-0.6037405000192154,-0.9503320714380392,-0.036648094989405,0.7337695839584987,0.0915243014470331,0.4452516044652639,-0.1473299908007,-0.167641989934246,-15.103074026430647,25.18840431699636,26.031727863200416,-0.4929653504769837,-3.780384623374458,0.0423217023468707,6699.917317708333,12.011333333333331,0.3566666666666667,179.59388651436683,-1.573982694266275,89.5907853807352,1372.0,1435.0,1200.0,1528.0,1354.0,1021.7000000000002,241.0,294.77,1637178388.055375,1637178389.192078,4944860b-59ed-4d63-943f-48db696fd9dc
-0.6022612711904342,-0.9530165984304708,-0.0366480950102672,0.7372211163914965,0.0910175287509708,0.4432108174051838,-0.1495351369307813,-0.1630673385185652,-15.152973253915295,25.375968899549303,25.809161567914856,-0.504154291106409,-3.788549234397383,0.0454312528049913,6700.5,12.012666666666668,0.35,179.61908080548528,-1.5758187463505062,89.36812804398194,1372.0,1435.0,1200.0,1528.0,1354.0,1021.7000000000002,241.0,294.77,1637178389.3044834,1637178390.511183,4944860b-59ed-4d63-943f-48db696fd9dc
-0.5995630483412132,-0.9375394782649836,-0.0324158582954714,0.7249490010779861,0.0909627425426415,0.438362236052457,-0.1458781554713422,-0.1719427097627191,-14.976250356849528,25.24154670289795,25.700340425736925,-0.4879755681005993,-3.7290099643561967,0.0363205100856087,6696.4267578125,12.005777777777777,0.3544444444444444,179.5994842338466,-1.57785414272317,89.21580192402223,1372.0,1435.0,1200.0,1528.0,1354.0,1021.7000000000002,241.0,294.77,1637178390.6201825,1637178391.7336626,4944860b-59ed-4d63-943f-48db696fd9dc
-0.710792840793803,-1.1499732445523208,-0.0369357227942452,0.8251119246774458,0.132641369569172,0.529622397810496,-0.1123078881832273,-0.1371260554587391,-15.39506530586163,26.167991302465023,22.300594338265693,-0.5036811208181536,-4.505272636724137,-0.0923775507986464,6698.1748046875,11.967666666666666,0.51,179.6494614869135,-1.5650288498729172,88.85250567988906,1321.0,1435.0,1200.0,1528.0,1314.0,1021.7000000000002,241.0,294.77,1637178393.4710276,1637178394.607577,11d76084-a476-4f4b-9b38-e3e70e6b25c3
-0.722558189259004,-1.156369542415436,-0.0422636841990472,0.8230437444962192,0.1266696701777041,0.5345942481327796,-0.1188685400972997,-0.1441934794559052,-15.529133717385044,26.436451987554964,21.79772328074621,-0.4864766872783407,-4.523935380050684,-0.0693455925341185,6687.7197265625,11.966,0.5,179.65087305934196,-1.573529020294998,88.45114099696188,1321.0,1435.0,1200.0,1528.0,1314.0,1021.7000000000002,241.0,294.77,1637178394.7153826,1637178395.8437328,11d76084-a476-4f4b-9b38-e3e70e6b25c3
-0.7156825143037505,-1.1579720411414771,-0.0469342108684185,0.8182088597670433,0.1238618756952465,0.543168292996961,-0.1204573409887059,-0.1446865561173325,-15.635606805629374,26.27678232438716,22.13865549156222,-0.4575936280576262,-4.531917324405899,-0.0566570872449587,6685.97998046875,11.97011111111111,0.4922222222222221,179.65242427119347,-1.5663739702525863,88.09483355416945,1321.0,1435.0,1200.0,1528.0,1314.0,1021.7000000000002,241.0,294.77,1637178395.9609177,1637178397.065018,11d76084-a476-4f4b-9b38-e3e70e6b25c3
-0.0599185489769403,0.0366832810072888,0.0215896733121211,0.2552529571437602,-0.074258846283223,-0.0499337572944551,-0.295526770852165,-0.3262481578074225,-14.159788095728407,22.089471071565526,30.161840298291352,-0.5428068646444905,-0.0592033326360292,0.5227304547189904,6692.360894097223,12.039222222222222,0.24,179.38082711121726,-1.5779214485456163,87.75706400369435,1525.0,1435.0,1200.0,1528.0,1475.0,1021.7000000000002,241.0,294.77,1637178397.9760494,1637178399.1153195,2a938d64-1e4c-4ea6-9b4d-95648c59422b
-0.076724227088003,0.0150290217313094,0.0073041625269081,0.267237445311031,-0.082558961212151,-0.0347442733045557,-0.3043610524807736,-0.3320281064026829,-14.176038246701944,22.102853230466707,30.78428781533933,-0.5362397043691395,-0.1482026379305321,0.5644323341450485,6703.4130859375,12.038333333333334,0.24,179.3360514266583,-1.5465063373391947,88.03173095424752,1525.0,1435.0,1200.0,1528.0,1475.0,1021.7000000000002,241.0,294.77,1637178399.22336,1637178400.3426926,2a938d64-1e4c-4ea6-9b4d-95648c59422b
-0.0737109840368688,0.0226717014864863,0.0070028382305539,0.2684290458357278,-0.0841203689496276,-0.0462356863399464,-0.3094287799034887,-0.3227144447700267,-14.278919236168043,22.15394471219132,30.35075186062989,-0.564547610799025,-0.1151323049625256,0.5744159629915878,6706.90625,12.041444444444444,0.2377777777777777,179.30603046852636,-1.5495260635781825,88.30943354443181,1525.0,1435.0,1200.0,1528.0,1475.0,1021.7000000000002,241.0,294.77,1637178400.4513376,1637178401.542683,2a938d64-1e4c-4ea6-9b4d-95648c59422b
-0.0332376518857634,0.0398060964407161,-0.0102959155423066,-0.2291258464089913,-0.1562053613730042,0.4152698401601529,-0.1954186120996298,-0.2225788910342927,-13.89265234069298,20.99828225816453,33.59398994462087,1.587067903077789,-0.0222031368475425,0.5368816359286662,6700.514322916667,12.037444444444445,0.25,179.26768275088628,-1.399461151262596,88.71896789251625,1525.0,1521.0,1200.0,1528.0,1475.0,1021.7000000000002,241.0,294.77,1637178403.505088,1637178404.645546,d7814180-8a93-4271-a7f4-7c6ecb7a457d
-0.0490708740988009,0.0319168786356912,-0.0160484702886953,-0.2292217224481191,-0.1621633648527902,0.4251450581361403,-0.1982401034320507,-0.2321938768160928,-13.734139801954491,21.11461223736666,33.85097824258737,1.610080592546736,-0.05554299782735,0.5563253500364661,6687.7197265625,12.037666666666668,0.24,179.25918447773898,-1.3901386189496654,88.79576274499432,1525.0,1521.0,1200.0,1528.0,1475.0,1021.7000000000002,241.0,294.77,1637178404.7545776,1637178405.7867076,d7814180-8a93-4271-a7f4-7c6ecb7a457d
-0.0540975113921216,0.0182340164747075,-0.0175550917812471,-0.2235102566609514,-0.1593007839059247,0.4301306050527169,-0.1955007915323425,-0.2205654975153692,-13.725066043395932,20.987731020929925,33.40797790162291,1.6074179347280904,-0.1038008383064049,0.5484079636817031,6690.039388020833,12.03788888888889,0.24,179.25408156751908,-1.3914378252799138,88.88096100688125,1525.0,1521.0,1200.0,1528.0,1475.0,1021.7000000000002,241.0,294.77,1637178405.8997242,1637178407.0087855,d7814180-8a93-4271-a7f4-7c6ecb7a457d
-0.0264167655323945,0.0004147934881467,-0.0656984968249063,-0.7736463745987039,-0.261463425006645,0.9743359182689876,-0.0920917665655068,-0.109226162835183,-13.722305875934026,20.08736893940264,36.49532164251895,4.063419935631422,-0.1333501174777772,0.6036956258135903,6685.97998046875,12.029,0.27,179.28381869334547,-1.2297195311652604,89.0414947374936,1525.0,1607.0,1200.0,1528.0,1475.0,1021.7000000000002,241.0,294.77,1637178408.9610589,1637178409.8987732,91ea4ed8-871b-4da9-93ed-c40aaab69650
-0.0310188093054788,0.0281640215305654,-0.0500981159573818,-0.7773992335081221,-0.2513279703610963,0.9544896063240372,-0.0840518861770831,-0.1006521166474961,-13.73393002311406,20.02668740768898,37.13935458792062,4.027759493898319,-0.0334494067203691,0.5614285387303638,6691.19921875,12.031333333333334,0.27,179.28768002695628,-1.2293424833787343,89.01511199345957,1525.0,1607.0,1200.0,1528.0,1475.0,1021.7000000000002,241.0,294.77,1637178410.0077655,1637178411.1105182,91ea4ed8-871b-4da9-93ed-c40aaab69650
-0.0354154048413173,0.0154673115648788,-0.0509199095107645,-0.7677294586073126,-0.2499172246150144,0.9561879794411604,-0.083394451311335,-0.1104588533340975,-13.64641436822381,20.12613283341473,36.87594924051172,4.010383702720719,-0.0805956150313174,0.5578885597395952,6691.19921875,12.031,0.27,179.27640110790685,-1.2038236159790978,88.97833597823849,1525.0,1607.0,1200.0,1528.0,1475.0,1021.7000000000002,241.0,294.77,1637178411.2271702,1637178412.427425,91ea4ed8-871b-4da9-93ed-c40aaab69650
-0.0169968201572519,0.0080645955265596,-0.0801105642613059,-1.2719088763360678,-0.3384956210782737,1.4495166461349445,0.0116673382727303,-0.0240576710532075,-14.017612033532032,20.39992435038435,40.22618118603759,6.256973021059264,-0.0751966871472318,0.5820147088595901,6688.299641927083,12.012333333333332,0.3344444444444445,179.2547099449227,-1.0613837679561513,88.90820056020117,1525.0,1693.0,1200.0,1528.0,1475.0,1021.7000000000002,241.0,294.77,1637178413.5409534,1637178414.678817,66df7ca7-3357-462c-85b2-afb044e44dfc
-0.0189932305900643,0.0092216808136594,-0.0845723554592337,-1.2696538732429188,-0.3425059741255594,1.446689128470463,0.0064960655596716,-0.0230748054788747,-14.014009424958749,20.366957920456752,40.24386665891078,6.245096403599059,-0.0716002101022895,0.6011224304582056,6685.97998046875,12.012999999999998,0.33,179.2538523767269,-1.0636433154848584,88.74681912722183,1525.0,1693.0,1200.0,1528.0,1475.0,1021.7000000000002,241.0,294.77,1637178414.7869918,1637178415.929641,66df7ca7-3357-462c-85b2-afb044e44dfc
-0.0044611815614332,0.008920356473091,-0.0807647119644386,-1.2756118812061283,-0.3411774077344256,1.450811792838916,0.0110981093273689,-0.0202670115232109,-13.901006209541388,20.489204758360724,40.03846035657027,6.268824511418575,-0.0707326418615937,0.5872207534029368,6685.97998046875,12.015,0.32,179.23264691608378,-1.0720371436561118,88.6110767065669,1525.0,1693.0,1200.0,1528.0,1475.0,1021.7000000000002,241.0,294.77,1637178416.037671,1637178417.2475574,66df7ca7-3357-462c-85b2-afb044e44dfc
-0.0072278865136913,0.0028253878298994,-0.0959815893146315,-1.7249006055156355,-0.4201106897913884,1.890087897435132,0.0978795045320522,0.0816764752240809,-14.033120201906106,21.782862461098137,43.08085795738446,8.277658444494604,-0.0652477735759712,0.5909056045515402,6690.622992621527,12.009,0.3455555555555555,179.25855761815512,-1.0101524399825896,88.42655611049938,1525.0,1780.0,1200.0,1528.0,1475.0,1021.7000000000002,241.0,294.77,1637178417.8216908,1637178418.7752578,db10acfc-3f23-457b-852a-a9d5647f8920
-0.0089399563513638,-0.02325286030586,-0.1068429608804604,-1.7193124017771468,-0.4210831456466,1.9113586595413865,0.0976329664887614,0.0791152184519117,-14.190610290442716,21.432147247755683,43.165993366999736,8.30991960581329,-0.1640794648145611,0.6044337938460506,6704.575737847223,12.002555555555556,0.3711111111111111,179.27289797977252,-0.9037453616477517,88.26469884100786,1525.0,1780.0,1200.0,1528.0,1475.0,1021.7000000000002,241.0,294.77,1637178418.8840053,1637178420.0028064,db10acfc-3f23-457b-852a-a9d5647f8920
-0.0002837312099782,-0.0127202064896283,-0.0947352024003848,-1.7187508419208803,-0.4128104225290385,1.901976513943976,0.1063987638514105,0.0882645198939802,-14.033585394903554,21.520356766001743,43.45114435342134,8.288882064619584,-0.1275143555488371,0.5659363754050538,6717.41845703125,12.006777777777778,0.3455555555555555,179.27199943044172,-0.8844697021783622,88.03186604021111,1525.0,1780.0,1200.0,1528.0,1475.0,1021.7000000000002,241.0,294.77,1637178420.1114178,1637178421.2361455,db10acfc-3f23-457b-852a-a9d5647f8920
-0.0919821941165309,0.0384364405375465,0.0594743545537653,0.8768027322328004,0.0238496055324509,-0.6514867193837511,-0.4273424743165065,-0.4586665129332339,-14.057590374572348,23.5651317299598,25.87699405557876,-3.285603551714613,-0.0894741326126095,0.5242240531794128,6726.205240885417,12.043666666666669,0.2233333333333333,179.2629638490797,-1.7494544873382318,87.86219427539919,1525.0,1349.0,1200.0,1528.0,1475.0,1021.7000000000002,241.0,294.77,1637178422.0505354,1637178423.1876633,c5800146-20c9-4e2d-a6af-a0af387ceac9
-0.103651662694349,0.0234661019064904,0.0577622847186414,0.8747208554893583,0.0237674261675891,-0.6294763421053986,-0.4236444027836771,-0.4595841812625441,-14.105632146087077,23.715379839951293,26.653823802263663,-3.2304366798500674,-0.1520166633668083,0.5205751800639219,6727.377983940973,12.042666666666666,0.22,179.2342785723855,-1.741300830436856,88.31074418184257,1525.0,1349.0,1200.0,1528.0,1475.0,1021.7000000000002,241.0,294.77,1637178423.2957954,1637178424.6215012,c5800146-20c9-4e2d-a6af-a0af387ceac9
-0.1120476535133722,0.0211924731434562,0.0494210805381467,0.8749673935258556,0.0201104450008444,-0.6289284795479445,-0.4301091798132718,-0.4444631774860367,-14.344846999500607,23.40507986476962,26.39544921270433,-3.232395642314098,-0.1571254866483538,0.5454532670539917,6724.446126302083,12.043333333333331,0.2266666666666666,179.24907579776735,-1.7087852287163503,88.63230721123702,1525.0,1349.0,1200.0,1528.0,1475.0,1021.7000000000002,241.0,294.77,1637178424.7301846,1637178425.7631197,c5800146-20c9-4e2d-a6af-a0af387ceac9
-0.1308941194076759,0.0341905073793721,0.0984410634490546,1.4203369481919077,0.1112336489715961,-1.1678335709195231,-0.5476256820308878,-0.5742244072616979,-14.72973898643798,25.89231569182172,22.69843445545793,-5.655461453109068,-0.136881113971113,0.5216893253164524,6704.577473958333,12.031777777777778,0.2566666666666666,179.25488752984114,-1.9155450037272088,89.20435452697329,1525.0,1262.0,1200.0,1528.0,1475.0,1021.7000000000002,241.0,294.77,1637178427.4548976,1637178428.5139532,6076bd04-bee1-4929-90d0-eb44204b5ad1
-0.1229638115140257,0.0312320506723655,0.1005777265683398,1.4241445915860182,0.112219801193868,-1.1658064787843776,-0.5463655983788683,-0.5722794971123032,-14.670450952911551,26.099472695247425,23.08299312296885,-5.657924611714628,-0.1521349213483859,0.515813791449239,6688.301486545139,12.023555555555554,0.28,179.24910918980328,-1.9176469232964768,89.39957651165041,1525.0,1262.0,1200.0,1528.0,1475.0,1021.7000000000002,241.0,294.77,1637178428.6225164,1637178429.8348095,6076bd04-bee1-4929-90d0-eb44204b5ad1
-0.1117600258318824,0.0521193026315174,0.1020158651981369,1.4068321405934203,0.1095078826213763,-1.1746133727707952,-0.5488720693223077,-0.5722247106878569,-14.829678117541482,25.9659744039822,22.472837240960192,-5.639653010427644,-0.0650398206930384,0.5225742920598573,6687.139811197917,12.023111111111112,0.2877777777777777,179.24697665296242,-1.923271133475224,89.54747439229823,1525.0,1262.0,1200.0,1528.0,1475.0,1021.7000000000002,241.0,294.77,1637178429.9436123,1637178431.0627964,6076bd04-bee1-4929-90d0-eb44204b5ad1
-0.1398242762946411,0.045873671895584,0.1392568071979255,1.9516402516592528,0.1925227218443261,-1.69012499503584,-0.6761268374762661,-0.6986439896293716,-15.7009586220711,28.771166888375657,19.26307679920186,-8.007530002322339,-0.1185190863794204,0.5376587638449475,6701.66259765625,12.019444444444444,0.3044444444444444,179.25760442731098,-2.093302099832868,89.7447788257623,1525.0,1176.0,1200.0,1528.0,1475.0,1021.7000000000002,241.0,294.77,1637178431.9537036,1637178433.0254524,806392da-b0af-41a0-8cfa-e95a17e1ec30
-0.1327705480822539,0.0599400375507392,0.1478719423513508,1.9367931769582711,0.196001647586469,-1.686810423357463,-0.6660735595421878,-0.6923024815966583,-15.466498844582969,28.6878531571384,19.82130930224624,-7.966506668227647,-0.0699959787868437,0.5094205837254754,6691.19921875,12.016444444444444,0.31,179.25921028067583,-2.1104727685194566,89.84125372996893,1525.0,1176.0,1200.0,1528.0,1475.0,1021.7000000000002,241.0,294.77,1637178433.1592522,1637178434.1009295,806392da-b0af-41a0-8cfa-e95a17e1ec30
-0.1413856840161059,0.0469283069075512,0.1372708062625927,1.9464355575389227,0.1882356991907293,-1.6857968764578548,-0.6757981197288094,-0.7068619276999337,-15.427480587475197,28.78111991101505,19.33592900810937,-7.985947262056858,-0.1166297852864257,0.5461088497132086,6691.19921875,12.020333333333332,0.3066666666666666,179.27197059186523,-2.126077450327278,89.9561640736553,1525.0,1176.0,1200.0,1528.0,1475.0,1021.7000000000002,241.0,294.77,1637178434.2085886,1637178435.2717593,806392da-b0af-41a0-8cfa-e95a17e1ec30
-0.1529932206407018,0.0522979533945947,0.1662056786660563,2.2381545216153933,0.2334784076953335,-1.9702301757192944,-0.7480004507844366,-0.7829302651724505,-16.20361455472231,31.17245025819601,17.64662789972406,-9.26652016423367,-0.1100668041178477,0.5471466852170658,6685.97998046875,12.000333333333336,0.3677777777777777,179.21522082678132,-2.2134063992121606,90.18628225371192,1525.0,1090.0,1200.0,1528.0,1475.0,1021.7000000000002,241.0,294.77,1637178437.0013163,1637178438.0265772,c9da26b7-0fc0-4bd9-9333-2f51f9e6711f
-0.1500829994155683,0.0620082179006754,0.1727038022472916,2.216874225828717,0.2360092933727325,-1.9534006482514807,-0.7360082153760269,-0.7487734147605908,-16.043115198401996,31.018730612345205,18.67748938861101,-9.181149181668411,-0.0808904834906435,0.5203851067754179,6685.97998046875,12.006777777777778,0.3544444444444444,179.2464636298647,-2.2311588197749312,90.16399306972043,1525.0,1090.0,1200.0,1528.0,1475.0,1021.7000000000002,241.0,294.77,1637178438.1343832,1637178439.256204,c9da26b7-0fc0-4bd9-9333-2f51f9e6711f
-0.152411414601064,0.0557625872042729,0.1770730042851289,2.2122858771331058,0.2393923431561814,-1.9478535339116303,-0.727365683375579,-0.7546903312054353,-15.753082720128925,31.00755635347264,18.04452946418063,-9.158145305508624,-0.099916548119489,0.4960351688796245,6680.190483940973,12.00311111111111,0.3688888888888889,179.24042877827813,-2.2140739790557253,90.17419357779092,1525.0,1090.0,1200.0,1528.0,1475.0,1021.7000000000002,241.0,294.77,1637178439.36495,1637178440.4835663,c9da26b7-0fc0-4bd9-9333-2f51f9e6711f
-0.0824219957074742,0.0104406745320698,0.0162617120016012,0.2552255641212513,-0.0774227514350366,-0.0200478655176604,-0.2933216245726929,-0.3222898512656426,-14.128051010390562,22.408782433198567,30.73505734727265,-0.4736286769995523,-0.1632630741779094,0.5286867642505769,6680.7685546875,12.040555555555557,0.22,179.2507211144474,-1.6607133375526122,90.1840745847902,1525.0,1435.0,1200.0,1528.0,1475.0,1021.7000000000002,241.0,294.77,1637178441.5071752,1637178442.7375126,17a1c94e-56e2-4ee4-8273-7db61fa47339
-0.0810523397228691,0.0210007213306206,0.0218088182997232,0.2682372940455185,-0.0723687211340852,-0.0382231993465613,-0.2960609367805984,-0.3261111913529027,-14.331071464769012,22.527656147596,31.33559738751648,-0.542764582436512,-0.1287904700618289,0.5201899712208894,6700.499077690973,12.041999999999998,0.22,179.2686420130097,-1.6444542382449392,90.26249350447092,1525.0,1435.0,1200.0,1528.0,1475.0,1021.7000000000002,241.0,294.77,1637178442.845723,1637178443.87045,17a1c94e-56e2-4ee4-8273-7db61fa47339
-0.0741903635612508,0.0212609559588494,0.0280407524957142,0.2732091445096656,-0.0677118909905426,-0.0446057957998526,-0.29186978917995,-0.31572919841653,-14.199228387014768,22.66787017332164,31.153196430731168,-0.567045310307882,-0.1273456616742102,0.4992375629475029,6779.441677517361,12.041666666666666,0.22,179.27415777021943,-1.6236146788990284,90.34379552289133,1525.0,1435.0,1200.0,1528.0,1475.0,1021.7000000000002,241.0,294.77,1637178443.978522,1637178445.1937768,17a1c94e-56e2-4ee4-8273-7db61fa47339
-0.012816082454079,0.0472570242874071,0.2605946147906023,0.2544722533445582,0.1446258580618213,-0.0626578607512059,-0.0475779491297216,-0.0712729968122348,-12.50972684036305,22.440049831007496,31.584566019361105,-0.5543562786672646,-0.0285799708907163,-0.4499255091688889,6818.95458984375,12.040666666666665,0.2133333333333333,179.26463496869667,-1.609967617056291,90.39154082191943,1525.0,1435.0,1200.0,1439.0,1475.0,1021.7000000000002,241.0,294.77,1637178446.95275,1637178448.179217,0741b83d-46b5-4df7-95fc-a02b90ab7f66
-0.004967954239586,0.0489417010310968,0.2560884472795661,0.2529793285567519,0.1390787519794285,-0.0668627043708509,-0.0546727667267017,-0.0789841600363124,-12.577849328632794,22.546544566967544,30.9808230101208,-0.560086393006634,-0.0165283454578401,-0.4268783567014205,6803.319607204861,12.040888888888889,0.2111111111111111,179.2989134114112,-1.6292037420626722,90.4314389925011,1525.0,1435.0,1200.0,1439.0,1475.0,1021.7000000000002,241.0,294.77,1637178448.2878125,1637178449.4952362,0741b83d-46b5-4df7-95fc-a02b90ab7f66
0.0031267120062361,0.052228875034721,0.2570472063278882,0.2371187145295454,0.1382158688067515,-0.0572477198185195,-0.0486599772807951,-0.0614799571233901,-12.40510249061842,22.356811094726407,30.757646252177235,-0.5038612251495233,-0.0014337505149717,-0.4354283176906815,6800.923990885417,12.041,0.22,179.29629061876992,-1.640261284720394,90.4630187515836,1525.0,1435.0,1200.0,1439.0,1475.0,1021.7000000000002,241.0,294.77,1637178449.6036289,1637178450.8326876,0741b83d-46b5-4df7-95fc-a02b90ab7f66
0.0863743953572309,0.0878536238025301,0.5329095715772888,0.2280652898217633,0.3894518293130953,-0.0950091336212005,0.2324344917071852,0.2073834867206408,-10.616280721566694,22.36413778535029,31.300975634216723,-0.5535221251690318,0.1333073592672357,-1.547624684172012,6722.119520399306,12.034444444444444,0.2377777777777777,179.26364231453724,-1.6512777869532589,90.43737290907004,1525.0,1435.0,1200.0,1351.0,1475.0,1021.7000000000002,241.0,294.77,1637178451.4552832,1637178452.5674655,a70ebb93-a4e0-4baa-ab2d-97e16b6d8b94
0.1040566522733163,0.1023719757085887,0.5456473698880203,0.2146426629086232,0.3971766877695586,-0.0966390241785007,0.2422138341100196,0.2190940439756839,-10.705736859491296,22.449956904580205,31.420514752265262,-0.5257293612135487,0.1897952589618214,-1.587723091721443,6694.68701171875,12.037,0.24,179.2419587406522,-1.66005367883121,90.45946022302604,1525.0,1435.0,1200.0,1351.0,1475.0,1021.7000000000002,241.0,294.77,1637178452.6754067,1637178453.909653,a70ebb93-a4e0-4baa-ab2d-97e16b6d8b94
0.1024459370415568,0.0898889323725749,0.5371155104080474,0.2223357456473483,0.3905470060591849,-0.0959941901572423,0.2356948204146701,0.2101863507588323,-10.514704302760723,22.51149512250316,30.721195301698376,-0.5416662429111916,0.146335212100743,-1.560102662511413,6696.4267578125,12.036,0.23,179.25151645203076,-1.6456009985474631,90.43979383167584,1525.0,1435.0,1200.0,1351.0,1475.0,1021.7000000000002,241.0,294.77,1637178454.0183697,1637178455.137656,a70ebb93-a4e0-4baa-ab2d-97e16b6d8b94
0.1916448969281809,0.1525872938120694,0.8300439304262054,0.2035982565604351,0.6473966035815002,-0.1543750031559445,0.5251735069732681,0.5033287430408818,-8.362600763982558,22.82473720286815,30.92927313596392,-0.612809658016709,0.3852983375665109,-2.712298601424378,6696.4267578125,12.034444444444444,0.24,179.2374326019622,-1.6805179809436586,90.34928851280382,1525.0,1435.0,1200.0,1262.0,1475.0,1021.7000000000002,241.0,294.77,1637178456.9596589,1637178457.9873693,fa0f9463-6e11-4fc7-ae6c-c72993470865
0.1833871175285418,0.139325290011965,0.8213179782472064,0.212245765347212,0.6455911483070554,-0.1441523889666031,0.5188842968748385,0.4838074131891619,-8.760802244261448,22.71866722060388,31.61241555929988,-0.6105739326790763,0.3307017870722382,-2.689790885894736,6699.917317708333,12.034666666666666,0.2333333333333332,179.2628272452963,-1.675978442750604,90.3356562141304,1525.0,1435.0,1200.0,1262.0,1475.0,1021.7000000000002,241.0,294.77,1637178458.0958989,1637178459.3317175,fa0f9463-6e11-4fc7-ae6c-c72993470865
0.1824420550506602,0.1548160973656725,0.8251256212216664,0.2044935135017386,0.6430709817710849,-0.1580133073135098,0.5177200895039213,0.4864371524521935,-8.548289840686882,22.845585791933463,30.792893139814183,-0.6232267956319103,0.3957590338053027,-2.6891439032379605,6696.4267578125,12.034666666666668,0.24,179.2631186667009,-1.6659792118172478,90.32954395373314,1525.0,1435.0,1200.0,1262.0,1475.0,1021.7000000000002,241.0,294.77,1637178459.4637747,1637178460.5513458,fa0f9463-6e11-4fc7-ae6c-c72993470865
0.2643337749927089,0.1885507200069547,1.038066001190753,0.2170669537556332,0.8350556252866866,-0.213402195295152,0.7243737456663027,0.7001719290067857,-7.1231296497683845,23.17330577144699,30.86762798570591,-0.7625508161485722,0.5234918555670721,-3.5299661886534133,6696.4267578125,12.023222222222223,0.2788888888888889,179.22492121322253,-1.6808145012741886,90.25712118123376,1525.0,1435.0,1200.0,1173.0,1475.0,1021.7000000000002,241.0,294.77,1637178462.6019638,1637178463.7396915,b3fd54b5-9af8-4609-860b-b502161d4820
0.2402552263425206,0.1706904082550213,1.0244516227988836,0.2208745968869302,0.8250982280929993,-0.2001439253281319,0.7116907336440571,0.6971586864047818,-7.4494857468541795,23.425632813770164,30.66065536700829,-0.7405492939665755,0.4593214867834036,-3.482539469407256,6697.590277777777,12.025555555555554,0.27,179.22762445031407,-1.707901833867761,90.16280613462467,1525.0,1435.0,1200.0,1173.0,1475.0,1021.7000000000002,241.0,294.77,1637178463.8481617,1637178465.0353863,b3fd54b5-9af8-4609-860b-b502161d4820
0.2508426655582061,0.1768675559799996,1.0342994478344358,0.222257949098641,0.8354391289014552,-0.2113203182587998,0.7225658001102054,0.6992131699591285,-7.251137129574031,23.10603348278553,30.196197757491905,-0.7703871450700729,0.485650718881645,-3.525157229329004,6696.4267578125,12.025777777777778,0.2755555555555556,179.23128087824975,-1.681341445625468,90.10248569842469,1525.0,1435.0,1200.0,1173.0,1475.0,1021.7000000000002,241.0,294.77,1637178465.1436112,1637178466.1942227,b3fd54b5-9af8-4609-860b-b502161d4820
-0.1732027921122225,-0.0300874432125253,-0.3123461472579262,0.311189699074632,-0.3770487010415856,-0.0161580428385096,-0.6465148669117768,-0.6737162435795764,-16.372034402226873,23.085588307410955,30.347897135633414,-0.6041962324978214,-0.3236652933181895,1.880782436594152,6698.172037760417,12.039666666666667,0.22,179.28509366199054,-1.6885724222325595,90.29217978333354,1525.0,1435.0,1200.0,1617.0,1475.0,1021.7000000000002,241.0,294.77,1637178468.020377,1637178469.1562357,e98c916a-bb89-4213-b4fd-098c584337f6
-0.1855981787928936,-0.0238965985494785,-0.3126337750639369,0.3087654084085514,-0.3778567981470126,-0.021280555784737,-0.6480351854382325,-0.6709906262731057,-16.397806920422113,22.99291218725837,30.15906877852771,-0.6109103539723154,-0.2983111930417169,1.884921295413988,6720.347276475694,12.038888888888888,0.22,179.29932170494158,-1.6915046010989048,90.308469784504,1525.0,1435.0,1200.0,1617.0,1475.0,1021.7000000000002,241.0,294.77,1637178469.265382,1637178470.4989765,e98c916a-bb89-4213-b4fd-098c584337f6
-0.191569878815769,-0.0382368958020781,-0.3126200784361854,0.3165176600765144,-0.3752544514417584,-0.0155280010704952,-0.6470764259408811,-0.6786333090600131,-16.49908466120966,23.171213670868656,29.99642444227005,-0.6143650188914728,-0.3508882709053522,1.8779524612010088,6722.68701171875,12.04011111111111,0.21,179.32569989551618,-1.6749419852599894,90.30749989764188,1525.0,1435.0,1200.0,1617.0,1475.0,1021.7000000000002,241.0,294.77,1637178470.6070693,1637178471.7270107,e98c916a-bb89-4213-b4fd-098c584337f6
-0.2738725088520239,-0.0686706501215106,-0.6065209020473863,0.3773166793325566,-0.6413238692266284,-0.0278549040878569,-0.965946157507638,-0.9864773132135674,-18.50524403951455,23.584706903321216,29.61055512078177,-0.7921774690827285,-0.4735246932734301,3.089704065009689,6694.708930121527,12.030666666666669,0.2422222222222222,179.34452086122914,-1.6837400278208738,90.40641317938216,1525.0,1435.0,1200.0,1706.0,1475.0,1021.7000000000002,241.0,294.77,1637178473.4536717,1637178474.4930668,a300945f-143a-4424-a35d-7041d50da84d
-0.2836792460695008,-0.0731083353019879,-0.6063291503122707,0.3782480452505385,-0.6406664343009206,-0.0264989447374094,-0.9643573559096374,-0.9922298712284062,-18.424595593505977,23.587825851668484,29.31367699108482,-0.7912078845719989,-0.4882107594385468,3.0853927260419503,6653.121202256944,12.032000000000002,0.24,179.3653483847382,-1.691461936132527,90.33681658737936,1525.0,1435.0,1200.0,1706.0,1475.0,1021.7000000000002,241.0,294.77,1637178474.6011088,1637178475.7113469,a300945f-143a-4424-a35d-7041d50da84d
-0.2690876451712019,-0.0709424924334435,-0.600034686307774,0.3684812087121116,-0.6357791431788368,-0.0157322584241426,-0.9558214171806392,-0.972285883272956,-18.48266468843236,23.589069863969915,29.92442662822313,-0.7445923169801121,-0.483488028528102,3.058999373077523,6629.670193142361,12.03677777777778,0.24,179.36446653142536,-1.6746531607502428,90.26627515254138,1525.0,1435.0,1200.0,1706.0,1475.0,1021.7000000000002,241.0,294.77,1637178475.819312,1637178477.0598552,a300945f-143a-4424-a35d-7041d50da84d
-0.3925806016832847,-0.1327705479483558,-0.9142827087717492,0.4957782046630343,-0.9106394221037916,-0.0569326990743948,-1.3074016225727332,-1.3401090388020938,-20.87302482724815,24.57050143896772,29.55687457319336,-1.134729304585596,-0.730782831187533,4.353341072770574,6731.501681857639,12.01388888888889,0.2977777777777777,179.3793017023026,-1.7206909599177214,90.25783076199752,1525.0,1435.0,1200.0,1795.0,1475.0,1021.7000000000002,241.0,294.77,1637178478.9863656,1637178480.0084746,6aa7a88e-25af-4bd4-a4ee-4c076c8cd6b8
-0.3836093539670528,-0.1333868931189523,-0.9084616682697324,0.4884231533256384,-0.9091738896529646,-0.0494543777675232,-1.301292951940702,-1.337068397544875,-20.717353806398744,24.86261391394349,29.61286514535633,-1.0990197403760342,-0.7334130033463856,4.334641678505196,6762.76416015625,12.015777777777778,0.3,179.3582465058212,-1.7084869415486912,90.09579211303806,1525.0,1435.0,1200.0,1795.0,1475.0,1021.7000000000002,241.0,294.77,1637178480.1169508,1637178481.1625297,6aa7a88e-25af-4bd4-a4ee-4c076c8cd6b8
-0.3894994230894539,-0.1181760419610072,-0.8943700930030518,0.4877027144270485,-0.8975652278799412,-0.0586650397703179,-1.2914610051185835,-1.3090934245516928,-20.81755685405584,24.834556272929948,30.42040046532702,-1.1174982390624852,-0.6818294596724092,4.288537891937825,6758.027398003473,12.02077777777778,0.2899999999999999,179.33614553148686,-1.7048878113110486,89.94632632452074,1525.0,1435.0,1200.0,1795.0,1475.0,1021.7000000000002,241.0,294.77,1637178481.2705166,1637178482.4704971,6aa7a88e-25af-4bd4-a4ee-4c076c8cd6b8
-0.4407103185908869,-0.160506081140672,-1.0824765552189202,0.5817651914530303,-1.063671167105385,-0.1024463653731876,-1.508124897633584,-1.5468040264782636,-22.00263084905377,25.79648800307217,29.05078181547048,-1.4318671717140508,-0.8435560222491624,5.072220755702882,6738.54248046875,11.988333333333332,0.3911111111111111,179.37786888039673,-1.7234842938448451,89.72287289127426,1525.0,1435.0,1200.0,1883.0,1475.0,1021.7000000000002,241.0,294.77,1637178484.516884,1637178485.649747,09d7b468-72c4-4254-8f1f-35106ca16784
-0.4338757343289554,-0.149124240030756,-1.0363602101235496,0.5468526668882968,-1.025896032343036,-0.0886539302056257,-1.450804735185934,-1.4773213028737242,-21.31538823314386,25.462042003964783,28.4256204671729,-1.3217941372348505,-0.7929742055936592,4.8771035247329575,6708.681803385417,11.988333333333337,0.4022222222222222,179.37729362668665,-1.7359378157040246,89.37019986803018,1525.0,1435.0,1200.0,1883.0,1475.0,1021.7000000000002,241.0,294.77,1637178485.7581656,1637178486.878762,09d7b468-72c4-4254-8f1f-35106ca16784
-0.428342323439012,-0.1469601836082766,-1.0347714083789132,0.5431408998745354,-1.0254988323147665,-0.0880649780978127,-1.4500240308347767,-1.4859364476030985,-21.362687877335883,25.52082257910799,28.3336114904608,-1.3116675471604335,-0.7831487133763929,4.87332758858219,6587.790961371527,11.991444444444443,0.3977777777777778,179.37736496421795,-1.7344186440801932,89.14755543274538,1525.0,1435.0,1200.0,1883.0,1475.0,1021.7000000000002,241.0,294.77,1637178486.987425,1637178488.1114502,09d7b468-72c4-4254-8f1f-35106ca16784
-0.0657258900362997,0.0226032186922384,-0.0194589134260712,0.2589921174831128,-0.093625781075393,-0.0355797633928021,-0.3094698694673963,-0.3385887586537273,-13.730990606888868,19.88611711797935,30.542910515136768,-0.5353598080023262,-0.1215244654804101,0.6249853917902936,8329.8603515625,11.849777777777778,6.802222222222222,179.73274122455354,-1.8825027778205408,76.68726257936854,1525.0,1435.0,1350.0,1528.0,1475.0,1021.7000000000002,241.0,294.77,1637178492.047683,1637178493.0268586,a209e529-7f28-4368-bd35-16c14cac997c
-0.0935299052727559,0.0048661750996645,-0.0193082512959088,0.2751266625308295,-0.0863118184427681,-0.0341416248153505,-0.3094287798196137,-0.3354522456035759,-14.14034696558717,19.919926800596663,30.391458938467377,-0.5685222706200654,-0.1857859110796575,0.6122411654392926,8329.8603515625,11.85,6.815555555555556,179.84009206664857,-1.9033149808358705,71.47487125725509,1525.0,1435.0,1350.0,1528.0,1475.0,1021.7000000000002,241.0,294.77,1637178493.1356404,1637178494.2563465,a209e529-7f28-4368-bd35-16c14cac997c
-0.0704375063942792,0.0174944022663959,-0.0293478290301406,0.2557871229665426,-0.1019532891824319,-0.0288410563864963,-0.3151265490817598,-0.3384243994416331,-13.610256308158576,19.731586625644933,30.311217650262403,-0.5144803130827511,-0.1397215947117339,0.6570361490896534,8329.8603515625,11.848999999999998,6.830000000000001,179.96063579858037,-1.859700001548977,67.01211975839732,1525.0,1435.0,1350.0,1528.0,1475.0,1021.7000000000002,241.0,294.77,1637178494.3654966,1637178495.484413,a209e529-7f28-4368-bd35-16c14cac997c
0.0827995936169117,0.3120936719788922,-0.0093371564067966,0.1176847277636266,-0.1493022953182709,-0.1856666616052007,-0.3632151742638392,-0.3888551383388607,-13.644216383243808,19.09627134561408,30.87305891144977,-0.5585059371451138,0.9787267139034942,0.7981834845160002,8337.962890625,11.839444444444446,6.871111111111111,179.8123432847805,-1.7977657908619398,58.44223283654823,1576.0,1435.0,1350.0,1528.0,1515.0,1021.7000000000002,241.0,294.77,1637178497.4663842,1637178498.555828,c8f40020-2516-4bcc-90ce-fd0bf4bb7caa
0.1047140871303114,0.3411851604628658,-0.0105287570951755,0.0918119291216923,-0.1621907580482307,-0.2001028355597369,-0.3710770004106041,-0.3850064039081015,-13.37883981355706,19.26436415426036,29.44868434389976,-0.5316217486634138,1.1016962138354411,0.8299567439412844,8343.375651041666,11.837666666666667,6.876666666666666,179.74171457530312,-1.7821975604456266,55.89642287794359,1576.0,1435.0,1350.0,1528.0,1515.0,1021.7000000000002,241.0,294.77,1637178498.663987,1637178499.7850237,c8f40020-2516-4bcc-90ce-fd0bf4bb7caa
0.0778551360220729,0.319435026890511,-0.0145692418993381,0.1294911611641704,-0.1556164093299565,-0.1943502804359974,-0.3740491540989592,-0.398702964875562,-13.66682970141253,19.267202702204667,32.14215101873705,-0.6035880899325168,0.993390966414481,0.832036523073147,8406.113606770834,11.840666666666667,6.788888888888888,179.70678347006788,-1.7525133448693395,53.82057508937534,1576.0,1435.0,1350.0,1528.0,1515.0,1021.7000000000002,241.0,294.77,1637178499.8937142,1637178501.0141327,c8f40020-2516-4bcc-90ce-fd0bf4bb7caa
0.3263928781599836,0.7461649682798237,0.0128375723329562,-0.0907768968044049,-0.2329471865429595,-0.4077289983255304,-0.4313829599165006,-0.4522017346257676,-12.35621841707524,18.06903150681916,32.30583315588624,-0.5921001120457081,2.6119976393462507,1.0329786447009222,8417.119466145834,11.833000000000002,6.833333333333333,179.3536095662847,-1.6788985976380983,49.83422359330166,1627.0,1435.0,1350.0,1528.0,1556.0,1021.7000000000002,241.0,294.77,1637178503.1529534,1637178504.2897167,20fac069-17db-4056-a88b-55256e3f55ca
0.3349258335827954,0.7557525583815806,0.0279859662086245,-0.0983647906459084,-0.2202230822961639,-0.4123447395368282,-0.4199189380630319,-0.4459150127924662,-12.611179452072804,18.1356038418903,32.09498085195656,-0.5843222164242681,2.6535259501737047,0.979267258484462,8387.826822916666,11.829555555555556,6.913333333333333,179.2831296031492,-1.656383863250438,48.79110609906365,1627.0,1435.0,1350.0,1528.0,1556.0,1021.7000000000002,241.0,294.77,1637178504.398948,1637178505.3622572,20fac069-17db-4056-a88b-55256e3f55ca
0.3143946936221753,0.7308522172487829,0.0075780937294589,-0.1000357711133167,-0.2341661804575022,-0.3950459825403512,-0.4363548118141218,-0.4662270141975391,-13.055343272283908,18.22362826421221,30.72731412833189,-0.5425545231531432,2.5743132856458653,1.0441743112601602,8378.7158203125,11.829,6.932222222222222,179.19216210814335,-1.6592795314354385,47.76983041142647,1627.0,1435.0,1350.0,1528.0,1556.0,1021.7000000000002,241.0,294.77,1637178505.4720552,1637178506.667989,20fac069-17db-4056-a88b-55256e3f55ca
0.5414836164555453,1.1169581745985715,0.0369846053489796,-0.2866650963495453,-0.3007725534916223,-0.5907424616283542,-0.4908397347317595,-0.5243689198656175,-12.152914057033485,17.621160514767556,32.16253489635102,-0.5631671493679339,4.028169941681125,1.220370291944621,8354.216796875,11.816,6.99,178.90016696766585,-1.603749868181856,46.00674723023687,1678.0,1435.0,1350.0,1528.0,1596.0,1021.7000000000002,241.0,294.77,1637178508.4792016,1637178509.6177647,f9957500-9025-475b-a63a-0efe5f63a716
0.5321716010593509,1.1146062016262297,0.034690705709422,-0.2837575903564526,-0.3020079832351382,-0.5925021959757971,-0.4931111725859076,-0.5051685312023863,-12.154796634670806,17.597592430730167,31.94822086868144,-0.5739856956885497,4.020757600364687,1.2278608626724274,8354.216796875,11.818777777777775,7.02888888888889,178.876589154651,-1.6003440228113506,45.328798969784415,1678.0,1435.0,1350.0,1528.0,1596.0,1021.7000000000002,241.0,294.77,1637178509.730953,1637178510.844513,f9957500-9025-475b-a63a-0efe5f63a716
0.5294991287919667,1.1060283213047588,0.0389843028968868,-0.2842818948002028,-0.2967457647300529,-0.5866334927142053,-0.4866896764754106,-0.5158770513732348,-12.176059507244265,17.65918495819915,31.55991780911792,-0.5590657376486057,3.992515136291578,1.204067705890316,8362.3671875,11.814888888888888,7.005555555555556,178.81691910424192,-1.5800070396938992,44.76548822490651,1678.0,1435.0,1350.0,1528.0,1596.0,1021.7000000000002,241.0,294.77,1637178510.9535189,1637178512.1656296,f9957500-9025-475b-a63a-0efe5f63a716
0.7412752973528746,1.4908879262011432,0.0643777225611098,-0.4575023030955742,-0.3727342842202765,-0.7901233418896397,-0.555912102353369,-0.5932900241589109,-11.327358961547247,17.915988081016106,33.38645364330689,-0.6219066209700905,5.436718514968156,1.4196243021558097,8357.839192708334,11.804555555555558,7.07,178.682197417413,-1.5777470415624348,44.09747105950726,1729.0,1435.0,1350.0,1528.0,1636.0,1021.7000000000002,241.0,294.77,1637178512.9836645,1637178514.3265045,a737811a-905c-47cc-8efc-83bd74f67a7b
0.7407822212867384,1.4876692346601326,0.0673361791857845,-0.4636109697802795,-0.3690362127385061,-0.7938762007316669,-0.554624625522029,-0.5848940295894732,-11.6100596032399,17.954089907053298,31.62343207233394,-0.6165835876085057,5.443213270264852,1.4055786534887733,8362.3671875,11.803777777777777,7.054444444444444,178.62881417667998,-1.5810473865977914,43.7450177406815,1729.0,1435.0,1350.0,1528.0,1636.0,1021.7000000000002,241.0,294.77,1637178514.4365757,1637178515.556668,a737811a-905c-47cc-8efc-83bd74f67a7b
0.7175528601498845,1.468973430754651,0.0519549439099642,-0.4611729817012611,-0.3805276275151434,-0.7832750594641947,-0.5674993944396802,-0.6030830655163418,-11.785410620083775,18.08729737206925,30.736554114289515,-0.5983733866476489,5.380921109320744,1.4568586414564686,8365.089518229166,11.802666666666669,7.050000000000001,178.59326380096,-1.5277310722322797,43.42038226452538,1729.0,1435.0,1350.0,1528.0,1636.0,1021.7000000000002,241.0,294.77,1637178515.6707764,1637178516.7806482,a737811a-905c-47cc-8efc-83bd74f67a7b
-0.2579160160075013,-0.3045391076471309,-0.0558780638711969,0.4138727913427036,-0.0531387520588822,0.1259848422401778,-0.2757215443074565,-0.284473646943811,-14.073943481456489,20.621940862121846,28.201681767760657,-0.5191568261257703,-1.346694929526015,0.5293633067498756,8362.3671875,11.843333333333334,6.912222222222223,179.08408119471704,-1.5075533297578216,43.0427005036353,1474.0,1435.0,1350.0,1528.0,1435.0,1021.7000000000002,241.0,294.77,1637178517.4530475,1637178518.5146637,2ecebf6d-c1c5-4542-bdf3-bab936948612
-0.2445755662013178,-0.2905686159123155,-0.042633491248253,0.4012856549947709,-0.0443044714701012,0.1145071263735346,-0.2645314544560546,-0.2924587414037569,-13.959763445433268,20.52503558849891,26.963646350909528,-0.5166780706296068,-1.2817448153660225,0.4832981296943662,8362.3671875,11.840666666666667,6.922222222222223,179.0706970595835,-1.5066912911083552,42.890721205503446,1474.0,1435.0,1350.0,1528.0,1435.0,1021.7000000000002,241.0,294.77,1637178518.6234505,1637178519.7442553,2ecebf6d-c1c5-4542-bdf3-bab936948612
-0.2504239974250846,-0.2918150028894126,-0.0481669011513304,0.4030251178143489,-0.0485504048024111,0.1188626319049771,-0.272050866185991,-0.284268198884063,-14.274711082068857,20.640838399614964,27.58656812502097,-0.510381565424357,-1.2902743321925911,0.5078051682881969,8362.3671875,11.841,6.919999999999999,179.04431127990978,-1.485026772976754,42.743009637237975,1474.0,1435.0,1350.0,1528.0,1435.0,1021.7000000000002,241.0,294.77,1637178519.852721,1637178521.0843973,2ecebf6d-c1c5-4542-bdf3-bab936948612
-0.4062497697738557,-0.5818396956036538,-0.0572340232545201,0.530581156829783,0.0064549758947668,0.2791397540501146,-0.2159223623775065,-0.2435757184475297,-14.50254613472469,21.52246296473807,26.843642778758184,-0.4327928433730486,-2.386110908337678,0.3297867160390053,8362.3671875,11.825,7.0,179.1099357374553,-1.4695734699796,42.584562908872016,1423.0,1435.0,1350.0,1528.0,1394.0,1021.7000000000002,241.0,294.77,1637178521.9382694,1637178522.882207,69100499-1787-41f6-b0b2-b50359125846
-0.4215214357570476,-0.5922079937564456,-0.0653971725104879,0.5424834651217622,0.0032362845584405,0.2786877676335793,-0.2240992087078288,-0.2495200251788001,-14.698855464894024,21.49139772285416,26.83177698175552,-0.4613703227949375,-2.42548719073083,0.355648573578184,8362.3671875,11.823666666666664,6.996666666666667,179.13716997840586,-1.4712750052826775,42.47568286331285,1423.0,1435.0,1350.0,1528.0,1394.0,1021.7000000000002,241.0,294.77,1637178522.9918523,1637178524.0446146,69100499-1787-41f6-b0b2-b50359125846
-0.4227404297173216,-0.5910300892893757,-0.0599596385292961,0.5536872489966086,0.0069480520024227,0.2746061933831443,-0.2175385564645781,-0.235193422760194,-14.187642197801123,21.50870058381012,27.92484482630229,-0.4949981278762065,-2.435409828876392,0.335972924394007,8362.3671875,11.828,6.970000000000001,179.1278869924139,-1.458497654194255,42.41275936612915,1423.0,1435.0,1350.0,1528.0,1394.0,1021.7000000000002,241.0,294.77,1637178524.1536276,1637178525.180795,69100499-1787-41f6-b0b2-b50359125846
-0.6197243890461696,-0.9641108175181672,-0.0811071259078825,0.732851914619527,0.0726504438729671,0.4571265197286236,-0.1669845538937647,-0.2010615956429062,-15.285284237260669,22.83630016040492,25.46325199095537,-0.4821992769927785,-3.828480643087312,0.1549759039176359,8378.7158203125,11.810666666666666,7.003333333333333,179.2057860588078,-1.4552000483493468,42.342170878876885,1372.0,1435.0,1350.0,1528.0,1354.0,1021.7000000000002,241.0,294.77,1637178527.0045292,1637178528.1455176,37cfb899-c883-4a27-aa37-8cb996d0d961
-0.6063609265303528,-0.9501600425371288,-0.0659362690672744,0.728928672746455,0.0827886364520209,0.4475465996193562,-0.1536906730523504,-0.1778974253449028,-14.97925857854658,22.82650188943136,25.638992569822744,-0.4940042510932876,-3.778435693304487,0.1036796624797615,8378.7158203125,11.809666666666669,7.047777777777777,179.22060756930674,-1.44561147068187,42.32041634691544,1372.0,1435.0,1350.0,1528.0,1354.0,1021.7000000000002,241.0,294.77,1637178528.2607229,1637178529.365555,37cfb899-c883-4a27-aa37-8cb996d0d961
-0.6207242382796347,-0.9584267423135872,-0.0746560465347199,0.7354131708257318,0.0769237701065863,0.4543735116968939,-0.1594514460755379,-0.1907754792415971,-14.92581696526487,22.77308119533513,26.25111209525729,-0.4939545494655948,-3.816596363971109,0.1317351759448704,8381.448567708334,11.810333333333332,7.050000000000001,179.22600341875105,-1.445009228238178,42.28916974928245,1372.0,1435.0,1350.0,1528.0,1354.0,1021.7000000000002,241.0,294.77,1637178529.4739676,1637178530.5617085,37cfb899-c883-4a27-aa37-8cb996d0d961
-0.834623482154298,-1.3498883873870178,-0.0922150354911791,0.9132766647535564,0.1444204096799223,0.6700942892371694,-0.091708262783008,-0.1141843176403169,-15.196878632134874,24.202385893440866,25.85173366631301,-0.4020170199851138,-5.302345060184276,-0.0798615481001427,8384.181315104166,11.797333333333334,7.073333333333333,179.36092242215602,-1.4446174884301564,42.27908383660807,1321.0,1435.0,1350.0,1528.0,1314.0,1021.7000000000002,241.0,294.77,1637178531.50851,1637178532.6466963,d4db5f7e-81ff-4b84-a238-5745f672f033
-0.8353494002203125,-1.3515319759988311,-0.1022272203589568,0.9189333429760018,0.1372845028221445,0.6645197904325383,-0.104514545794743,-0.1409473943392648,-15.47440358733641,24.181227419161008,25.4849295563121,-0.4281407150293099,-5.304625823920946,-0.0391130735773468,8386.9140625,11.796,7.082222222222223,179.36386699259822,-1.425545050804509,42.25743403421389,1321.0,1435.0,1350.0,1528.0,1314.0,1021.7000000000002,241.0,294.77,1637178532.7546968,1637178533.987919,d4db5f7e-81ff-4b84-a238-5745f672f033
-0.8403075568253353,-1.3461081335164131,-0.0894072408243996,0.9193031500757188,0.146858397027938,0.6670947431967506,-0.0905440552213825,-0.1071853754301543,-15.169720543147411,24.232519437253423,26.755011592228087,-0.4218544480868605,-5.2969282366187445,-0.0868762210078102,8383.270399305555,11.797777777777778,7.116666666666668,179.3770750606332,-1.4373260599057234,42.24526339602283,1321.0,1435.0,1350.0,1528.0,1314.0,1021.7000000000002,241.0,294.77,1637178534.0960083,1637178535.222252,d4db5f7e-81ff-4b84-a238-5745f672f033
-0.0674516565409523,0.0430384842393305,-0.0360180532541014,0.2555953711222097,-0.1095411830545558,-0.0595761348822038,-0.3350276518781306,-0.3589692418869369,-14.203036865220568,19.646392720115,29.37736743930008,-0.584457738181225,-0.0318442034470033,0.7061907760381585,8386.9140625,11.842333333333332,6.926666666666666,179.0063900696379,-1.4091062321443002,42.32159379563736,1525.0,1435.0,1350.0,1528.0,1475.0,1021.7000000000002,241.0,294.77,1637178536.014352,1637178537.265298,607bc9cb-ef5c-4c02-8390-e92048380382
-0.0749847641043379,0.023616764052503,-0.0364152534430017,0.2693193220738484,-0.1030490139033241,-0.0481121149803562,-0.33249378806421,-0.3558601222704187,-14.51857820609652,19.67105936680897,30.107522704293714,-0.5895531299601537,-0.1106399602580806,0.6928512854279644,8403.359375,11.845888888888888,6.904444444444445,179.0107219273915,-1.423946656101086,42.46432122308349,1525.0,1435.0,1350.0,1528.0,1475.0,1021.7000000000002,241.0,294.77,1637178537.373639,1637178538.4925492,607bc9cb-ef5c-4c02-8390-e92048380382
-0.0631783300066176,0.0381488128381806,-0.0334704932750491,0.2618683946133352,-0.1052815531105653,-0.0568231264727622,-0.3285902682585666,-0.3503814974173549,-13.955089255338589,19.497536975191217,29.943534943945043,-0.5930666351472468,-0.0575696508729305,0.688247308687061,8395.12890625,11.846555555555556,6.871111111111111,179.00106555772493,-1.4324157823647516,42.55218212038185,1525.0,1435.0,1350.0,1528.0,1475.0,1021.7000000000002,241.0,294.77,1637178538.600894,1637178539.7219594,607bc9cb-ef5c-4c02-8390-e92048380382
-0.0405927040553797,0.021973176980569,-0.0563848365756287,-0.2312762063000993,-0.1746135376843638,0.4421150927941165,-0.2077318194577602,-0.227742494601536,-13.725357298305632,18.29743271838659,34.4510558487556,1.6322651100991348,-0.1005704949576928,0.6425675423484449,8391.477864583334,11.840555555555556,6.932222222222223,179.04762923402663,-1.311622309783424,42.77902256854677,1525.0,1521.0,1350.0,1528.0,1475.0,1021.7000000000002,241.0,294.77,1637178541.6561673,1637178542.798568,7f212bc8-a8f1-4796-99c5-09d5bfc07027
-0.0616717085391857,0.0053866443228152,-0.0767105304422424,-0.24958850730305,-0.1964458541375939,0.4529216766061444,-0.2281670871354452,-0.2642712203617768,-13.974531766857368,18.734942868195912,31.120931941816124,1.6990889660660855,-0.1305281616615416,0.7218873734511728,8388.739583333334,11.839888888888888,6.912222222222223,179.08999765635812,-1.2985055125228129,42.830266821704704,1525.0,1521.0,1350.0,1528.0,1475.0,1021.7000000000002,241.0,294.77,1637178542.9083996,1637178544.022097,7f212bc8-a8f1-4796-99c5-09d5bfc07027
-0.0436607332798031,0.0265204344877819,-0.0603568387036898,-0.2423704201705294,-0.1823931836218729,0.4411563337672288,-0.2159771485749378,-0.2520949783570349,-13.915696496333217,18.587338053308617,33.446957388254724,1.6566046462423625,-0.0721499931840534,0.6691022291595435,8386.9140625,11.841,6.872222222222222,179.10330438268113,-1.3213680529496148,42.87351140552474,1525.0,1521.0,1350.0,1528.0,1475.0,1021.7000000000002,241.0,294.77,1637178544.1305666,1637178545.250818,7f212bc8-a8f1-4796-99c5-09d5bfc07027
-0.0156786633377947,0.0246713990381301,-0.0925711459897922,-0.8453341961224407,-0.2776253661760874,1.0250542713294726,-0.0843532104198217,-0.1109519294650316,-13.672089247199349,17.458756123068934,37.65675854928502,4.320547955788644,-0.0459441627097331,0.6563796375356464,8388.739583333334,11.82922222222222,6.972222222222222,179.08860126212778,-1.13877389039315,42.9987702447136,1525.0,1607.0,1350.0,1528.0,1475.0,1021.7000000000002,241.0,294.77,1637178546.0491612,1637178546.9897523,ca90d70e-d9bc-4cc4-8fb8-26207001a21f
-0.0415651597891574,0.0095503981883004,-0.0988304736404229,-0.8368286292183794,-0.2778719043136943,1.0359841244304642,-0.086681625542512,-0.0999946816121008,-13.872441949288133,17.366102783938974,38.18654094632996,4.324980035047111,-0.1073801069088355,0.6674528124891452,8386.9140625,11.833000000000002,6.933999999999999,179.12191315718383,-1.1300886289593426,43.031603571181776,1525.0,1607.0,1350.0,1528.0,1475.0,1021.7000000000002,241.0,294.77,1637178547.0984545,1637178548.3225892,ca90d70e-d9bc-4cc4-8fb8-26207001a21f
