raw_voltage_G-,raw_voltage_G0,raw_voltage_G1,raw_voltage_G2,raw_voltage_G3,raw_voltage_G4,raw_voltage_G5,raw_voltage_G6,load_x,load_y,load_z,load_l,load_m,load_n,rpm,voltage,current,roll,pitch,yaw,aileron1_pwm,elevator_pwm,throttle_pwm,rudder_pwm,aileron2_pwm,pbaro,pdiff,Tt,sample_start_time,sample_end_time,uid
-0.1111940839433625,-0.0241497109405783,0.0122853270531717,0.353625469758444,-0.0853174482219796,-0.2745535017000156,-0.3706967838841383,-0.3959817317054691,-14.235769179352214,24.64922194082649,2.2955486759264963,-1.2574364006109855,-0.0525062196748893,0.6105966893890674,6674.411512586806,12.042,0.24,179.50856075561538,3.17481578708132,83.25986710194232,1525.0,1435.0,1200.0,1528.0,1475.0,1021.7000000000002,241.0,294.77,1637179090.9030073,1637179092.0841844,7bd5c21c-6f96-44f6-b3e9-002bb9ee9676
-0.1051308910850584,-0.0162402221200134,0.0219594804421283,0.3504714264752421,-0.0800935805105067,-0.2792415604466645,-0.3667214940791638,-0.3881155236841315,-14.36360353016004,24.983804348080056,2.3671016990311413,-1.258209592809689,-0.021562925923258,0.5854382878775392,6666.336371527777,12.04322222222222,0.24,179.50502423544515,3.160289350240911,82.64828133892064,1525.0,1435.0,1200.0,1528.0,1475.0,1021.7000000000002,241.0,294.77,1637179092.2053998,1637179093.3000586,7bd5c21c-6f96-44f6-b3e9-002bb9ee9676
-0.1108286597366172,-0.0188836579510017,0.014097655700593,0.3499235642009713,-0.0849832521506577,-0.2773377384167174,-0.373953278193648,-0.4004013388575031,-14.58990858570762,24.85364392906497,2.1426214706321867,-1.2540996226179666,-0.0283192749632781,0.6123651400258784,6661.155707465277,12.041666666666666,0.24,179.4927268592995,3.178456586216087,82.17635093603846,1525.0,1435.0,1200.0,1528.0,1475.0,1021.7000000000002,241.0,294.77,1637179093.407792,1637179094.5362442,7bd5c21c-6f96-44f6-b3e9-002bb9ee9676
0.0485445006640539,0.2558556057488113,0.0318210026890013,0.2191351339984557,-0.1308119398894489,-0.4193984688925667,-0.4151251415021955,-0.450284215658508,-14.23458096840559,24.09511653657076,3.0115827160148707,-1.2821308821193569,1.0091170575776989,0.7431286675138719,6675.56591796875,12.039666666666667,0.2455555555555555,179.40239229515672,3.211060233343862,81.23433731698954,1576.0,1435.0,1200.0,1528.0,1515.0,1021.7000000000002,241.0,294.77,1637179096.4715636,1637179097.5026865,043dcd19-4e0b-421e-bc5d-9d097dfa3bc6
0.0472981139215397,0.2655390721831913,0.040148510350435,0.2170806503311028,-0.1260592337335793,-0.4244661964181426,-0.4110161730652837,-0.4401898503022096,-14.281381794397584,24.26936333648077,3.41682325770328,-1.2872735340051549,1.0429593778550912,0.7210747042867718,6680.7685546875,12.029555555555554,0.2855555555555555,179.39555603470745,3.2230383930095563,80.8805350358027,1576.0,1435.0,1200.0,1528.0,1515.0,1021.7000000000002,241.0,294.77,1637179097.6365738,1637179098.6376884,043dcd19-4e0b-421e-bc5d-9d097dfa3bc6
0.0186175200513544,0.238515763540603,0.0167410915592066,0.2225181838206816,-0.1425772845518478,-0.4017299044245586,-0.4282464473391007,-0.4562696131458111,-14.509824865751554,24.351062897524127,3.4404531702430603,-1.2491829560455507,0.9408609762725724,0.7966299091596936,6685.458837890625,12.032,0.2800000000000001,179.42334989582403,3.238588729753201,80.56749623427439,1576.0,1435.0,1200.0,1528.0,1515.0,1021.7000000000002,241.0,294.77,1637179098.745527,1637179099.8610983,043dcd19-4e0b-421e-bc5d-9d097dfa3bc6
0.2626627949684585,0.6830512323979304,0.0474076864461731,0.0014694283924109,-0.2186753709155793,-0.6368450930793124,-0.4945378065727336,-0.5082754587934932,-13.799219592667685,23.32551110238556,2.8716894864113325,-1.283890821741908,2.637293247550242,1.0048273992285794,6680.7685546875,12.032,0.27,179.30068926059542,3.262178602320838,80.25044021904023,1627.0,1435.0,1200.0,1528.0,1556.0,1021.7000000000002,241.0,294.77,1637179100.400943,1637179101.3680258,ee1c4db5-ba77-4e4d-89f2-2f8103dab373
0.2627038846340293,0.6640541074864836,0.0324784375099616,0.016590429370637,-0.2250716644625713,-0.6302570462840854,-0.5098642596038202,-0.5259166315094115,-14.38944477395485,23.374212257561783,3.0275186789663047,-1.303888669816365,2.5660315098087865,1.0533321604932933,6675.56591796875,12.021333333333336,0.32,179.29947804038258,3.271540657238809,79.9844794829491,1627.0,1435.0,1200.0,1528.0,1556.0,1021.7000000000002,241.0,294.77,1637179101.4762022,1637179102.737757,ee1c4db5-ba77-4e4d-89f2-2f8103dab373
0.2675798592281157,0.6791751066952395,0.0412990212704022,-0.0045844505919556,-0.2221542972106049,-0.6261206841000805,-0.4972360293436113,-0.5320116016089181,-13.997832618855858,23.167973407857662,3.032813838279625,-1.2475583747779737,2.6230885461546007,1.021365220607939,6676.143988715277,12.023222222222223,0.31,179.29303793090517,3.2865681643458298,79.73615353638505,1627.0,1435.0,1200.0,1528.0,1556.0,1021.7000000000002,241.0,294.77,1637179102.851091,1637179104.0506425,ee1c4db5-ba77-4e4d-89f2-2f8103dab373
0.4730693125276342,1.0469550671636092,0.0553653869616047,-0.1704908731950765,-0.2942119010342987,-0.8249674035183068,-0.56819791921145,-0.592344960696771,-13.6154277431604,22.477461344612767,4.061884654629124,-1.323669805747122,4.011966463491318,1.2464198559631052,6670.37109375,12.018444444444444,0.3133333333333333,179.17585009858553,3.3234291300447043,79.3664399500717,1678.0,1435.0,1200.0,1528.0,1596.0,1021.7000000000002,241.0,294.77,1637179104.9756434,1637179106.0065024,54e5396e-183d-4633-aefc-91b35eb086fe
0.4774933005272586,1.0454073561510595,0.0544477175789575,-0.1760379798618205,-0.2957322192003135,-0.8185711076253993,-0.5692936442299602,-0.5917834019128166,-13.775757784800598,22.598820738391662,4.021113727823832,-1.2961119541426325,4.008284584901346,1.250846202266814,6667.489149305556,12.016555555555554,0.34,179.1500122518653,3.3300602950914016,79.12206337066772,1678.0,1435.0,1200.0,1528.0,1596.0,1021.7000000000002,241.0,294.77,1637179106.1144638,1637179107.23084,54e5396e-183d-4633-aefc-91b35eb086fe
0.4654951163031076,1.040147877924781,0.0503250534026507,-0.1665325674946416,-0.2980743310772643,-0.818954611282102,-0.5726766952477909,-0.6007409536373524,-13.671502232854415,22.597106575446144,4.448615150342231,-1.3185116382836164,3.982599810615041,1.2645961441451563,6696.4267578125,12.016,0.3311111111111111,179.13728381489202,3.3401635678299275,78.95061196212207,1678.0,1435.0,1200.0,1528.0,1596.0,1021.7000000000002,241.0,294.77,1637179107.3402555,1637179108.556254,54e5396e-183d-4633-aefc-91b35eb086fe
0.6736690906813282,1.4042571874041485,0.0642955431512335,-0.3509978419032884,-0.3771034872489177,-1.0078302597813449,-0.6462272390780313,-0.6587458987693555,-13.352523879651072,22.519912600865407,3.937975908945528,-1.3265688990636628,5.37409519907489,1.4998880939687602,6719.761990017361,12.012999999999998,0.3533333333333333,179.0409751119552,3.370711375449398,78.59086969308703,1729.0,1435.0,1200.0,1528.0,1636.0,1021.7000000000002,241.0,294.77,1637179110.4903586,1637179111.466445,8af50dab-4bff-4eb0-9e22-9f578d0862ff
0.6856809713975255,1.4126394816912995,0.0906751147802997,-0.3496966686810263,-0.3522442289682717,-1.015787965531594,-0.6212994938564685,-0.6466244409119145,-13.332759408835509,22.44446622077536,4.342721654559118,-1.3464982032899897,5.403317602027502,1.39622013966083,6727.96435546875,12.0,0.39,179.03043537115596,3.3658422806288906,78.42485587403061,1729.0,1435.0,1200.0,1528.0,1636.0,1021.7000000000002,241.0,294.77,1637179111.5760603,1637179112.6541283,8af50dab-4bff-4eb0-9e22-9f578d0862ff
0.6900742791028691,1.418669802816012,0.0828149338374907,-0.3568906502561473,-0.3626234828926978,-1.0133395669423673,-0.6308701044047399,-0.6668449509632199,-13.382651357863724,22.555262251339432,4.520732518272903,-1.3244221074831686,5.42509970838728,1.4355351579751767,6723.273383246527,11.999888888888888,0.4,179.04212865501506,3.3752066359925204,78.27277715870082,1729.0,1435.0,1200.0,1528.0,1636.0,1021.7000000000002,241.0,294.77,1637179112.7624714,1637179113.8823254,8af50dab-4bff-4eb0-9e22-9f578d0862ff
-0.2893359255631084,-0.3509978418466626,0.0197406379371587,0.4982572815333991,-0.0094604254442807,-0.1041447387010459,-0.2936366454744876,-0.3209749824082724,-14.382116164802746,25.94816988766605,0.2386188598506743,-1.192178535440292,-1.2764317229826283,0.3455799682183232,6712.158203125,12.007888888888887,0.3588888888888888,179.54035908075133,3.3913412740753177,77.89131261137543,1474.0,1435.0,1200.0,1528.0,1435.0,1021.7000000000002,241.0,294.77,1637179115.9285345,1637179117.0692985,b87c9b04-9fe9-4bb4-954a-4b6389ceb2f3
-0.2981976003319976,-0.3470258391708276,0.010632426338563,0.4899845608973583,-0.0185138508882608,-0.0985565425143476,-0.3015943471845324,-0.3170577650244781,-14.484641712175948,25.83474892370425,0.4394322254349747,-1.1621848888737452,-1.262149237776207,0.3823227854202346,6712.158203125,12.03711111111111,0.25,179.55190817172792,3.402119668324617,77.93187862267594,1474.0,1435.0,1200.0,1528.0,1435.0,1021.7000000000002,241.0,294.77,1637179117.1772263,1637179118.226719,b87c9b04-9fe9-4bb4-954a-4b6389ceb2f3
-0.3001014221922666,-0.3475326119355815,0.0150975044860608,0.4856838418795213,-0.01363787591477,-0.0948310783361208,-0.2942666872453472,-0.3117708924750303,-14.429734753407184,25.694428627834483,0.3822968655265093,-1.1448012430662944,-1.263121979493988,0.3590784865503362,6691.19921875,12.038000000000002,0.25,179.55623395820226,3.412817997578645,77.95035352547092,1474.0,1435.0,1200.0,1528.0,1435.0,1021.7000000000002,241.0,294.77,1637179118.3354504,1637179119.411898,b87c9b04-9fe9-4bb4-954a-4b6389ceb2f3
-0.448161248144086,-0.6238744475874779,-0.00073571751673,0.6225261458815101,0.0326564927621568,0.0484486248609454,-0.2506979286207303,-0.2756393655342803,-14.519643871861216,26.576525003813146,0.269026150727532,-1.1265195095054548,-2.315768606151884,0.2227514711165289,6653.686631944444,12.033888888888889,0.2633333333333333,179.6585653701672,3.39053758848298,78.01631266228574,1423.0,1435.0,1200.0,1528.0,1394.0,1021.7000000000002,241.0,294.77,1637179120.4351735,1637179121.5716808,cfb21275-6578-435a-93c0-012d2bdbef56
-0.4388333417493333,-0.6185234742473072,0.0033573621656365,0.619676166246901,0.0341910552404124,0.0440394287250266,-0.2467703029829072,-0.2616940755238806,-14.294025960718736,26.562525733743083,0.0444647593768041,-1.1298099270267992,-2.2946956534257565,0.2099592023330314,6640.514214409723,12.024666666666668,0.3011111111111111,179.65354897567678,3.402604327164472,77.98574225338058,1423.0,1435.0,1200.0,1528.0,1394.0,1021.7000000000002,241.0,294.77,1637179121.6796443,1637179122.8883357,cfb21275-6578-435a-93c0-012d2bdbef56
-0.4369437640045918,-0.6110270712844558,0.0037567537900054,0.6168831642932712,0.0326975824490726,0.0408607314087234,-0.2500952799823183,-0.2627645986846513,-14.458217522256502,26.67525918711525,0.2592707104435583,-1.12993375402519,-2.266950187248987,0.217207460379038,6639.36962890625,12.025,0.3,179.65599570121947,3.409098034654124,77.92652527218645,1423.0,1435.0,1200.0,1528.0,1394.0,1021.7000000000002,241.0,294.77,1637179122.9969409,1637179124.1174948,cfb21275-6578-435a-93c0-012d2bdbef56
-0.6366533413885188,-0.981039774293321,0.0047018163523609,0.7806939892466555,0.1158630856792333,0.2399812951781214,-0.1665051743429077,-0.1958842957022101,-14.800535381294369,27.74789603709709,-1.2143223128636542,-1.0452498637018834,-3.659330045537006,-0.0624629463185932,6643.955240885417,12.019444444444444,0.3088888888888889,179.75642680277534,3.424858032117758,77.89631534548751,1372.0,1435.0,1200.0,1528.0,1354.0,1021.7000000000002,241.0,294.77,1637179124.939148,1637179126.0724857,724e6d03-f63b-486e-9919-537ff2d4619b
-0.6302159565868283,-0.9741093114491034,0.0163575878447729,0.7753660284649694,0.122889420028988,0.2403511022208335,-0.153767373846997,-0.1771474018849665,-14.43071343883598,27.798792472477032,-0.8027805639025883,-1.0312307444296565,-3.638205826176695,-0.1044470305643957,6657.706705729167,12.012777777777778,0.3344444444444445,179.75876576311111,3.3967880416312526,77.81109811085288,1372.0,1435.0,1200.0,1528.0,1354.0,1021.7000000000002,241.0,294.77,1637179126.180711,1637179127.1995757,724e6d03-f63b-486e-9919-537ff2d4619b
-0.6364889825969963,-0.9967360400884604,-0.0024477873931121,0.7889804064091992,0.1091517720897013,0.2508974517640157,-0.1713674530980241,-0.2073346201616549,-14.609279691818392,28.0591084784337,-0.8153595370181256,-1.0375449966826926,-3.7245584473977495,-0.0379112182923144,6660.0048828125,12.012,0.3400000000000001,179.7570278594223,3.365731313770812,77.7390547933074,1372.0,1435.0,1200.0,1528.0,1354.0,1021.7000000000002,241.0,294.77,1637179127.312958,1637179128.4211986,724e6d03-f63b-486e-9919-537ff2d4619b
-0.8692620963532515,-1.4333553002147414,-0.0094193358379051,1.0213151111027043,0.2003982426939636,0.4703026079400925,-0.0855585077072072,-0.1203888588058175,-14.5395806420605,29.503478849489728,0.2569942369682631,-1.0591686935182691,-5.401166530793769,-0.3246883135103455,6672.105414496527,12.011555555555557,0.3433333333333334,179.84594326203754,3.3927655108128727,77.62618515836304,1321.0,1435.0,1200.0,1528.0,1314.0,1021.7000000000002,241.0,294.77,1637179130.4687202,1637179131.4943178,7c45ee2b-2a86-443c-86dd-8ced65864ce6
-0.9046951125169954,-1.462748146607252,-0.0124599718656293,1.0552140915688215,0.2029047128249148,0.4625229633593979,-0.0933518499387608,-0.120238196680214,-14.700792399555104,30.063676887006224,-0.5526384608112783,-1.1497663812076897,-5.507447753690504,-0.3176053145260603,6764.592664930556,12.00388888888889,0.3755555555555555,179.8613142233097,3.387032041323339,77.53880654831106,1321.0,1435.0,1200.0,1528.0,1314.0,1021.7000000000002,241.0,294.77,1637179131.6019337,1637179132.7221868,7c45ee2b-2a86-443c-86dd-8ced65864ce6
-0.908031595978251,-1.4708882942382866,-0.0158002886650164,1.0527152915430142,0.2001933421889385,0.4733311907142862,-0.0916156741060222,-0.105369211601079,-14.50070196448006,30.02507634142573,-0.4839306042234125,-1.1201527108521696,-5.539908160531889,-0.3125852462752574,6811.130859375,12.003888888888888,0.3644444444444444,179.85809037402146,3.37393920901466,77.48149063643594,1321.0,1435.0,1200.0,1528.0,1314.0,1021.7000000000002,241.0,294.77,1637179132.830473,1637179133.8593662,7c45ee2b-2a86-443c-86dd-8ced65864ce6
-0.1147732688878057,-0.013624179360483,0.0068932657969254,0.3470883767643991,-0.0944612712073371,-0.277228165988509,-0.3846776856055394,-0.4055512463489413,-14.711047717932187,25.05443239557341,2.44866879566172,-1.2464977826648864,-0.0105523716395273,0.651240260380875,6797.32470703125,12.004,0.37,179.4631521401933,3.38798492386036,77.43657303572422,1525.0,1435.0,1200.0,1528.0,1475.0,1021.7000000000002,241.0,294.77,1637179135.4012308,1637179136.4054675,8ac89102-d29f-42fe-b73a-a192677a9499
-0.1127187849697359,-0.0174592158417776,0.0160425670368893,0.3517452063519475,-0.085668080149086,-0.2759543858970946,-0.3752133618676173,-0.4000452288150942,-14.628992907074704,25.16779293990395,2.7748312194209066,-1.2528397439998653,-0.0283990392044593,0.613364603828601,6762.76416015625,12.039555555555555,0.23,179.46685410272346,3.39665378572538,77.65323726093573,1525.0,1435.0,1200.0,1528.0,1475.0,1021.7000000000002,241.0,294.77,1637179136.51309,1637179137.638962,8ac89102-d29f-42fe-b73a-a192677a9499
-0.1098835971446017,-0.0091864942510498,0.0107830884937087,0.3359256822313119,-0.0910919176080936,-0.2701881339677944,-0.3745833199892717,-0.3906356902761316,-14.447821826449704,24.702015904104872,2.662887255538171,-1.2074734621521104,0.0039449685414585,0.6280465361771038,6745.617133246527,12.042555555555555,0.23,179.44028466685214,3.404985312136392,77.82813563828252,1525.0,1435.0,1200.0,1528.0,1475.0,1021.7000000000002,241.0,294.77,1637179137.7466166,1637179138.9787817,8ac89102-d29f-42fe-b73a-a192677a9499
-0.0961596446762004,-0.0185275474503528,-0.0115833921212216,-0.135907060151778,-0.1590816389081022,0.193029494468909,-0.2661202555161988,-0.2820493560067432,-14.487501524146085,23.69855854088248,5.788547744139986,0.8904899990122791,-0.0018536910833598,0.5962358914616903,6649.6708984375,12.041,0.235,179.45044115814795,3.551925525557386,78.18936575019175,1525.0,1521.0,1200.0,1528.0,1475.0,1021.7000000000002,241.0,294.77,1637179140.9135227,1637179141.940582,ba098e83-c550-4af9-9844-f4fb53f8ebc5
-0.0924703394974188,-0.0160369651740033,-0.0098044830202024,-0.1498118075454716,-0.1614747018195313,0.2075829091468131,-0.2602214208926249,-0.2908447387096297,-14.2235391124427,23.76995352495648,6.4110618437156655,0.9553531365094484,0.0019278750795931,0.5898845343893092,6651.965603298611,12.037,0.2444444444444444,179.4542744120921,3.5467662840637777,78.21404284420807,1525.0,1521.0,1200.0,1528.0,1475.0,1021.7000000000002,241.0,294.77,1637179142.0491047,1637179143.163606,ba098e83-c550-4af9-9844-f4fb53f8ebc5
-0.0816138987334269,-0.0060636788621843,-0.0044885746016222,-0.1507130410165766,-0.1586981352518633,0.1963851511995109,-0.2576283881134668,-0.2807618788711768,-14.094085506898764,23.734356562637103,6.120777437120034,0.9322708519799536,0.0414376627080906,0.5760592415282889,6654.833984375,12.039555555555555,0.2311111111111111,179.43988699806044,3.548604695883503,78.26375903226669,1525.0,1521.0,1200.0,1528.0,1475.0,1021.7000000000002,241.0,294.77,1637179143.2715092,1637179144.3954566,ba098e83-c550-4af9-9844-f4fb53f8ebc5
-0.0697888373098085,-0.027634115557457,-0.0569425604690826,-0.6937208953234699,-0.2633902570530099,0.7417486503530136,-0.1588844084767618,-0.1770033139091121,-14.156826630019104,22.869680798804048,9.748420940308966,3.37487092100119,-0.0076563141668764,0.64762017078824,6727.96435546875,12.038,0.23,179.42573636392,3.722967923165639,78.3563809508715,1525.0,1607.0,1200.0,1528.0,1475.0,1021.7000000000002,241.0,294.77,1637179145.4195206,1637179146.4406595,fcfba1a4-6d23-48aa-a5a4-d023d4e46263
-0.088118120752819,-0.0360229840275515,-0.0616629426300794,-0.6908544784204175,-0.2673611638653589,0.7458378944993672,-0.1633812630024071,-0.1978965943779195,-14.189128809463798,23.03319178888064,9.49934933216176,3.378386991388043,-0.0373329203471965,0.6644347404780843,6769.888943142361,12.034666666666666,0.2544444444444445,179.4111015452584,3.7346685589644326,78.30511430987129,1525.0,1607.0,1200.0,1528.0,1475.0,1021.7000000000002,241.0,294.77,1637179146.5490491,1637179147.7863293,fcfba1a4-6d23-48aa-a5a4-d023d4e46263
-0.0790718173449124,-0.0277656025252927,-0.0586913371340878,-0.6967056507337862,-0.265033844285517,0.7408939851961471,-0.1602781704381951,-0.1752150915400797,-14.165159657638457,22.82337593786544,9.206719444527684,3.379198668308316,-0.0030335655675918,0.6534340653089875,6774.641710069444,12.033222222222223,0.26,179.4021737291033,3.742324442114109,78.26323462552041,1525.0,1607.0,1200.0,1528.0,1475.0,1021.7000000000002,241.0,294.77,1637179147.8952167,1637179149.0105531,fcfba1a4-6d23-48aa-a5a4-d023d4e46263
-0.0523306551975672,-0.0423047738492493,-0.0930231325309237,-1.2014997391064857,-0.3553122585938755,1.2461988981919463,-0.0607403424077632,-0.0718756456518279,-14.173261572963034,22.664276376643897,13.18530085824226,5.65124401151116,-0.03279721521437,0.6809596341147417,6733.2490234375,12.033,0.26,179.38836156878173,3.8690724997013817,78.14312878460538,1525.0,1693.0,1200.0,1528.0,1475.0,1021.7000000000002,241.0,294.77,1637179149.9026327,1637179150.8415997,db0955a2-3a8a-4f9b-a43a-e69cca82d717
-0.0557197317338191,-0.0468049152904677,-0.0916814175596694,-1.1889536814667638,-0.3505529776062732,1.235626798662343,-0.0579155640562797,-0.0854226380117822,-13.962480626140326,22.41444078761883,12.71611344481656,5.597628188741089,-0.0484728089037622,0.6677802149640536,6712.158203125,12.021222222222224,0.3044444444444444,179.36577944556586,3.87672326020918,77.92802487816424,1525.0,1693.0,1200.0,1528.0,1475.0,1021.7000000000002,241.0,294.77,1637179150.949927,1637179152.1791704,db0955a2-3a8a-4f9b-a43a-e69cca82d717
-0.0505774957067865,-0.0483723495593595,-0.0877773502833558,-1.178489502057575,-0.346258831811308,1.2277085442786844,-0.0585078032713392,-0.0903112144511314,-14.102059905549334,22.61793994269551,12.752979033153528,5.557709221775006,-0.0547278875568167,0.6572259380415703,6707.489800347223,12.023777777777775,0.3,179.3626056843315,3.883413525364946,77.7382442775259,1525.0,1693.0,1200.0,1528.0,1475.0,1021.7000000000002,241.0,294.77,1637179152.2877562,1637179153.408049,db0955a2-3a8a-4f9b-a43a-e69cca82d717
-0.0222804046343626,-0.0362645913070826,-0.084901072841862,-1.6324213171514386,-0.4100300205869,1.654287890474692,0.0435041672258694,0.0169191459734893,-14.202583275772769,23.720157436482776,16.048369170495462,7.548173587099874,0.0182778433164348,0.5965307215466645,6646.807400173611,12.01611111111111,0.3222222222222222,179.32661817650458,4.035570503278966,77.35134138180135,1525.0,1780.0,1200.0,1528.0,1475.0,1021.7000000000002,241.0,294.77,1637179155.4552205,1637179156.6893444,eb1784d4-ab4e-43e9-971b-c3c5db7643f8
-0.0421404152445928,-0.0508651232657004,-0.099049618577165,-1.6212175176942365,-0.4171385359329055,1.6603691634451432,0.0346014040880518,0.0091258041107674,-14.209700908097023,23.443984780070377,16.26027736835938,7.534060904352651,-0.0405918423176812,0.636913256229278,6645.5474609375,12.009,0.358,179.29641083009932,4.047340607793444,77.10557114024273,1525.0,1780.0,1200.0,1528.0,1475.0,1021.7000000000002,241.0,294.77,1637179156.7968466,1637179157.816491,eb1784d4-ab4e-43e9-971b-c3c5db7643f8
-0.0402228970059599,-0.0469753004755044,-0.0968992587853329,-1.620943586114245,-0.4183438333065548,1.653931779783945,0.0338070037274893,0.0081533484132931,-14.055309481924189,23.63933978555445,15.925071819855392,7.520403709705879,-0.0240185605066719,0.6367828798344728,6642.800944010417,12.007,0.3466666666666667,179.29393648023597,4.065030200102225,76.88677012829488,1525.0,1780.0,1200.0,1528.0,1475.0,1021.7000000000002,241.0,294.77,1637179157.92492,1637179159.0492904,eb1784d4-ab4e-43e9-971b-c3c5db7643f8
-0.1480559085206203,-0.0237596329692225,0.0595428373650015,0.9609269883923588,0.0213979215389578,-0.8569899733508426,-0.4931407572214394,-0.5171919218852662,-14.69204097752484,26.35529331909352,-1.2548308581787575,-3.923305121749255,-0.0880938938450752,0.5745087313523863,6691.231770833333,12.017,0.3099999999999999,179.28838125971106,3.203537657462673,76.70105728476223,1525.0,1349.0,1200.0,1528.0,1475.0,1021.7000000000002,241.0,294.77,1637179159.9397423,1637179160.9844515,8d210205-ba57-4013-9a6c-d08a81a52024
-0.1318117888359357,-0.0179933816566506,0.0540779104907586,0.9512161291792242,0.0135634899381004,-0.8535795289056081,-0.4976058364524895,-0.5224103117521758,-14.585386724819369,26.3187582931828,-1.2763746505064042,-3.894200137644619,-0.0661823282785728,0.5996578949433873,6723.277289496527,12.036888888888887,0.24,179.32639657481153,3.2152998123958665,77.03184486408577,1525.0,1349.0,1200.0,1528.0,1475.0,1021.7000000000002,241.0,294.77,1637179161.0924485,1637179162.2138329,8d210205-ba57-4013-9a6c-d08a81a52024
-0.1572665471191206,-0.0268943584844984,0.0482675921327785,0.9579572174237284,0.0115941629909852,-0.8505746212938147,-0.500790584958386,-0.5180554006887216,-14.603031324940575,26.19796663257196,-1.23968550481664,-3.9037470434783934,-0.100967057959649,0.613865766258056,6742.666069878473,12.039222222222223,0.2377777777777777,179.34135468909383,3.2078595308078035,77.30723581469096,1525.0,1349.0,1200.0,1528.0,1475.0,1021.7000000000002,241.0,294.77,1637179162.3214607,1637179163.3504725,8d210205-ba57-4013-9a6c-d08a81a52024
-0.1480148187877112,0.0007982970882482,0.0993861259736913,1.485518874836102,0.1045360319417767,-1.3826505880697202,-0.6163276413059499,-0.652335907834729,-15.443236513472712,28.43189575018472,-4.229457800697553,-6.272987807708907,-0.0263333238601511,0.5843508348306403,6674.411512586806,12.035222222222224,0.2466666666666666,179.40069689042275,3.0377135658831964,77.80947783819977,1525.0,1262.0,1200.0,1528.0,1475.0,1021.7000000000002,241.0,294.77,1637179164.90117,1637179165.9459157,383aa882-420f-4c19-aa87-f3a8ee07b052
-0.1662213816417961,-0.005583751429002,0.0946093142630844,1.4778652373713523,0.0991850605047251,-1.3701823243758344,-0.6163144925966767,-0.6477530368704052,-15.269578140863636,28.437609812189976,-4.367102153329454,-6.227839723658875,-0.0496394597931954,0.5972172773457135,6663.457356770833,12.025,0.2899999999999999,179.39140327969207,3.0398075643303013,78.00611974331436,1525.0,1262.0,1200.0,1528.0,1475.0,1021.7000000000002,241.0,294.77,1637179166.0542648,1637179167.0039532,383aa882-420f-4c19-aa87-f3a8ee07b052
-0.152849156525629,0.0048694622503352,0.1081524711927079,1.476090163193896,0.1102036677753693,-1.37705909932436,-0.604257134211378,-0.6283718515233019,-15.163578751388478,28.375365054716337,-4.022487996030208,-6.238918601059269,-0.0131620392704936,0.5484166111102553,6654.833984375,12.022,0.29,179.39107998407133,3.037549759922789,78.15610614402839,1525.0,1262.0,1200.0,1528.0,1475.0,1021.7000000000002,241.0,294.77,1637179167.1122243,1637179168.2696965,383aa882-420f-4c19-aa87-f3a8ee07b052
-0.1599308257550911,0.0265204345169957,0.1491457222382321,1.9696375361927487,0.1864277535078943,-1.875946481063656,-0.7239004524399583,-0.7476913854339683,-15.940103668824802,30.99655713562718,-7.647828947072117,-8.454858508013976,0.0475465900097352,0.5592801167468259,6660.0048828125,12.018333333333334,0.3088888888888889,179.38855129625864,2.839340302677762,78.4196960455676,1525.0,1176.0,1200.0,1528.0,1475.0,1021.7000000000002,241.0,294.77,1637179169.9000614,1637179171.0202086,61a74a99-0732-4872-8cc2-8650417e47f6
-0.1724083917011597,0.0216444595884744,0.1480363010268938,1.969021190462693,0.1848800424599261,-1.8679887673818287,-0.7224486165847619,-0.7380763972829657,-15.798824798498728,31.065530660408623,-7.276923906102842,-8.435053905225246,0.024978184034397,0.560831536374829,6658.28125,12.017,0.32,179.3857387761404,2.8245153770842486,78.57647241322654,1525.0,1176.0,1200.0,1528.0,1475.0,1021.7000000000002,241.0,294.77,1637179171.1284072,1637179172.2500849,61a74a99-0732-4872-8cc2-8650417e47f6
-0.168573354983573,0.0210418109894282,0.1429000917176686,1.9642821794318912,0.1836336556683188,-1.861181566855956,-0.7254892538263894,-0.762346709439632,-16.15785772394379,30.807790212639784,-7.040134068594386,-8.41117449277242,0.0234138641105443,0.5739337981234612,6663.457356770833,12.016666666666667,0.3166666666666666,179.39138961931374,2.828736932025944,78.73699779582991,1525.0,1176.0,1200.0,1528.0,1475.0,1021.7000000000002,241.0,294.77,1637179172.3582735,1637179173.591293,61a74a99-0732-4872-8cc2-8650417e47f6
-0.1737232614303948,0.034341169513832,0.1755663828761567,2.238103903356172,0.2254492472389163,-2.135702178393464,-0.7887673823728995,-0.8035048870527995,-16.296189044200435,33.20379684680166,-8.513439998354501,-9.628528189233178,0.0557296811736165,0.5633983183597915,6657.706705729167,12.000888888888888,0.3733333333333333,179.39681127169493,2.72225738965288,78.93860297174135,1525.0,1090.0,1200.0,1528.0,1475.0,1021.7000000000002,241.0,294.77,1637179174.5016854,1637179175.684001,e6408781-59fa-457e-a43a-a5adf22f9adc
-0.1787635954188383,0.0396417376992751,0.1801273367485509,2.2295298535041947,0.2297088767476214,-2.132086280570729,-0.7834805082290464,-0.8040801424666331,-16.450648502418733,33.087352027843046,-8.343440729681127,-9.601657302022703,0.0765393758152575,0.544597818613752,6660.0048828125,11.992,0.4099999999999999,179.39215915396022,2.7250205094793003,78.90682589608281,1525.0,1090.0,1200.0,1528.0,1475.0,1021.7000000000002,241.0,294.77,1637179175.7925112,1637179176.8687885,e6408781-59fa-457e-a43a-a5adf22f9adc
-0.1907962971298533,0.0192541361318666,0.1663091531415773,2.240700224321234,0.2199163856149928,-2.12330128932333,-0.7944925464212338,-0.8146495078332932,-16.42805978397961,33.247394722189505,-8.569627504990192,-9.606765669332765,-0.0003303120094152,0.589712183680568,6655.408528645833,11.988666666666669,0.43,179.3864233128772,2.6865840468118765,78.94153464071512,1525.0,1090.0,1200.0,1528.0,1475.0,1021.7000000000002,241.0,294.77,1637179176.9772227,1637179178.0932553,e6408781-59fa-457e-a43a-a5adf22f9adc
-0.1114587015168216,-0.0050775266382765,0.0192475617736952,0.3128606791639396,-0.089338758040464,-0.2480681891193616,-0.3648998513372337,-0.3983057645374506,-14.535049606779369,25.087060173202644,3.4256744356536863,-1.1026863329284262,0.016595836703299,0.6014852282395191,6684.248155381944,12.00311111111111,0.36,179.39038937605528,3.270654037023112,79.03391977942869,1525.0,1435.0,1200.0,1528.0,1475.0,1021.7000000000002,241.0,294.77,1637179179.9183328,1637179181.06296,e7f91c6f-c2bb-443d-9350-64f2ce8db0a1
-0.1094316106952822,-0.01340503440721,0.0187544856931954,0.3287623826383289,-0.0860241906521889,-0.2534509372598772,-0.3659818796335359,-0.3898412895065202,-14.561442834655418,25.07355611903104,3.5762931980485866,-1.15075578189589,-0.0177748334961287,0.5985146800506067,6705.740993923611,12.041666666666668,0.22,179.39057303225297,3.262161384552305,79.09268293249795,1525.0,1435.0,1200.0,1528.0,1475.0,1021.7000000000002,241.0,294.77,1637179181.1819267,1637179182.2841778,e7f91c6f-c2bb-443d-9350-64f2ce8db0a1
-0.1165538215530785,-0.0248827508406315,0.0144811593489434,0.3390484973566445,-0.0877362605890231,-0.2537659580924724,-0.3710906969931782,-0.3905398145796119,-14.653282769483909,25.233771557355897,3.241923007271589,-1.1739168565115106,-0.0587443433079491,0.6120452665738694,6706.90625,12.0406,0.22,179.3911701425684,3.2622589424209503,79.12713637983725,1525.0,1435.0,1200.0,1528.0,1475.0,1021.7000000000002,241.0,294.77,1637179182.392635,1637179183.51344,e7f91c6f-c2bb-443d-9350-64f2ce8db0a1
-0.0203902795268353,0.0236167640522495,0.266566314000584,0.2967261341833003,0.1366544611799701,-0.2729548391569785,-0.1069251402484523,-0.1313187135078681,-12.75677839303255,24.863517797210232,3.711038249355119,-1.1104408196343825,0.1267629407934282,-0.4056810535310711,6706.90625,12.041,0.22,179.37254285066393,3.2634272462784804,79.15496666862938,1525.0,1435.0,1200.0,1439.0,1475.0,1021.7000000000002,241.0,294.77,1637179184.4253376,1637179185.3633182,3459dcca-ce90-47fe-bba3-43e042c470fe
-0.015664966693525,0.0319168786246563,0.262977815861369,0.2866180745243511,0.1308060307792131,-0.2715714866647698,-0.1125407296076069,-0.1380300272234745,-12.921741171831473,24.91005406105828,3.705509422322285,-1.0844850438964873,0.160127800791626,-0.3840549326052986,6676.1923828125,12.041,0.22,179.36524365517093,3.272171311372173,79.20004895279112,1525.0,1435.0,1200.0,1439.0,1475.0,1021.7000000000002,241.0,294.77,1637179185.471432,1637179186.6984415,3459dcca-ce90-47fe-bba3-43e042c470fe
-0.0264441586189384,0.0211787765971545,0.2504317688560597,0.2931650292260396,0.1228483304330506,-0.2645862408011774,-0.1203751615961534,-0.147727191542609,-12.85443337600578,24.71498532673242,3.9831887898341662,-1.085396288411077,0.1153112052433707,-0.3456831872017019,6613.7548828125,12.04,0.22,179.361177415885,3.263047743892722,79.25692773255935,1525.0,1435.0,1200.0,1439.0,1475.0,1021.7000000000002,241.0,294.77,1637179186.806882,1637179187.923282,3459dcca-ce90-47fe-bba3-43e042c470fe
0.0593050650133024,0.06652369931824,0.541007524133516,0.285449484244675,0.3829733576228051,-0.3182466257104174,0.1685312827845752,0.1516089109727209,-10.927680040380867,25.053090183544928,3.877810229746386,-1.1709108077910508,0.2920557521920318,-1.5009317137913831,6650.262044270833,12.040111111111113,0.2244444444444444,179.3195056728489,3.265387344558732,79.25315443249787,1525.0,1435.0,1200.0,1351.0,1475.0,1021.7000000000002,241.0,294.77,1637179189.900643,1637179190.9993398,f3ccd50b-df24-41a4-8726-19966a6f9a5f
0.0637613773455827,0.0664595994298236,0.5456336733250391,0.2785644986036432,0.3871371111008055,-0.3127570440872052,0.1749774309052126,0.1402292625581098,-10.96139412871202,25.01725471097615,3.7912848521782574,-1.1430821139194731,0.2939611854484014,-1.522285818792047,6696.4267578125,12.037,0.2355555555555555,179.30482228395317,3.2566070415169417,79.27611676957753,1525.0,1435.0,1200.0,1351.0,1475.0,1021.7000000000002,241.0,294.77,1637179191.1074076,1637179192.152157,f3ccd50b-df24-41a4-8726-19966a6f9a5f
0.0642133637099892,0.0735544167353545,0.5436887621880756,0.2790712712500131,0.3853565586215032,-0.3217830776087482,0.1703342977077175,0.1359559363204311,-11.05898342687709,24.91514766277397,3.539275853948705,-1.1653709905559506,0.3233079031886932,-1.5101175409618144,6701.66259765625,12.039555555555555,0.24,179.31455758025015,3.274782530637365,79.28539216647042,1525.0,1435.0,1200.0,1351.0,1475.0,1021.7000000000002,241.0,294.77,1637179192.261913,1637179193.3457806,f3ccd50b-df24-41a4-8726-19966a6f9a5f
0.149474439572266,0.1132196499488145,0.8316862721692061,0.2796739196956827,0.6431120714439492,-0.3743504787313892,0.456469084950509,0.4203512626685494,-9.015102635761844,25.408135378020987,3.863694579290026,-1.266167406903029,0.4729269114828758,-2.6546677958767826,6715.6650390625,12.037999999999998,0.2333333333333333,179.29089932278507,3.26145282357372,79.2244092019209,1525.0,1435.0,1200.0,1262.0,1475.0,1021.7000000000002,241.0,294.77,1637179194.899402,1637179196.1158564,f88825b1-d1e2-485c-99ec-9933d507939f
0.1440232094573386,0.1091791652338214,0.8219069302291445,0.2706341916093548,0.6330861915313061,-0.3643108992586589,0.4515383242937599,0.433527351199606,-8.828060267810338,25.3125677724406,3.488499843634141,-1.2243018504938368,0.460265543901011,-2.6215888262815823,6697.609375,12.035111111111112,0.2488888888888889,179.2802411920402,3.260202970103411,79.21700983032007,1525.0,1435.0,1200.0,1262.0,1475.0,1021.7000000000002,241.0,294.77,1637179196.223816,1637179197.440184,f88825b1-d1e2-485c-99ec-9933d507939f
0.1405716767848566,0.1076725437790647,0.8080186210730916,0.2749486073182293,0.6196772619749541,-0.3658997003771931,0.4328562199835926,0.4144754397108642,-9.126419257035217,25.567012915984986,3.490689339438157,-1.2367589983220473,0.4552997771222113,-2.5582492121163742,6635.951877170139,12.034,0.24,179.3060380576254,3.2752134017375067,79.22737502184049,1525.0,1435.0,1200.0,1262.0,1475.0,1021.7000000000002,241.0,294.77,1637179197.5490105,1637179198.7821672,f88825b1-d1e2-485c-99ec-9933d507939f
0.2131711047808501,0.1567106052828114,1.0735822713533518,0.2814259833662142,0.8569312188681528,-0.4308389326678183,0.6899822382375885,0.6659595724646986,-7.440265983555068,26.003722296252377,3.93538009496806,-1.3802595485569509,0.6393920833637989,-3.6018652937640336,6648.569390190973,12.032444444444444,0.2488888888888889,179.27358251650938,3.2586829447059333,79.15696260168686,1525.0,1435.0,1200.0,1173.0,1475.0,1021.7000000000002,241.0,294.77,1637179200.9211037,1637179202.0586207,2e00a851-df4b-4a95-8415-5dd9bb01d2a2
0.2332151955504768,0.1680195794162208,1.0926467842244094,0.2867824332313601,0.8738168826953195,-0.4478188339974796,0.7056231587673926,0.6807913004662777,-7.273335054281067,25.925238575620146,3.9316395334266887,-1.4299860526902926,0.6812070323817304,-3.671561518966447,6717.4267578125,12.023666666666664,0.28,179.24480465280638,3.2334753726640937,79.09231334337285,1525.0,1435.0,1200.0,1173.0,1475.0,1021.7000000000002,241.0,294.77,1637179202.1670132,1637179203.2880528,2e00a851-df4b-4a95-8415-5dd9bb01d2a2
0.2237163587139287,0.1502020008645891,1.071084019184369,0.2898805946334532,0.8574045718800077,-0.434967624038322,0.6874182427182818,0.6626461014009365,-7.487094490372908,25.954682649251705,3.530214193226083,-1.4091464450550806,0.6177031242660327,-3.596751524956676,6740.898817274306,12.025555555555556,0.28,179.24660782274725,3.254093603050181,79.04083420759848,1525.0,1435.0,1200.0,1173.0,1475.0,1021.7000000000002,241.0,294.77,1637179203.397515,1637179204.6118472,2e00a851-df4b-4a95-8415-5dd9bb01d2a2
-0.2277424937898848,-0.0652465103325981,-0.3210023736427684,0.3918624234332341,-0.3940187403718334,-0.2455206288867513,-0.7278587594063914,-0.7515949062398795,-16.71328787627085,25.754018919469303,3.044999961874853,-1.2888481809203007,-0.221569017392182,1.988122949641251,6722.68701171875,12.029333333333334,0.26,179.33349238244924,3.264647431114582,79.24494758075514,1525.0,1435.0,1200.0,1617.0,1475.0,1021.7000000000002,241.0,294.77,1637179206.4510715,1637179207.5880709,5d04302a-074d-4314-b717-011f0b91a4fa
-0.2220995110871507,-0.0723139349010377,-0.3202216696405403,0.3964096805372454,-0.391115069352814,-0.2403570256044283,-0.7282696563444319,-0.7458012606751264,-17.02574963179188,25.91457056287489,3.390834838052472,-1.2865013399530334,-0.2494374041283201,1.9830769648210984,6733.2490234375,12.041444444444444,0.22,179.35415142795884,3.272234229746716,79.2318791521432,1525.0,1435.0,1200.0,1617.0,1475.0,1021.7000000000002,241.0,294.77,1637179207.6969802,1637179208.8170583,5d04302a-074d-4314-b717-011f0b91a4fa
-0.2164976179967704,-0.0692596022018162,-0.3104149322166441,0.3901366571372845,-0.3821986079911538,-0.2376314102180016,-0.7150113822439889,-0.7341317869107669,-16.84438377617324,25.728650632503303,3.472594496406282,-1.2668659620738272,-0.2385992109901877,1.939320827563824,6733.2490234375,12.042555555555554,0.2177777777777777,179.35941978053862,3.2827528159322736,79.22672235931981,1525.0,1435.0,1200.0,1617.0,1475.0,1021.7000000000002,241.0,294.77,1637179208.9270592,1637179210.0422547,5d04302a-074d-4314-b717-011f0b91a4fa
-0.3297133864071436,-0.1331129618933275,-0.6168755038101345,0.45756480953493,-0.6530755206550256,-0.2229760908581378,-1.0369765552285453,-1.0625480492233486,-18.96448840031368,26.179172973696527,3.0751268488876016,-1.3994385832157306,-0.4872819815826943,3.175051089914981,6613.7548828125,12.037333333333333,0.2333333333333332,179.35120078623737,3.267320382957584,79.23064971809258,1525.0,1435.0,1200.0,1706.0,1475.0,1021.7000000000002,241.0,294.77,1637179211.9801223,1637179213.1144075,cde9f837-8302-47ec-9b3f-77ac0c6c3c42
-0.3223309401616512,-0.1270590825890561,-0.6117803824309423,0.4605917487484343,-0.651363450305986,-0.2337141939841633,-1.0388666816826817,-1.0646436229035172,-19.06972243872495,26.51405557423651,2.797144817999941,-1.4280201718062422,-0.4614116831729373,3.1686210708825,6599.610134548611,12.032222222222222,0.2522222222222222,179.36853125289144,3.2792084220717297,79.15545085315054,1525.0,1435.0,1200.0,1706.0,1475.0,1021.7000000000002,241.0,294.77,1637179213.2238169,1637179214.2636993,cde9f837-8302-47ec-9b3f-77ac0c6c3c42
-0.3352194038534044,-0.1244156466024504,-0.628366920497178,0.4658512267423706,-0.6649230482286749,-0.240192667150517,-1.0547273072357328,-1.0800659599790856,-19.004676438719645,26.201993713975284,2.8113479675926243,-1.4573018478765782,-0.45378779752943,3.2328407300622786,6626.831922743056,12.029222222222224,0.26,179.38460800037782,3.2827960500810827,79.09710358271076,1525.0,1435.0,1200.0,1706.0,1475.0,1021.7000000000002,241.0,294.77,1637179214.379665,1637179215.4647243,cde9f837-8302-47ec-9b3f-77ac0c6c3c42
-0.4356699838279074,-0.1741615511623554,-0.9168987528422848,0.5653978055001966,-0.9249523337199927,-0.2690513195091388,-1.3786237958243532,-1.4033735030596786,-21.034927606372893,27.47812604402337,2.4486620118942626,-1.7536909001316217,-0.6533071415265993,4.4338687372481145,6681.926649305556,12.027555555555557,0.2633333333333333,179.3872474890371,3.259729742344041,79.04798010329012,1525.0,1435.0,1200.0,1795.0,1475.0,1021.7000000000002,241.0,294.77,1637179216.3978932,1637179217.5111763,4d17e661-bfa5-4f02-868c-3dfbb3dcb55b
-0.4383819030116078,-0.1789690436925398,-0.9191586864651512,0.5610559968243947,-0.9297461320296616,-0.261285369874398,-1.378651189107783,-1.402387349617343,-20.77949759855913,27.659263579208368,2.3023920330415413,-1.7252522040733502,-0.6714552713036989,4.4427958130947145,6688.879557291667,12.016111111111112,0.3044444444444444,179.38963350178716,3.266664969388477,78.89606758923014,1525.0,1435.0,1200.0,1795.0,1475.0,1021.7000000000002,241.0,294.77,1637179217.6195197,1637179218.644709,4d17e661-bfa5-4f02-868c-3dfbb3dcb55b
-0.4276711919234946,-0.1722714259319237,-0.9140361706329356,0.5633159287900437,-0.9232402630465794,-0.2692978576518068,-1.3750900803491788,-1.4077153171062975,-20.914677776244268,27.45875721519832,2.428592093624051,-1.7494772298440475,-0.6464537747348286,4.422877749877535,6693.5244140625,12.016555555555556,0.31,179.3991046974362,3.2656194524108395,78.73254906595051,1525.0,1435.0,1200.0,1795.0,1475.0,1021.7000000000002,241.0,294.77,1637179218.7529848,1637179219.8755777,4d17e661-bfa5-4f02-868c-3dfbb3dcb55b
-0.4942814070426984,-0.198738110360915,-1.0961895590747537,0.6488662690755038,-1.086972316279374,-0.3153407634336255,-1.5907650994250369,-1.6171545668077387,-22.374519844915167,28.52221120027268,1.8592884371106408,-2.048768249916059,-0.7524044017619909,5.196544442726848,6691.19921875,12.011444444444445,0.33,179.39670805994743,3.211693851969054,78.52639118950228,1525.0,1435.0,1200.0,1883.0,1475.0,1021.7000000000002,241.0,294.77,1637179221.9031165,1637179223.0405245,a0854764-9440-450a-9416-76d109bd551e
-0.5081795824982658,-0.2051705627082482,-1.1086780897545891,0.6581098016378042,-1.096145729486541,-0.315455266562128,-1.6055486347944663,-1.622765232312221,-22.656339872433573,28.619490151786184,2.052274563224208,-2.069964767964771,-0.7781739204255934,5.246448711618524,6663.460286458333,11.988333333333332,0.4,179.38425890182023,3.224847847673114,78.28842739881904,1525.0,1435.0,1200.0,1883.0,1475.0,1021.7000000000002,241.0,294.77,1637179223.147929,1637179224.269317,a0854764-9440-450a-9416-76d109bd551e
-0.4909810835188185,-0.2003948462151645,-1.087327331085702,0.6462891248634041,-1.0786228879842823,-0.313092335930313,-1.5812454313377051,-1.6015338959983112,-22.396125581938005,28.56376934487948,1.6812880680901463,-2.037224803479464,-0.7560078112168763,5.159031766979541,6649.098198784723,11.991222222222223,0.4022222222222222,179.3843332749912,3.215863492729869,78.11226012410644,1525.0,1435.0,1200.0,1883.0,1475.0,1021.7000000000002,241.0,294.77,1637179224.3771946,1637179225.608246,a0854764-9440-450a-9416-76d109bd551e
-0.1173608228363105,-0.0319600367276789,-0.014472270285198,0.3462227543191769,-0.0922862575896871,-0.2525031352267788,-0.3770607539409881,-0.4075262895312286,-14.65203120575293,22.83507506241121,3.269179088672082,-1.2046004525102856,-0.0882983745204315,0.6664396670371509,8327.174587673611,11.851444444444446,6.811111111111112,178.86624673042778,2.992122219184904,66.91222520614626,1525.0,1435.0,1350.0,1528.0,1475.0,1021.7000000000002,241.0,294.77,1637179228.9010415,1637179230.006418,383cc284-61d5-4492-a244-ed29d1d79ccc
-0.1277576072538743,-0.0495091639150396,-0.0256634546545841,0.3582510711825663,-0.0995563912757699,-0.250300728380839,-0.3876909290575656,-0.4125501892705017,-14.713912072200849,22.995000874229067,2.6271938763274627,-1.2264148502918328,-0.1501780873887327,0.7036994168569747,8373.271592881945,11.852,6.746666666666667,178.77456434228876,2.906271958823459,62.12834325654145,1525.0,1435.0,1350.0,1528.0,1475.0,1021.7000000000002,241.0,294.77,1637179230.1193297,1637179231.3415773,383cc284-61d5-4492-a244-ed29d1d79ccc
-0.1213843242286883,-0.0290541748180929,-0.0129733188872502,0.3476296646895501,-0.0907741574430774,-0.2587750641775244,-0.375693289340588,-0.3992557579920233,-14.545410180313295,22.7201642080907,2.978528451148843,-1.222547740653101,-0.0756583778175561,0.6604656506052734,8386.9140625,11.851111111111113,6.723333333333334,178.74494560640798,2.863855084837537,58.45339488347185,1525.0,1435.0,1350.0,1528.0,1475.0,1021.7000000000002,241.0,294.77,1637179231.4500873,1637179232.4221928,383cc284-61d5-4492-a244-ed29d1d79ccc
-9.799924507699134e-06,0.2076437219196155,-0.0165552429993175,0.2191077408973822,-0.149055757330764,-0.3630371190278379,-0.4280546955239141,-0.4465724477682522,-14.560449703679886,22.094488001650262,4.09390799570657,-1.17108033880871,0.817909625101199,0.8486143328748342,8350.601345486111,11.845222222222224,6.826666666666666,178.75792903711024,2.916505692918319,50.94754291019392,1576.0,1435.0,1350.0,1528.0,1515.0,1021.7000000000002,241.0,294.77,1637179234.508834,1637179235.6454728,1afbb9a9-b648-4ccc-a2db-087a10796b93
0.012988234444628,0.2243809157356565,-0.0139939864393276,0.2182859473515429,-0.1473436872988076,-0.3761995145501908,-0.4275479226791935,-0.4490652217714797,-14.493211058179398,21.7799432924554,4.46153267828166,-1.20066940780181,0.8772083470610864,0.8447822358252125,8324.473524305555,11.837444444444444,6.932222222222222,178.7881776682145,2.9403777732499448,48.84046825565028,1576.0,1435.0,1350.0,1528.0,1515.0,1021.7000000000002,241.0,294.77,1637179235.754054,1637179236.8742282,1afbb9a9-b648-4ccc-a2db-087a10796b93
0.0236167639384819,0.2299828079475669,-0.0145418487948459,0.1974945723886211,-0.151945731335747,-0.3644341683401965,-0.425178417514001,-0.4423812994841909,-14.419765341713562,21.78625087883076,4.199370347345388,-1.1273211415565203,0.9025477948726895,0.848598057961679,8296.713758680555,11.84011111111111,6.912222222222222,178.83200016192933,2.981910896648257,47.22922207698483,1576.0,1435.0,1350.0,1528.0,1515.0,1021.7000000000002,241.0,294.77,1637179236.982093,1637179237.9911048,1afbb9a9-b648-4ccc-a2db-087a10796b93
0.2543489843759525,0.639386607870193,-0.0067895965122562,0.001305069739164,-0.2373300858430239,-0.5828943310339444,-0.5115078470979336,-0.5329977538089348,-14.422868852874483,20.81626450579998,4.196385958499103,-1.1817210295369114,2.462739504592449,1.125451590568047,8293.146918402777,11.830666666666666,7.016666666666667,178.89330793991934,3.1529322404355526,43.94473361037754,1627.0,1435.0,1350.0,1528.0,1556.0,1021.7000000000002,241.0,294.77,1637179240.0385864,1637179241.177077,c152c6f5-4a10-4b2b-80c4-f1186f49d353
0.2386527290285609,0.641906774405853,-0.0143637935472284,0.0053044648824726,-0.2423293302496786,-0.5819903579625278,-0.5164249128898857,-0.5491870919684648,-14.335497753958238,20.51188553048205,5.153992844388403,-1.1909096179173957,2.462108287603651,1.1514627115251683,8297.60546875,11.82522222222222,6.972222222222222,178.93381855079662,3.2001455436183126,43.03710430197535,1627.0,1435.0,1350.0,1528.0,1556.0,1021.7000000000002,241.0,294.77,1637179241.2849827,1637179242.4013822,c152c6f5-4a10-4b2b-80c4-f1186f49d353
0.2425288549208805,0.6526996615225057,-0.008282521370395,-0.0060773754153755,-0.2424525992868138,-0.5927147665402612,-0.5183287350318324,-0.5452150877722427,-14.533519518493751,20.90198655570858,3.656186671095901,-1.1867837572881823,2.5190582282493392,1.1448468358921458,8310.120876736111,11.827777777777778,7.035555555555556,179.00583606540522,3.2523003226540337,42.16052579244993,1627.0,1435.0,1350.0,1528.0,1556.0,1021.7000000000002,241.0,294.77,1637179242.5097096,1637179243.838329,c152c6f5-4a10-4b2b-80c4-f1186f49d353
0.4613724524923266,1.0293823835366345,-0.0004891794209065,-0.1939119905845177,-0.3274671503566715,-0.7926709029968615,-0.5970154874005787,-0.6216829984582165,-13.996045677754957,20.376035731147542,2.841515522271998,-1.2153608702148675,3.958875357172962,1.4054241175342674,8340.669270833334,11.827000000000002,6.973333333333334,179.04718451282062,3.3366403997308662,40.89840549211959,1678.0,1435.0,1350.0,1528.0,1596.0,1021.7000000000002,241.0,294.77,1637179245.397939,1637179246.5516942,9bc4b950-ed51-4f50-9eb3-a535102c2585
0.474397878592436,1.0368470075109213,0.0097695431319842,-0.1878444145149441,-0.3160853083102093,-0.7928900480006128,-0.585222746703609,-0.6066304752736681,-13.916546953980216,20.120371575951435,4.730797441590796,-1.2303831159325125,3.969463869047271,1.362929130673843,8337.962890625,11.81922222222222,7.02,179.07002770104484,3.380513835273228,40.552023073101104,1678.0,1435.0,1350.0,1528.0,1596.0,1021.7000000000002,241.0,294.77,1637179246.660096,1637179247.595754,9bc4b950-ed51-4f50-9eb3-a535102c2585
0.4573319680809799,1.039613712185715,0.0054003408735274,-0.192186223956242,-0.3203586352805033,-0.7960539545543664,-0.5927284631585065,-0.6190258653439947,-14.216042986936255,20.172661071332605,4.0536923662271205,-1.227828394919735,3.9882200905607537,1.3845026008811416,8337.962890625,11.8206,6.959999999999999,179.12120281751012,3.418139312583638,40.17845187183552,1678.0,1435.0,1350.0,1528.0,1596.0,1021.7000000000002,241.0,294.77,1637179247.7041657,1637179248.845721,9bc4b950-ed51-4f50-9eb3-a535102c2585
0.6587672363866741,1.384903949246192,0.0259599712810282,-0.3709597579865539,-0.3905513189632286,-0.9677267112581284,-0.6515530107576315,-0.6818344699594517,-13.574023391307932,20.11951493640465,4.192008252747436,-1.2093140634947548,5.300811785274445,1.5767146816007311,8346.08203125,11.819,7.01,179.1207274363439,3.450188737292136,39.533022217912496,1729.0,1435.0,1350.0,1528.0,1636.0,1021.7000000000002,241.0,294.77,1637179250.400251,1637179251.4122727,0953276a-34d2-4762-86cf-52b967e33650
0.6764916771994228,1.3866132798152535,0.0367156049189917,-0.3617293715304725,-0.3772448357882687,-0.9726443267196672,-0.6387330273777662,-0.6535910599636086,-13.442184706547364,19.8241503561478,5.032437117467194,-1.2424082077186969,5.298381375038117,1.5273632670840225,8342.473524305555,11.802666666666669,7.064444444444444,179.13314927371442,3.472222026349081,39.30487265015665,1729.0,1435.0,1350.0,1528.0,1636.0,1021.7000000000002,241.0,294.77,1637179251.519654,1637179252.651459,0953276a-34d2-4762-86cf-52b967e33650
0.646328570945723,1.3586197045044557,0.0182942813219506,-0.354957791875184,-0.389236449020954,-0.9532762856484402,-0.6503170328646587,-0.6870808024488203,-13.51064538965557,19.8821025772063,4.657336025481451,-1.2147879993264925,5.195196949821724,1.5813711656695173,8336.162326388889,11.801222222222222,7.098888888888888,179.15690467164777,3.500225327627441,39.072813558010886,1729.0,1435.0,1350.0,1528.0,1636.0,1021.7000000000002,241.0,294.77,1637179252.785184,1637179253.966122,0953276a-34d2-4762-86cf-52b967e33650
-0.318483302301137,-0.390419831947172,-0.0344582890980708,0.49940505302938,-0.0317759550018004,-0.0630698533082251,-0.3123034139623253,-0.3360762607594306,-14.569611986116328,23.506189766260047,0.4866001547913754,-1.121408651797547,-1.428777609445965,0.4728919990113182,8337.962890625,11.820555555555556,7.023333333333333,179.70593197315137,3.519334062491021,38.74983667945821,1474.0,1435.0,1350.0,1528.0,1435.0,1021.7000000000002,241.0,294.77,1637179254.9897096,1637179256.1264353,62a1b2c2-39f1-4ea4-8ced-aebc0f9ffde3
-0.3142499692592493,-0.3808974347021816,-0.0512623234684861,0.4853688210605836,-0.0506459783091753,-0.0563985331757821,-0.3257550801955733,-0.3442865277001695,-14.35673031859286,23.27228722309429,0.8089414508648801,-1.0769837589316449,-1.3967675495145182,0.5423803532835062,8335.262044270834,11.844333333333331,6.963333333333334,179.72445241054078,3.5190354077263755,38.67047064021258,1474.0,1435.0,1350.0,1528.0,1435.0,1021.7000000000002,241.0,294.77,1637179256.2350695,1637179257.2425635,62a1b2c2-39f1-4ea4-8ced-aebc0f9ffde3
-0.3213891646011608,-0.3887105010672556,-0.0456609787202483,0.4938563036844131,-0.0433468081020043,-0.057402764929436,-0.319785023358408,-0.3430976659089292,-14.335373610447014,23.33381764241413,0.7326949570433712,-1.0977006846766018,-1.4262355373396176,0.5153144615212653,8329.8603515625,11.844666666666669,6.897777777777778,179.71825059877443,3.528158453455266,38.612880002950845,1474.0,1435.0,1350.0,1528.0,1435.0,1021.7000000000002,241.0,294.77,1637179257.350381,1637179258.4673662,62a1b2c2-39f1-4ea4-8ced-aebc0f9ffde3
-0.4625289413809708,-0.6490487309809958,-0.0473588041458748,0.6103772995922986,0.0119335994226077,0.086853775002415,-0.2629152603618376,-0.291075389735166,-14.488455088174485,24.167853068866464,0.4339355592102532,-1.0310600970200765,-2.4133705307527773,0.3300144292084578,8346.08203125,11.841,6.970000000000001,179.83304786488458,3.54577936916058,38.573947545226815,1423.0,1435.0,1350.0,1528.0,1394.0,1021.7000000000002,241.0,294.77,1637179260.406318,1637179261.3463671,fd932f25-ffdf-4e27-911d-b65e294d7cda
-0.4509695911650028,-0.6413496187532582,-0.0444907446656883,0.6062513486699292,0.0145074567506049,0.0863124869007511,-0.2599715956234453,-0.2844676210658356,-14.545115556014734,24.01161142037085,0.9135589049322904,-1.0238143104936293,-2.387656876835768,0.3200044938660539,8346.08203125,11.831888888888887,6.94,179.8526808641988,3.528238755609883,38.55119466728169,1423.0,1435.0,1350.0,1528.0,1394.0,1021.7000000000002,241.0,294.77,1637179261.454849,1637179262.408075,fd932f25-ffdf-4e27-911d-b65e294d7cda
-0.4504759669294111,-0.6426935256377445,-0.0480299355719193,0.6038577383273231,0.0109611437406726,0.0849636498328508,-0.2639835921184736,-0.2887880637789044,-14.587213638046938,24.034735198552443,0.1925918235923358,-1.021604984173143,-2.38593874081461,0.334131843937147,8342.473524305555,11.82611111111111,7.006666666666667,179.84602218866792,3.508864544574188,38.527735244212415,1423.0,1435.0,1350.0,1528.0,1394.0,1021.7000000000002,241.0,294.77,1637179262.516597,1637179263.5923672,fd932f25-ffdf-4e27-911d-b65e294d7cda
-0.6479530062140607,-1.0162125588612176,-0.0447838510516953,0.7915964488470614,0.0948662616682948,0.270456136416791,-0.1816261763058611,-0.2100602353031716,-14.439579085878131,25.39656814045501,-0.5768707271949781,-1.019130087009473,-3.803973180338962,0.0530751903511497,8346.08203125,11.824666666666667,7.033333333333333,179.98022022766054,3.507085493738811,38.508960572003865,1372.0,1435.0,1350.0,1528.0,1354.0,1021.7000000000002,241.0,294.77,1637179265.434056,1637179266.5715773,d977cf64-44d1-473a-b489-5d0bca70963d
-0.6348590914493855,-1.0120761954751922,-0.0372918332593443,0.7917471109860189,0.100933837074687,0.2649638166818309,-0.1770926149884123,-0.1972265584173887,-14.520582633706512,25.493889900877587,-0.7161259998196764,-1.0308566827163734,-3.786193708829936,0.0283524867609501,8346.08203125,11.816222222222224,7.050000000000001,179.95361739975323,3.492672703657092,38.53126379582864,1372.0,1435.0,1350.0,1528.0,1354.0,1021.7000000000002,241.0,294.77,1637179266.6806896,1637179267.807742,d977cf64-44d1-473a-b489-5d0bca70963d
-0.662256053382968,-1.0114067072947046,-0.0526823827306271,0.7830618500674222,0.0859311748362275,0.2746807026360544,-0.1888634385016608,-0.2133989084373135,-14.470345107825098,25.33688272675664,-0.4815775366898219,-0.9911742112929324,-3.7860260870665807,0.0869600486562154,8346.08203125,11.820333333333334,7.036666666666666,179.9774471708575,3.487423726995872,38.55278761917812,1372.0,1435.0,1350.0,1528.0,1354.0,1021.7000000000002,241.0,294.77,1637179267.9224072,1637179269.0294063,d977cf64-44d1-473a-b489-5d0bca70963d
-0.8635917182099023,-1.414823837070135,-0.0487421566447633,0.9757740568807304,0.1775112941744482,0.498503819549053,-0.0936531742295178,-0.1198820861545205,-14.416401844121651,26.69796308029575,0.73598009340175,-0.913485103600308,-5.333712704110437,-0.224632902896456,8337.962890625,11.816,7.09,-179.9153789651399,3.456670159927655,38.6041540568312,1321.0,1435.0,1350.0,1528.0,1314.0,1021.7000000000002,241.0,294.77,1637179269.9424248,1637179271.0773523,08ac99f3-24b4-470d-8ceb-09cb67e81ceb
-0.8715357262674037,-1.4135363593497836,-0.0558232776851694,0.9809376591039896,0.1704849598882816,0.4875054839624035,-0.1052815531113839,-0.1282232905484651,-14.51718316607011,26.80577635929593,-0.0445695994039135,-0.9496606938964544,-5.322335409050808,-0.1898686643188961,8337.962890625,11.806,7.061111111111111,-179.91039140922598,3.443716540155183,38.61937361557676,1321.0,1435.0,1350.0,1528.0,1314.0,1021.7000000000002,241.0,294.77,1637179271.185172,1637179272.3065937,08ac99f3-24b4-470d-8ceb-09cb67e81ceb
-0.8625781722536133,-1.4108107411848234,-0.0496050398556624,0.9854986127509444,0.1773469354766869,0.4848072621888772,-0.0984195768738916,-0.1128009647002508,-14.429422728469726,26.675731220955218,0.5996268391128771,-0.9664179456797982,-5.318612880731295,-0.2160679386969071,8337.962890625,11.806333333333336,7.13,-179.90216027236616,3.439488249888057,38.65422693254647,1321.0,1435.0,1350.0,1528.0,1314.0,1021.7000000000002,241.0,294.77,1637179272.4146278,1637179273.534239,08ac99f3-24b4-470d-8ceb-09cb67e81ceb
-0.1115819704761394,-0.020760086542618,-0.0350455975432009,0.3257902296008093,-0.1122667983736979,-0.2515334188158722,-0.3933065191639037,-0.4064004327506971,-14.609791881434132,22.274478702608008,2.1577915464592667,-1.1612271752343677,-0.0355385770823744,0.7446962485733999,8337.962890625,11.825111111111111,7.052222222222222,179.66146592383473,3.417963051014369,38.83272557849577,1525.0,1435.0,1350.0,1528.0,1475.0,1021.7000000000002,241.0,294.77,1637179275.4720004,1637179276.811509,72cb4ee6-3582-4795-ab49-f7c7cd0bb10b
-0.1108697494465034,-0.0180618644256485,-0.0462356862797461,0.3265024505765692,-0.1210736861078112,-0.2488488930786039,-0.4062086799249952,-0.4253838667955344,-14.970959430558509,22.21550875818833,2.9179082816686552,-1.1578100296250258,-0.0303973256524687,0.7914912354039704,8346.08203125,11.84677777777778,6.96111111111111,179.6248788771807,3.4225482898134323,38.92466713436826,1525.0,1435.0,1350.0,1528.0,1475.0,1021.7000000000002,241.0,294.77,1637179276.9195845,1637179278.0413322,72cb4ee6-3582-4795-ab49-f7c7cd0bb10b
-0.1081304375068669,-0.0182125266021472,-0.0371000814008253,0.3296663554707536,-0.1114997910477008,-0.2476435956651523,-0.3937448091181179,-0.4171796265164258,-14.723343386730368,22.047705689013625,3.565902183716917,-1.162668116786551,-0.0382713611157813,0.7494179957291719,8346.08203125,11.842999999999998,6.98,179.6215533339648,3.451473168595117,38.98994477008589,1525.0,1435.0,1350.0,1528.0,1475.0,1021.7000000000002,241.0,294.77,1637179278.1503346,1637179279.2662508,72cb4ee6-3582-4795-ab49-f7c7cd0bb10b
-0.0905637783450094,-0.031276304510956,-0.0638850723735437,-0.1934523340700333,-0.1927948990882092,0.2634780141346035,-0.2748559216800329,-0.3045193857498264,-14.275307111689166,21.139482166558,6.289000161269173,1.159223155730844,-0.0518806312548188,0.7257426111027234,8346.08203125,11.844555555555557,6.942222222222222,179.61722754749047,3.62120740117882,39.12473513826152,1525.0,1521.0,1350.0,1528.0,1475.0,1021.7000000000002,241.0,294.77,1637179279.8979957,1637179281.1132648,0a4973ba-9571-469e-9a1e-45d96416e242
-0.1023367929902895,-0.0270194139973966,-0.064547985825109,-0.1896386638546149,-0.1921314376901124,0.2578826963515093,-0.2766803035743415,-0.3036214386750981,-14.346693783517592,21.000127942289804,6.57805880341343,1.137100362654848,-0.0384852987648614,0.729303593470863,8351.505208333334,11.846,6.97,179.5798481988927,3.604026439776606,39.15315214030334,1525.0,1521.0,1350.0,1528.0,1475.0,1021.7000000000002,241.0,294.77,1637179281.2214844,1637179282.229133,0a4973ba-9571-469e-9a1e-45d96416e242
-0.0915165111106821,-0.026430461958944,-0.0585762860433449,-0.1751203104430116,-0.1857762339316012,0.248432071368043,-0.2714893071511543,-0.2978962767389647,-14.062798601754892,20.96618822352752,7.25859417802571,1.0834374453311535,-0.0457268004305286,0.7064874801069662,8347.889756944445,11.844555555555557,6.955555555555556,179.57089457980072,3.604331616423272,39.20326865333831,1525.0,1521.0,1350.0,1528.0,1475.0,1021.7000000000002,241.0,294.77,1637179282.3371544,1637179283.566953,0a4973ba-9571-469e-9a1e-45d96416e242
-0.0809427673433562,-0.0379903577431339,-0.1055006980204899,-0.7563202203224094,-0.2910069057847802,0.8194963361353215,-0.1579722175621481,-0.1826123298062258,-13.875792923255398,19.88499330700473,11.014012947128814,3.668928575109069,-0.0551261449777042,0.7515308934351669,8346.08203125,11.837777777777776,6.987777777777778,179.54847182766548,3.773719454065942,39.33926341153758,1525.0,1607.0,1350.0,1528.0,1475.0,1021.7000000000002,241.0,294.77,1637179285.505437,1637179286.6465356,b0fda37e-a4a3-4592-ba65-dd05e7974f68
-0.0893935443559856,-0.0470574798738721,-0.1042954008100603,-0.7684142870388083,-0.2914862854253479,0.8256597869406032,-0.1589720664598019,-0.1728603786935955,-14.232323231442626,20.283353289162843,9.043155672907634,3.7122670813579615,-0.0675700697452258,0.7475687352713374,8348.793619791666,11.838,6.966666666666667,179.53567964226,3.781308980030557,39.39329362296696,1525.0,1607.0,1350.0,1528.0,1475.0,1021.7000000000002,241.0,294.77,1637179286.7554162,1637179287.7659214,b0fda37e-a4a3-4592-ba65-dd05e7974f68
