raw_voltage_G-,raw_voltage_G0,raw_voltage_G1,raw_voltage_G2,raw_voltage_G3,raw_voltage_G4,raw_voltage_G5,raw_voltage_G6,load_x,load_y,load_z,load_l,load_m,load_n,rpm,voltage,current,roll,pitch,yaw,aileron1_pwm,elevator_pwm,throttle_pwm,rudder_pwm,aileron2_pwm,pbaro,pdiff,Tt,sample_start_time,sample_end_time,uid
-0.1497542819129223,-0.0487695497093207,-0.0276494557363867,0.5034756698704265,-0.0832848788784767,-0.6750311123237923,-0.4855665584499622,-0.5113160965324014,-15.327905536037193,22.769367207437075,-38.9913507994761,-2.51696979614156,0.2077957368403813,0.7659249807477263,6518.19482421875,12.049,0.26,179.75235601003,10.363412730488143,64.28053586401246,1525.0,1435.0,1200.0,1528.0,1475.0,1018.02,242.0,295.35,1637186021.0210578,1637186022.1303196,63bf1b1d-64cb-4b96-ac4c-b88b4aa7fe4f
-0.1435661761898606,-0.0501446842489369,-0.0290278774771877,0.4973801539714844,-0.0823984375498136,-0.6693563520799347,-0.4838413395194558,-0.5087581255363416,-15.463313879939587,22.543429414858853,-39.16922851118227,-2.492130782681247,0.2058323310140019,0.7636675284671028,6533.09912109375,12.046333333333331,0.2666666666666667,179.83020195273036,10.424521863809815,63.55765368628527,1525.0,1435.0,1200.0,1528.0,1475.0,1018.02,242.0,295.35,1637186022.2386491,1637186023.358749,63bf1b1d-64cb-4b96-ac4c-b88b4aa7fe4f
-0.1586871780785043,-0.0526560853668705,-0.0311053717725855,0.5015877364198159,-0.0854357865973129,-0.6682650097998349,-0.4844987747941801,-0.5139781596401193,-15.16882022658656,22.59868257643765,-38.826080276632425,-2.498703891044245,0.1906385736129708,0.7719726714115218,6528.1240234375,12.043333333333331,0.2666666666666667,179.8987178570245,10.44701168460816,62.9642696184918,1525.0,1435.0,1200.0,1528.0,1475.0,1018.02,242.0,295.35,1637186023.467109,1637186024.791488,63bf1b1d-64cb-4b96-ac4c-b88b4aa7fe4f
-0.0391819584608669,0.1595551064959909,-0.0187877820941279,0.3976423707018496,-0.1216215485440054,-0.7658530292677695,-0.5188355079666002,-0.5419826986173658,-15.307779800580915,22.17147253942542,-36.82714492696273,-2.4854919227280363,0.9833980982197016,0.8810206011884718,6538.08251953125,12.046,0.26,179.96829927082914,10.564396169457646,61.94880490401849,1576.0,1435.0,1200.0,1528.0,1515.0,1018.02,242.0,295.35,1637186026.519286,1637186027.4558077,92b95bea-5e49-451e-97ae-e1651b3d8777
-0.0677113431313718,0.1551459104987552,-0.0237158040192646,0.4033143890669034,-0.126249341990589,-0.7689972127730483,-0.5276791041966468,-0.548033291854109,-15.502658001078018,22.433863849609114,-37.20069214699825,-2.5040156078653326,0.9705446648525736,0.9053780471315026,6530.887966579861,12.038,0.3044444444444444,-179.98769852589177,10.58614700173329,61.58596248801018,1576.0,1435.0,1200.0,1528.0,1515.0,1018.02,242.0,295.35,1637186027.5653737,1637186028.70978,92b95bea-5e49-451e-97ae-e1651b3d8777
-0.0356416718947853,0.1717132672360383,-0.0067408368159562,0.3884300661179389,-0.1129823066876684,-0.763711434400603,-0.5070356457483117,-0.5219068256111342,-15.286589752559506,22.13148167788216,-35.94347729068663,-2.459412489541993,1.022913956925721,0.8386997707393369,6528.1240234375,12.038,0.3077777777777777,-179.94183608234485,10.614003928263186,61.280960390623264,1576.0,1435.0,1200.0,1528.0,1515.0,1018.02,242.0,295.35,1637186028.8181102,1637186029.911601,92b95bea-5e49-451e-97ae-e1651b3d8777
0.1446669476936811,0.4928334448369524,-0.0118573232648849,0.2287501176909937,-0.1891455876536078,-0.9229663316196212,-0.5872772311032939,-0.6125473904806382,-15.853579484863474,21.443670307116108,-35.074729838691475,-2.462041942176635,2.2429471862021653,1.1022247258686424,6437.692220052083,12.03588888888889,0.3088888888888889,-179.98829806471895,10.645431431045449,60.89822922266179,1627.0,1435.0,1200.0,1528.0,1556.0,1018.02,242.0,295.35,1637186030.519133,1637186031.7550128,e93fb770-5c0f-4461-a261-75807f404520
0.1545673677434048,0.4958417566968489,-0.0116058545107623,0.2203897386776223,-0.1920322746174521,-0.9188003841074612,-0.5864406451093624,-0.6115152180558809,-15.725612870936237,21.53992967878484,-35.15549732791229,-2.433119358321372,2.255087224574629,1.1048493676122837,6416.272243923611,12.02888888888889,0.3577777777777777,-179.99059300828003,10.669913864670404,60.63004108599133,1627.0,1435.0,1200.0,1528.0,1556.0,1018.02,242.0,295.35,1637186031.8647096,1637186032.9892042,e93fb770-5c0f-4461-a261-75807f404520
0.1367508848695764,0.5008382608147104,-0.0172992400927147,0.2345114377993735,-0.1956481663936644,-0.9439275569069676,-0.6005886467049713,-0.6148812845495579,-15.986204157910109,21.55068846819549,-36.25742775557083,-2.5219575643951133,2.283338504265819,1.136666362723218,6426.449869791667,12.027888888888889,0.3400000000000001,-179.97990755677853,10.68852404315644,60.43049407374977,1627.0,1435.0,1200.0,1528.0,1556.0,1018.02,242.0,295.35,1637186033.1207333,1637186034.2126513,e93fb770-5c0f-4461-a261-75807f404520
0.3428303908876872,0.8845171812146355,0.0064736031832129,0.0656427364665012,-0.2601030826131353,-1.162182914706528,-0.6726566759230795,-0.6967845434028227,-16.180513092530063,21.01713798633818,-36.12581509152313,-2.6339101502335733,3.744865896172063,1.3398740589385756,6540.300618489583,12.021888888888888,0.3666666666666666,179.9118606588074,10.690128094110271,60.142419461855866,1678.0,1435.0,1200.0,1528.0,1596.0,1018.02,242.0,295.35,1637186035.1232202,1637186036.2609613,e6c4c9b9-061f-4f27-8e4d-723336469de1
0.3571098740278434,0.8891849679809719,0.0024895481212103,0.0466034243703906,-0.2652573722672869,-1.1507172425655918,-0.670710668336612,-0.68733062665419,-16.05571423134028,20.72478670647688,-36.34290382875865,-2.567305426511798,3.765500311780052,1.3498533341449914,6556.4208984375,12.017666666666663,0.4,179.88360492512098,10.71105512968102,59.95951230825228,1678.0,1435.0,1200.0,1528.0,1596.0,1018.02,242.0,295.35,1637186036.3698528,1637186037.3780105,e6c4c9b9-061f-4f27-8e4d-723336469de1
0.3490234264080334,0.8729463294913629,-0.0085948030377752,0.0476027254034552,-0.2723839665278021,-1.1306917626407806,-0.6765486914937087,-0.6968371375735458,-16.20141811141929,20.767268851526406,-35.692468167491185,-2.524799645405658,3.699037002189264,1.381823242468409,6548.072265625,12.019333333333334,0.3933333333333333,179.9153926255182,10.730708145244089,59.80687351741056,1678.0,1435.0,1200.0,1528.0,1596.0,1018.02,242.0,295.35,1637186037.4864447,1637186038.7189262,e6c4c9b9-061f-4f27-8e4d-723336469de1
0.4688869317596021,1.0749497356520017,0.0298519853661519,-0.0193372880682912,-0.2821534491079977,-1.2394447167376026,-0.6883299277408728,-0.7066329206208704,-15.955719698189649,20.75034626016025,-31.679146845926965,-2.615616147766504,4.430042416564317,1.3891910971013588,6490.232367621527,12.007555555555555,0.4599999999999999,179.83918441039884,10.73205985865358,59.59574402215648,1729.0,1435.0,1200.0,1528.0,1636.0,1018.02,242.0,295.35,1637186039.6289604,1637186040.654111,db34f9fc-0207-4730-9d30-dfe4338e433a
0.4459950535886006,1.0576460523606035,0.0217786857798419,-0.0193504367372177,-0.2866240065422647,-1.2232849554264835,-0.6915250622869147,-0.7240680990725457,-16.068412551108423,20.80297005926843,-31.83718045559647,-2.579408411319146,4.366832051078917,1.4084169829276632,6477.149088541667,11.979,0.58,179.8063145044731,10.74119106266398,59.36541790078513,1729.0,1435.0,1200.0,1528.0,1636.0,1018.02,242.0,295.35,1637186040.7629163,1637186041.8787968,db34f9fc-0207-4730-9d30-dfe4338e433a
0.4600115625618828,1.0512426376191517,0.022515012657039,-0.0141698505717064,-0.2802600366816593,-1.2224828847888056,-0.6889873632795015,-0.7077637094990474,-16.363474327545457,20.550137591820693,-31.91965402422279,-2.591093250798975,4.345039238714119,1.394183900319988,6478.7802734375,11.983666666666668,0.5699999999999998,179.7828899912596,10.75458582253628,59.19788322627351,1729.0,1435.0,1200.0,1528.0,1636.0,1018.02,242.0,295.35,1637186041.9874268,1637186043.2197225,db34f9fc-0207-4730-9d30-dfe4338e433a
-0.3397841937928937,-0.4068688542278627,-0.0397703625911392,0.6498787185873748,-0.0152480433717804,-0.4589377029096309,-0.4057117687148368,-0.4359406280656895,-15.174729913621688,23.3506865733421,-38.73392790395358,-2.3582602254051146,-1.1574439406548636,0.5342675060208054,6483.6806640625,11.983,0.57,-179.88442454782137,10.742915116246976,58.95688151922943,1474.0,1435.0,1200.0,1528.0,1435.0,1018.02,242.0,295.35,1637186044.022423,1637186045.06864,b4e8b1cb-2ebe-47d9-979c-f9a3ace3590d
-0.3305538073758992,-0.3885001218935711,-0.0106985944324848,0.6460392996582192,0.0030154960475794,-0.4744137218843202,-0.3811762967143319,-0.4159546061028723,-14.53140973053461,23.65329131260187,-38.67870122669085,-2.3805899002039626,-1.0912719193539837,0.4374231418293957,6469.0009765625,12.041333333333332,0.2744444444444445,-179.855082055147,10.751219867367803,59.03002829178081,1474.0,1435.0,1200.0,1528.0,1435.0,1018.02,242.0,295.35,1637186045.1775548,1637186046.2992008,b4e8b1cb-2ebe-47d9-979c-f9a3ace3590d
-0.3105151909755684,-0.39014370924135,-0.0278444947714553,0.6481430908526141,-0.0083318290316886,-0.4755576589465679,-0.399216311485631,-0.4346915016949041,-15.020315784976663,23.403667428734074,-38.92456631768925,-2.3906999504516,-1.093147132073332,0.5011688430091829,6467.916883680556,12.042111111111112,0.27,-179.8594609653149,10.758533577012813,59.104173030860935,1474.0,1435.0,1200.0,1528.0,1435.0,1018.02,242.0,295.35,1637186046.4123137,1637186047.6177769,b4e8b1cb-2ebe-47d9-979c-f9a3ace3590d
-0.4828157409767052,-0.6766275836263206,-0.0256223651273648,0.7847448830250727,0.0553867535556517,-0.3226514395813333,-0.3292126401179737,-0.3511315207228138,-14.540604404871733,24.180450407948133,-38.94405810213439,-2.349741031852303,-2.187522925316301,0.2782048456067432,6454.38720703125,12.041,0.28,-179.80065910784035,10.772987585388895,59.170003911901325,1423.0,1435.0,1200.0,1528.0,1394.0,1018.02,242.0,295.35,1637186048.5308115,1637186049.5734456,da9c471e-082a-4a81-b575-02ab4171ecad
-0.4908495962980202,-0.6757334719932068,-0.0197974924374353,0.7894126697571388,0.056859407622626,-0.3330783575138838,-0.3303828741755453,-0.3493170004665111,-14.52540953624389,24.67716043252197,-39.67844578771901,-2.380227718321832,-2.17796516380357,0.2688453520584036,6464.129720052083,12.032333333333334,0.3233333333333333,-179.8148750082329,10.769737553708833,59.20409793950832,1423.0,1435.0,1200.0,1528.0,1394.0,1018.02,242.0,295.35,1637186049.6818726,1637186050.8905628,da9c471e-082a-4a81-b575-02ab4171ecad
-0.4790606916254782,-0.674496946151883,-0.0049542576621995,0.7917745041467521,0.0716916847687489,-0.3406843319637849,-0.3158113773124476,-0.3525729476223918,-14.4591315646921,24.59501600334507,-40.16410636684887,-2.402496584020368,-2.1688433453733325,0.2072289952375592,6533.669379340277,12.032444444444444,0.32,-179.83458996981713,10.773321126293366,59.26299390181142,1423.0,1435.0,1200.0,1528.0,1394.0,1018.02,242.0,295.35,1637186050.9995186,1637186052.2356615,da9c471e-082a-4a81-b575-02ab4171ecad
-0.6575882645949142,-1.0135762435767608,-0.0167206973970912,0.9535215336699742,0.1284277603612141,-0.155899654262819,-0.2543439530175339,-0.2660988895903345,-14.096687020123188,26.164018387507767,-39.78207936077142,-2.3420638518388204,-3.4671818999512065,0.0190127636207826,6582.715006510417,12.032777777777778,0.3255555555555556,-179.78806575683063,10.799315782773313,59.31894757040208,1372.0,1435.0,1200.0,1528.0,1354.0,1018.02,242.0,295.35,1637186054.0577984,1637186055.098956,284ccbfa-e8a9-4662-b712-da714eb423b2
-0.6611291003330423,-0.998598773320725,-0.0194178239121514,0.9478604724963194,0.1257246076308301,-0.159150121842794,-0.2565052702088995,-0.282967026128398,-14.10126803378896,25.79058586513381,-38.91371847891132,-2.339071831882768,-3.4181514363746057,0.0325857360724926,6549.748372395833,12.023555555555554,0.36,-179.81007110851658,10.791726493968042,59.325019608574216,1372.0,1435.0,1200.0,1528.0,1354.0,1018.02,242.0,295.35,1637186055.2067242,1637186056.3374646,284ccbfa-e8a9-4662-b712-da714eb423b2
-0.6539592232161602,-0.9998358472568062,-0.0291725130956373,0.9395050245938869,0.1150160904653104,-0.1485363840231058,-0.2637847181073831,-0.2894378281543276,-14.062232135663232,25.817935261522404,-38.73719919587475,-2.2966301305330945,-3.424221185186831,0.0708743129575338,6492.412868923611,12.022333333333332,0.3688888888888889,-179.83450345408767,10.812562270622385,59.34453725358248,1372.0,1435.0,1200.0,1528.0,1354.0,1018.02,242.0,295.35,1637186056.446782,1637186057.560851,284ccbfa-e8a9-4662-b712-da714eb423b2
-0.8295338384667765,-1.3496571892878615,-0.0209151318599807,1.1153556773803666,0.1947366333801207,0.0395820206525811,-0.1795147149182517,-0.2079684962083398,-13.626948569558158,27.38577310074788,-37.36736813834931,-2.2593369277103594,-4.772586431392158,-0.2081397800069434,6464.12255859375,12.018333333333333,0.3933333333333333,-179.7970846421747,10.787256419747486,59.34013481720745,1321.0,1435.0,1200.0,1528.0,1314.0,1018.02,242.0,295.35,1637186059.7002304,1637186060.6771097,a51f0adc-2ee6-448f-843c-1d3471f9ebfa
-0.8445397956046055,-1.3466696929620436,-0.0223625840307271,1.1213547697509336,0.1948511367003459,0.0326975824389198,-0.1805441480897951,-0.2065402199004433,-13.510210009709738,27.16743981592597,-37.152269178647884,-2.289766042146561,-4.764948247483465,-0.2039682953404653,6460.875162760417,12.016333333333334,0.4066666666666667,-179.81406449245137,10.782460488585274,59.31918207356357,1321.0,1435.0,1200.0,1528.0,1314.0,1018.02,242.0,295.35,1637186060.7853396,1637186061.8608944,a51f0adc-2ee6-448f-843c-1d3471f9ebfa
-0.8597101114992534,-1.3553768777700952,-0.0238998858543964,1.124664953993631,0.1951442429399065,0.0339675273083963,-0.1832489449128179,-0.2003554003648041,-13.734146476578651,27.321584012860924,-37.76786145056187,-2.293644830854881,-4.7910669354856,-0.2005336033436372,6459.25146484375,12.01422222222222,0.4088888888888888,-179.83486165956413,10.785190382387292,59.305379020160885,1321.0,1435.0,1200.0,1528.0,1314.0,1018.02,242.0,295.35,1637186061.9695108,1637186063.0911367,a51f0adc-2ee6-448f-843c-1d3471f9ebfa
-0.1670628982659692,-0.0806628095118357,-0.0183774331580482,0.4981164809263591,-0.0710642608050192,-0.6229019916169837,-0.459029743606397,-0.4821320087584523,-15.034511141798696,22.87305445602225,-36.591132690803285,-2.386060348238691,0.0660763618282511,0.6985003406784673,6488.5888671875,12.016,0.39,-179.88001224561754,10.784029439955866,59.293671317013576,1525.0,1435.0,1200.0,1528.0,1475.0,1018.02,242.0,295.35,1637186065.229839,1637186066.2548337,fbf4d110-0ee7-430a-a5b1-b5f33d3004aa
-0.1741763435177178,-0.0878945928537059,-0.0257012571605288,0.5071759317900327,-0.0729708218515072,-0.623546278171212,-0.4640919928852648,-0.4982260168568435,-15.127523850894736,22.62089163960307,-36.548294672451966,-2.41002033463992,0.0376474460084479,0.7175911414950416,6482.591688368056,12.045222222222224,0.27,179.76684360016952,10.769262950425254,59.38483612859548,1525.0,1435.0,1200.0,1528.0,1475.0,1018.02,242.0,295.35,1637186066.3626928,1637186067.5964308,fbf4d110-0ee7-430a-a5b1-b5f33d3004aa
-0.1787257928416953,-0.1011090332393366,-0.0321309698074033,0.5140921453885824,-0.0787036536584688,-0.6176162140744414,-0.4702455842177105,-0.5012633665003999,-15.091515235440882,22.91428217379031,-36.69264596562047,-2.410676092291703,-0.0121443857222891,0.7410881420132261,6478.7802734375,12.046333333333331,0.26,179.7281149097557,10.7620800578756,59.434351964438434,1525.0,1435.0,1200.0,1528.0,1475.0,1018.02,242.0,295.35,1637186067.7046576,1637186068.749592,fbf4d110-0ee7-430a-a5b1-b5f33d3004aa
-0.1409884837426485,-0.0881471573785928,-0.0369631158820792,0.0057290582279007,-0.1415363461027902,-0.1470697561747681,-0.3427662088831962,-0.374309389891432,-14.715691641329542,22.021128832163782,-34.06307975846638,-0.2121058799697301,0.0727736609697386,0.6532009932810582,6493.50439453125,12.042,0.26,179.71838264909837,10.927470242715309,59.503925030234086,1525.0,1521.0,1200.0,1528.0,1475.0,1018.02,242.0,295.35,1637186069.5303648,1637186070.6693966,bc846be7-f55c-4337-816d-52ea8b3cc1c9
-0.1703128180120766,-0.1138829923727292,-0.0625208951433365,0.0162343187705253,-0.1587803146244279,-0.1262098960280077,-0.3605032552221994,-0.3827327749099283,-14.79861734578204,21.91281106684253,-33.47254011208895,-0.1908665485300719,-0.031313864098456,0.7345771831493293,6498.427734375,12.046333333333331,0.26,179.68608951470256,10.91973306134176,59.45281472467487,1525.0,1521.0,1200.0,1528.0,1475.0,1018.02,242.0,295.35,1637186070.7774131,1637186071.8958786,bc846be7-f55c-4337-816d-52ea8b3cc1c9
-0.1703895188039966,-0.110076444594117,-0.0533135202313595,0.0205032622226644,-0.1535986321827599,-0.1366894076054897,-0.3595861335626664,-0.3927077055636963,-14.96104164829767,22.40471220811312,-33.83909776702726,-0.2204659545929921,-0.0125721625525406,0.7133286463277554,6503.3583984375,12.042666666666667,0.26,179.66592679627266,10.922429563107835,59.43599879893831,1525.0,1521.0,1200.0,1528.0,1475.0,1018.02,242.0,295.35,1637186072.004007,1637186073.218188,bc846be7-f55c-4337-816d-52ea8b3cc1c9
-0.1451703173188573,-0.1190307072874642,-0.0977692645114833,-0.5071013894453987,-0.2487031616931518,0.3823553688617942,-0.2552643618668181,-0.2706351897578634,-14.730624050510846,21.108670874980845,-30.123367503683863,2.1259468738006606,-0.0186001661876922,0.7551547642265595,6508.29638671875,12.04211111111111,0.2644444444444444,179.635813251132,11.088321766851536,59.39488181904474,1525.0,1607.0,1200.0,1528.0,1475.0,1018.02,242.0,295.35,1637186074.0344124,1637186075.174091,1c63c8bf-a5fc-43d0-9329-04846e542f6b
-0.1427246597151998,-0.1183864211423721,-0.1001228810723122,-0.5107041331006944,-0.2519114438689439,0.3846169444955422,-0.2605369897280457,-0.2857035982750837,-15.004904485746936,21.309002292999875,-30.213994022967945,2.14021415783552,-0.0131414257656925,0.7698844157517466,6513.24169921875,12.041,0.28,179.60295245212512,11.085002010323697,59.27846959265086,1525.0,1607.0,1200.0,1528.0,1475.0,1018.02,242.0,295.35,1637186075.281556,1637186076.3988855,1c63c8bf-a5fc-43d0-9329-04846e542f6b
-0.1521785728241648,-0.0998730556929764,-0.0787168024944808,-0.5178964717743736,-0.2367246978556582,0.3725858883533308,-0.2408007941971053,-0.2584726442722692,-14.6234003498048,21.226312058138987,-30.12977976126906,2.1301261021348847,0.055089529035685,0.6945171055094387,6513.24169921875,12.040333333333333,0.2833333333333334,179.58245733115567,11.096454530014515,59.152111093005615,1525.0,1607.0,1200.0,1528.0,1475.0,1018.02,242.0,295.35,1637186076.5067017,1637186077.7240627,1c63c8bf-a5fc-43d0-9329-04846e542f6b
-0.0968751528160151,-0.1162957783502844,-0.1181891907610611,-1.0169554618982692,-0.3294230192322473,0.872565017434409,-0.1431848640750914,-0.1593314643916858,-14.377447900489091,20.74286350667231,-26.444376256594047,4.3749417556221015,0.018024210500222,0.7348019018324323,6507.747721354167,12.041777777777778,0.2833333333333334,179.54305169310413,11.278120107008975,58.99087612963849,1525.0,1693.0,1200.0,1528.0,1475.0,1018.02,242.0,295.35,1637186078.5419407,1637186079.679155,09e91a0b-27d1-45d5-bf5f-ed7d0c6c9d7c
-0.1321005123027244,-0.1234355207871383,-0.1345198726979923,-1.0050295861114151,-0.3398630857560495,0.8702376983550394,-0.1588318138339982,-0.1881139630434094,-14.529932546579714,20.53766224176105,-26.32846699881576,4.340578361791644,-0.0112093053557741,0.7929418091182976,6490.229926215277,12.029444444444444,0.3288888888888889,179.51514202233565,11.298226760969415,58.76872119124419,1525.0,1693.0,1200.0,1528.0,1475.0,1018.02,242.0,295.35,1637186079.7877312,1637186081.0009582,09e91a0b-27d1-45d5-bf5f-ed7d0c6c9d7c
-0.1409364368516424,-0.1251974462168277,-0.1337178020579164,-0.994799893772678,-0.3383641341298046,0.8628612803773197,-0.162184731580668,-0.1978439989363001,-14.664618820965243,20.71406690553007,-26.294631411244044,4.302073827593438,-0.0183698599511306,0.7943383474529057,6462.498860677083,12.033,0.3233333333333333,179.4698639394177,11.276282027212334,58.553961829901205,1525.0,1693.0,1200.0,1528.0,1475.0,1018.02,242.0,295.35,1637186081.1098702,1637186082.2296276,09e91a0b-27d1-45d5-bf5f-ed7d0c6c9d7c
-0.0984332736164082,-0.1109656252664742,-0.1313598023589557,-1.4750065805652195,-0.4023051599681778,1.310737082523164,-0.0455371618042507,-0.0751491233874635,-14.264312590465575,21.07928819560316,-23.054844848575424,6.39499564384321,0.0627401058176707,0.7143438763033517,6449.53076171875,12.029,0.33,179.43777115723756,11.465041988888451,58.20119621964838,1525.0,1780.0,1200.0,1528.0,1475.0,1018.02,242.0,295.35,1637186084.0196416,1637186084.9609375,c0eac478-dbba-4d4c-8cd1-565ffc902cb5
-0.1080893478666149,-0.1202108028560681,-0.1420020290628996,-1.4703771389173308,-0.4081809848171316,1.3146953882325547,-0.0553302015497722,-0.0835999008680645,-14.560594213877168,21.009045154186023,-23.250017609301786,6.392271785418068,0.0306460535294998,0.7492649727388891,6444.68115234375,12.022,0.37,179.42162459003964,11.45882537837888,58.00267677142195,1525.0,1780.0,1200.0,1528.0,1475.0,1018.02,242.0,295.35,1637186085.0685155,1637186086.1199892,c0eac478-dbba-4d4c-8cd1-565ffc902cb5
-0.0988852599113967,-0.1189370228266643,-0.1363179569435428,-1.4666105807445071,-0.4047431479401288,1.3106275100540283,-0.050481619674349,-0.075135426867355,-14.314119533655791,21.12439514350612,-23.12004435613024,6.375826772996612,0.0324256184248927,0.7304266439154494,6444.68115234375,12.01811111111111,0.3777777777777777,179.40719923051256,11.468933014849377,57.7637157731199,1525.0,1780.0,1200.0,1528.0,1475.0,1018.02,242.0,295.35,1637186086.228657,1637186087.4578636,c0eac478-dbba-4d4c-8cd1-565ffc902cb5
-0.2024151722869614,-0.092409169331491,0.0131377055443395,1.1048224287266035,0.0296450363610165,-1.19885808768114,-0.5883294845877753,-0.609395992087126,-15.645064113980984,23.864957300941104,-41.06575136278594,-5.041766503050844,-0.0066836272968,0.699220533785868,6473.88671875,12.025,0.35,179.38159968150342,10.59052761944847,57.40157914332581,1525.0,1349.0,1200.0,1528.0,1475.0,1018.02,242.0,295.35,1637186089.0226529,1637186090.1239777,0cbe3fde-a25b-4d57-8fe7-3bbed49c5d86
-0.1967921031993881,-0.0914315922785198,0.0112860260927006,1.1105564033902215,0.0215683067247946,-1.2016027372405786,-0.595500099759169,-0.6205220772793973,-15.365946991262074,24.466295054618755,-40.61289145263583,-5.056761710804572,-0.0098194906435168,0.723710477658107,6508.29638671875,12.035333333333334,0.3,179.46107728050546,10.606226809255745,57.75122411603785,1525.0,1349.0,1200.0,1528.0,1475.0,1018.02,242.0,295.35,1637186090.231768,1637186091.3539677,0cbe3fde-a25b-4d57-8fe7-3bbed49c5d86
-0.2194012886839314,-0.1076373613232696,0.0013050697855633,1.108329343093202,0.016864360606756,-1.1842420615295497,-0.5993849927399779,-0.6283395278926123,-15.581895298122737,24.344708314649704,-40.74445704015866,-5.014158925420537,-0.0682670887230266,0.7469867194316704,6503.907063802083,12.034666666666668,0.29,179.54859932453,10.581489097310556,58.04813092143849,1525.0,1349.0,1200.0,1528.0,1475.0,1018.02,242.0,295.35,1637186091.462882,1637186092.5816534,0cbe3fde-a25b-4d57-8fe7-3bbed49c5d86
-0.2363302370173949,-0.0914841870400742,0.0590552398016274,1.6832741963550648,0.1196838775708309,-1.7531385664804642,-0.716691676784155,-0.7482617096940541,-16.030489046679087,26.84889066615111,-44.359454545894266,-7.570806020919488,-0.0395526915548676,0.6957983001878825,6508.845865885417,12.035777777777778,0.2955555555555555,179.59068998583527,10.372813347515804,58.49304489051368,1525.0,1262.0,1200.0,1528.0,1475.0,1018.02,242.0,295.35,1637186093.5835588,1637186094.6298702,c804d33f-f991-4fc3-97c3-239a48fd063c
-0.210539614344849,-0.0762174542344783,0.0632409081456282,1.6614101021957264,0.1212732262300697,-1.7451578442961324,-0.7083548520922518,-0.7392679993160775,-15.980141828787344,26.48018877909966,-43.90843407574361,-7.505690745116319,0.0163041443629311,0.6785363866982754,6509.94482421875,12.027666666666669,0.33,179.6184843022978,10.376096107185642,58.77413980798573,1525.0,1262.0,1200.0,1528.0,1475.0,1018.02,242.0,295.35,1637186094.738453,1637186095.8585794,c804d33f-f991-4fc3-97c3-239a48fd063c
-0.2218009260169965,-0.0748905315909139,0.0624213060859807,1.646023933483419,0.1168569079481333,-1.733520683646255,-0.7061332694166913,-0.7233186231464593,-15.83168850328399,26.557647832451607,-44.079639493592566,-7.444312953132683,0.0235913061417552,0.6823619259208351,6508.29638671875,12.029444444444444,0.33,179.6731288512975,10.384213597286724,59.01549668486666,1525.0,1262.0,1200.0,1528.0,1475.0,1018.02,242.0,295.35,1637186095.967889,1637186096.9715252,c804d33f-f991-4fc3-97c3-239a48fd063c
-0.2502152617840332,-0.0813596904965574,0.082644000789012,2.002353696042368,0.1682025654069399,-2.0655521059086404,-0.794979048245641,-0.821368494691024,-16.71173797656431,28.509906573712023,-45.81830798927556,-8.980995969614263,-0.0215901247279845,0.7098316259135958,6510.494303385417,12.020111111111111,0.3533333333333333,179.66630625122656,10.24476940382913,59.56968685047288,1525.0,1176.0,1200.0,1528.0,1475.0,1018.02,242.0,295.35,1637186099.1142187,1637186100.2535944,33cba20e-cc18-4320-8079-3f7c55669602
-0.2432464519833368,-0.0720372643840625,0.0961214142813696,1.988600154314487,0.1757630654896834,-2.060134832417756,-0.7797528509042368,-0.8018821170186347,-16.40921867458659,28.572926747484782,-45.442172292949465,-8.93649691997678,0.0104486230404812,0.6612075154087517,6508.29638671875,12.018,0.381111111111111,179.68858025701988,10.211740411413976,59.801395705696194,1525.0,1176.0,1200.0,1528.0,1475.0,1018.02,242.0,295.35,1637186100.361328,1637186101.5938568,33cba20e-cc18-4320-8079-3f7c55669602
-0.2412215525816497,-0.0724317252667409,0.092045318441612,1.9916638016181256,0.1724890402511718,-2.0634220127571954,-0.7864192431837479,-0.8117567926858884,-16.58757002915319,28.64852037323636,-45.60458858110135,-8.95061200153649,0.0110366521280341,0.68030885390115,6508.29638671875,12.017,0.38,179.6893224709097,10.228872802582094,59.99118541325345,1525.0,1176.0,1200.0,1528.0,1475.0,1018.02,242.0,295.35,1637186101.701851,1637186102.914878,33cba20e-cc18-4320-8079-3f7c55669602
-0.2422602996900001,-0.0546809847105756,0.1143455068607398,2.259608062260253,0.2065573107870376,-2.3355611443248305,-0.8591184204110072,-0.8740027521405301,-16.990768739823235,30.764826627894426,-46.96017671122772,-10.151840970265685,0.0609409369745586,0.7084518907193061,6503.3583984375,12.017,0.3899999999999999,179.63390686944365,10.11410314181986,60.17624787099513,1525.0,1090.0,1200.0,1528.0,1475.0,1018.02,242.0,295.35,1637186103.518359,1637186104.5530305,8a73cb60-b46f-484c-9a8b-51f6e6fe97a3
-0.2394393561767377,-0.0639316406738275,0.1162054994701491,2.253704292668617,0.2117663858021415,-2.3210717939783456,-0.8501964771135726,-0.8876702815230963,-17.024620908767798,30.52071204149205,-46.9171515757586,-10.107499839357798,0.0269442733909465,0.6850847248873597,6503.3583984375,11.958333333333334,0.6755555555555556,179.57794637066385,10.0716418478884,60.11115465038509,1525.0,1090.0,1200.0,1528.0,1475.0,1018.02,242.0,295.35,1637186104.6601727,1637186105.78137,8a73cb60-b46f-484c-9a8b-51f6e6fe97a3
-0.2643895582616294,-0.0689210232603749,0.1092438128380663,2.285997509846488,0.2067545412635417,-2.3463299487684592,-0.8662976116492905,-0.8903597389902299,-16.980942276683034,30.842331382681973,-47.06823996460721,-10.235320561462904,0.0048491355360846,0.7236900526517819,6507.747721354167,11.962666666666664,0.6611111111111111,179.5812127189069,10.071791068549018,60.112515375849725,1525.0,1090.0,1200.0,1528.0,1475.0,1018.02,242.0,295.35,1637186105.8897705,1637186107.0101173,8a73cb60-b46f-484c-9a8b-51f6e6fe97a3
-0.1648670658079585,-0.0991367287289658,-0.0064647142005722,0.4936985193684437,-0.0619127678897737,-0.6005360520514487,-0.445026378949744,-0.4694435139877264,-15.076820205540416,23.50551143128309,-36.47087957968317,-2.3210515775077774,-0.0026685398775949,0.6474658850617782,6542.518717447917,11.97722222222222,0.5877777777777777,179.50236197948863,10.586057450364171,60.151955923757015,1525.0,1435.0,1200.0,1528.0,1475.0,1018.02,242.0,295.35,1637186109.057338,1637186110.0820744,ab64c08a-5d1a-4940-99aa-fd2965d7b426
-0.1930710217586125,-0.1066183372552209,-0.017167753135996,0.5093323177967407,-0.066330729955686,-0.6110024176787826,-0.4554138514550422,-0.4831313102370057,-15.125408242466133,23.2276429956554,-37.03158925445637,-2.382325719175743,-0.028023754023533,0.6813833121148428,6546.413411458333,12.044444444444444,0.25,179.49476225567216,10.602728803763313,60.18944986775086,1525.0,1435.0,1200.0,1528.0,1475.0,1018.02,242.0,295.35,1637186110.1904762,1637186111.3077962,ab64c08a-5d1a-4940-99aa-fd2965d7b426
-0.1591079363922826,-0.077704352765484,0.0058687631560147,0.5016534799049093,-0.0507626729802467,-0.6306728738668238,-0.4394250330991318,-0.456676127298004,-15.01325583177962,23.21457671901944,-36.656085248039375,-2.4080295247499994,0.0787049976415406,0.6100577528187889,6553.078125,12.045,0.26,179.48959863265958,10.5921378365453,60.1958641742914,1525.0,1435.0,1200.0,1528.0,1475.0,1018.02,242.0,295.35,1637186111.4170334,1637186112.6519935,ab64c08a-5d1a-4940-99aa-fd2965d7b426
-0.094940650834395,-0.0568094299200271,0.2239974121005718,0.4749183477644528,0.1470775419599404,-0.6354480437205575,-0.2102108968870165,-0.2350564575945451,-13.661719997434142,23.236419278890526,-36.20964501731095,-2.346694419764632,0.1606712660732357,-0.2792334889217435,6528.676812065973,12.045,0.25,179.44234434834186,10.6056531682292,60.17110170291047,1525.0,1435.0,1200.0,1439.0,1475.0,1018.02,242.0,295.35,1637186113.5634606,1637186114.700589,47b8914f-76d5-481c-9e73-88b5971d3826
-0.1122985744324922,-0.0613605225728562,0.2159980743988933,0.4759609297291629,0.1371453458169075,-0.6313829035492364,-0.2201310413377441,-0.2473488461845294,-13.649496284671557,23.580590257661537,-36.20239960538726,-2.3380207710363745,0.1428215266510568,-0.2413413569336528,6528.1240234375,12.044444444444444,0.25,179.42820737457973,10.622293311458382,60.17005213050801,1525.0,1435.0,1200.0,1439.0,1475.0,1018.02,242.0,295.35,1637186114.8086164,1637186115.930403,47b8914f-76d5-481c-9e73-88b5971d3826
-0.0895644773919397,-0.0528138697119822,0.2123427369888001,0.4435230989055496,0.1318201239388692,-0.6059927627267808,-0.214595439657912,-0.2369219286539272,-13.667766989332188,23.171865528698223,-35.63687962433074,-2.210604482298343,0.1737489281010783,-0.2352847871813882,6525.365397135417,12.044111111111112,0.25,179.4223895712267,10.626239548115096,60.15891512761136,1525.0,1435.0,1200.0,1439.0,1475.0,1018.02,242.0,295.35,1637186116.0389411,1637186117.1312828,47b8914f-76d5-481c-9e73-88b5971d3826
-0.0102383899977145,0.0010431916065364,0.4970514366374478,0.4065752654841184,0.3824474098163633,-0.6323953536391589,0.0772004406227096,0.0543611552634852,-11.570249532227855,23.268704600497777,-34.51854856391978,-2.170536713817243,0.3735879248038298,-1.3709955130128748,6457.632541232639,12.045555555555556,0.26,179.37773379443317,10.64051416916173,60.0437452367365,1525.0,1435.0,1200.0,1351.0,1475.0,1018.02,242.0,295.35,1637186118.0691445,1637186119.0947378,73e1dc27-5baf-46df-8d83-409666267261
0.0089192607411176,0.0102078330147863,0.5013247625268182,0.4129129365719871,0.3898632739275867,-0.6451101474090493,0.0796592467862363,0.061619235401125,-11.743157182192144,22.9016859207564,-34.18882214831906,-2.21565949144264,0.4057467217940994,-1.3887627629909682,6410.410319010417,12.043333333333331,0.2655555555555555,179.36862232208034,10.623982170594408,60.00584299921229,1525.0,1435.0,1200.0,1351.0,1475.0,1018.02,242.0,295.35,1637186119.2029426,1637186120.3228714,73e1dc27-5baf-46df-8d83-409666267261
0.0001359314625954,0.0085247998955444,0.5000098929967348,0.4059967228860248,0.3848273236503855,-0.6385357968931535,0.0786862431697581,0.0564255003357117,-11.580554185713988,23.16521832974012,-34.40673828525326,-2.183556134848644,0.4009874930678832,-1.3792920420157575,6407.212836371527,12.040555555555557,0.27,179.3825285872305,10.628518649431896,59.97888803710779,1525.0,1435.0,1200.0,1351.0,1475.0,1018.02,242.0,295.35,1637186120.4311934,1637186121.6612046,73e1dc27-5baf-46df-8d83-409666267261
0.0968933523114341,0.056351539224488,0.8016223287936629,0.4130236047567779,0.6577126014771951,-0.711203737439022,0.3744267057239916,0.3497318123635948,-9.673915806972936,23.433292554877625,-34.86867540849675,-2.3450201241038733,0.589226270225248,-2.5767535438109177,6425.357421875,12.038777777777778,0.2755555555555556,179.34282545649512,10.636229553549889,59.866366741811085,1525.0,1435.0,1200.0,1262.0,1475.0,1018.02,242.0,295.35,1637186122.5744202,1637186123.803517,8de3a6a0-934e-484a-b78c-51c2e55b3181
0.0997833260955478,0.0443807469544173,0.8105935738559703,0.4385265946829109,0.6668345086097145,-0.7353781735141421,0.3774947346090109,0.3514575781142841,-9.381890714278285,23.79880833881913,-36.59277635026776,-2.454129884056615,0.554977266444845,-2.6093772662151884,6469.052300347223,12.037444444444445,0.2777777777777778,179.32595792488485,10.640472334253063,59.883143963142366,1525.0,1435.0,1200.0,1262.0,1475.0,1018.02,242.0,295.35,1637186123.9126637,1637186124.9414785,8de3a6a0-934e-484a-b78c-51c2e55b3181
0.106429991962707,0.0599887973172347,0.8263868002097143,0.4361072348492624,0.6782273049341085,-0.7510360857442617,0.3850902975277912,0.36594579719603,-9.585536629000904,23.99627722985113,-36.87240440103172,-2.48190946260337,0.6187390672599905,-2.655987523406357,6569.824110243056,12.034666666666668,0.2877777777777777,179.31074937033293,10.622739171029204,59.87938811800877,1525.0,1435.0,1200.0,1262.0,1475.0,1018.02,242.0,295.35,1637186125.051154,1637186126.056732,8de3a6a0-934e-484a-b78c-51c2e55b3181
0.1727311953713561,0.086483967945853,1.0505435653674298,0.4373076011183166,0.8814869548603355,-0.7896850521097901,0.6114730241651803,0.5882710561327941,-7.935778930069083,24.15032417305405,-36.79509706806621,-2.5584411073144047,0.7198154790538647,-3.5562896567320785,6598.48046875,12.036666666666669,0.29,179.33310533839628,10.629000082904644,59.81802721632519,1525.0,1435.0,1200.0,1173.0,1475.0,1018.02,242.0,295.35,1637186128.1040783,1637186129.240862,8a08032b-264d-459e-84c6-c9129d27e20c
0.1691700902448482,0.0744583896243219,1.0362717521743126,0.4427862240960606,0.8690367841727958,-0.7801385462438022,0.5998446470484579,0.5799435492838695,-7.840388645022355,24.26673436373275,-36.49765868417842,-2.549190778488618,0.6698235926115451,-3.5042903071771025,6592.841688368056,12.02588888888889,0.3266666666666667,179.32784761055518,10.629147880609183,59.770756994899344,1525.0,1435.0,1200.0,1173.0,1475.0,1018.02,242.0,295.35,1637186129.3489296,1637186130.5627153,8a08032b-264d-459e-84c6-c9129d27e20c
0.1702537619551489,0.0983698413570218,1.0358192178651937,0.4239052457339836,0.8662273462956439,-0.7782933450251533,0.5965344630898012,0.566226721007859,-8.277085709379486,24.03714012969649,-35.38639609552709,-2.504040725257289,0.7550398873663309,-3.4910499876764227,6563.144205729167,12.028,0.32,179.3312247596448,10.62769124790494,59.75529648225807,1525.0,1435.0,1200.0,1173.0,1475.0,1018.02,242.0,295.35,1637186130.672056,1637186131.9098442,8a08032b-264d-459e-84c6-c9129d27e20c
-0.28667879294802,-0.1600267016045687,-0.3575995844592468,0.5308003017367969,-0.3780896397204141,-0.5504060844857791,-0.8098463955564368,-0.8439782374221734,-17.887470933129087,24.10348332517542,-35.718220310542875,-2.306910354051443,-0.2446386248811961,2.067979868981863,6483.6806640625,12.032000000000002,0.31,179.47906648095946,10.627326117375556,60.0224866523998,1525.0,1435.0,1200.0,1617.0,1475.0,1018.02,242.0,295.35,1637186132.5174246,1637186133.544391,ee2d4544-f574-4456-a89f-389994556f8c
-0.2967594614609056,-0.1688883757044415,-0.3505321590451477,0.5411138093930615,-0.3694197165799508,-0.551132002160401,-0.7986973917495854,-0.8151469668965315,-17.49806442993956,24.003655628975537,-35.636461984439144,-2.331907143633302,-0.2821795055613547,2.0301104072665432,6473.88671875,12.042333333333334,0.2566666666666666,179.4552837622695,10.613954314527966,59.97240998213498,1525.0,1435.0,1200.0,1617.0,1475.0,1018.02,242.0,295.35,1637186133.6560743,1637186134.863589,ee2d4544-f574-4456-a89f-389994556f8c
-0.2779814769097601,-0.1423581396221537,-0.3368219014426712,0.5267461207941615,-0.3632014777266903,-0.5654449099973649,-0.7901370384832481,-0.8150236975956998,-17.370588826146406,23.965070544136847,-35.770949448144826,-2.3311905492589937,-0.179747799154693,1.993763715935208,6469.0009765625,12.043333333333331,0.25,179.44269800035886,10.636231261097178,59.9150295629177,1525.0,1435.0,1200.0,1617.0,1475.0,1018.02,242.0,295.35,1637186134.97217,1637186136.2058227,ee2d4544-f574-4456-a89f-389994556f8c
-0.3739445124793939,-0.2000398313900201,-0.6405475481443409,0.6132201570163179,-0.6336313314109918,-0.5773285957888713,-1.1194496189372114,-1.1471144982869286,-19.410358933064472,24.739657991074168,-36.61011936609653,-2.5641082299681783,-0.4041029349459104,3.235832170780363,6486.407443576389,12.036888888888887,0.2777777777777778,179.4807967955492,10.62670741607324,59.91091930685717,1525.0,1435.0,1200.0,1706.0,1475.0,1018.02,242.0,295.35,1637186137.1154966,1637186138.458005,d3c1951a-a98e-4b64-bd8f-01d461341098
-0.3912350513644433,-0.2036820205783201,-0.6469772629692581,0.6210304818278131,-0.6350513911020433,-0.5779728822244935,-1.1259450798275172,-1.153491619810343,-19.707493141071645,24.561527034530528,-36.2328818266458,-2.584764651301682,-0.4203760115240673,3.2558040566186093,6505.00439453125,12.033,0.2966666666666666,179.47707206572184,10.617796865118528,59.85257886660656,1525.0,1435.0,1200.0,1706.0,1475.0,1018.02,242.0,295.35,1637186138.5667026,1637186139.683287,d3c1951a-a98e-4b64-bd8f-01d461341098
-0.3848447837626734,-0.2167123799398157,-0.6507509400914645,0.6301951222241093,-0.6401267897037318,-0.5753825881376734,-1.1304550860490346,-1.148376773596786,-19.48718147451523,24.987281248089243,-36.51797564388376,-2.596917172138145,-0.4696406879159764,3.272363071924509,6512.142740885417,12.033666666666669,0.2955555555555555,179.47929111829217,10.625411008223276,59.802159927973335,1525.0,1435.0,1200.0,1706.0,1475.0,1018.02,242.0,295.35,1637186139.7911308,1637186140.915715,d3c1951a-a98e-4b64-bd8f-01d461341098
-0.4907575555304851,-0.2547932000887534,-0.9444288516260216,0.7115948577403014,-0.9029008620768164,-0.5993439033313038,-1.4559546462664847,-1.4797045068086592,-21.830015595993554,25.69747669802734,-36.9526069979289,-2.8455431406807743,-0.6206604045861148,4.487591247679897,6517.094129774306,12.029555555555556,0.3111111111111111,179.51350733039428,10.596849149252792,59.78563618255127,1525.0,1435.0,1200.0,1795.0,1475.0,1018.02,242.0,295.35,1637186141.5176983,1637186142.6459496,47aa1021-e095-4d2b-8a0d-921b8e7c27b4
-0.4972267157590934,-0.2558429044766733,-0.9506202476008404,0.7152014351974141,-0.91006964496454,-0.5994973047885442,-1.461710494345728,-1.4876923473724413,-21.592723776895344,25.76031314323881,-36.69668534061782,-2.853754907111357,-0.6293806373149867,4.51439576265664,6506.101725260417,12.023111111111112,0.3444444444444445,179.50654812653997,10.60460255232562,59.69984293529664,1525.0,1435.0,1200.0,1795.0,1475.0,1018.02,242.0,295.35,1637186142.753911,1637186143.7889454,47aa1021-e095-4d2b-8a0d-921b8e7c27b4
-0.5081795825613804,-0.2692414276325048,-0.9550776579210905,0.7205792514348469,-0.912607344575708,-0.5936724303116506,-1.4650239692791984,-1.4909795254538654,-21.63292636863712,25.93594468032856,-37.062528399706615,-2.851932893327016,-0.6770479652546763,4.526455568535984,6503.3583984375,12.023999999999996,0.3400000000000001,179.4974396898268,10.615204239146076,59.622353680252935,1525.0,1435.0,1200.0,1795.0,1475.0,1018.02,242.0,295.35,1637186143.9064147,1637186145.012491,47aa1021-e095-4d2b-8a0d-921b8e7c27b4
-0.5745673686718088,-0.2767230368209755,-1.1359512455779253,0.820995835236863,-1.0773080173125116,-0.6708553039662439,-1.69036660292957,-1.7226729944269752,-23.1024013308941,27.054090075598467,-37.50111193202314,-3.254291912117308,-0.71463169990813,5.316044401067543,6503.3583984375,12.016,0.3977777777777778,179.53555669885492,10.558119130746666,59.55689770070699,1525.0,1435.0,1200.0,1883.0,1475.0,1018.02,242.0,295.35,1637186146.1285057,1637186147.267066,5b51e79c-a4a7-4fed-8a21-3526783ba379
-0.5565695376565922,-0.2780499596373094,-1.1328114441443131,0.817085742031847,-1.0705194504183446,-0.6657585386465078,-1.683057561572341,-1.7104781122733173,-23.24978314770236,26.698654980246648,-37.42799344614125,-3.2362810014052106,-0.7185389473718247,5.292062809865377,6498.9755859375,12.001333333333331,0.4611111111111111,179.5187316661994,10.568376177605256,59.45040822135732,1525.0,1435.0,1200.0,1883.0,1475.0,1018.02,242.0,295.35,1637186147.3801763,1637186148.4307945,5b51e79c-a4a7-4fed-8a21-3526783ba379
-0.5717141009458255,-0.2918308908753985,-1.1404349542836991,0.8279120488281804,-1.0745073431741172,-0.660349491752823,-1.6867375573873156,-1.7219103693462328,-23.07783572988287,26.656356297497336,-37.205447881764,-3.249085620466137,-0.7752321928685408,5.312004597381424,6493.50439453125,12.000222222222224,0.4544444444444444,179.5218310542628,10.561894328082913,59.35171198785062,1525.0,1435.0,1200.0,1883.0,1475.0,1018.02,242.0,295.35,1637186148.5486553,1637186149.7229116,5b51e79c-a4a7-4fed-8a21-3526783ba379
-0.1901257135784448,-0.1203850230949853,-0.0409537452719282,0.4730156219909937,-0.0677376405190025,-0.5651660480698233,-0.4453682451250452,-0.4609757511889081,-15.511527639933954,20.8144764562924,-37.20886709081268,-2.214807886333125,-0.0724305970464471,0.6999058501673272,8241.755859375,11.855222222222222,6.976666666666668,178.37282627568698,10.426458696758209,51.91326715149156,1525.0,1435.0,1350.0,1528.0,1475.0,1018.02,242.0,295.35,1637186153.5443904,1637186154.5246675,13607258-9ce9-4351-8917-22aa1bf22b88
-0.189967929240722,-0.1211082014279985,-0.0346160734724812,0.4763553905765134,-0.0624255670305148,-0.5720691158347117,-0.4408187951534832,-0.4653542681302429,-15.430123738748946,20.91595336650333,-37.81310735975738,-2.2369207672950298,-0.0703714474441141,0.6766590531756309,8255.869683159723,11.853666666666664,7.022222222222222,178.1053515143298,10.371673654561796,49.12413056534035,1525.0,1435.0,1350.0,1528.0,1475.0,1018.02,242.0,295.35,1637186154.6334908,1637186155.6608496,13607258-9ce9-4351-8917-22aa1bf22b88
-0.1983567982030204,-0.1242244426419273,-0.0398492547771515,0.4706225595069632,-0.0658179308451222,-0.5598145270831818,-0.4420679216478337,-0.4789237266774188,-15.526242209137514,20.77662773227862,-37.27862671985999,-2.197598576008285,-0.0857443166281987,0.6905079376508725,8254.986653645834,11.854333333333331,6.96,177.97975799587164,10.255261238440436,46.51013558716139,1525.0,1435.0,1350.0,1528.0,1475.0,1018.02,242.0,295.35,1637186155.7699935,1637186156.8921576,13607258-9ce9-4351-8917-22aa1bf22b88
-0.0626359463256065,0.1175800862489242,-0.0405329869928876,0.3633555042614737,-0.1173476741027632,-0.6825576480031245,-0.4987519648042353,-0.5137283345184187,-15.890604983305815,20.108780292712176,-35.300442451064434,-2.235779925180811,0.8193681547230129,0.8734585019273808,8249.6884765625,11.850222222222223,7.050000000000001,177.81255041153022,10.213169628497802,43.24799094605893,1576.0,1435.0,1350.0,1528.0,1515.0,1018.02,242.0,295.35,1637186157.519205,1637186158.5695832,f6cb9686-be8b-4509-aaa3-98b8555c5952
-0.0705383130765761,0.10844174249113,-0.0479488519950522,0.3699298518944144,-0.1227912347442584,-0.6827811760651208,-0.5068121177294923,-0.5296382608933538,-15.96358456374032,20.230727600169224,-35.804842826175744,-2.250790337648448,0.7888033278319235,0.90059681487595,8245.281467013889,11.842222222222222,7.071111111111112,177.89614585569197,10.209089349378628,41.4995444808057,1576.0,1435.0,1350.0,1528.0,1515.0,1018.02,242.0,295.35,1637186158.6789677,1637186159.7540362,f6cb9686-be8b-4509-aaa3-98b8555c5952
-0.0705744719009578,0.1146440919815115,-0.0506185852378681,0.3624696109303877,-0.1258263922750367,-0.6829614227141804,-0.510357335833663,-0.5304228004280818,-16.13461281597576,20.144739260210844,-35.96500597406501,-2.235181484274756,0.8154437374659264,0.913792448514566,8241.755859375,11.844,7.07,178.02469001587158,10.278016013660334,40.04807236393491,1576.0,1435.0,1350.0,1528.0,1515.0,1018.02,242.0,295.35,1637186159.8630855,1637186160.9856997,f6cb9686-be8b-4509-aaa3-98b8555c5952
0.1394463674980008,0.4937642628742281,-0.0300140297372042,0.1828107663711564,-0.1882323011199963,-0.8841009557128028,-0.5745805175058633,-0.5937250256562367,-16.29769657321235,18.97264439026778,-35.42243711200662,-2.288642127647684,2.257126564217348,1.1075759625465762,8249.6884765625,11.837666666666667,7.16,178.19850618768987,10.327289282924022,37.86612934971409,1627.0,1435.0,1350.0,1528.0,1556.0,1018.02,242.0,295.35,1637186162.1044457,1637186163.2393124,0d135c17-a0fc-43c3-bb40-1b7b94f18228
0.1291772359961742,0.4755138741053543,-0.0546546872408985,0.1905553481233086,-0.2077581168604752,-0.8686906756199712,-0.5978931631286861,-0.6224812336685475,-16.633408255594663,19.170591947643665,-34.94554014195781,-2.271490740202808,2.184313616126577,1.1991672128968274,8249.6884765625,11.835888888888888,7.136666666666666,178.33665511166237,10.380481088632791,36.95913638726957,1627.0,1435.0,1350.0,1528.0,1556.0,1018.02,242.0,295.35,1637186163.3476093,1637186164.4698365,0d135c17-a0fc-43c3-bb40-1b7b94f18228
0.1344367144476412,0.4860196814754616,-0.0496844799071583,0.1746980210760154,-0.2069954924474847,-0.8685854860284254,-0.5928046161061121,-0.6156044630422456,-16.54805007956182,19.130056695310657,-35.503936700811934,-2.2355513948448418,2.2303284652281787,1.1845294700308435,8250.571506076389,11.837444444444444,7.142222222222222,178.48716364239297,10.459565003120211,36.18053580302314,1627.0,1435.0,1350.0,1528.0,1556.0,1018.02,242.0,295.35,1637186164.5832374,1637186165.5327349,0d135c17-a0fc-43c3-bb40-1b7b94f18228
0.3234618147916254,0.8479714788838087,-0.0543851389472471,0.0041950436305955,-0.2933216245258427,-1.0641368496571624,-0.6855774662614881,-0.7136691202051949,-16.906886592660786,18.47595967424584,-35.57196863902937,-2.295130099173168,3.6116939685264087,1.4828278459454929,8255.869683159723,11.833444444444444,7.112222222222221,178.78818981077308,10.540101566034863,34.78590186424051,1678.0,1435.0,1350.0,1528.0,1596.0,1018.02,242.0,295.35,1637186167.5252464,1637186168.6561291,001a0cba-2200-4e6a-a3f7-dd3c00692d78
0.3389909718692996,0.839837915241405,-0.0295406766688269,0.0201219500579364,-0.2671376360853533,-1.0711938693324086,-0.6595605697799181,-0.6774296554056324,-16.64348221212581,18.488693449925297,-35.42901938515711,-2.345438483353122,3.577671171924272,1.3757921358551466,8257.6357421875,11.825333333333331,7.196666666666666,178.9188042771811,10.56477410659172,34.3313846491923,1678.0,1435.0,1350.0,1528.0,1596.0,1018.02,242.0,295.35,1637186168.7650487,1637186169.9975605,001a0cba-2200-4e6a-a3f7-dd3c00692d78
0.329247788633801,0.847003954059509,-0.0331697168858373,0.0022134252895303,-0.2718974646881055,-1.060254146852315,-0.6603626404306788,-0.6825576486437371,-16.77967311800722,18.312054990973888,-35.23433010107787,-2.281847402076393,3.605758439187803,1.3893258674953364,8257.6357421875,11.824999999999998,7.213333333333334,179.09366167339286,10.610590446361734,33.9282441170809,1678.0,1435.0,1350.0,1528.0,1596.0,1018.02,242.0,295.35,1637186170.1059153,1637186171.2230728,001a0cba-2200-4e6a-a3f7-dd3c00692d78
0.5052699188793698,1.1387220053057046,-0.0193904307102547,-0.1262509857138173,-0.3284122130478548,-1.2197709636278942,-0.7203667389502328,-0.7467189305481586,-16.78653254656272,18.20573856566251,-34.27135331649274,-2.3503873679022056,4.70808065370626,1.5685199224974955,8251.454535590277,11.82177777777778,7.232222222222223,179.21832325048433,10.676124498764452,33.48170190679858,1729.0,1435.0,1350.0,1528.0,1636.0,1018.02,242.0,295.35,1637186172.1379578,1637186173.2749245,d6a06ba8-6565-4ba8-8e61-e07f582c625d
0.4847705554061574,1.13840534088554,-0.0174175783919116,-0.1249213236489329,-0.3246368930550666,-1.2182358518874594,-0.7173491119235282,-0.7541391802019176,-16.87797441603436,18.08131072385323,-33.90219708936202,-2.3506509548926564,4.704227598588082,1.5568732518802948,8257.6357421875,11.80911111111111,7.308888888888889,179.30806131143956,10.699960246284242,33.25882941908648,1729.0,1435.0,1350.0,1528.0,1636.0,1018.02,242.0,295.35,1637186173.3834517,1637186174.5038843,d6a06ba8-6565-4ba8-8e61-e07f582c625d
0.4737130507173961,1.1149584771111571,-0.0371959573800491,-0.1274425864352413,-0.3406432418823308,-1.1960074146006627,-0.7313376868887763,-0.7442124582989852,-17.001269605558036,18.24740339421848,-34.46921201684778,-2.295049569152245,4.621245090373124,1.6217380405239712,8257.6357421875,11.805666666666667,7.316666666666666,179.39673993416355,10.72090540082904,33.04601134928759,1729.0,1435.0,1350.0,1528.0,1636.0,1018.02,242.0,295.35,1637186174.612648,1637186175.7316153,d6a06ba8-6565-4ba8-8e61-e07f582c625d
-0.3659133968825845,-0.4400665800274104,-0.0413460147592634,0.6221152491613001,0.0030308361891303,-0.4072359221769615,-0.3710085176172344,-0.391772505033191,-15.132165262560136,21.424002023623867,-39.491628405824656,-2.192401873328484,-1.2722556640758076,0.4576002462512807,8285.130750868055,11.831888888888887,7.21,-20.00206934495931,10.790921290555888,32.60713792362338,1474.0,1435.0,1350.0,1528.0,1435.0,1018.02,242.0,295.35,1637186177.6666005,1637186178.8037198,80c9c80f-9536-4e28-8677-15c5aa6358f8
-0.3651217358129262,-0.4473931447384675,-0.0532346280977582,0.6143772421730441,-0.0072141898971316,-0.3931021665591286,-0.3783624753179253,-0.4014778878831654,-15.186028432966502,21.356020191220928,-39.58878389651686,-2.144271623190832,-1.298294532649077,0.4971291409139242,8289.580078125,11.852,7.05,-179.95290402443993,10.785767723099635,32.52863931840233,1474.0,1435.0,1350.0,1528.0,1435.0,1018.02,242.0,295.35,1637186178.9120245,1637186180.0336907,80c9c80f-9536-4e28-8677-15c5aa6358f8
-0.3534456913424442,-0.4311282038365306,-0.0576920362285078,0.6053703861086573,-0.0141041068484385,-0.3899596276295352,-0.3829382223400459,-0.396218408937694,-15.1768333671686,21.18624954235984,-38.08923397009584,-2.117996371845761,-1.2498231871874952,0.5231844604940266,8278.018337673611,11.85,7.1,-179.90497886376366,10.779724428640254,32.47602257667618,1474.0,1435.0,1350.0,1528.0,1435.0,1018.02,242.0,295.35,1637186180.1421788,1637186181.257953,80c9c80f-9536-4e28-8677-15c5aa6358f8
-0.492592894859089,-0.6994520854533866,-0.0591104519332705,0.7223466551978026,0.0414907730571868,-0.2386997420424725,-0.3234403615568326,-0.3457246664532021,-15.221314309410593,22.12689352577864,-38.43577593817898,-2.0358776324855983,-2.267290914676851,0.332335914882894,8218.0498046875,11.841444444444445,7.202222222222222,-179.76065393096167,10.813440898568112,32.381492758563205,1423.0,1435.0,1350.0,1528.0,1394.0,1018.02,242.0,295.35,1637186183.0846128,1637186184.3331993,3f246deb-ec83-4da8-abcf-16de23d19267
-0.4938118887734933,-0.6800029647475853,-0.0437155194561866,0.7225247104479896,0.0510372744700226,-0.2567244153807196,-0.3118804642323164,-0.3460259910340826,-14.80484348742693,22.083030444512303,-38.163831270540165,-2.07605434764221,-2.198749513562676,0.2849371276381691,8225.9365234375,11.837,7.232222222222223,-179.74705578323406,10.830372178610666,32.40943164736314,1423.0,1435.0,1350.0,1528.0,1394.0,1018.02,242.0,295.35,1637186184.4417572,1637186185.4499445,3f246deb-ec83-4da8-abcf-16de23d19267
-0.4914971698649877,-0.6913848093443713,-0.05023508158204,0.7241135110749474,0.0469830931139539,-0.2513279704608068,-0.317126246982045,-0.3316856914603775,-14.93945230339602,22.161156005058825,-38.81920297485355,-2.067490715894797,-2.235284675794819,0.3044010099545895,8225.9365234375,11.839111111111112,7.223333333333334,-179.7208749092355,10.817676469627166,32.412994729380166,1423.0,1435.0,1350.0,1528.0,1394.0,1018.02,242.0,295.35,1637186185.558807,1637186186.7979753,3f246deb-ec83-4da8-abcf-16de23d19267
-0.6794140128771021,-1.057918607500826,-0.050851426751332,0.9184128739497605,0.1259574491259818,-0.0801620638122205,-0.2383436312782605,-0.2640794683471159,-14.28874022662138,23.29597666165974,-39.821956096475965,-2.1134899476382625,-3.6296697115898287,0.0414335899000537,8275.353624131945,11.837,7.199999999999999,-179.62114959389388,10.796742129548557,32.42828372838228,1372.0,1435.0,1350.0,1528.0,1354.0,1018.02,242.0,295.35,1637186188.6136131,1637186189.658907,b6c4acaf-c516-4edb-b031-970a60c55139
-0.6918367961420907,-1.0575624966748178,-0.0478381837705042,0.9287674713177966,0.1304636167693201,-0.0893250616885215,-0.2393571767562892,-0.2626550260905491,-14.471032440941412,23.362316152715312,-39.71167226372692,-2.1569222315938803,-3.629104026779544,0.0327664344574764,8305.6455078125,11.828111111111111,7.201111111111112,-179.6290726133311,10.814416192663348,32.50428286382206,1372.0,1435.0,1350.0,1528.0,1354.0,1018.02,242.0,295.35,1637186189.7678175,1637186190.7260284,b6c4acaf-c516-4edb-b031-970a60c55139
-0.6831887857133236,-1.0513261754498198,-0.0469626996843782,0.9286704996601964,0.1295979943204437,-0.1026737282372778,-0.2438907381775869,-0.2568685038002027,-14.58226623049318,23.473289867764265,-40.76751655769722,-2.186144771885794,-3.5954995014268083,0.0383481236672202,8307.435655381945,11.826666666666666,7.195555555555556,-179.63678769145358,10.807430711553458,32.57659900947939,1372.0,1435.0,1350.0,1528.0,1354.0,1018.02,242.0,295.35,1637186190.8338928,1637186191.9185593,b6c4acaf-c516-4edb-b031-970a60c55139
-0.8710442936292517,-1.4149799779009788,-0.0439253507992889,1.0985779418026127,0.2035331108528962,0.1094936380043101,-0.1558733568484322,-0.1678123742661074,-13.747686627586983,25.10637755855988,-38.692665607542295,-2.0809179081450413,-5.004417656166318,-0.2314850125218184,8305.6455078125,11.82611111111111,7.2155555555555555,-179.56172846593458,10.80815841129128,32.64759313407736,1321.0,1435.0,1350.0,1528.0,1314.0,1018.02,242.0,295.35,1637186192.519112,1637186193.7589676,22eed6ca-7c84-444a-817e-f41f266623ef
-0.8546341642470464,-1.3867595596386586,-0.0388669375719785,1.0816484482585522,0.206191886736036,0.1042073143933388,-0.1521100900789491,-0.1726275370421187,-13.917817337362807,24.641806206161743,-37.68963002091942,-2.057361767664658,-4.903862484956254,-0.242607005857407,8297.60546875,11.822333333333331,7.229999999999999,-179.58387345704358,10.808177289175234,32.69009588346253,1321.0,1435.0,1350.0,1528.0,1314.0,1018.02,242.0,295.35,1637186193.868466,1637186194.8765545,22eed6ca-7c84-444a-817e-f41f266623ef
-0.854908095583555,-1.3760351434279403,-0.0564259262842441,1.047708377908494,0.1842636973197845,0.1241495033797856,-0.1659025256779628,-0.1813522455472631,-14.03005260997459,24.5555360297485,-37.922732297104695,-1.937528393002564,-4.857714910741531,-0.168539481586279,8271.805881076389,11.81688888888889,7.308888888888889,-179.6076576935534,10.800918031316108,32.76585710064622,1321.0,1435.0,1350.0,1528.0,1314.0,1018.02,242.0,295.35,1637186194.9890206,1637186196.0961645,22eed6ca-7c84-444a-817e-f41f266623ef
-0.1767091114602723,-0.100186433007904,-0.0491667499573553,0.4410741544206333,-0.0773405721506996,-0.5530495209433522,-0.4479421029962933,-0.4609675342246098,-15.636252500390633,20.20680701304411,-36.88798165381771,-2.1199772062026714,0.0047668807426187,0.7306239668943092,8233.8388671875,11.829,7.246666666666666,-59.986459681257706,10.791943352474188,32.85332602097722,1525.0,1435.0,1350.0,1528.0,1475.0,1018.02,242.0,295.35,1637186198.1470716,1637186199.283989,944f820e-277d-48e5-9c25-2db9dc2bbf63
-0.168500108012094,-0.1024707809204032,-0.0398429662932167,0.452732902304896,-0.0670264675513563,-0.5614175251155674,-0.4415071010357666,-0.4677187480279942,-15.687004448833129,20.30664098788835,-36.80986507674568,-2.163967529053779,-0.0049766183605941,0.6945638978594667,8240.876193576389,11.845666666666666,7.163333333333333,179.9674568808315,10.759237465952276,32.87297951085898,1525.0,1435.0,1350.0,1528.0,1475.0,1018.02,242.0,295.35,1637186199.3924787,1637186200.513697,944f820e-277d-48e5-9c25-2db9dc2bbf63
-0.1841825024144797,-0.1101421881085991,-0.0521827323270526,0.4545943001904606,-0.0770469179395537,-0.5544104114267594,-0.4520346356591542,-0.4777008970475519,-15.754424685009738,20.31290498904834,-36.72643998537647,-2.153014018907022,-0.0350226171692899,0.7391775632650335,8241.755859375,11.848222222222224,7.143333333333334,179.96238280918809,10.752939367491356,32.910986477950466,1525.0,1435.0,1350.0,1528.0,1475.0,1018.02,242.0,295.35,1637186200.6220176,1637186201.7440443,944f820e-277d-48e5-9c25-2db9dc2bbf63
-0.1605882606781047,-0.1154580967396502,-0.0760667921599382,-0.0428800294405764,-0.1521648763504794,-0.0690815470008964,-0.3383285231274553,-0.3706661044879913,-15.477865555407709,19.32492960637841,-33.24118490830653,0.0527210551067812,-0.0280887914838436,0.7126636702891568,8253.220594618055,11.848999999999998,7.153333333333332,179.9129990236691,10.887488686907512,32.941960626926566,1525.0,1521.0,1350.0,1528.0,1475.0,1018.02,242.0,295.35,1637186202.6514854,1637186203.7909565,8c2cee53-36c6-47a1-b129-9c26367a4faa
-0.1689979482503324,-0.1190876849455431,-0.0805044774258957,-0.0371548678036635,-0.1540686981910373,-0.0722865418307703,-0.3425607605598006,-0.3748298587850713,-15.516586174378892,19.22947594325737,-33.4847921201213,0.031692377469491,-0.040256648785328,0.7266111316989159,8259.4052734375,11.85077777777778,7.103333333333334,179.8966885319311,10.890569861133097,32.946820685975986,1525.0,1521.0,1350.0,1528.0,1475.0,1018.02,242.0,295.35,1637186203.899329,1637186205.1109009,8c2cee53-36c6-47a1-b129-9c26367a4faa
-0.1627386204971112,-0.1248128468286907,-0.0836409893572701,-0.0424554362621397,-0.156588865073396,-0.0645616825273479,-0.3437386646251545,-0.3771171844945709,-15.60134529585121,19.26400275443232,-33.89429640423753,0.060972713674916,-0.0570457955015114,0.7346059502481795,8271.804144965277,11.85077777777778,7.073333333333333,179.87947797304247,10.875568488986026,33.01574905780499,1525.0,1521.0,1350.0,1528.0,1475.0,1018.02,242.0,295.35,1637186205.2191842,1637186206.452917,8c2cee53-36c6-47a1-b129-9c26367a4faa
-0.1489571420971035,-0.1392271060947887,-0.1229621677722376,-0.5870060395197885,-0.2513460498235078,0.4764211340463442,-0.23151781356672,-0.2464810321305871,-15.358403233128284,18.368434501991093,-29.9935461181311,2.497855411702689,-0.0828618736034775,0.7570094952935742,8273.5771484375,11.84977777777778,7.141111111111111,179.86368505786157,11.06498092345536,33.08086087170776,1525.0,1607.0,1350.0,1528.0,1475.0,1018.02,242.0,295.35,1637186207.0205228,1637186208.0916588,1879bd72-a75e-4ab7-9228-05f19ed7ca52
-0.151521138138969,-0.1403995315881488,-0.1259770543948888,-0.5786483966463377,-0.2539440133751924,0.4701656423700904,-0.2347277393608617,-0.2673118565843798,-15.140137870231255,18.341349853923287,-29.97688133098073,2.46472854902878,-0.0901723020005426,0.7693465637468307,8273.5771484375,11.84722222222222,7.123333333333333,179.8368879490179,11.079754717493834,33.06466156027127,1525.0,1607.0,1350.0,1528.0,1475.0,1018.02,242.0,295.35,1637186208.200634,1637186209.320961,1879bd72-a75e-4ab7-9228-05f19ed7ca52
-0.1447824307398903,-0.1307571536658812,-0.1171564700894416,-0.5841818080352553,-0.2464519949004986,0.4643856951539231,-0.2283177492157374,-0.2427950137662845,-15.29413531732754,18.27232588284433,-30.11943159498032,2.464103652520041,-0.0504148580205861,0.7388300674973541,8273.5771484375,11.84777777777778,7.134444444444445,179.7942326587413,11.06514465826796,33.046881060041905,1525.0,1607.0,1350.0,1528.0,1475.0,1018.02,242.0,295.35,1637186209.4298694,1637186210.55173,1879bd72-a75e-4ab7-9228-05f19ed7ca52
-0.1342043038813864,-0.1493253055440479,-0.161934906267542,-1.0976753625014724,-0.3473709925701574,0.972863264434613,-0.1342437499034578,-0.151021488000982,-14.982085303454436,17.92818418057084,-27.449780199387096,4.76110790777756,-0.0855488863055621,0.8007576642200376,8273.5771484375,11.840666666666667,7.171111111111112,179.7620245222551,11.24563174303938,33.12252957910429,1525.0,1693.0,1350.0,1528.0,1475.0,1018.02,242.0,295.35,1637186212.6883028,1637186213.8271077,780341f3-1c64-46ca-be4e-764625c2d6d8
