raw_voltage_G-,raw_voltage_G0,raw_voltage_G1,raw_voltage_G2,raw_voltage_G3,raw_voltage_G4,raw_voltage_G5,raw_voltage_G6,load_x,load_y,load_z,load_l,load_m,load_n,rpm,voltage,current,roll,pitch,yaw,aileron1_pwm,elevator_pwm,throttle_pwm,rudder_pwm,aileron2_pwm,pbaro,pdiff,Tt,sample_start_time,sample_end_time,uid
-0.1417828842399874,-0.0539057593926664,-0.0002289448376684,0.4352120278403364,-0.0801894564488914,-0.511905047485978,-0.4315610152851524,-0.4574064277607139,-14.713163335994446,24.39809808450181,-25.17087273562966,-1.981742773938043,0.071860937006547,0.6654733269315125,6598.48046875,12.045,0.22,179.7622461239482,8.34412535898182,67.39109280449549,1525.0,1435.0,1200.0,1528.0,1475.0,1018.02,242.0,295.15,1637184543.5490053,1637184544.5643165,c7347e07-5c5a-40eb-a91e-83cef332c0f7
-0.1368866380816941,-0.0471993761764261,-0.0020993469174348,0.4403674120650336,-0.0804392816913292,-0.521459769272556,-0.437373836033161,-0.4580304437028061,-14.970473038598556,24.30437032171889,-24.947369859950683,-2.01565115499424,0.0960993247634176,0.6776698118592642,6619.433865017361,12.045111111111112,0.23,179.70384800654458,8.34337384844564,67.06579745617455,1525.0,1435.0,1200.0,1528.0,1475.0,1018.02,242.0,295.15,1637184544.6973689,1637184545.7626572,c7347e07-5c5a-40eb-a91e-83cef332c0f7
-0.1454332912953214,-0.0497896694509838,0.009589844222936,0.4396836799291075,-0.0712614912866472,-0.514556701853883,-0.4233047280984345,-0.4475246320772328,-14.70092543972086,24.445442890953185,-24.32069273056049,-1.9968438984696868,0.0797497418160805,0.629899317728713,6618.86181640625,12.04622222222222,0.22,179.69440261383235,8.339876696726854,66.80977085077625,1525.0,1435.0,1200.0,1528.0,1475.0,1018.02,242.0,295.15,1637184545.894181,1637184547.136582,c7347e07-5c5a-40eb-a91e-83cef332c0f7
-0.0225132461971291,0.1637188601621207,-0.0007083244510133,0.3230783111568662,-0.1308530296413901,-0.6049594942244081,-0.4799646647745396,-0.4980167341588292,-14.968992175645424,24.04208475679557,-22.94910858519136,-1.9400608896044835,0.8839744617889659,0.8324990878848922,6559.768229166667,12.045,0.2433333333333333,179.59312153317978,8.337392784598695,66.42509459672112,1576.0,1435.0,1200.0,1528.0,1515.0,1018.02,242.0,295.15,1637184548.1314018,1637184549.183642,5c8eecf8-c6df-45ba-b55b-8a6642acb0fd
-0.0260694207466181,0.1685838776257767,0.0021739793329139,0.3315356615893934,-0.1254735688917367,-0.6148023921635357,-0.4776483021114521,-0.5042744190392595,-14.962910114903584,23.76733622766247,-22.540555605512235,-1.9828665404794128,0.8976939753778894,0.8193012292961339,6540.300618489583,12.03622222222222,0.27,179.55757722873904,8.314378367326597,66.2079606062767,1576.0,1435.0,1200.0,1528.0,1515.0,1018.02,242.0,295.15,1637184549.3194563,1637184550.4054902,5c8eecf8-c6df-45ba-b55b-8a6642acb0fd
-0.0227049980052795,0.180839557805629,0.005975596303767,0.3174079362817172,-0.123771908300433,-0.6135335425772086,-0.4736368529152946,-0.4896207412838171,-15.057141705112423,23.59425198306572,-22.469847313667856,-1.949140842754204,0.9456779818909826,0.8075539664607909,6523.15576171875,12.03622222222222,0.27,179.55894478439288,8.30390123659475,66.01438242045982,1576.0,1435.0,1200.0,1528.0,1515.0,1018.02,242.0,295.15,1637184550.5139077,1637184551.6423829,5c8eecf8-c6df-45ba-b55b-8a6642acb0fd
0.1678415240950706,0.5444557694046944,0.0005106693546298,0.1437903679644395,-0.2116353390705056,-0.8084904356720145,-0.566253007311762,-0.5915094694883342,-15.32271315762801,22.89501732639049,-22.631486741570587,-2.0006631910884227,2.3337898407937203,1.1088906866602943,6546.408203125,12.033333333333331,0.29,179.4472469063461,8.303785407970077,65.79522138165173,1627.0,1435.0,1200.0,1528.0,1556.0,1018.02,242.0,295.15,1637184552.6380892,1637184553.7408772,381f1466-c275-496f-a8df-a7ec419b53e8
0.1697042559479706,0.5421136581066469,0.0072356796845296,0.1515974060909418,-0.2075400676007116,-0.8138594891523944,-0.5627329905691627,-0.5753749192602986,-15.159114529618464,23.22902159921769,-22.66442317360104,-2.0277128200045103,2.323610284122367,1.0888500258016487,6563.11328125,12.028,0.32,179.42162459003964,8.306988766690814,65.60800361977195,1627.0,1435.0,1200.0,1528.0,1556.0,1018.02,242.0,295.15,1637184553.8537266,1637184555.0119295,381f1466-c275-496f-a8df-a7ec419b53e8
0.1860579463672018,0.5460993562839378,0.0050305336966225,0.1471734177975148,-0.2089097236640568,-0.810161416565153,-0.5643902748342541,-0.5907013728263087,-15.326909990272071,23.1018393988998,-22.17540552756817,-2.010382742860284,2.3358152757597885,1.097149074018968,6572.060329861111,12.029,0.32,179.4126132937947,8.298741692722977,65.4984420731156,1627.0,1435.0,1200.0,1528.0,1556.0,1018.02,242.0,295.15,1637184555.1475255,1637184556.147021,381f1466-c275-496f-a8df-a7ec419b53e8
0.3880093078374903,0.9395444705652082,0.0297993906196467,-0.0409800427177021,-0.2750005574045619,-1.0222543888861482,-0.6296472752215144,-0.65512945837649,-15.214056278976573,22.2051657110616,-22.29895339950073,-2.0672295827777907,3.836490642459759,1.292546396174174,6564.230902777777,12.022777777777778,0.3311111111111111,179.27759259646206,8.274495469806816,65.16094269456767,1678.0,1435.0,1200.0,1528.0,1596.0,1018.02,242.0,295.15,1637184558.0744345,1637184559.2131088,b76c2d99-78cb-4d77-8fce-5fde2b713bb2
0.374676530893766,0.9190456547287535,0.011259728615893,-0.0297905019168751,-0.2891354077925085,-1.012327116821047,-0.645636095356165,-0.6707369658465315,-15.244561191121058,22.37212509064799,-22.41294434663081,-2.0700124232351973,3.758283668892632,1.3572019684571086,6565.907335069444,12.019222222222222,0.3644444444444444,179.27423669684987,8.26867339758555,65.10576235517303,1678.0,1435.0,1200.0,1528.0,1596.0,1018.02,242.0,295.15,1637184559.3220532,1637184560.4377005,b76c2d99-78cb-4d77-8fce-5fde2b713bb2
0.3799464183457482,0.9258774975932828,0.0163986775184756,-0.0403050763890559,-0.2858980887687093,-1.0066386585392433,-0.6406527377367582,-0.6715384895964412,-15.399942763739425,22.37782452002853,-21.98960814454814,-2.0332284593518373,3.782875415642882,1.3399129685369282,6573.1796875,12.018777777777778,0.36,179.26875433167606,8.2756402854027,65.06844144263817,1678.0,1435.0,1200.0,1528.0,1596.0,1018.02,242.0,295.15,1637184560.5458791,1637184561.666093,b76c2d99-78cb-4d77-8fce-5fde2b713bb2
0.5614942866457211,1.241911875326763,0.0330536928871935,-0.1916657547383586,-0.3426566362890641,-1.177051362321899,-0.6977126219429527,-0.7389940673755989,-15.380572799945488,21.75352392675063,-22.156595414375943,-2.078062075723659,4.9892203782110025,1.5127059574104662,6573.1796875,12.014,0.39,179.18596484983644,8.265547732266622,65.06480095181057,1729.0,1435.0,1200.0,1528.0,1636.0,1018.02,242.0,295.15,1637184563.605796,1637184564.7424748,32f653d6-33e8-4826-9f48-f8194f379212
0.5662793159160796,1.247473773796805,0.0426851129663676,-0.1959768841574836,-0.3365890598269572,-1.176633343281788,-0.687711938833053,-0.7177304249542474,-15.1478797041541,21.81402661689908,-21.81339346407771,-2.0663453791744586,5.006534543391505,1.4783313137268153,6573.1796875,12.006999999999998,0.43,179.17169430793058,8.266196315646559,65.00641421805557,1729.0,1435.0,1200.0,1528.0,1636.0,1018.02,242.0,295.15,1637184564.8507397,1637184566.0625403,32f653d6-33e8-4826-9f48-f8194f379212
0.5375757147242617,1.2387561882592282,0.0286160079602407,-0.184931978051157,-0.3472000594556637,-1.174371765344376,-0.7015575212677225,-0.7226743364585363,-15.210825454027674,21.847339073169803,-21.36814161617397,-2.0866183385078187,4.968086350402377,1.531287087858784,6578.22412109375,12.00311111111111,0.4255555555555556,179.1849130007042,8.266145089227782,64.97752707132585,1729.0,1435.0,1200.0,1528.0,1636.0,1018.02,242.0,295.15,1637184566.1707876,1637184567.1991756,32f653d6-33e8-4826-9f48-f8194f379212
-0.3343406326049873,-0.4076051813468149,-0.0125394119074335,0.5965213143795028,-0.011855679681908,-0.3192327781699909,-0.359323159554939,-0.3776392975309266,-14.61714910207997,25.059273891710603,-25.70902476493497,-1.908924106388016,-1.2712667107458877,0.4439829383180551,6573.1796875,12.024444444444445,0.3444444444444444,179.6449657046198,8.268937782824672,64.94319474600782,1474.0,1435.0,1200.0,1528.0,1435.0,1018.02,242.0,295.15,1637184569.1341646,1637184570.2782192,4e9947d7-699f-4e5e-9208-e20265372901
-0.3318226569551802,-0.3988399299203992,-0.0068991691493153,0.5954480521689343,-0.0095289083616306,-0.3273712745579949,-0.35721608076668,-0.3856501431060122,-14.541406597919378,25.167369760985164,-25.75740820430981,-1.9237635365866288,-1.238007418190367,0.4311170379845482,6577.663628472223,12.04311111111111,0.24,179.67994082662972,8.281327935706551,65.09031322618037,1474.0,1435.0,1200.0,1528.0,1435.0,1018.02,242.0,295.15,1637184570.391638,1637184571.503474,4e9947d7-699f-4e5e-9208-e20265372901
-0.3266864465292162,-0.4085644884835598,-0.0178153264594228,0.6001870609801693,-0.0190206235785626,-0.3195231452177945,-0.3653655345017685,-0.393128464605716,-14.40242952402121,25.233686519362163,-25.451038899709,-1.9168029202675425,-1.2794537891598117,0.4698950657199111,6578.22412109375,12.045666666666667,0.24,179.68808848339964,8.269954342646141,65.22604350427679,1474.0,1435.0,1200.0,1528.0,1435.0,1018.02,242.0,295.15,1637184571.6359177,1637184572.729746,4e9947d7-699f-4e5e-9208-e20265372901
-0.4767322761215222,-0.665320248526465,-0.0135146069859041,0.7184431363658476,0.039299323698056,-0.1802702169703004,-0.3053609013522663,-0.3429990513550447,-14.450116636812655,26.26724920150421,-25.702796818279783,-1.8636381074443809,-2.2541448365741688,0.2683218053730067,6581.030924479167,12.03622222222222,0.2622222222222222,179.76900952904631,8.265031863256809,65.55931954918793,1423.0,1435.0,1200.0,1528.0,1394.0,1018.02,242.0,295.15,1637184574.6641712,1637184575.801162,2191c999-e4d3-4809-8b0d-a5165ca5b763
-0.4748695437724455,-0.6705797289572789,-0.0106246330083952,0.7233191107536684,0.0440931192894206,-0.1829273495494654,-0.3018819749704987,-0.3129351001645375,-14.45537762752874,26.221325308395866,-26.14946242031636,-1.8808424256890488,-2.2702929706781303,0.2516914216793448,6581.59228515625,12.031,0.3066666666666666,179.7789709804958,8.279801483290791,65.60984777084785,1423.0,1435.0,1200.0,1528.0,1394.0,1018.02,242.0,295.15,1637184575.909871,1637184576.912011,2191c999-e4d3-4809-8b0d-a5165ca5b763
-0.4908671282389099,-0.6768527551427788,-0.0156512701619689,0.7335093493747878,0.0419153664388585,-0.1859816824540241,-0.3038405831709712,-0.3393146769792043,-14.179263408879995,26.0270137132776,-26.149508481711848,-1.912092027742643,-2.297351087038113,0.2639011898758714,6603.56396484375,12.03111111111111,0.2922222222222222,179.772139273506,8.285053898762534,65.64893922019756,1423.0,1435.0,1200.0,1528.0,1394.0,1018.02,242.0,295.15,1637184577.0279148,1637184578.1458125,2191c999-e4d3-4809-8b0d-a5165ca5b763
-0.6766747000701198,-1.029731071022126,-0.0088851700081812,0.8980050031771006,0.1207116673271059,0.0029486567586993,-0.2226747664898048,-0.2569709539853548,-14.153863649162112,27.664826238097007,-26.591737082557,-1.8474657669393213,-3.636915857071681,-0.0107421383291755,6612.055013020833,12.027333333333331,0.31,179.84794678419405,8.245799663237607,65.74588920200644,1372.0,1435.0,1200.0,1528.0,1354.0,1018.02,242.0,295.15,1637184580.1940143,1637184581.2189476,0b69d213-2c34-42e3-9a21-221772c71498
-0.6953644830499054,-1.0252391447815314,-0.0094231709424563,0.887304704610049,0.1189475506102986,0.0071573353771427,-0.2195524986614218,-0.2507412104371884,-13.97295105639468,27.453599966274297,-26.756854672831626,-1.815233339390616,-3.618605677289693,-0.0116214109823825,6589.463107638889,12.02211111111111,0.3377777777777778,179.82918501345392,8.265625710259647,65.77234176575199,1372.0,1435.0,1200.0,1528.0,1354.0,1018.02,242.0,295.15,1637184581.327592,1637184582.4542675,0b69d213-2c34-42e3-9a21-221772c71498
-0.6746158326779843,-1.0318660919670226,-0.0137622407403287,0.898599433795517,0.1176458296646814,0.0048563134664532,-0.2262977806697084,-0.2485322290710688,-14.207399738294107,27.56181136560852,-26.571334693493444,-1.84546933748414,-3.645109508753535,0.0050205180667015,6579.908203125,12.020666666666669,0.3366666666666666,179.81700147379445,8.253383449946044,65.7679712035931,1372.0,1435.0,1200.0,1528.0,1354.0,1018.02,242.0,295.15,1637184582.5858245,1637184583.6727257,0b69d213-2c34-42e3-9a21-221772c71498
-0.8720424994607421,-1.4055923468889957,-0.0129667446498912,1.0689243459735138,0.1947963504719044,0.2210800452144469,-0.1365781916189041,-0.1618346482918183,-13.5780393055252,28.921574410104807,-25.26541035976132,-1.734218393813186,-5.083736172636381,-0.2708907517122683,6578.22412109375,12.023111111111112,0.3355555555555556,179.8770995493915,8.260241149600214,65.71301018916182,1321.0,1435.0,1200.0,1528.0,1314.0,1018.02,242.0,295.15,1637184585.611127,1637184586.655244,01e4ed7d-a684-43fe-9d3c-b35ed82bdf2c
-0.897148304751293,-1.4159332593743452,-0.0298819950336034,1.0868531402619932,0.1836473520832523,0.2166834500597579,-0.1570819414420914,-0.1675598106143988,-13.953976316986347,29.013936264771647,-25.12709661559936,-1.7849382752549834,-5.124364151756545,-0.2046548732594999,6578.22412109375,12.017888888888889,0.3722222222222222,179.87377552399542,8.237703896932636,65.64605156799846,1321.0,1435.0,1200.0,1528.0,1314.0,1018.02,242.0,295.15,1637184586.7632458,1637184588.0896604,01e4ed7d-a684-43fe-9d3c-b35ed82bdf2c
-0.8748968637110022,-1.403277626114689,-0.0077401377489668,1.0728853904884468,0.199982963064035,0.2158402900151542,-0.1359662292436687,-0.1588449628057371,-13.863131957229422,29.08474999273681,-25.147379519463303,-1.7537107021334195,-5.074236434052802,-0.2857359082062235,6583.2763671875,12.016555555555556,0.3655555555555556,179.8685147605147,8.235467389434408,65.60820321307769,1321.0,1435.0,1200.0,1528.0,1314.0,1018.02,242.0,295.15,1637184588.1980524,1637184589.315355,01e4ed7d-a684-43fe-9d3c-b35ed82bdf2c
-0.1636973797207375,-0.069054153795746,-0.0146377247722152,0.432595985388881,-0.0906673243165581,-0.4803344717427835,-0.4372176952569859,-0.4602005275808108,-14.783140686051274,24.352553632440493,-23.212851151868524,-1.90564080960676,-0.0024054869666784,0.7083146991309318,6583.2763671875,12.019777777777778,0.3555555555555555,179.48566140805806,8.252859232927246,65.57647015419381,1525.0,1435.0,1200.0,1528.0,1475.0,1018.02,242.0,295.15,1637184590.1164095,1637184591.1612055,dd511098-4a48-4666-88ab-346bf1acd3a0
-0.1418787603066363,-0.037031598651001,0.0084820665582968,0.4216661325404424,-0.0781623656945425,-0.5009751908330281,-0.4202065658176946,-0.4325608649629234,-14.329192031568237,24.378214345324498,-22.965815525489784,-1.9257789868803787,0.1151079623744236,0.6399816952262495,6578.22412109375,12.043555555555557,0.24,179.50273384534344,8.250933973354948,65.69942570181257,1525.0,1435.0,1200.0,1528.0,1475.0,1018.02,242.0,295.15,1637184591.2690516,1637184592.5913236,dd511098-4a48-4666-88ab-346bf1acd3a0
-0.1190465954612347,-0.0244033712591929,0.0105913366426112,0.4141330258871625,-0.075340874433132,-0.5019339502715191,-0.4200422069653524,-0.433040244741572,-14.724000983603526,24.16157280139421,-22.316167785128567,-1.9123668989315303,0.1605655712106943,0.635220593847258,6556.453884548611,12.043666666666669,0.2355555555555555,179.48857562210392,8.237202162619853,65.7952388365796,1525.0,1435.0,1200.0,1528.0,1475.0,1018.02,242.0,295.15,1637184592.700029,1637184593.8251636,dd511098-4a48-4666-88ab-346bf1acd3a0
-0.1218313799689707,-0.058362619724781,-0.034392545735866,-0.0474886476125308,-0.162329367147783,-0.0190348680617112,-0.3295413575545702,-0.3648850593981912,-14.682685396116126,23.44194920708882,-18.64543618805655,0.2076727782855575,0.0543432852302215,0.683510991347402,6459.80224609375,12.044222222222222,0.24,179.47750464436922,8.40360008495335,65.87178476660795,1525.0,1521.0,1200.0,1528.0,1475.0,1018.02,242.0,295.15,1637184594.622284,1637184595.6745532,24b5fcf8-d5d6-4420-ab82-f6fe0c76f215
-0.1089522311920829,-0.0444140439573605,-0.0179933816823133,-0.0529880901337597,-0.1512061171212053,-0.0332924381218828,-0.3167290466543686,-0.3539699964322311,-14.464469018139413,23.47524717875159,-19.33794998497352,0.1890762686405097,0.1129694588027958,0.6285666238406813,6447.914225260417,12.045333333333334,0.24,179.48282308500296,8.404263467076488,65.86423361302553,1525.0,1521.0,1200.0,1528.0,1475.0,1018.02,242.0,295.15,1637184595.8084457,1637184596.8963554,24b5fcf8-d5d6-4420-ab82-f6fe0c76f215
-0.1387669019228062,-0.074956275131217,-0.0310133306483525,-0.0435440386052218,-0.1559522490618373,-0.0151691513358575,-0.3214417593809716,-0.3459246362700416,-14.53384556878631,23.400100919504705,-19.8462272894138,0.207235842570799,0.0014239668238512,0.6551411871357996,6516.556315104167,12.042444444444444,0.23,179.48112160898972,8.399015699927933,65.86087771341334,1525.0,1521.0,1200.0,1528.0,1475.0,1018.02,242.0,295.15,1637184597.0044682,1637184598.125394,24b5fcf8-d5d6-4420-ab82-f6fe0c76f215
-0.1106779976416868,-0.0883936954157718,-0.0798744356656912,-0.5784977343873461,-0.2592308857067363,0.5176105170430736,-0.2240444225751897,-0.2503555156473828,-14.504313276400566,22.65650965704346,-15.81384547431262,2.6044827062521487,-0.0221683439807894,0.723437135714689,6553.078125,12.045,0.23,179.49313667064968,8.581657140200058,65.89515843285761,1525.0,1607.0,1200.0,1528.0,1475.0,1018.02,242.0,295.15,1637184600.0626135,1637184601.084612,552db431-b28b-490f-b9fb-fe747221af5e
-0.1126009946863182,-0.0865139796312312,-0.0804261330974572,-0.5818911949632032,-0.2622726177732661,0.5155910966258237,-0.2263240779281913,-0.2566186779141136,-14.447616524063472,22.811380300690043,-16.296093465730884,2.6085504665357275,-0.010859941365784,0.7310714635376909,6553.078125,12.04044444444444,0.2555555555555555,179.47732705945086,8.584398227923218,65.77305893561486,1525.0,1607.0,1200.0,1528.0,1475.0,1018.02,242.0,295.15,1637184601.1923797,1637184602.3135364,552db431-b28b-490f-b9fb-fe747221af5e
-0.1096507557126855,-0.0715743206601559,-0.0697663748880316,-0.5825793103055503,-0.2515334187093083,0.5002295857743434,-0.219058874641931,-0.2340292157155759,-14.593433464594815,22.5281972425157,-16.415714725408463,2.574144381403497,0.0480208106345419,0.6932169627540855,6559.208062065973,12.040555555555557,0.2577777777777778,179.45917697009634,8.581155880205971,65.65584757708808,1525.0,1607.0,1200.0,1528.0,1475.0,1018.02,242.0,295.15,1637184602.4221122,1637184603.6576507,552db431-b28b-490f-b9fb-fe747221af5e
-0.0794224493584202,-0.0733000871662455,-0.0871336120303217,-1.0823121960062343,-0.3290148616333466,0.9818553284509292,-0.1058978982896814,-0.1254565861979338,-14.117573014767007,22.286942283819403,-13.239345869031652,4.781978474671526,0.0704507693993484,0.6616270880585333,6568.142578125,12.041444444444444,0.2566666666666666,179.4443478704984,8.76566955122059,65.42981385015511,1525.0,1693.0,1200.0,1528.0,1475.0,1018.02,242.0,295.15,1637184605.5895655,1637184606.613622,e8999b8d-0475-4569-95f8-473e0c9efbbe
-0.0890648270354996,-0.0861337631672303,-0.0895168133814868,-1.0734505166140342,-0.3260290114159539,0.9867586961198777,-0.1036653590927297,-0.1372356272339348,-14.10912870307102,22.08238578053735,-13.168065676684623,4.77154813478194,0.0203795464671551,0.6563453752087868,6567.024956597223,12.029222222222222,0.31,179.41067807352985,8.760553265213556,65.20100251295969,1525.0,1693.0,1200.0,1528.0,1475.0,1018.02,242.0,295.15,1637184606.7223003,1637184607.9554818,e8999b8d-0475-4569-95f8-473e0c9efbbe
-0.0975720340231344,-0.0903928452620429,-0.1118909648636428,-1.0730083910197767,-0.3453855390756437,0.9912319918532224,-0.1268410334488406,-0.1568200640059855,-14.4144160441664,22.086671590681487,-13.241271590889172,4.779351885026689,0.005742205697137,0.7453753421427577,6569.261935763889,12.028,0.3,179.38705320810067,8.762283200348339,65.05881542936791,1525.0,1693.0,1200.0,1528.0,1475.0,1018.02,242.0,295.15,1637184608.0632422,1637184609.162102,e8999b8d-0475-4569-95f8-473e0c9efbbe
-0.0659039452859495,-0.0944064850212817,-0.1260729303696995,-1.564294549552864,-0.4251921141555563,1.4682064236577317,-0.0229515360646363,-0.047975149990582,-14.317013798430787,22.84106006662506,-9.972534336182854,6.964263178401343,0.0206300658853119,0.7250653269963753,6561.997504340277,12.026000000000002,0.3166666666666666,179.36661576428418,8.917192839361613,64.67344932620661,1525.0,1780.0,1200.0,1528.0,1475.0,1018.02,242.0,295.15,1637184611.11922,1637184612.1437447,70bb5dd0-76a6-47a4-906b-2d5195a8f63e
-0.0732453011560364,-0.0949954369983713,-0.1226898801628705,-1.587236313563558,-0.4234937404901415,1.4867926551492048,-0.0142131314166711,-0.049111964439327,-14.419145297673827,22.7743001575226,-10.367320049768209,7.057391473370692,0.0256809326886541,0.7048257318100072,6561.439615885417,12.020666666666664,0.3366666666666666,179.35931505097136,8.9458291663668,64.46712752521832,1525.0,1780.0,1200.0,1528.0,1475.0,1018.02,242.0,295.15,1637184612.2518222,1637184613.295676,70bb5dd0-76a6-47a4-906b-2d5195a8f63e
-0.0764776890564555,-0.0943516987387658,-0.1135405785099443,-1.5947146434900894,-0.4178644537688145,1.4937642039193342,-0.0067211137733267,-0.0451810521032928,-14.534004141837102,23.095147182023737,-10.204817226193908,7.092477349129003,0.0289742275623147,0.6740494102162495,6629.694715711806,12.02077777777778,0.3411111111111111,179.3509215073913,8.965175013144691,64.31229244910348,1525.0,1780.0,1200.0,1528.0,1475.0,1018.02,242.0,295.15,1637184613.4074602,1637184614.5103128,70bb5dd0-76a6-47a4-906b-2d5195a8f63e
-0.1906932991444099,-0.0582749617363239,0.042066028566361,1.0572137890092852,0.0234661019055937,-1.0990083124127523,-0.5592403671785148,-0.5824971321625944,-14.997659267497772,26.11338203161343,-28.163889415163613,-4.691269263783684,0.0101430311240156,0.6482269670959968,6680.7685546875,12.02833333333333,0.3033333333333334,179.33927527594656,8.077272714021573,64.05547657740108,1525.0,1349.0,1200.0,1528.0,1475.0,1018.02,242.0,295.15,1637184615.625167,1637184616.7620933,f0aa30fa-b3a1-430a-8953-1bf4a2d1dfec
-0.2013415525450619,-0.0683424805730777,0.0332706464658773,1.0520841542519892,0.0181759430766718,-1.0815419004820206,-0.560419367182866,-0.5783147484474657,-14.973837569392709,25.88159897304026,-27.79066409773959,-4.642351688474884,-0.0310227195899202,0.6684751140521351,6653.11572265625,12.037333333333336,0.2588888888888889,179.41762665264548,8.076534958727475,64.4528243501864,1525.0,1349.0,1200.0,1528.0,1475.0,1018.02,242.0,295.15,1637184616.8702972,1637184618.0833137,f0aa30fa-b3a1-430a-8953-1bf4a2d1dfec
-0.1938572045051374,-0.0681638774484483,0.0307115813646602,1.046174363426423,0.0139880831972601,-1.0740531648942575,-0.562924742600421,-0.5878524884535292,-15.03249518333375,26.025387879876263,-27.49591712162338,-4.611349232198887,-0.0319821908963411,0.6815200125022051,6623.412163628473,12.039222222222223,0.2555555555555555,179.45636596779798,8.077684422646545,64.72984619818341,1525.0,1349.0,1200.0,1528.0,1475.0,1018.02,242.0,295.15,1637184618.1919744,1637184619.3119524,f0aa30fa-b3a1-430a-8953-1bf4a2d1dfec
-0.2103341661216748,-0.0506048886355142,0.0803479096355697,1.5922972572435017,0.1112199523520971,-1.6158758530842714,-0.6770308106588071,-0.7006984747176704,-15.64120258871734,27.945127031137275,-30.85045845324507,-7.046460006045723,0.0038540081257846,0.6448578713638558,6605.826768663194,12.033555555555555,0.2733333333333333,179.52117232046288,7.871897273688278,65.17053152125244,1525.0,1262.0,1200.0,1528.0,1475.0,1018.02,242.0,295.15,1637184620.1314318,1637184621.3612776,e0cf1dc0-c09e-40c9-b7c5-4052b838690b
-0.2095945517985709,-0.049426984555802,0.0784577846132381,1.5885170064210887,0.1079327783817424,-1.6085344885577455,-0.6796468543233015,-0.7125323056217568,-15.75657493452951,28.10714517574973,-30.156709748925323,-7.020403225727669,0.0032881180854481,0.656576932775165,6581.594835069444,12.028555555555556,0.3111111111111111,179.57650747747869,7.877070098483439,65.44083853438542,1525.0,1262.0,1200.0,1528.0,1475.0,1018.02,242.0,295.15,1637184621.470399,1637184622.5894053,e0cf1dc0-c09e-40c9-b7c5-4052b838690b
-0.2041296242602404,-0.056877912720504,0.0702124564079189,1.578422641393504,0.1015090925063135,-1.5928382124119376,-0.6806603999385449,-0.6939597645191947,-15.67201041521774,27.89649053993375,-30.318066671624745,-6.964151353988384,-0.0231092672145592,0.6769365315685488,6558.09228515625,12.025666666666666,0.3211111111111111,179.5800333729102,7.891485402454227,65.64426054061612,1525.0,1262.0,1200.0,1528.0,1475.0,1018.02,242.0,295.15,1637184622.697898,1637184623.8179798,e0cf1dc0-c09e-40c9-b7c5-4052b838690b
-0.2172372323861107,-0.0350319010208854,0.1207253638280481,2.003289992597303,0.1790179155827085,-2.020828924110284,-0.770359199118027,-0.8044088612815977,-16.304878604663685,30.401001637916576,-32.67644658412896,-8.865876877561453,0.0351425651233364,0.63179591863517,6563.11328125,12.02677777777778,0.321111111111111,179.6077715300395,7.730583126217914,66.04488604529313,1525.0,1176.0,1200.0,1528.0,1475.0,1018.02,242.0,295.15,1637184625.660384,1637184626.681199,8e38ef37-c164-4938-80d5-27d4e0a229a9
-0.2123886501097269,-0.044578402665993,0.117205348383738,2.007398961946896,0.1776893494562854,-2.0145284962462915,-0.7701263573911875,-0.7827408945931144,-16.17615629994955,30.350351833028373,-32.58542771740725,-8.861419535535077,-0.0031102942904667,0.637192205695882,6554.74951171875,12.016333333333332,0.37,179.6048967793089,7.718907202422991,66.21745684595275,1525.0,1176.0,1200.0,1528.0,1475.0,1018.02,242.0,295.15,1637184626.7904422,1637184627.9133508,8e38ef37-c164-4938-80d5-27d4e0a229a9
-0.2231946880968477,-0.0408485556659859,0.1195523905979078,2.011123879251162,0.1799837968721654,-2.0232921178051253,-0.7709169230759588,-0.7863929466825806,-16.257054348347964,30.36559531519616,-32.817724855227354,-8.88937489775051,0.0132007512911394,0.6320869130681497,6553.078125,12.017777777777775,0.3688888888888889,179.60113106834646,7.686103511386713,66.37364581734306,1525.0,1176.0,1200.0,1528.0,1475.0,1018.02,242.0,295.15,1637184628.021908,1637184629.050759,8e38ef37-c164-4938-80d5-27d4e0a229a9
-0.2261126032269005,-0.0280740491049498,0.1394485590233471,2.2029722115984387,0.2067945352634168,-2.2181008436936565,-0.8235155676331777,-0.8611674273990381,-16.82761204602914,32.203411033838684,-33.76251281932878,-9.747162960854878,0.0511966598536097,0.6440803551714765,6578.22412109375,12.005333333333333,0.41,179.59162799848127,7.612644826863225,66.6840361750752,1525.0,1090.0,1200.0,1528.0,1475.0,1018.02,242.0,295.15,1637184631.1900294,1637184632.21148,778305cd-047f-4776-a913-8d03b2c313ec
-0.226701555263648,-0.0336211554426074,0.1347095498042514,2.2118201929893164,0.2041374030347361,-2.218525436269016,-0.826378149829662,-0.8496760091654862,-16.65695857478528,32.126182113214405,-33.46671247796393,-9.768690831284388,0.0251710106372938,0.6582095817008725,6577.103135850694,11.987000000000002,0.5022222222222221,179.58804746153635,7.616237221775437,66.67111042152591,1525.0,1090.0,1200.0,1528.0,1475.0,1018.02,242.0,295.15,1637184632.3217304,1637184633.3633473,778305cd-047f-4776-a913-8d03b2c313ec
-0.2099643589771626,-0.0244855505945075,0.1487896116570294,2.2032324466082795,0.2129305932491574,-2.221442810108524,-0.8134896820987118,-0.8442795623329126,-16.449720172600333,32.24076119423591,-33.63167340632162,-9.75433603355278,0.0613822247187363,0.6095851822258135,6577.663628472223,11.99088888888889,0.4766666666666665,179.56044894383007,7.596252562582673,66.67294167113339,1525.0,1090.0,1200.0,1528.0,1475.0,1018.02,242.0,295.15,1637184633.471324,1637184634.5804818,778305cd-047f-4776-a913-8d03b2c313ec
-0.1403584421719066,-0.0598774591854249,0.0081396526161424,0.4030251177973832,-0.0778199516844179,-0.4598170221708862,-0.4147142445795742,-0.4525030591213331,-14.870455275022564,24.855572567377887,-22.72042813855832,-1.7883274507448403,0.0333596575338199,0.6290060322444542,6579.910861545139,11.997666666666667,0.4522222222222222,179.52868249291024,8.141365217054467,66.70163833147623,1525.0,1435.0,1200.0,1528.0,1475.0,1018.02,242.0,295.15,1637184635.582961,1637184636.6353033,99ef7707-d38b-4847-a806-b73c367fe0bf
-0.1460151212976741,-0.0699033404974435,0.0076739696461887,0.414009756861502,-0.0741355772276542,-0.4609401402767527,-0.4149881758197349,-0.4269315784108032,-15.018828332493204,24.84113308610118,-22.84046021570164,-1.815842631561015,-0.0035117146582286,0.6236286302991819,6621.13525390625,12.043444444444445,0.23,179.51231887747872,8.141951095503272,66.70139320357602,1525.0,1435.0,1200.0,1528.0,1475.0,1018.02,242.0,295.15,1637184636.7482376,1637184637.745474,99ef7707-d38b-4847-a806-b73c367fe0bf
-0.1570545482630496,-0.0700403060429751,0.0032636776921746,0.4189268210482016,-0.075806557476579,-0.4633233419246763,-0.4166865494876677,-0.4490104356521196,-14.88355595111458,24.541118531753323,-22.57545249267056,-1.834387795380449,-0.0082216730419124,0.6349524426650699,6638.227701822917,12.043666666666669,0.23,179.50661642843164,8.142742543673348,66.74106142445564,1525.0,1435.0,1200.0,1528.0,1475.0,1018.02,242.0,295.15,1637184637.853607,1637184638.9696517,99ef7707-d38b-4847-a806-b73c367fe0bf
-0.0698677295941432,-0.0206916037426309,0.2372069204256653,0.3725332935479723,0.1303343213321235,-0.4783057370958463,-0.1764379194677766,-0.2054176488880302,-13.548874683044648,24.494683564209613,-22.08584443665797,-1.7513119267251478,0.1836220374403772,-0.2995647399503243,6629.10009765625,12.045,0.24,179.4885741042841,8.132831749460182,66.73013539851334,1525.0,1435.0,1200.0,1439.0,1475.0,1018.02,242.0,295.15,1637184640.549163,1637184641.497614,81c444d7-26df-40b4-9446-bcaaed403dd0
-0.0854752328012692,-0.0301323679580141,0.2364442960580955,0.3709028553693729,0.1267315786388177,-0.4652885246036019,-0.172966663387933,-0.1920717214987531,-13.12361245463622,24.746940760400275,-21.75885607033591,-1.7164821832570138,0.1424621141807479,-0.2990620381776749,6562.012152777777,12.044444444444444,0.24,179.46912020770813,8.162862193965958,66.70397273835258,1525.0,1435.0,1200.0,1439.0,1475.0,1018.02,242.0,295.15,1637184641.6070187,1637184642.7732666,81c444d7-26df-40b4-9446-bcaaed403dd0
-0.077724075966422,-0.0231295912352366,0.233311071501562,0.3706327592089356,0.1235879445896136,-0.4734040115861486,-0.1799414995012677,-0.2036776390714207,-13.331045639797296,24.72402748072227,-22.00985946690925,-1.734561831879386,0.172253818701014,-0.2802233931755491,6539.192491319444,12.040333333333333,0.24,179.47370250573127,8.134169043581428,66.73194995210285,1525.0,1435.0,1200.0,1439.0,1475.0,1018.02,242.0,295.15,1637184642.8814478,1637184644.000489,81c444d7-26df-40b4-9446-bcaaed403dd0
0.0094271289627596,0.0139196004299274,0.504448125425668,0.3607301480871309,0.3691124413590552,-0.5112339159280122,0.0976466629814843,0.0715273254124376,-11.327016652953205,24.68779853170591,-21.421363449933864,-1.7828695776864112,0.3102182156806172,-1.3728101955519094,6541.964192708333,12.042,0.2422222222222222,179.42583046874856,8.156149256376699,66.66798978398512,1525.0,1435.0,1200.0,1351.0,1475.0,1018.02,242.0,295.15,1637184644.5464857,1637184645.6397755,b6342eaa-31d7-4f44-b975-88da35b31979
0.0270682966450598,0.0217951217011985,0.5256640927542463,0.3569909878551522,0.3874521319240285,-0.5214104617738144,0.1170820792622817,0.0947429924359282,-11.231802830681152,24.663679482316194,-22.103826754592617,-1.796467340559449,0.3469359045595544,-1.4543470240945622,6534.20654296875,12.04022222222222,0.2422222222222222,179.42850031380414,8.158821473025727,66.65870679799316,1525.0,1435.0,1200.0,1351.0,1475.0,1018.02,242.0,295.15,1637184645.748587,1637184646.9603262,b6342eaa-31d7-4f44-b975-88da35b31979
0.0306803531813713,0.0352035048649598,0.5335127679704624,0.3557687070745788,0.3932950833688721,-0.5358312983557032,0.1201309332123534,0.0805533570113139,-11.311921169365135,24.60673106871407,-22.40296159740358,-1.8261904395230548,0.4010908633975829,-1.4761877225060656,6573.756401909723,12.037444444444446,0.2477777777777777,179.41229606945322,8.155167132092293,66.68018774293286,1525.0,1435.0,1200.0,1351.0,1475.0,1018.02,242.0,295.15,1637184647.068671,1637184648.2990458,b6342eaa-31d7-4f44-b975-88da35b31979
0.122231985150026,0.0775812049380032,0.8280840775938417,0.3577853882351797,0.6582741603251141,-0.5960430314096469,0.4129825150914765,0.3746184573386092,-9.201901752319118,24.924205762199104,-22.54910872035681,-1.9482322858830128,0.5648254414513924,-2.6493056282068603,6629.670193142361,12.039666666666667,0.2422222222222222,179.3702175507065,8.137651776011966,66.61856729406082,1525.0,1435.0,1200.0,1262.0,1475.0,1018.02,242.0,295.15,1637184649.100125,1637184650.1455371,ab691899-9870-4733-b018-638e4e4e986f
0.1246425794161285,0.0809642548682994,0.818044501044166,0.3572923121090962,0.6485085150024968,-0.5935502570267355,0.4029429384631176,0.3761661683545489,-9.229784611492317,24.86973238424079,-21.86497758210474,-1.94228442561876,0.571071175345505,-2.6066524098859034,6632.520670572917,12.036333333333332,0.2533333333333333,179.35925130253906,8.135035054649942,66.60153887355007,1525.0,1435.0,1200.0,1262.0,1475.0,1018.02,242.0,295.15,1637184650.2544963,1637184651.3735485,ab691899-9870-4733-b018-638e4e4e986f
0.1245488949628938,0.0869041783587503,0.8102270539961403,0.3514296376485736,0.6377030270510516,-0.5923838576594457,0.3909414669132707,0.3603707499654439,-9.41281495724468,25.131068153149144,-21.717806850415645,-1.925164116514392,0.5935712415255726,-2.563551721873938,6608.686848958333,12.03788888888889,0.26,179.35571933582827,8.16879943076573,66.55284341931741,1525.0,1435.0,1200.0,1262.0,1475.0,1018.02,242.0,295.15,1637184651.481631,1637184652.6040509,ab691899-9870-4733-b018-638e4e4e986f
0.1928240460750232,0.1179860521838414,1.0338611579364956,0.3582647677198236,0.8395480960945894,-0.6373655627022329,0.6136507767716274,0.5913664780942653,-7.755926833337214,25.36746555039872,-21.18171059263304,-2.028040308254893,0.7070083795831216,-3.454761869993456,6491.865885416667,12.036,0.2633333333333333,179.3435646347453,8.129290580966746,66.48798925532833,1525.0,1435.0,1200.0,1173.0,1475.0,1018.02,242.0,295.15,1637184654.7423315,1637184655.7643807,33b44194-2974-4c74-b878-19885690d646
0.1872287281509729,0.1070742781279827,1.0297182232462463,0.3732301744415572,0.8392199265726775,-0.6447814297812391,0.6063302408432222,0.5804536091062255,-7.9772650459627155,25.511018295360405,-21.841075706144395,-2.077934227411804,0.6713903390998354,-3.440577519766725,6494.599283854167,12.029555555555554,0.2911111111111111,179.34112094484226,8.125891328626063,66.4145275351652,1525.0,1435.0,1200.0,1173.0,1475.0,1018.02,242.0,295.15,1637184655.872821,1637184657.1081855,33b44194-2974-4c74-b878-19885690d646
0.1923994526935551,0.1251219591240494,1.040819009402444,0.3561144082125815,0.8454787054422742,-0.6468983708270147,0.6170064332905755,0.6050630353350507,-7.908447134925292,25.363146433172947,-21.783469153231973,-2.0444659927741227,0.7408910140583375,-3.477210656589834,6515.993435329861,12.032555555555554,0.2944444444444444,179.3473136496897,8.132509402476853,66.38499379719408,1525.0,1435.0,1200.0,1173.0,1475.0,1018.02,242.0,295.15,1637184657.2167578,1637184658.3375938,33b44194-2974-4c74-b878-19885690d646
-0.2752147718818276,-0.1304832224516229,-0.3319048361250278,0.485423607290086,-0.3794729923243811,-0.4467778952349272,-0.7750982103645393,-0.8073399252485055,-17.209232497504736,25.57479647659829,-22.60809618905577,-1.958221093706848,-0.2475870151462676,2.0069032883639184,6530.335177951389,12.038111111111112,0.2566666666666666,179.46846450954777,8.124324369393976,66.65733089433037,1525.0,1435.0,1200.0,1617.0,1475.0,1018.02,242.0,295.15,1637184659.2514863,1637184660.385352,7918aa18-e2b6-487a-bfbd-97ee53325270
-0.2751320446485972,-0.1275773604105748,-0.3424270819547505,0.4819435859861894,-0.3881845530878132,-0.4467225612021323,-0.784565275926721,-0.8038807219133279,-17.29996642817415,25.346147754206427,-22.724678504572115,-1.952350609939414,-0.2352552740668694,2.0467778691986966,6555.311631944444,12.04577777777778,0.2211111111111111,179.47023884091217,8.13454584235064,66.60083081060611,1525.0,1435.0,1200.0,1617.0,1475.0,1018.02,242.0,295.15,1637184660.4941704,1637184661.611369,7918aa18-e2b6-487a-bfbd-97ee53325270
-0.2542650610520375,-0.1262624907616931,-0.3328548295683438,0.481588571192795,-0.3800192112083416,-0.4488526505702691,-0.7748352363388932,-0.8140315206968318,-17.17363097527868,25.36679431865364,-22.817363693683628,-1.9556740564425723,-0.2297455284047681,2.0088599794826885,6591.715494791667,12.044333333333334,0.23,179.4799862797677,8.140998094386578,66.58266706087332,1525.0,1435.0,1200.0,1617.0,1475.0,1018.02,242.0,295.15,1637184661.719223,1637184662.730402,7918aa18-e2b6-487a-bfbd-97ee53325270
-0.3793749250213716,-0.1831306064228333,-0.6496990438641945,0.5518157514201673,-0.6637813025946753,-0.4425412748592175,-1.113388065550003,-1.1437221315911288,-19.37551111099226,26.06693693873701,-23.16804687227073,-2.112206533172728,-0.4530639039080172,3.3006877635317227,6590.589301215277,12.039111111111112,0.2477777777777777,179.4877256430072,8.144250307932626,66.54930310459763,1525.0,1435.0,1200.0,1706.0,1475.0,1018.02,242.0,295.15,1637184664.5728445,1637184665.80255,b834ab88-2b8c-495c-bbf0-feebf8d7e56f
-0.3718670182082219,-0.1867990930076296,-0.6488838244863442,0.5656481785687154,-0.660231153388784,-0.454020089334418,-1.1162413348083873,-1.153005118726159,-19.525427509307328,26.109106425282626,-23.50745264027592,-2.169012956893245,-0.4644044149723711,3.297880093258384,6588.3369140625,12.037333333333336,0.26,179.50828754804857,8.161821159299963,66.50766627141722,1525.0,1435.0,1200.0,1706.0,1475.0,1018.02,242.0,295.15,1637184665.9108288,1637184667.0333874,b834ab88-2b8c-495c-bbf0-feebf8d7e56f
-0.3690794939581882,-0.1754386184555479,-0.6458596233430757,0.5549582895244628,-0.6619404845180918,-0.4537702639771502,-1.1145845978256943,-1.1470487544657066,-19.42275876019584,26.18526565951736,-23.27247995912325,-2.1435932046825545,-0.4230957854189097,3.2953799429988497,6593.40478515625,12.037,0.26,179.50562832773176,8.13881395167199,66.45380643526215,1525.0,1435.0,1200.0,1706.0,1475.0,1018.02,242.0,295.15,1637184667.1414254,1637184668.2614353,b834ab88-2b8c-495c-bbf0-feebf8d7e56f
-0.4793313357074196,-0.2363565342892332,-0.9438223673478402,0.6773463423714569,-0.9253221411050526,-0.4951360724011034,-1.4491666246615225,-1.4852598377662545,-21.4599236967409,27.356871120564065,-24.055150354864217,-2.5208452217961144,-0.6641576353419812,4.52733747663034,6614.325575086806,12.031444444444444,0.2877777777777777,179.5231910208175,8.131560385637174,66.40755542984243,1525.0,1435.0,1200.0,1795.0,1475.0,1018.02,242.0,295.15,1637184670.1034162,1637184671.3386853,051bfea0-27be-4bfa-b835-933f03de14b2
-0.4888641427652232,-0.2307814864496597,-0.9393123623091788,0.673099313899129,-0.920575459147059,-0.4947021654391765,-1.4439597352399811,-1.4830771499935056,-21.53630402227181,27.189435254215464,-23.73323525053117,-2.5111624364387075,-0.6447543698471224,4.508417869884251,6613.7548828125,12.02811111111111,0.3,179.53432726480432,8.111478491112475,66.34040935793186,1525.0,1435.0,1200.0,1795.0,1475.0,1018.02,242.0,295.15,1637184671.4632132,1637184672.4741323,051bfea0-27be-4bfa-b835-933f03de14b2
-0.4719023204204218,-0.2259033196130665,-0.9387075216700036,0.6704301288201568,-0.9236654044159704,-0.4972135670326977,-1.4473784001560597,-1.473583781269335,-21.560082444232147,27.47480696141671,-23.77429657972344,-2.5088814978769403,-0.6255542377565334,4.51704466406628,6610.921766493056,12.027666666666669,0.3044444444444444,179.54345695099488,8.11200783077315,66.30289568228044,1525.0,1435.0,1200.0,1795.0,1475.0,1018.02,242.0,295.15,1637184672.583092,1637184673.7326224,051bfea0-27be-4bfa-b835-933f03de14b2
-0.5507895883238553,-0.2685582432538655,-1.1429195120037052,0.7707228955123492,-1.1025694202559175,-0.5365314665220224,-1.6816057241292273,-1.706054118719896,-23.07138625560602,28.414298595441124,-23.86746973377357,-2.8281859720137383,-0.7992919115545564,5.366715862631975,6577.667100694444,12.009333333333334,0.3888888888888889,179.534708237578,8.099511145912965,66.11251857845458,1525.0,1435.0,1200.0,1883.0,1475.0,1018.02,242.0,295.15,1637184675.632537,1637184676.9746723,0234514f-501a-49a4-8a66-4cf7695d9e94
-0.5432838721784603,-0.2573818500035493,-1.1371395597540663,0.7527119226806803,-1.1006108107996144,-0.5336688849786884,-1.673374081067084,-1.6932615126950203,-22.90297696994219,28.23823590507681,-24.206123928523407,-2.781973575377293,-0.7529831491100811,5.345356161831314,6578.22412109375,12.000666666666667,0.4311111111111111,179.5086396822458,8.08616068740653,65.94306689751592,1525.0,1435.0,1200.0,1883.0,1475.0,1018.02,242.0,295.15,1637184677.0831203,1637184678.0906198,0234514f-501a-49a4-8a66-4cf7695d9e94
-0.5492429725735789,-0.2683078701207591,-1.1501387001522547,0.7655214909115433,-1.1068137132692817,-0.5326361642028103,-1.68577770170244,-1.72347506924677,-23.204696192507328,28.10325591892913,-23.999058524678823,-2.810209100861604,-0.7960655858605729,5.3881108236203294,6573.1796875,11.999111111111112,0.4411111111111111,179.51714706231198,8.08832490873604,65.83268421033932,1525.0,1435.0,1200.0,1883.0,1475.0,1018.02,242.0,295.15,1637184678.1988308,1637184679.3202407,0234514f-501a-49a4-8a66-4cf7695d9e94
-0.1525894698519166,-0.0761352748612756,-0.0147746902912476,0.4142562949335219,-0.0712182101258776,-0.4616523613380367,-0.4146457617526451,-0.4509005612494501,-15.25737983750258,22.331390305160067,-23.830516141728754,-1.8360322997765663,-0.0179180509473592,0.6484824713226752,8265.5986328125,11.856000000000002,6.889999999999999,178.523495695318,7.959692430415881,57.32763551537126,1525.0,1435.0,1350.0,1528.0,1475.0,1018.02,242.0,295.15,1637184683.0529184,1637184684.0351305,f012383f-581d-4169-945c-2bcc4595726b
-0.1569121042014846,-0.0734441749933417,-0.0044792609742001,0.410769699256568,-0.0626490949038824,-0.4621985801860797,-0.401083426740917,-0.4205435016412764,-14.90788265887731,22.182499065745706,-23.89791287164508,-1.8297040106543343,-0.0086216850875797,0.6039728627984442,8267.371636284723,11.856000000000002,6.897777777777779,178.27733871327035,7.851196488133784,53.82828902913296,1525.0,1435.0,1350.0,1528.0,1475.0,1018.02,242.0,295.15,1637184684.143575,1637184685.1660378,f012383f-581d-4169-945c-2bcc4595726b
-0.1621189881581096,-0.0832794002117155,-0.0267794503273067,0.4104146844567615,-0.0805707686993643,-0.4508775502310336,-0.4216742893181688,-0.4515349872283592,-15.240359122500587,22.15908189984353,-23.868056411586032,-1.8048915549889488,-0.0447915901103592,0.6867234800604889,8270.917643229166,11.857,6.886666666666667,178.1516784107403,7.798894124836934,50.58365926979214,1525.0,1435.0,1350.0,1528.0,1475.0,1018.02,242.0,295.15,1637184685.2750304,1637184686.3994172,f012383f-581d-4169-945c-2bcc4595726b
-0.0457924657849137,0.138131498019695,-0.0270555729150094,0.309209176908916,-0.1292209475622481,-0.5656656987643717,-0.4720338073114117,-0.4963457540551469,-15.305928848045896,21.54229001106568,-22.78190460686053,-1.838503426231588,0.7889040444045022,0.8527069631726967,8273.5771484375,11.854,6.932222222222222,178.104296629558,7.778303476082808,46.87689208101907,1576.0,1435.0,1350.0,1528.0,1515.0,1018.02,242.0,295.15,1637184687.0485518,1637184688.1355278,4c060873-300b-4eef-b936-07f5cb055488
-0.0420034496137877,0.1345999774460875,-0.0317310303153869,0.3121347616009866,-0.1334553759202505,-0.567499394630013,-0.4797181264334584,-0.4914286879104408,-15.507017135063895,21.735124523608395,-23.200092578964828,-1.8483457555589176,0.7801350071993151,0.874577155327283,8277.130099826389,11.845444444444446,6.986666666666667,178.17109284400112,7.80373435736501,45.0135868779532,1576.0,1435.0,1350.0,1528.0,1515.0,1018.02,242.0,295.15,1637184688.2434433,1637184689.263745,4c060873-300b-4eef-b936-07f5cb055488
-0.0348658988346716,0.1462573920732544,-0.0244652797055254,0.2976514735976964,-0.1288133379561183,-0.5646795462278127,-0.470587450427092,-0.4867997972728109,-15.451182085144817,21.53134293130184,-23.006234046289062,-1.8102685291877585,0.8239844062540935,0.8470300372594692,8281.5712890625,11.847555555555555,6.966666666666667,178.26728771045174,7.817180628247304,43.30390704860915,1576.0,1435.0,1350.0,1528.0,1515.0,1018.02,242.0,295.15,1637184689.372096,1637184690.4915056,4c060873-300b-4eef-b936-07f5cb055488
0.184373269668259,0.5449214523500294,-0.0200204725103167,0.1112884350657915,-0.2132241402178948,-0.7762213288009695,-0.5564325720709334,-0.5888523379662125,-15.429700037026151,20.44913634716516,-22.245433668270312,-1.872062471400893,2.3355307213101164,1.12630356827658,8257.6357421875,11.845,6.99,178.31913643535125,7.891307722672069,41.41652542871897,1627.0,1435.0,1350.0,1528.0,1556.0,1018.02,242.0,295.15,1637184691.050047,1637184692.0204506,a10fbf13-e510-4d03-9991-023ea21bf57e
0.1814148130895864,0.5360460832197821,-0.023129591230362,0.1069055363819241,-0.218702764026191,-0.7767007085544453,-0.5644724540383296,-0.6045759931514957,-15.691021707945325,20.982715509412184,-24.1703633086346,-1.860308996310992,2.3215044405200977,1.1452217687588246,8262.0595703125,11.836444444444444,7.1033333333333335,178.50112151341685,7.940391549050026,40.15870397356124,1627.0,1435.0,1350.0,1528.0,1556.0,1018.02,242.0,295.15,1637184692.128523,1637184693.447636,a10fbf13-e510-4d03-9991-023ea21bf57e
0.1847304758903231,0.5308961776668268,-0.0202971428765532,0.1213143158499158,-0.2108480608200331,-0.776728649429688,-0.5590650511363616,-0.5980903954028489,-15.687978141075096,20.730983711033115,-22.97147295211952,-1.894209540875464,2.289943150738197,1.1242630219862806,8257.6357421875,11.837444444444444,7.0488888888888885,178.65661456442172,8.002508419865492,39.05894447944622,1627.0,1435.0,1350.0,1528.0,1556.0,1018.02,242.0,295.15,1637184693.5561,1637184694.792581,a10fbf13-e510-4d03-9991-023ea21bf57e
0.3945442093182417,0.9216753937551768,0.0085773946695327,-0.0645951020828917,-0.2707666766141999,-0.9818089736022676,-0.6180501210558483,-0.6482789851532531,-15.674784656057533,19.748515159028543,-22.13475398108475,-1.9406214376996047,3.7727968617030383,1.2977441636761555,8265.5986328125,11.835,7.09,178.7661586561502,8.088690513584112,37.87559257680914,1678.0,1435.0,1350.0,1528.0,1596.0,1018.02,242.0,295.15,1637184695.5716257,1637184696.6369598,36baa592-829f-4b34-86d5-44fee45615e2
0.3948208797921818,0.929890588949639,-0.0032284912590611,-0.0635207440453243,-0.2861857166247774,-0.9999136440895214,-0.6387900052603451,-0.67670209452917,-15.756945209924243,20.059304812517222,-23.551295341419053,-1.9825232927250005,3.815869685123809,1.363187893811299,8276.2470703125,11.826333333333334,7.139999999999999,178.89672455232417,8.130260183237672,37.290222597641815,1678.0,1435.0,1350.0,1528.0,1596.0,1018.02,242.0,295.15,1637184696.7455418,1637184697.8622816,36baa592-829f-4b34-86d5-44fee45615e2
0.3892452851379558,0.9185854503869104,-0.0032301348477195,-0.0583494712921,-0.2826268023076242,-0.9920255171457508,-0.6352486218209452,-0.6713549559483273,-15.803763171135056,20.00194380064962,-23.31325850867453,-1.976828700044185,3.771052422262514,1.3523045391332729,8314.597981770834,11.827666666666666,7.139999999999999,178.99644227856672,8.164673996507041,36.74292409290814,1678.0,1435.0,1350.0,1528.0,1596.0,1018.02,242.0,295.15,1637184697.971339,1637184699.0915372,36baa592-829f-4b34-86d5-44fee45615e2
0.5606516744298427,1.231037903677385,0.0054611535695859,-0.2141615327297447,-0.3476339665225797,-1.1409346049585725,-0.6941942486174494,-0.7129705947799363,-15.602864765310713,19.365681472557213,-21.544884704540955,-1.9633755421484704,4.94556812016905,1.5522618435517754,8311.015950520834,11.825666666666663,7.143333333333334,179.1762067862422,8.251345492252442,35.857456092177955,1729.0,1435.0,1350.0,1528.0,1636.0,1018.02,242.0,295.15,1637184701.1240797,1637184702.374452,764ebd6e-cf93-47a8-8dec-6b69fc1de42c
0.5580613815140627,1.2158906057894685,-0.00305920172317,-0.217106840995755,-0.3523543493254234,-1.1256821057666182,-0.6979021823584969,-0.7221878355199012,-15.77920648266802,19.34653568333313,-21.917725978578545,-1.9231566216175005,4.893131290436588,1.573084694015587,8288.690212673611,11.813222222222224,7.237777777777778,179.29098735633437,8.282945647038723,35.52449575378845,1729.0,1435.0,1350.0,1528.0,1636.0,1018.02,242.0,295.15,1637184702.4826536,1637184703.601123,764ebd6e-cf93-47a8-8dec-6b69fc1de42c
0.536681603441234,1.2060159350541095,-0.0066224985072072,-0.2087837154157089,-0.3547605611833667,-1.1231838515783594,-0.7018993876078202,-0.7371773563625194,-15.788309452734568,19.556886830937263,-21.88009946537526,-1.935099212553268,4.854579135672205,1.5857488885885482,8281.5712890625,11.815,7.186666666666667,179.36592667408794,8.322836513112536,35.28311914524992,1729.0,1435.0,1350.0,1528.0,1636.0,1018.02,242.0,295.15,1637184703.7097518,1637184704.9181986,764ebd6e-cf93-47a8-8dec-6b69fc1de42c
-0.3457142567274305,-0.4206092446016561,-0.0280022790665561,0.5569963372557275,-0.0100148621602967,-0.2763811706758339,-0.3426243124136667,-0.3806766474025398,-14.718189417364986,22.95326068522116,-26.57150864612259,-1.7383914675755192,-1.3078301522185496,0.4364348459122937,8278.906575520834,11.829666666666666,7.143333333333333,179.91693624827064,8.354126178882796,34.9678922546755,1474.0,1435.0,1350.0,1528.0,1435.0,1018.02,242.0,295.15,1637184705.5463543,1637184706.8734128,4cb49060-dd88-4192-a4a0-8515097a8677
-0.3398236398614815,-0.4205829472155403,-0.0255697701752918,0.5719595521549184,-0.0052287366051214,-0.290568615977523,-0.343360639473611,-0.3667127285146394,-14.733151369646478,22.894329512388826,-26.61859891886409,-1.8043104754007664,-1.3088973474800296,0.4277302527116308,8295.823893229166,11.85388888888889,7.027777777777778,-139.9990142773352,8.34963419113865,34.876375308896414,1474.0,1435.0,1350.0,1528.0,1435.0,1018.02,242.0,295.15,1637184706.9818466,1637184707.9926198,4cb49060-dd88-4192-a4a0-8515097a8677
-0.3654066242430299,-0.4472024886126133,-0.0383190751814109,0.581272115383614,-0.0108848675982118,-0.2738451157392843,-0.3507650003440341,-0.3728164642582026,-14.942503642232792,22.95185380016365,-26.807051463673066,-1.7881263163056793,-1.4075386564328491,0.4597799222926056,8316.3916015625,11.855666666666666,6.976666666666667,-179.96115489295732,8.353795199299263,34.74664535198586,1474.0,1435.0,1350.0,1528.0,1435.0,1018.02,242.0,295.15,1637184708.100701,1637184709.2215812,4cb49060-dd88-4192-a4a0-8515097a8677
-0.4983969500194474,-0.6968502861469982,-0.0465945361679402,0.696359355305195,0.0352560996228989,-0.1342831962682366,-0.3002855038401786,-0.3252022874449161,-14.756399488483575,23.653026725738137,-26.52229611670655,-1.7297454963027024,-2.3623930919051803,0.307388255396992,8321.7724609375,11.854,6.98,-179.82265231696778,8.377503639682024,34.601717844717086,1423.0,1435.0,1350.0,1528.0,1394.0,1018.02,242.0,295.15,1637184711.0614097,1637184712.198005,e0aa1e2c-dd21-4dd4-b6bc-076813cb20ec
-0.4869362148411904,-0.6768527550616925,-0.0254169166389048,0.6840647776436236,0.0510235778768014,-0.1392901105631974,-0.2793511328236084,-0.2926367978459995,-14.536455409527418,23.481104155151133,-25.89537986468046,-1.7131376893450276,-2.291649886864827,0.2306593554566517,8297.60546875,11.840333333333332,7.106666666666666,-179.84519194122882,8.355726435287087,34.57065983619618,1423.0,1435.0,1350.0,1528.0,1394.0,1018.02,242.0,295.15,1637184712.3057582,1637184713.4360628,e0aa1e2c-dd21-4dd4-b6bc-076813cb20ec
-0.4796074584416743,-0.6815846439091098,-0.0332091629405803,0.680068122230629,0.043999982655889,-0.1333233411280249,-0.2862821402890605,-0.3028757976828787,-14.658062712540104,23.53109072058372,-26.285845134103287,-1.6908941776046331,-2.3050770218789283,0.2594518360860063,8281.5712890625,11.837333333333332,7.066666666666666,-179.84773277160008,8.351635910884156,34.56957345666319,1423.0,1435.0,1350.0,1528.0,1394.0,1018.02,242.0,295.15,1637184713.56924,1637184714.6624382,e0aa1e2c-dd21-4dd4-b6bc-076813cb20ec
-0.6720255385212076,-1.047631389248962,-0.0332617577739715,0.8540648033596212,0.1222347245685173,0.0617507224987538,-0.2026827196400675,-0.2360015206650106,-14.274418132775788,24.69033772023606,-26.45839402558899,-1.637182811954021,-3.700567306840533,-0.0092797047490078,8281.5712890625,11.836666666666666,7.120000000000001,-179.71235235097117,8.332545627017709,34.52450141778523,1372.0,1435.0,1350.0,1528.0,1354.0,1018.02,242.0,295.15,1637184715.5704515,1637184716.7031791,61506d34-ff9e-4af0-9d20-db9afbbe9db9
-0.676916855288975,-1.0435158446329094,-0.0351157240446703,0.8600080135537609,0.1199337027532832,0.0511265759116953,-0.2081394292034591,-0.2382499470324168,-14.26519572438992,24.73182881874568,-26.64603421214513,-1.6743056482406369,-3.684382300297063,0.0044255847357096,8281.5712890625,11.830333333333334,7.176666666666667,-179.7195847623923,8.345045442381261,34.52418381398882,1372.0,1435.0,1350.0,1528.0,1354.0,1018.02,242.0,295.15,1637184716.8109767,1637184717.936333,61506d34-ff9e-4af0-9d20-db9afbbe9db9
-0.6807425796473076,-1.0582884148045106,-0.0399900554796741,0.8683930460881224,0.1164246444815874,0.054529896730281,-0.2127995468197515,-0.2307420413178561,-14.236174513128596,24.99840715037152,-27.16201580863391,-1.6841156821019618,-3.736757555820776,0.0199534920171932,8289.580078125,11.82888888888889,7.167777777777778,-179.73333469210144,8.334437399690323,34.570771016497666,1372.0,1435.0,1350.0,1528.0,1354.0,1018.02,242.0,295.15,1637184718.0453885,1637184719.2564223,61506d34-ff9e-4af0-9d20-db9afbbe9db9
-0.8866386554949746,-1.4502579673064004,-0.0446485291176477,1.0607228472093075,0.194539402980044,0.260914018424325,-0.1326790550029971,-0.167549401357206,-13.981180575236284,26.55046470368716,-26.97303032482534,-1.643976615074618,-5.234310366823262,-0.2401002425679166,8323.569769965277,11.827555555555556,7.151111111111111,-179.65130108452993,8.323164362192694,34.61604909941559,1321.0,1435.0,1350.0,1528.0,1314.0,1018.02,242.0,295.15,1637184720.0754614,1637184721.1267846,acd6728c-60f6-4c89-b2fd-609325c52218
-0.8810274468349579,-1.4325335058402848,-0.0430306915304356,1.055405843419778,0.194001950071896,0.2504317688110339,-0.1344278316808983,-0.1479874263674659,-14.030300381256907,26.37018783717563,-26.68859052125821,-1.656631675620699,-5.169252042963741,-0.2365447603685806,8337.962890625,11.819444444444446,7.193333333333334,-179.62384372406652,8.31444591030839,34.63254855972062,1321.0,1435.0,1350.0,1528.0,1314.0,1018.02,242.0,295.15,1637184721.2358544,1637184722.3298671,acd6728c-60f6-4c89-b2fd-609325c52218
-0.868125281579795,-1.406314978151005,-0.0377586120343933,1.01745049034722,0.1906868351678831,0.2629126202086678,-0.1268673308752756,-0.1512581643545536,-13.960128122641583,26.205805721412908,-26.18019432676615,-1.543678388965816,-5.070914637766252,-0.2463071858198228,8323.569769965277,11.824111111111112,7.166666666666667,-179.64539524762762,8.312420095173312,34.65993116755815,1321.0,1435.0,1350.0,1528.0,1314.0,1018.02,242.0,295.15,1637184722.4466562,1637184723.4730272,acd6728c-60f6-4c89-b2fd-609325c52218
-0.1489598815192546,-0.0666572559462896,-0.026718089692008,0.4079010922798986,-0.0804907807214777,-0.4676651520151147,-0.4227130364510649,-0.4455452055958877,-15.126287938830538,21.697082477852984,-24.266861597346992,-1.8400112355587928,0.0205843212950379,0.6897059948962525,8295.822048611111,11.83,7.173333333333334,179.96651735036568,8.28357307580498,34.77863340459876,1525.0,1435.0,1350.0,1528.0,1475.0,1018.02,242.0,295.15,1637184724.0446236,1637184725.1033304,8c73bde6-f97e-406a-891f-7a627c8dd3f1
-0.1454201426112205,-0.0638587749472229,-0.0361281736156636,0.4122029070572228,-0.0891963138541285,-0.4697722310502853,-0.4333503340895177,-0.4576359822079571,-15.144381473040069,21.663276033367488,-23.690500131683464,-1.8550598625136647,0.0249733430092858,0.7307259350551457,8289.580078125,11.851333333333336,7.072222222222222,179.94470627961607,8.282673767564258,34.80726631650935,1525.0,1435.0,1350.0,1528.0,1475.0,1018.02,242.0,295.15,1637184725.2113974,1637184726.3290255,8c73bde6-f97e-406a-891f-7a627c8dd3f1
-0.1516131790785586,-0.0671196517553233,-0.0254382832248498,0.4101780079827328,-0.0785327206079313,-0.46966704144211,-0.4229628617499741,-0.4586089857490967,-15.261462190679795,21.737268942011266,-24.31356207268108,-1.84939127323339,0.0200221685199845,0.6854373506298592,8290.471788194445,11.848222222222224,7.102222222222222,179.92622682336167,8.285037107880823,34.81448051409271,1525.0,1435.0,1350.0,1528.0,1475.0,1018.02,242.0,295.15,1637184726.436693,1637184727.6507645,8c73bde6-f97e-406a-891f-7a627c8dd3f1
-0.1446049234488013,-0.071563911284611,-0.0486325841182502,-0.0796109139320784,-0.1523626546127156,0.0092216806996367,-0.3095290386130178,-0.3231905374300464,-14.885655036472912,20.71078117825708,-20.61494352204082,0.3243985567560858,0.0267285557980425,0.6571755856659058,8289.580078125,11.853222222222222,7.073333333333333,179.8849345352794,8.41108265205284,34.91331031574316,1525.0,1521.0,1350.0,1528.0,1475.0,1018.02,242.0,295.15,1637184728.6768754,1637184729.8107302,e7807610-71aa-48dc-a897-dfd3f47c9c45
-0.1337430038040389,-0.0827233198974994,-0.0532072348999983,-0.0814495400758094,-0.1555616231686148,0.0212061695143847,-0.3109901877606086,-0.3341236809961621,-14.932926747189615,20.808863049294605,-20.73042897734935,0.3558569985135301,-0.013829859968987,0.668246208362702,8289.580078125,11.84911111111111,7.082222222222223,179.87571226208007,8.402634372095703,34.94143096346601,1525.0,1521.0,1350.0,1528.0,1475.0,1018.02,242.0,295.15,1637184729.920297,1637184731.0438464,e7807610-71aa-48dc-a897-dfd3f47c9c45
-0.1449878793942064,-0.0999261984130018,-0.0776829861199763,-0.0774227516483353,-0.1740245856062438,0.0392582339578113,-0.3292203101705412,-0.3688581584430807,-15.02426484670982,20.68949089406239,-20.196068112184857,0.3853680910402278,-0.0844901123482494,0.7514049274345522,8289.580078125,11.84988888888889,7.091111111111111,179.8654472466675,8.430631032912368,34.96434890431608,1525.0,1521.0,1350.0,1528.0,1475.0,1018.02,242.0,295.15,1637184731.1532118,1637184732.2716124,e7807610-71aa-48dc-a897-dfd3f47c9c45
-0.1208452277734108,-0.1020162933395834,-0.1053560623971532,-0.6604283841481038,-0.2647051268671793,0.596481868304409,-0.2028536527479649,-0.2267316880270722,-14.87899043359564,19.86659258522608,-17.204366858163045,2.946358864025174,-0.0498606377093906,0.7320114650300106,8290.471788194445,11.848555555555556,7.087777777777778,179.81882589321276,8.595981469845654,35.0543852168651,1525.0,1607.0,1350.0,1528.0,1475.0,1018.02,242.0,295.15,1637184734.094003,1637184735.139454,76f14b33-0848-4496-9c38-5d4b571f455e
-0.1062501739577859,-0.087381793653505,-0.0967305171811632,-0.6663058540348481,-0.2607342201149404,0.5864494140065635,-0.1967395083357936,-0.2271392978206956,-14.66055600114805,19.840949703865626,-17.305556904278337,2.937426060597131,0.005648474455176,0.7078799428888586,8297.60546875,11.845000000000002,7.125555555555555,179.79832773660365,8.618626108265184,35.04515231892705,1525.0,1607.0,1350.0,1528.0,1475.0,1018.02,242.0,295.15,1637184735.2475383,1637184736.3686154,76f14b33-0848-4496-9c38-5d4b571f455e
-0.1204639154076241,-0.114389217208493,-0.1029629995413293,-0.6554187293102436,-0.2606290305401829,0.5976915482435164,-0.1990799765178392,-0.2212355328372107,-14.841893101259297,19.96966075278,-18.07720685439789,2.938458570423981,-0.0892565721700986,0.7151241336689018,8323.571397569445,11.845,7.108888888888889,179.79132755161424,8.633537549588185,35.09529729108356,1525.0,1607.0,1350.0,1528.0,1475.0,1018.02,242.0,295.15,1637184736.4771893,1637184737.5972805,76f14b33-0848-4496-9c38-5d4b571f455e
-0.1177061192581566,-0.1162054524355289,-0.1500204714337919,-1.2036030562581823,-0.3648587615910973,1.1272466717691634,-0.0993836955245674,-0.1392728429759755,-14.71333164626848,19.036420569466287,-14.598574908157168,5.357098694764331,-0.0633153080541946,0.7796399807700017,8362.3671875,11.842555555555556,7.029999999999999,179.73982033617332,8.830456077364145,35.149991169227306,1525.0,1693.0,1350.0,1528.0,1475.0,1018.02,242.0,295.15,1637184738.7125416,1637184739.8499005,45264383-b1b7-4069-b440-4527ae5a979e
