raw_voltage_G-,raw_voltage_G0,raw_voltage_G1,raw_voltage_G2,raw_voltage_G3,raw_voltage_G4,raw_voltage_G5,raw_voltage_G6,load_x,load_y,load_z,load_l,load_m,load_n,rpm,voltage,current,roll,pitch,yaw,aileron1_pwm,elevator_pwm,throttle_pwm,rudder_pwm,aileron2_pwm,pbaro,pdiff,Tt,sample_start_time,sample_end_time,uid
-0.0738068599291799,0.0290406012917699,0.0163849810483361,0.2870974541058426,-0.0911330072786295,-0.1674502369563835,-0.3383559161690533,-0.3530112373722481,-13.835904883657262,23.64739161982605,16.362901326406675,-0.8706835801933135,0.0279149863304037,0.5932671812131913,6706.90625,12.031777777777778,0.1611111111111111,179.39929290709335,0.8139387082805938,87.44495699175081,1525.0,1435.0,1200.0,1528.0,1475.0,1021.7000000000002,241.0,294.77,1637177620.4530656,1637177621.4711964,6d7e63b1-dfb2-4efc-86e6-fbbf9b423ec7
-0.0604801078675447,0.0417373111805761,0.0256301581650952,0.2870289712061331,-0.0824904784038293,-0.1781198570834056,-0.3337538717701735,-0.3674063228593307,-14.086473135508356,23.56782813426625,16.661118921315037,-0.8946508405346713,0.0752589107150261,0.5641549580013022,6709.824001736111,12.030333333333331,0.16,179.38128245716194,0.8256616014840262,86.93723108524836,1525.0,1435.0,1200.0,1528.0,1475.0,1021.7000000000002,241.0,294.77,1637177621.5795815,1637177622.7068777,6d7e63b1-dfb2-4efc-86e6-fbbf9b423ec7
-0.0839012240946858,0.0283968630663239,0.0211376869195897,0.2892889033666458,-0.0849284659219375,-0.1713126667680128,-0.335096134700972,-0.3610237252944805,-14.031145219903555,23.62528228170917,16.04338171874402,-0.8843654730616098,0.0297454408603531,0.573059882107336,6710.991102430556,12.032333333333334,0.16,179.38129611754024,0.8096429698954134,86.56398097876479,1525.0,1435.0,1200.0,1528.0,1475.0,1021.7000000000002,241.0,294.77,1637177622.8455384,1637177623.8359053,6d7e63b1-dfb2-4efc-86e6-fbbf9b423ec7
0.0667061373803668,0.2857825845999504,0.0236441571067638,0.1659924887958251,-0.1421663878209338,-0.3017450093077907,-0.3895399649751086,-0.4143718321376224,-13.822004218969354,23.044232188923512,17.017872437720786,-0.90280428895534,1.000310720852774,0.7569416086693156,6706.90625,12.016666666666667,0.2,179.35350028325794,0.8305550466404029,85.9576020966204,1576.0,1435.0,1200.0,1528.0,1515.0,1021.7000000000002,241.0,294.77,1637177625.4568012,1637177626.5917628,e164ee4e-6c58-453c-8eed-6ae16a2cb84b
0.0618164660145613,0.2936718018587455,0.0353273217192118,0.1652939642716254,-0.1325103132967316,-0.3102094837916451,-0.3812672418866527,-0.4066058809567394,-13.878642442541665,23.09108607063716,16.898671904625647,-0.9194045609813042,1.032184873186642,0.7168071630520304,6712.74267578125,12.018777777777778,0.1911111111111111,179.34877227453248,0.7910959054403777,85.60388784898286,1576.0,1435.0,1200.0,1528.0,1515.0,1021.7000000000002,241.0,294.77,1637177626.7003212,1637177627.9329767,e164ee4e-6c58-453c-8eed-6ae16a2cb84b
0.0677196826741555,0.2936718018550414,0.0378474884850423,0.1631299080390194,-0.129825787633947,-0.3103053598039066,-0.3766104111603813,-0.3990727717842861,-13.752238787556117,22.957837608550108,16.63047982859808,-0.9154753821803304,1.0340911457494115,0.7028309914596923,6706.90625,12.018222222222224,0.2,179.3637076215176,0.8173452117682848,85.32602361098823,1576.0,1435.0,1200.0,1528.0,1515.0,1021.7000000000002,241.0,294.77,1637177628.0423868,1637177629.2582922,e164ee4e-6c58-453c-8eed-6ae16a2cb84b
0.3021088813012301,0.7083487736579746,0.0529958823605504,-0.0374424954708393,-0.2130049950319477,-0.5302447445053193,-0.456050467505433,-0.4817315223190162,-13.401536630916643,22.16682572621393,16.628926278910665,-0.9615794821553496,2.6125551651854866,0.9575658923848754,6719.760036892361,12.004,0.2244444444444444,179.23333600627998,0.8257083515201422,84.94804473686925,1627.0,1435.0,1200.0,1528.0,1556.0,1021.7000000000002,241.0,294.77,1637177630.0842264,1637177631.210015,8c6956c5-2b37-4c1b-b354-839823c93b39
0.295233209376244,0.7088829393885088,0.0558858562302692,-0.0404420420381016,-0.210361558980897,-0.5291216262686605,-0.453105706731732,-0.4828135500001061,-13.462828658524506,22.16795040048295,16.49319542291882,-0.9521905754765309,2.616747936892553,0.9456369453473984,6723.273383246527,12.005888888888888,0.23,179.21637436984116,0.8255247249673778,84.73345613025552,1627.0,1435.0,1200.0,1528.0,1556.0,1021.7000000000002,241.0,294.77,1637177631.318197,1637177632.4379215,8c6956c5-2b37-4c1b-b354-839823c93b39
0.3022184537948949,0.705020510243569,0.057502050131364,-0.0368124538328773,-0.2084440405846563,-0.525875540974346,-0.449640476658083,-0.467185773162672,-13.31652634954969,22.17998669673447,16.910171358745654,-0.9527832711729882,2.5971861224925763,0.9361383673397996,6722.68701171875,12.007222222222222,0.22,179.24070350366475,0.8452070000647784,84.53728550819366,1627.0,1435.0,1200.0,1528.0,1556.0,1021.7000000000002,241.0,294.77,1637177632.5462496,1637177633.4870484,8c6956c5-2b37-4c1b-b354-839823c93b39
0.4915459684100562,1.0722526094953555,0.0714725398223112,-0.2183603501231426,-0.2824328589464267,-0.7106284817372323,-0.5175069413142162,-0.5387914003985441,-12.989955277291529,21.52499876122427,17.830414004651924,-0.9617555006202728,3.987289271073408,1.1591362949158428,6717.41845703125,11.991777777777775,0.26,179.1362941963723,0.8680089996394842,84.18780749566135,1678.0,1435.0,1200.0,1528.0,1596.0,1021.7000000000002,241.0,294.77,1637177635.490565,1637177636.53427,8ba2d9bc-81ca-4063-a445-7289659eae1b
0.5129125978887616,1.0984541247422277,0.087812534087472,-0.2366863476355611,-0.275707847755486,-0.7231060517069633,-0.5028516198390056,-0.5280806878955824,-12.460050215977608,21.428851543717133,17.425183565874175,-0.9480769101419628,4.088692453489078,1.1096855167295503,6722.68701171875,11.992,0.26,179.13671311464137,0.8698577456777199,84.01555543716297,1678.0,1435.0,1200.0,1528.0,1596.0,1021.7000000000002,241.0,294.77,1637177636.643171,1637177637.7601144,8ba2d9bc-81ca-4063-a445-7289659eae1b
0.4958740805408904,1.080758171909082,0.0718423469298371,-0.2193191094025309,-0.2843640739881259,-0.7209556911196809,-0.5178767485177006,-0.5528988593620507,-12.69071935627418,21.4063838098408,17.421629025445558,-0.9834818268441854,4.020834910088098,1.162491275404111,6717.41845703125,11.994555555555555,0.2522222222222222,179.13285329885042,0.8686187956083522,83.9061767877944,1678.0,1435.0,1200.0,1528.0,1596.0,1021.7000000000002,241.0,294.77,1637177637.8686993,1637177638.8762443,8ba2d9bc-81ca-4063-a445-7289659eae1b
0.734161853358662,1.4653345287753283,0.1153579565803001,-0.4095248916079745,-0.3407834946194396,-0.9185637074345202,-0.5686636023254785,-0.5894254007704913,-12.460610959639505,21.56985081310953,17.967344677633125,-0.9950225302883468,5.482944586933609,1.2980592094811234,6706.90625,11.976333333333336,0.3,179.01179199036147,0.8900551842358784,83.67357697233933,1729.0,1435.0,1200.0,1528.0,1636.0,1021.7000000000002,241.0,294.77,1637177640.4497807,1637177641.493048,c7274b7e-59bb-49fd-abdc-82c4701395ad
0.7033632268304827,1.4492366883907053,0.1029335345649219,-0.4026475740334578,-0.349737758265503,-0.9089684410097671,-0.5777307268292345,-0.6063017579795157,-12.4396705322339,21.64118861158052,17.905715790462143,-0.9891192584527246,5.421332724903697,1.3381116527464183,6706.90625,11.975111111111111,0.3,179.01081147876064,0.8876212712268756,83.52405122993932,1729.0,1435.0,1200.0,1528.0,1636.0,1021.7000000000002,241.0,294.77,1637177641.6015942,1637177642.6755142,c7274b7e-59bb-49fd-abdc-82c4701395ad
0.7068969386007212,1.449853033615739,0.0997422364722239,-0.3965799974995789,-0.3504362828746923,-0.9163234969345924,-0.5812233503666303,-0.6088767119547565,-12.456328663214606,21.44873316993846,17.71704700387456,-1.0208071931633125,5.424481839342143,1.3483149269163064,6706.90625,11.980222222222222,0.3,179.02131934534373,0.8931523192854599,83.4235943254466,1729.0,1435.0,1200.0,1528.0,1636.0,1021.7000000000002,241.0,294.77,1637177642.7845583,1637177644.1117504,c7274b7e-59bb-49fd-abdc-82c4701395ad
-0.2701744375220603,-0.3254537558580047,0.0051264097037399,0.4612902731847224,-0.0227734807212461,0.0015926974722591,-0.2778034215533755,-0.3037584049123181,-14.16557446789387,24.84126444442044,13.997466274330272,-0.876947143701147,-1.300496622815954,0.3838685706979698,6706.90625,12.025666666666666,0.18,179.54411720261467,0.8969010970705429,83.27261223493355,1474.0,1435.0,1200.0,1528.0,1435.0,1021.7000000000002,241.0,294.77,1637177645.0235918,1637177646.1607332,e4efa147-86fb-49b8-a56e-6913ffc5c121
-0.2742971021870746,-0.3289874685585925,-0.0038311398045127,0.4591536102279383,-0.0312653472837788,0.0072493763040669,-0.2830081145319279,-0.3085795944235836,-13.951742127382198,24.73552071729019,13.975315727733951,-0.8604589502057909,-1.315373912202026,0.4147706815958075,6710.991102430556,12.02422222222222,0.18,179.50712338025008,0.8885979289883511,83.33336904433054,1474.0,1435.0,1200.0,1528.0,1435.0,1021.7000000000002,241.0,294.77,1637177646.2696989,1637177647.389701,e4efa147-86fb-49b8-a56e-6913ffc5c121
-0.2700237753638378,-0.3237416857519968,0.0038663263120271,0.4573867543281391,-0.0231980740453288,0.0033321604962422,-0.277954083677922,-0.3017997969062254,-14.24185997548527,24.70637345145628,13.968846145722324,-0.8652328706821351,-1.2928832929499765,0.3865136068376588,6716.24951171875,12.026222222222223,0.18,179.5291636417918,0.9000031650345252,83.41651900837638,1474.0,1435.0,1200.0,1528.0,1435.0,1021.7000000000002,241.0,294.77,1637177647.4983666,1637177648.6180775,e4efa147-86fb-49b8-a56e-6913ffc5c121
-0.4102491657149492,-0.5875922520920787,-0.0098165360359197,0.5813542947415509,0.0209596316395628,0.1438177611082101,-0.2344401116487184,-0.2648190834621202,-14.333379710797727,25.617756846391984,13.520838244118153,-0.8239404954288525,-2.293979921275976,0.2511569253440727,6715.6650390625,12.005333333333333,0.23,179.6207792458589,0.8649092380501437,83.53054977547964,1423.0,1435.0,1200.0,1528.0,1394.0,1021.7000000000002,241.0,294.77,1637177649.528788,1637177650.571813,bb781a3f-6789-4c0e-b838-33cc3aed934b
-0.4111668353488165,-0.591440986197007,-0.0103233086569083,0.5846414684685836,0.0228497567746361,0.1453517755647149,-0.2346318634630474,-0.2570942231287549,-14.494585530230632,25.573845584220425,13.63176025736289,-0.8282882109350309,-2.308694730856724,0.2491711648066696,6717.41845703125,12.006333333333332,0.2266666666666666,179.61641247824952,0.8718877881781437,83.48929087943331,1423.0,1435.0,1200.0,1528.0,1394.0,1021.7000000000002,241.0,294.77,1637177650.6812477,1637177651.7819748,bb781a3f-6789-4c0e-b838-33cc3aed934b
-0.4205435014085134,-0.5925284933594424,-0.0069512159134869,0.583149091584756,0.0244084251200773,0.1467438936928864,-0.2313994753716584,-0.2545543323553664,-14.399540541926392,25.7120731594726,13.506155437827214,-0.8206814429124235,-2.311933156145398,0.2375373444479811,6712.158203125,12.006999999999998,0.23,179.62703569913862,0.864413960400563,83.49757362216681,1423.0,1435.0,1200.0,1528.0,1394.0,1021.7000000000002,241.0,294.77,1637177651.8909452,1637177653.0118668,bb781a3f-6789-4c0e-b838-33cc3aed934b
-0.6258193598196773,-0.9875319470476542,-0.0243485850219248,0.7676411701254245,0.0958524138982784,0.3545119109817445,-0.1623140270770857,-0.1767912913945807,-14.670048605356408,26.87310851380698,12.360070592683044,-0.7634563834144824,-3.80516209068674,0.0171196702221069,6712.158203125,11.997333333333334,0.25,179.7082603087484,0.8767930023670746,83.51722862986838,1372.0,1435.0,1200.0,1528.0,1354.0,1021.7000000000002,241.0,294.77,1637177654.0354044,1637177655.1712503,3247cfaa-8f59-4b20-a461-7515fbedc8d0
-0.6334072558207283,-0.9831764386802376,-0.0255401856574376,0.7696271709187399,0.0933322471729493,0.3478142943167408,-0.1658751325646273,-0.1969663249352149,-14.606329765592855,26.92115516176978,12.255453109064186,-0.7827121824705566,-3.788669295840544,0.0276684842278032,6712.158203125,11.994666666666667,0.25,179.6857707725413,0.8692379890163124,83.42205297942388,1372.0,1435.0,1200.0,1528.0,1354.0,1021.7000000000002,241.0,294.77,1637177655.279199,1637177656.4008665,3247cfaa-8f59-4b20-a461-7515fbedc8d0
-0.6420497872174242,-1.0025433846242269,-0.033771817582804,0.7776259603980926,0.0915516945704526,0.359771389095686,-0.1704223903923554,-0.2063347708971274,-14.88168611213895,26.90627555310247,12.257155640254638,-0.7745331583312783,-3.8608802192051246,0.0453312844161248,6697.590277777777,11.996222222222222,0.25,179.67947182030673,0.890639740521329,83.38167821342013,1372.0,1435.0,1200.0,1528.0,1354.0,1021.7000000000002,241.0,294.77,1637177656.5099802,1637177657.6263402,3247cfaa-8f59-4b20-a461-7515fbedc8d0
-0.8496623109847622,-1.394895323683274,-0.040154414136009,0.9812800729874488,0.1712245739959381,0.5568648503099055,-0.0967212035299084,-0.1148280555133409,-14.996097798088943,28.47718730258513,12.52488914063097,-0.7809505776709296,-5.359453837346547,-0.2054567568093561,6709.824001736111,11.98188888888889,0.2899999999999999,179.77973292604324,0.872737909570464,83.23571631194704,1321.0,1435.0,1200.0,1528.0,1314.0,1021.7000000000002,241.0,294.77,1637177659.5672145,1637177660.7010968,5a7fb391-2954-433b-90e9-1d6eb8c5efa9
-0.8593594793962495,-1.3939776533603323,-0.0363056810065631,0.9774998230757512,0.1741693340211258,0.5616312522343312,-0.093064222190677,-0.106486850861696,-15.097804812311288,28.559955337960293,12.863680819397416,-0.7609693893386204,-5.357584038028111,-0.2194700028412525,6706.90625,11.982222222222225,0.28,179.77755940806736,0.8827304466812745,83.09766301062294,1321.0,1435.0,1200.0,1528.0,1314.0,1021.7000000000002,241.0,294.77,1637177660.809831,1637177662.0220292,5a7fb391-2954-433b-90e9-1d6eb8c5efa9
-0.8666597489950449,-1.399319316603319,-0.0410309939048038,0.9811020177785288,0.1707178013595778,0.5622065076430601,-0.0961048583346819,-0.1090481074333644,-14.979422848812888,28.521620897519607,12.64302490847451,-0.7682673783677109,-5.377244450594667,-0.2048260035727257,6706.90625,11.98177777777778,0.29,179.78736452407583,0.8640291871483353,82.99719168684197,1321.0,1435.0,1200.0,1528.0,1314.0,1021.7000000000002,241.0,294.77,1637177662.1304293,1637177663.2510402,5a7fb391-2954-433b-90e9-1d6eb8c5efa9
-0.0904481794420426,0.0057838445429318,0.003332160504975,0.314654928215947,-0.0934340292548516,-0.1693403621920378,-0.3527920914170266,-0.3722822981801466,-14.364080292026044,23.663753483088826,16.35896748603992,-0.9379018296204484,-0.0597589468759438,0.6317936523685427,6712.158203125,12.032222222222224,0.17,179.38144031042273,0.875560277730544,82.98349260409663,1525.0,1435.0,1200.0,1528.0,1475.0,1021.7000000000002,241.0,294.77,1637177663.957803,1637177665.206777,5eabefa0-c009-4584-8d83-6bb71841d1f2
-0.088681323323448,0.0200556587499439,0.0054277339564891,0.3057932553552784,-0.095693961573824,-0.1721344604568547,-0.3526003396700852,-0.3671460888182508,-14.26059968394164,23.665465860849466,16.7976180270981,-0.9239530685822782,-0.0096271865656963,0.6340817835812855,6712.158203125,12.031222222222222,0.17,179.38870914951946,0.8757342400399515,83.2930534732996,1525.0,1435.0,1200.0,1528.0,1475.0,1021.7000000000002,241.0,294.77,1637177665.3154557,1637177666.4406526,5eabefa0-c009-4584-8d83-6bb71841d1f2
-0.0826411406840984,0.0197817276120771,0.0121253512441589,0.3029991576432615,-0.0908727726594503,-0.1772295805836747,-0.3480804744655129,-0.3811713667676786,-14.277356280117155,23.81974879482604,15.711466362670608,-0.9279250008024692,-0.0001382380219525,0.6102856307509849,6713.91162109375,12.032333333333334,0.1666666666666666,179.38850272602454,0.8925162401320514,83.4713092680784,1525.0,1435.0,1200.0,1528.0,1475.0,1021.7000000000002,241.0,294.77,1637177666.5487454,1637177667.661132,5eabefa0-c009-4584-8d83-6bb71841d1f2
-0.0789841593461031,0.00541403743725,-0.0240198675724941,-0.1724768744550582,-0.1723262121652945,0.2988901903176991,-0.2472053056823117,-0.2697772374065431,-13.989551233737489,22.69339096323897,19.411304348456884,1.2060052296556776,-0.0326236355545478,0.6268476575597314,6708.65966796875,12.025666666666666,0.18,179.41875591058826,1.0460212732726504,83.96088584413629,1525.0,1521.0,1200.0,1528.0,1475.0,1021.7000000000002,241.0,294.77,1637177669.4866266,1637177670.5376213,94ce3449-be54-4b3b-a77d-27bd25e3d742
-0.0576860097911757,0.0035102157996553,-0.022622818600884,-0.1739013165564366,-0.170271728216586,0.2984245073947374,-0.2449316766997902,-0.2752832556885105,-13.996717574358394,22.634617922383807,18.90863574625038,1.207768184826849,-0.0349953154587138,0.617975169349625,6715.6650390625,12.027333333333331,0.1766666666666666,179.40304647549723,1.0490982734937413,83.9867403868745,1525.0,1521.0,1200.0,1528.0,1475.0,1021.7000000000002,241.0,294.77,1637177670.6493657,1637177671.7610598,94ce3449-be54-4b3b-a77d-27bd25e3d742
-0.0702868442488853,0.0079615973830306,-0.0138981105456366,-0.1820644664126144,-0.1655738082422555,0.3047660135802586,-0.2350701534026109,-0.2529578618916338,-13.81380536547237,22.75223367876322,19.4304205215094,1.2418218321798464,-0.0226589479268766,0.5869256040984344,6725.034125434027,12.029222222222224,0.1777777777777777,179.39195728392477,1.0469570803367458,84.04901046262762,1525.0,1521.0,1200.0,1528.0,1475.0,1021.7000000000002,241.0,294.77,1637177671.869907,1637177673.0820014,94ce3449-be54-4b3b-a77d-27bd25e3d742
-0.0559876365176509,-0.0033380636921691,-0.0633152955213839,-0.7246537636249571,-0.270037471749476,0.8371238054751755,-0.1383313511444329,-0.1732027925487051,-13.86481651872611,21.96906357259696,22.697752552786586,3.654892170280498,-0.029978496076744,0.6576038152547327,6732.074652777777,12.016555555555556,0.2022222222222222,179.41826565478783,1.2260438814645722,84.16601160310992,1525.0,1607.0,1200.0,1528.0,1475.0,1021.7000000000002,241.0,294.77,1637177673.992502,1637177675.0462697,1734e80e-c6ab-4e0c-9e38-3db217ee4e97
-0.0531935384354735,-0.0118436267261327,-0.0618086740445319,-0.7308035208093052,-0.2670379250409497,0.8524365565925217,-0.1295929462054257,-0.1624920831366213,-13.721349708747129,21.812504247074312,22.925234563282288,3.702319960634512,-0.064061095562779,0.6384253388792525,6728.554796006944,12.017,0.1944444444444444,179.40968238373082,1.2349334556751153,84.10973084434903,1525.0,1607.0,1200.0,1528.0,1475.0,1021.7000000000002,241.0,294.77,1637177675.154075,1637177676.26643,1734e80e-c6ab-4e0c-9e38-3db217ee4e97
-0.0488380325817864,-0.0120353785426762,-0.0658217658331699,-0.7222568648464328,-0.2707222997758923,0.8430544147815361,-0.1364412258621451,-0.1727508059779394,-13.673564064445562,21.87672102798692,22.6409038454428,3.662162479087858,-0.0639040763504956,0.6583221417376656,6730.901909722223,12.019555555555556,0.1922222222222222,179.41478681177057,1.2402902212591749,84.07925378136252,1525.0,1607.0,1200.0,1528.0,1475.0,1021.7000000000002,241.0,294.77,1637177676.3750522,1637177677.706936,1734e80e-c6ab-4e0c-9e38-3db217ee4e97
-0.0320049615693626,-0.0116655714390074,-0.0823398162906851,-1.2420963728183636,-0.3500664757794077,1.3446497622235445,-0.0242390125542446,-0.0402639869354221,-13.811801349753766,21.98559840381272,26.314293064523905,5.962360014479432,-0.0311377610944633,0.6296820333603746,6696.4267578125,12.005000000000004,0.22,179.42267643917182,1.370415771817117,83.99653943160376,1525.0,1693.0,1200.0,1528.0,1475.0,1021.7000000000002,241.0,294.77,1637177678.499584,1637177679.5401351,8ec95aa2-9292-4f5f-bfc5-0decadaed7b2
-0.0341690179166808,-0.0198698102047763,-0.0939408019912914,-1.2274547392111357,-0.3570106321653239,1.339486159530347,-0.0363604672887057,-0.0643151449069432,-13.880844658690677,21.91294427091137,26.26407705598483,5.91662672754773,-0.0635142811023254,0.6712583898729294,6693.522569444444,12.005111111111113,0.2255555555555556,179.3992504081385,1.3907393791474436,83.82977960410797,1525.0,1693.0,1200.0,1528.0,1475.0,1021.7000000000002,241.0,294.77,1637177679.647822,1637177680.779914,8ec95aa2-9292-4f5f-bfc5-0decadaed7b2
-0.0424006498610449,-0.0198424171079274,-0.093324456787906,-1.2233457680285118,-0.3575858877012112,1.3343773430093246,-0.0389628134624399,-0.06038423227936,-13.899518462587464,22.10865463312029,26.06973313647608,5.897165400451485,-0.0620204166674547,0.674578804056219,6691.19921875,12.005333333333333,0.22,179.38147522027853,1.4099971330861965,83.68401198357131,1525.0,1693.0,1200.0,1528.0,1475.0,1021.7000000000002,241.0,294.77,1637177680.9180229,1637177682.0017807,8ec95aa2-9292-4f5f-bfc5-0decadaed7b2
-0.0171168019747073,-0.0325391272640466,-0.1035968763159606,-1.6700869025163954,-0.4265069840188784,1.77954294345127,0.0589949750174116,0.0354505901793737,-14.02737078210213,22.99652726136662,29.430040819834943,7.911096103223045,-0.0841509774184402,0.6418154856163419,6690.039388020833,11.994111111111112,0.2522222222222222,179.38548074677178,1.536904028145574,83.39223996260668,1525.0,1780.0,1200.0,1528.0,1475.0,1021.7000000000002,241.0,294.77,1637177683.9573543,1637177685.0726357,85957b51-e7ac-4266-a2f5-6611a8a13ed6
-0.0184179750652498,-0.0206779072113786,-0.106473153791543,-1.668498100213542,-0.430259841869866,1.7664353338529593,0.0489006113146538,0.0354642868789015,-14.346806320565031,23.06040862137685,29.377851036401264,7.878168748333297,-0.0373176205498919,0.6663458430480975,6685.97998046875,11.991333333333335,0.2666666666666667,179.38351668793044,1.5646398492553435,83.17383403915683,1525.0,1780.0,1200.0,1528.0,1475.0,1021.7000000000002,241.0,294.77,1637177685.1813056,1637177686.3022518,85957b51-e7ac-4266-a2f5-6611a8a13ed6
-0.0213490387487273,-0.0306490021656924,-0.1061307397933346,-1.6548015230941553,-0.4260139077668523,1.7636138421409904,0.0498045842248211,0.0200282649820059,-14.364021846207844,23.03133980067105,29.386063201585383,7.840749349839739,-0.0763313535288614,0.6577339775581807,6680.7685546875,11.992,0.26,179.37766549254144,1.5327853766441872,83.00541751133238,1525.0,1780.0,1200.0,1528.0,1475.0,1021.7000000000002,241.0,294.77,1637177686.4101217,1637177687.5268557,85957b51-e7ac-4266-a2f5-6611a8a13ed6
-0.120457341030005,0.0178368162928493,0.0607070448190757,0.956448214055382,0.0193571342919842,-0.8016558495899045,-0.4794168020259632,-0.4959348572505457,-14.323293008502644,25.710789773477003,11.874214944487075,-3.7907949976838338,-0.0504399206932458,0.5801950828514272,6680.7685546875,12.032,0.17,179.3705894165613,0.7631371960480835,82.63340442799847,1525.0,1349.0,1200.0,1528.0,1475.0,1021.7000000000002,241.0,294.77,1637177689.4654543,1637177690.489891,afb28b5c-ab7b-4990-9afd-b07d037cd2d6
-0.125977054496543,0.0198776035304691,0.0567213462997711,0.9533527920294816,0.0154125253637773,-0.7990945919157298,-0.4839914538381875,-0.4972360299383818,-14.461684538958911,25.71658914467393,12.08495734879267,-3.778253081655634,-0.0435454921182273,0.5979319254770562,6700.514322916667,12.032444444444444,0.1655555555555555,179.38795023961163,0.6992740498188833,83.0409580212236,1525.0,1349.0,1200.0,1528.0,1475.0,1021.7000000000002,241.0,294.77,1637177690.598071,1637177691.718991,afb28b5c-ab7b-4990-9afd-b07d037cd2d6
-0.117827601629274,0.0034280364181571,0.053310903208487,0.9565714831375216,0.0145496421404526,-0.7862609107528784,-0.4819780592022417,-0.5168358104693929,-14.3339915522695,25.75913115790585,12.03290792096549,-3.7565064857915473,-0.1062956090356569,0.5989256180853278,6726.792588975694,12.03077777777778,0.1688888888888889,179.40093063467435,0.7161669811951596,83.37778045213378,1525.0,1349.0,1200.0,1528.0,1475.0,1021.7000000000002,241.0,294.77,1637177691.8267052,1637177692.950244,afb28b5c-ab7b-4990-9afd-b07d037cd2d6
-0.1402351730575871,0.0219594804168239,0.0908531700796356,1.4662341189090515,0.0937568404672561,-1.291527296508442,-0.6017955879716609,-0.6230389588452289,-15.010396848105026,27.906721677858418,9.166536918727328,-6.026272967136926,-0.0669334007394109,0.6117768145285171,6736.189832899306,12.012444444444444,0.21,179.44061555157194,0.5436214320769098,83.90616616305569,1525.0,1262.0,1200.0,1528.0,1475.0,1021.7000000000002,241.0,294.77,1637177694.063167,1637177695.2027786,5d9f4229-bd0f-456a-ae98-35c0f5b5de1e
-0.1348113353910555,0.0170013261862178,0.0881549480648122,1.442415801899697,0.089305458996074,-1.270366094417415,-0.5958375829279791,-0.6228335096312742,-14.827347391598034,27.773809423011347,8.379863954833555,-5.926041335519538,-0.0770935724220961,0.6112990502245877,6738.54248046875,12.01311111111111,0.2088888888888888,179.43325412546648,0.5245204226790317,84.08350671248571,1525.0,1262.0,1200.0,1528.0,1475.0,1021.7000000000002,241.0,294.77,1637177695.31927,1637177696.541777,5d9f4229-bd0f-456a-ae98-35c0f5b5de1e
-0.1371397505454594,0.0218362113916139,0.097578180219902,1.4237336948353805,0.0966194211566704,-1.2568749722450676,-0.5799632665858112,-0.6148484133117537,-14.665037078243406,27.531578765428623,8.624906805575455,-5.8545985243600285,-0.059386972569293,0.5668703725103655,6672.126519097223,12.012222222222222,0.21,179.4211859401129,0.529884569847741,84.2600238446658,1525.0,1262.0,1200.0,1528.0,1475.0,1021.7000000000002,241.0,294.77,1637177696.650327,1637177697.8700826,5d9f4229-bd0f-456a-ae98-35c0f5b5de1e
-0.1661627603937029,0.0259451790032374,0.1322441693901203,1.9431072926275348,0.1720189744115457,-1.7561288033747977,-0.7101354054580314,-0.7422949399550829,-15.819359158607904,30.513412740695788,5.817109199112792,-8.127603696738488,-0.0726181962549035,0.6013171912177263,6643.944715711806,12.004111111111111,0.2288888888888889,179.42421854410446,0.392263277988631,84.45043509943751,1525.0,1176.0,1200.0,1528.0,1475.0,1021.7000000000002,241.0,294.77,1637177698.4477642,1637177699.6149738,6eae7aa3-5e91-4a02-b325-2b3a8fe68bba
-0.1483298397969115,0.0545983797052133,0.1480499975857788,1.9287122048711345,0.1807025922382737,-1.773578244559572,-0.6970688834275086,-0.7344605043646361,-15.470591439510498,30.24972915531937,5.555881013500433,-8.135170175927781,0.0374653707568034,0.5526652686131912,6630.240288628473,12.003444444444446,0.23,179.42646339961163,0.3660633363786314,84.62969569093421,1525.0,1176.0,1200.0,1528.0,1475.0,1021.7000000000002,241.0,294.77,1637177699.7235043,1637177700.8389895,6eae7aa3-5e91-4a02-b325-2b3a8fe68bba
-0.1508637032944313,0.0440520296011846,0.1485978599328608,1.9378889020216297,0.1842773938970672,-1.7710854671495992,-0.6944665362865154,-0.7186683664516093,-15.440423625171467,30.241955174516345,5.6545234987566255,-8.150262297593407,-0.004272888619403,0.5423120418752088,6636.516655815973,12.00422222222222,0.23,179.44217738816212,0.3771951751305279,84.73059124535364,1525.0,1176.0,1200.0,1528.0,1475.0,1021.7000000000002,241.0,294.77,1637177700.947582,1637177702.0711038,6eae7aa3-5e91-4a02-b325-2b3a8fe68bba
-0.1618620407172483,0.0506263776737954,0.1661157577738267,2.203095480557652,0.2145330905297934,-2.029416683003978,-0.770537254477151,-0.8059565720637419,-16.05220756959059,32.58716260506649,4.313661816156291,-9.3131108575619,0.0050967016559357,0.5853716941034656,6654.833984375,11.974666666666668,0.3066666666666666,179.4275805149959,0.26902855824552,84.91643841593996,1525.0,1090.0,1200.0,1528.0,1475.0,1021.7000000000002,241.0,294.77,1637177702.9823723,1637177704.119808,4dabec7b-3a2d-4e1e-8da0-08e218cb862d
-0.1673680577211121,0.0469420033301896,0.1671840892421865,2.2584159114530613,0.2203952172928327,-2.073464897276591,-0.7852199720894438,-0.8008066645060395,-16.190092370935808,32.96681146847192,4.723874693523544,-9.534316498396995,-0.0181186978730745,0.5972016465597817,6673.262369791667,11.97977777777778,0.2911111111111111,179.4419512330096,0.2339217120057554,84.93048204378341,1525.0,1090.0,1200.0,1528.0,1475.0,1021.7000000000002,241.0,294.77,1637177704.2286034,1637177705.4410448,4dabec7b-3a2d-4e1e-8da0-08e218cb862d
-0.1738191372669927,0.0435452569079158,0.1643625983038409,2.254457603298273,0.2159575325149718,-2.07278006725104,-0.7877675331104994,-0.8145443195205795,-16.073024841970568,33.09408667854848,3.807658982033786,-9.523232510420264,-0.023256097136283,0.6090107975289797,6736.783528645833,11.979555555555557,0.29,179.44293933370955,0.263789275472575,84.96220371901869,1525.0,1090.0,1200.0,1528.0,1475.0,1021.7000000000002,241.0,294.77,1637177705.549446,1637177706.5762837,4dabec7b-3a2d-4e1e-8da0-08e218cb862d
-0.0966938104387215,0.0127964826353452,0.0201378380950008,0.3119704029187835,-0.0867638048907149,-0.170422390450487,-0.3447111204451132,-0.3692142689622091,-14.306636689731,24.536076700178054,16.9151970531632,-0.9275405318330666,-0.03738300379728,0.5895866549341661,6782.384548611111,12.032777777777778,0.16,179.4511795774882,0.8297616834086072,85.0205737567557,1525.0,1435.0,1200.0,1528.0,1475.0,1021.7000000000002,241.0,294.77,1637177708.448457,1637177709.536793,a84d6452-91ee-440d-a2df-e063febf0648
-0.0851613075807135,0.0193708308206319,0.0261780205151068,0.3168874670907366,-0.0806140497706191,-0.1832697635849664,-0.339903627591808,-0.3691046964594692,-14.163359707187093,24.3460002914178,16.69167136346174,-0.9684247747835378,-0.0119838817031716,0.5668337418751886,6802.123752170139,12.032444444444444,0.16,179.47348697531746,0.8266755584816722,85.08302597088667,1525.0,1435.0,1200.0,1528.0,1475.0,1021.7000000000002,241.0,294.77,1637177709.644806,1637177710.7657502,a84d6452-91ee-440d-a2df-e063febf0648
-0.0884073921708205,0.0121801375042128,0.0133443449431159,0.3154082389192614,-0.0916945662510476,-0.1748189861225701,-0.3529290571105221,-0.3889510134490551,-14.44117411719627,24.483086611358384,16.598116397814618,-0.9459830006030836,-0.0367870131996247,0.6166994139157117,6786.560546875,12.03,0.16,179.4848858021323,0.8244710674951814,85.1186370593993,1525.0,1435.0,1200.0,1528.0,1475.0,1021.7000000000002,241.0,294.77,1637177710.874458,1637177711.9958105,a84d6452-91ee-440d-a2df-e063febf0648
-0.0147883869606423,0.0493252046740472,0.2609507253011774,0.2777837948400457,0.1310799619670815,-0.1894195188946056,-0.090927558937634,-0.1247169713516331,-12.563929004949395,24.118195446958083,16.72758870373086,-0.8830449863806451,0.1084184937493285,-0.391466774813975,6675.56591796875,12.029,0.17,179.4819898019242,0.8377001300612912,85.122762493658,1525.0,1435.0,1200.0,1439.0,1475.0,1021.7000000000002,241.0,294.77,1637177714.042733,1637177715.0660696,f3c04580-23f7-4fe4-b7c3-87aa613f3fbb
-0.0146925110419625,0.046092816838727,0.2557186402003923,0.2818516724331703,0.1266833667335832,-0.1927614795019373,-0.0980223767412391,-0.1237171229568541,-12.650215015118745,24.209836340939063,16.28693171789538,-0.8994976551062366,0.0999803420807052,-0.3693199489642776,6674.411512586806,12.027666666666669,0.17,179.46450755328863,0.824464842062344,85.13540745054141,1525.0,1435.0,1200.0,1439.0,1475.0,1021.7000000000002,241.0,294.77,1637177715.1750023,1637177716.3917744,f3c04580-23f7-4fe4-b7c3-87aa613f3fbb
-0.0093371565480803,0.0539546414797469,0.2591153865664589,0.2785234089231263,0.1284639193243228,-0.1958295088929987,-0.095447423484871,-0.1290998705727905,-12.606237169774312,24.14532809372922,16.533559161800145,-0.8990812262535771,0.1275938693080705,-0.3787142744673956,6670.37109375,12.032555555555554,0.17,179.44260541335012,0.8280778876246242,85.16311145672489,1525.0,1435.0,1200.0,1439.0,1475.0,1021.7000000000002,241.0,294.77,1637177716.4999144,1637177717.644025,f3c04580-23f7-4fe4-b7c3-87aa613f3fbb
0.0736502925430865,0.0875522995043408,0.5382101392639299,0.2630052089040668,0.380371011686374,-0.2297695847621292,0.1899477688846411,0.177031914367177,-10.67034709822734,24.29114414920022,16.518386833267837,-0.924508104397756,0.259644446650455,-1.50339782999646,6682.505696614583,12.025666666666666,0.18,179.42556333246102,0.8358448621410354,85.10746286991717,1525.0,1435.0,1200.0,1351.0,1475.0,1021.7000000000002,241.0,294.77,1637177718.5471785,1637177719.6844423,a8ddd78c-514d-4274-9c88-bcc3a7e6332d
0.0613096933689203,0.0716779882445969,0.5393606500793294,0.277852277605052,0.3843156202482534,-0.227619224754663,0.1916872317692183,0.1660198816812941,-10.637450214852915,24.496033124411824,16.564954683815692,-0.9517278036106176,0.1977089812784513,-1.514601444484317,6701.66259765625,12.026000000000002,0.18,179.4227993825769,0.8234903661668537,85.10345810233382,1525.0,1435.0,1200.0,1351.0,1475.0,1021.7000000000002,241.0,294.77,1637177719.7928612,1637177720.8010075,a8ddd78c-514d-4274-9c88-bcc3a7e6332d
0.0749514656485067,0.0917023567286992,0.5464143770965997,0.2681277215176056,0.3889176635945532,-0.2372479065570751,0.1957003233047813,0.1695946831471141,-10.755715430235758,24.26330275266952,16.75828835327361,-0.9526488036916886,0.2735766012183008,-1.5335752114460712,6712.158203125,12.026000000000002,0.1733333333333333,179.43334064119597,0.8300404642200431,85.10771331018674,1525.0,1435.0,1200.0,1351.0,1475.0,1021.7000000000002,241.0,294.77,1637177720.9094765,1637177722.138076,a8ddd78c-514d-4274-9c88-bcc3a7e6332d
0.1731283955001514,0.1379282410900339,0.8311658029952881,0.2600330558523822,0.6407699601520181,-0.2923628653979258,0.4772878522013226,0.452565565895036,-8.679815573934201,24.77890087693029,16.465788288671508,-1.039644881629936,0.4539085773180495,-2.6593253924764184,6715.6650390625,12.020333333333332,0.1866666666666666,179.41661578464831,0.8254975524352892,85.05076319288716,1525.0,1435.0,1200.0,1262.0,1475.0,1021.7000000000002,241.0,294.77,1637177723.053356,1637177724.169819,e533047e-c0b4-4c9c-9f13-5f2968b3145b
0.1734571129229552,0.1405305871438007,0.840013779038141,0.2589510277249131,0.6491796463084079,-0.2937599145364233,0.4855742694329081,0.4686727174780103,-8.735833964921246,24.76561581682969,16.5543996763164,-1.040005018420594,0.4639739911570502,-2.6942418940753736,6712.158203125,12.019666666666666,0.1977777777777777,179.42284188153172,0.8211995551073366,85.03452783323004,1525.0,1435.0,1200.0,1262.0,1475.0,1021.7000000000002,241.0,294.77,1637177724.2783077,1637177725.420287,e533047e-c0b4-4c9c-9f13-5f2968b3145b
0.1743473891918263,0.1363668334559536,0.8412738623256651,0.2625395259267115,0.6514943644835092,-0.2932120521795098,0.4895873607180847,0.4533325732192699,-8.533116766268117,24.661649939121205,16.542543357286235,-1.0473949772296085,0.4466639814761563,-2.705130681139796,6712.158203125,12.024,0.18,179.40392529317043,0.8376191994344069,85.02265696445255,1525.0,1435.0,1200.0,1262.0,1475.0,1021.7000000000002,241.0,294.77,1637177725.528325,1637177726.6535816,e533047e-c0b4-4c9c-9f13-5f2968b3145b
0.2412139853688318,0.167512806759506,1.057350754575128,0.2419262063017565,0.8418217246236397,-0.3155237494318525,0.7065271315488465,0.6952000787006116,-7.174990519268554,25.159000361571547,16.664550866215276,-1.03627446372621,0.5690309831359821,-3.563270369229804,6712.158203125,12.006555555555556,0.2222222222222222,179.4105262915483,0.8168062612251048,84.89186946658555,1525.0,1435.0,1200.0,1173.0,1475.0,1021.7000000000002,241.0,294.77,1637177728.4703386,1637177729.6148877,43f1030e-2a6a-4d96-a230-47fe06bda70e
0.2505139481567772,0.1714985051874118,1.0598983143171603,0.2456790631944642,0.8451225949432578,-0.322878802614494,0.705390317294759,0.6941317472474092,-7.408138476471879,25.17099487507387,16.671934249144474,-1.0611775952285147,0.5852641488275476,-3.569262676828488,6712.158203125,12.011666666666663,0.2177777777777777,179.38236162705076,0.8306837411596081,84.83651154227249,1525.0,1435.0,1200.0,1173.0,1475.0,1021.7000000000002,241.0,294.77,1637177729.728305,1637177730.9498737,43f1030e-2a6a-4d96-a230-47fe06bda70e
0.2535134943319164,0.1830173105637675,1.066075461875693,0.2360229899607925,0.8486836998560578,-0.3237142927522421,0.7142109001714272,0.6911185046367828,-7.126411417818969,24.90643396535616,16.95284365994233,-1.0425329503767864,0.625558965208986,-3.5930808846733826,6705.158365885417,12.011666666666663,0.22,179.366691655275,0.8223309237682931,84.8032257537173,1525.0,1435.0,1200.0,1173.0,1475.0,1021.7000000000002,241.0,294.77,1637177731.0583746,1637177732.178477,43f1030e-2a6a-4d96-a230-47fe06bda70e
-0.1993906145538526,-0.0552343256055499,-0.3162907567532123,0.3512384337065962,-0.3903754550471972,-0.1285246145202594,-0.6922066031904889,-0.710820234221981,-16.56399501178539,25.16356020300583,15.907585363566918,-0.935858841573431,-0.2937843051541837,1.9453206992926813,6701.66259765625,12.029,0.17,179.47014625390344,0.8354064137997833,84.97846108706314,1525.0,1435.0,1200.0,1617.0,1475.0,1021.7000000000002,241.0,294.77,1637177733.945733,1637177735.0523837,b9329722-5ee7-45c8-962b-c1f651774c8f
-0.1968704475404417,-0.0342511971444115,-0.3030050929041253,0.3438970788394838,-0.3814452971205011,-0.1428512157966984,-0.6822492013539668,-0.7051087678207105,-16.43631699297292,24.99052089664922,15.923545925916187,-0.9519110766609596,-0.2143867639520773,1.9035278693707087,6712.158203125,12.031666666666666,0.17,179.4570596114537,0.8343512207208202,84.9649562852542,1525.0,1435.0,1200.0,1617.0,1475.0,1021.7000000000002,241.0,294.77,1637177735.186958,1637177736.1612513,b9329722-5ee7-45c8-962b-c1f651774c8f
-0.1896934502156264,-0.0406337936260408,-0.3038953693935682,0.3442394927711367,-0.3798154064105195,-0.1344278317079548,-0.6795783713785596,-0.7167371501004159,-16.479886263077937,24.88140584015891,16.284971795240804,-0.9344869948484266,-0.2413207649083562,1.8984735319643529,6712.158203125,12.028444444444444,0.17,179.4702676794887,0.8303131381783146,84.9507995798345,1525.0,1435.0,1200.0,1617.0,1475.0,1021.7000000000002,241.0,294.77,1637177736.2703507,1637177737.3908155,b9329722-5ee7-45c8-962b-c1f651774c8f
-0.3091411521890524,-0.1074319128876734,-0.6288052104314882,0.4350887588297673,-0.6696209695247223,-0.1354961633153014,-1.0299502161928158,-1.0519195123503426,-18.65952827812232,25.860882599813223,16.121432933888148,-1.1526298810867277,-0.5067443431811194,3.2254989831900285,6718.589246961806,12.023333333333332,0.1977777777777777,179.49223053221982,0.7975023975804706,85.00883949176163,1525.0,1435.0,1200.0,1706.0,1475.0,1021.7000000000002,241.0,294.77,1637177737.9571412,1637177739.0288315,5df442e1-cdf4-4be0-9e28-f9015a3aeb2d
-0.3127159545169518,-0.0976388729726125,-0.6228609019636973,0.4247067682906861,-0.6645121512252287,-0.1349893906575217,-1.0225677662208807,-1.0414142443348966,-18.69162842940634,25.607413631137792,16.25294680843282,-1.129451352073108,-0.4693021125105759,3.2012878027081726,6722.68701171875,12.021,0.19,179.487859211151,0.798898163338517,84.94645482061246,1525.0,1435.0,1200.0,1706.0,1475.0,1021.7000000000002,241.0,294.77,1637177739.1371396,1637177740.1681898,5df442e1-cdf4-4be0-9e28-f9015a3aeb2d
-0.2967731580515524,-0.0945297540224383,-0.6175603320377324,0.427295417647072,-0.659786836881401,-0.1410021803128872,-1.0200886876013089,-1.045797147283375,-18.77576843579005,25.67419183094189,16.19974706086134,-1.1481464725294346,-0.4565555535771201,3.1843344332764896,6717.41845703125,12.023777777777775,0.19,179.50039184936807,0.813901343825603,84.8907356551833,1525.0,1435.0,1200.0,1706.0,1475.0,1021.7000000000002,241.0,294.77,1637177740.2810676,1637177741.3940237,5df442e1-cdf4-4be0-9e28-f9015a3aeb2d
-0.4055786383155304,-0.1454261689424545,-0.9054621200272652,0.5298004530703174,-0.9167070008528428,-0.1749422551161492,-1.340643201490915,-1.371830298737421,-20.6615764609846,26.64464429714337,15.360206298480904,-1.4646260340731352,-0.6575154838783557,4.374951260599482,6712.74267578125,12.007222222222222,0.23,179.5090874390914,0.773841205268453,84.87853617841576,1525.0,1435.0,1200.0,1795.0,1475.0,1021.7000000000002,241.0,294.77,1637177742.967211,1637177744.0565622,18a478b4-7961-46f9-bf60-9a9f405a520e
-0.3998737465001715,-0.1401606635909481,-0.9027852636170308,0.5256498483270606,-0.9142509331182088,-0.1772925847577804,-1.3389935870273657,-1.3587692459522032,-20.79089973373935,26.567454405498925,15.23453918148891,-1.4610083328488894,-0.635058116973627,4.365973190803079,6714.49609375,12.009666666666666,0.22,179.538082351028,0.7781485822485471,84.76516642184217,1525.0,1435.0,1200.0,1795.0,1475.0,1021.7000000000002,241.0,294.77,1637177744.1648118,1637177745.1797855,18a478b4-7961-46f9-bf60-9a9f405a520e
-0.3896632339767862,-0.1340306314032453,-0.8935050178215967,0.5218153601424526,-0.9093382482832064,-0.1766543250877975,-1.331425408868656,-1.352531828450265,-20.66317937051468,26.777277635841187,15.738528971272627,-1.4489267443661984,-0.6163736072349179,4.337278615888516,6717.41845703125,12.008111111111113,0.2277777777777778,179.53115350356998,0.7622125117573236,84.6829119714875,1525.0,1435.0,1200.0,1795.0,1475.0,1021.7000000000002,241.0,294.77,1637177745.2951152,1637177746.514037,18a478b4-7961-46f9-bf60-9a9f405a520e
-0.4881004223848444,-0.1793799404915742,-1.0922148149641098,0.6241286430821635,-1.081298649965779,-0.2196615234205487,-1.5608430128824529,-1.5789498881779107,-22.30347443708928,27.69241284412112,15.051129703602834,-1.78112649842591,-0.7939376573440304,5.161917630829364,6718.003851996527,11.961222222222222,0.3411111111111111,179.51722902458206,0.7655855046293993,84.57070107034309,1525.0,1435.0,1200.0,1883.0,1475.0,1021.7000000000002,241.0,294.77,1637177748.4488554,1637177749.5870771,35fac4c7-ae83-40b1-88f1-52ed8bbf3fbd
-0.469610063874039,-0.1709565561939209,-1.096323785080591,0.6175953852635256,-1.0880099680957491,-0.2199628476091299,-1.56522591661147,-1.5871541363957011,-22.179934652955435,27.65812389173242,15.293264467888386,-1.7673973055544203,-0.7648219478202991,5.184303911400312,6710.410319010417,11.964,0.33,179.51008920016966,0.7673791170486314,84.2411285057819,1525.0,1435.0,1200.0,1883.0,1475.0,1021.7000000000002,241.0,294.77,1637177749.6952202,1637177750.815504,35fac4c7-ae83-40b1-88f1-52ed8bbf3fbd
-0.4672542553129514,-0.169723865858636,-1.0912286622111942,0.6206634140944619,-1.086023966143949,-0.2298654606336318,-1.564431515776206,-1.591386376910809,-22.075098614285768,27.93495203763248,14.478126342683709,-1.7945588562212276,-0.7537661062375803,5.172508709016314,6716.833984375,11.962222222222222,0.3299999999999999,179.49710425164756,0.7598398629364232,84.0016362705444,1525.0,1435.0,1200.0,1883.0,1475.0,1021.7000000000002,241.0,294.77,1637177750.9242404,1637177752.0437863,35fac4c7-ae83-40b1-88f1-52ed8bbf3fbd
-0.1013232475284361,-0.0178701126339349,-0.0213764317274036,0.3054782345579801,-0.1002001296157667,-0.1354139839579381,-0.348518764366608,-0.3663516872064876,-14.046150316933575,21.92151615728414,16.626269835623898,-0.8535415324846584,-0.153561084751998,0.6669773451608983,8354.216796875,11.83222222222222,6.678888888888888,179.398069544322,0.5888951394048951,71.54393813014225,1525.0,1435.0,1350.0,1528.0,1475.0,1021.7000000000002,241.0,294.77,1637177756.1854477,1637177757.1639268,98e55c09-7990-465e-bc15-ece4953d9d7f
-0.0957761409704661,-0.0131721928991806,-0.0280055662275376,0.3032456956540917,-0.1070073195628853,-0.1448920031698139,-0.3599690893333135,-0.3953336108053706,-14.316975477588846,21.97742034682492,15.57281840335734,-0.8700675901390689,-0.124831912415055,0.7004387816284933,8354.216796875,11.833,6.682222222222222,179.38486451192662,0.5239307259647525,66.70157989541333,1525.0,1435.0,1350.0,1528.0,1475.0,1021.7000000000002,241.0,294.77,1637177757.272441,1637177758.3926418,98e55c09-7990-465e-bc15-ece4953d9d7f
-0.1086235137094076,-0.0100082878289278,-0.0226913013457465,0.3061630624361464,-0.0998577155661597,-0.1424129258623894,-0.3503404069149261,-0.3791031862729313,-14.12478552634269,21.63066122229164,16.807770320157875,-0.872818128335807,-0.125299140719114,0.6721745651672218,8350.601345486111,11.830555555555556,6.71,179.39198612250124,0.4938894907087248,62.07309461525512,1525.0,1435.0,1350.0,1528.0,1475.0,1021.7000000000002,241.0,294.77,1637177758.500846,1637177759.8270872,98e55c09-7990-465e-bc15-ece4953d9d7f
0.0635696255167717,0.2904942004732478,-0.009433032336091,0.1540353935033344,-0.1572052102561022,-0.2984715313802819,-0.4069072045925727,-0.4318349477887411,-14.241775102488075,21.09911044143902,16.406066804258064,-0.8833263670984973,1.02571786696848,0.8473472528259541,8339.767144097223,11.817,6.757777777777778,179.29186769182738,0.5291080923613934,54.75147561118968,1576.0,1435.0,1350.0,1528.0,1515.0,1021.7000000000002,241.0,294.77,1637177761.4577496,1637177762.5073192,f2f83464-e3ec-43bf-91bd-89328011d2c2
0.0592826026634328,0.2967672239165773,-0.0131721929243276,0.159664678890027,-0.1599993084216935,-0.2992385387912921,-0.4064963077764106,-0.4379573106673586,-13.829196619157376,20.72331651196684,17.89630644403446,-0.8999803580922845,1.032180931855632,0.8590177785552132,8346.08203125,11.817666666666668,6.76,179.30181851853817,0.5611506975528917,52.44412652925788,1576.0,1435.0,1350.0,1528.0,1515.0,1021.7000000000002,241.0,294.77,1637177762.6179066,1637177763.7633755,f2f83464-e3ec-43bf-91bd-89328011d2c2
0.0743488169938812,0.3089160705695324,-0.0056527821184147,0.1400375110351518,-0.1589994595704209,-0.3014299884688823,-0.4027023602601345,-0.4162893498272113,-13.914892235418971,20.941218615640462,16.749781429974863,-0.8590377400066088,1.0914115585074302,0.8415358770998501,8347.889756944445,11.818,6.767777777777777,179.30028552052443,0.6082432747704777,50.48919851248076,1576.0,1435.0,1350.0,1528.0,1515.0,1021.7000000000002,241.0,294.77,1637177763.8713272,1637177765.039301,f2f83464-e3ec-43bf-91bd-89328011d2c2
0.2891930274172982,0.7038699994332337,-0.001899924958426,-0.0504953161971299,-0.248232547684822,-0.5041801862957797,-0.4819232728764362,-0.520054503938053,-13.046752340418315,19.84933568662856,17.71605708064507,-0.8913094559279017,2.5816984269513705,1.1192896545432829,8354.216796875,11.803,6.860000000000001,179.17668034602468,0.6827112916843601,48.18808425489632,1627.0,1435.0,1350.0,1528.0,1556.0,1021.7000000000002,241.0,294.77,1637177765.9499056,1637177766.9950266,76dbca9f-5471-4531-a8dd-0594aa46e507
0.2898230690247544,0.7080063597245237,0.0023597048293388,-0.0599048523578153,-0.2468491951211938,-0.5049334972905083,-0.4794989814085206,-0.4920176398245025,-13.12271779207218,19.97802829465352,16.97840391072901,-0.8708672433697976,2.6057184948158096,1.1074191188269262,8354.216796875,11.806666666666668,6.812222222222222,179.16894250060494,0.7084103527552253,46.95888774309517,1627.0,1435.0,1350.0,1528.0,1556.0,1021.7000000000002,241.0,294.77,1637177767.103632,1637177768.2286654,76dbca9f-5471-4531-a8dd-0594aa46e507
0.2992599973208438,0.7099786639709235,0.0128512688759877,-0.0696568025396877,-0.2390010661539422,-0.5001123073670788,-0.4694320084412214,-0.4949350080779138,-13.224645037265915,20.12485108240898,16.739993341986352,-0.8366289712652527,2.617818550763076,1.067780649227556,8361.461588541666,11.80488888888889,6.858888888888889,179.19727716092177,0.754374715531159,45.95629717629743,1627.0,1435.0,1350.0,1528.0,1556.0,1021.7000000000002,241.0,294.77,1637177768.3369048,1637177769.4531455,76dbca9f-5471-4531-a8dd-0594aa46e507
0.4996680269183962,1.0755414269723902,0.0187150396002256,-0.2307551890646116,-0.3168528636106246,-0.6962059998538405,-0.5492561208543247,-0.57079369246561,-13.046386729014362,19.430107344528714,18.41603947183208,-0.9178358518716552,3.992979358192339,1.325071492214994,8378.7158203125,11.793555555555557,6.85,179.09410639459887,0.8410091076968489,43.98708230105142,1678.0,1435.0,1350.0,1528.0,1596.0,1021.7000000000002,241.0,294.77,1637177771.592096,1637177772.7288945,af996e2c-3a45-440f-a8b5-ea9f471d36f2
0.5087351478843811,1.090578603937196,0.0391486615602906,-0.2214009863606973,-0.297293627147017,-0.7106832680120384,-0.5298886336721709,-0.5527345011949812,-12.773538706562036,19.131944769171216,19.831535129368547,-0.9720651108110816,4.035039884269747,1.247213784950901,8378.7158203125,11.792444444444444,6.858888888888889,179.08295800805354,0.8814921250841741,43.4749239812326,1678.0,1435.0,1350.0,1528.0,1596.0,1021.7000000000002,241.0,294.77,1637177772.8371685,1637177773.9571934,af996e2c-3a45-440f-a8b5-ea9f471d36f2
0.4969424119920127,1.078402363963355,0.0201652312315288,-0.2431374273835151,-0.3167701363716957,-0.6870156054805641,-0.5420374845790336,-0.5786073074918346,-12.78417600105638,19.196107438798435,18.534852731919187,-0.8705805866742454,4.002413193841044,1.3133888327855243,8382.359483506945,11.796,6.863333333333333,179.0845608257788,0.8918969577893365,42.98570826683586,1678.0,1435.0,1350.0,1528.0,1596.0,1021.7000000000002,241.0,294.77,1637177774.064883,1637177775.1947174,af996e2c-3a45-440f-a8b5-ea9f471d36f2
0.703061902562046,1.453414139074155,0.0449286093423092,-0.4107148487144987,-0.388074432803926,-0.9022571235499828,-0.6174507594804916,-0.6355713136315478,-12.635080227342716,19.529332708942352,18.035744030931244,-0.9728058797870516,5.4345115651406415,1.5272957715500126,8386.9140625,11.76988888888889,6.953333333333333,178.96965579446177,0.9412994966836437,42.07992235059966,1729.0,1435.0,1350.0,1528.0,1636.0,1021.7000000000002,241.0,294.77,1637177777.0089118,1637177778.0539129,9283b5c8-7b73-4198-8754-999091c8e381
0.6954466167258943,1.4350059631464618,0.0378200953988515,-0.410728545394136,-0.3911424625243946,-0.882013598949435,-0.6178205667073393,-0.6540479775303377,-12.69420283181423,19.527424561405365,18.31902956232756,-0.9276362900347404,5.362928428191933,1.5398222278890354,8386.9140625,11.772,6.932222222222222,178.98468372845562,0.9524812871228294,41.80314904559745,1729.0,1435.0,1350.0,1528.0,1636.0,1021.7000000000002,241.0,294.77,1637177778.1619833,1637177779.283076,9283b5c8-7b73-4198-8754-999091c8e381
0.7020921863109756,1.438129874424698,0.0453674470220263,-0.4031872187999707,-0.3832143450934911,-0.8929105868924698,-0.611225945633728,-0.6255317324312558,-12.540402287158248,19.40731553402692,18.24737736383949,-0.9694890741223938,5.373739410147917,1.509846547941306,8386.003146701389,11.768666666666668,6.986666666666667,179.0043531554454,0.983733588438098,41.54568202919418,1729.0,1435.0,1350.0,1528.0,1636.0,1021.7000000000002,241.0,294.77,1637177779.3913496,1637177780.508077,9283b5c8-7b73-4198-8754-999091c8e381
-0.2758859031973081,-0.3342469479030787,-0.0280877455801947,0.4463336324547249,-0.0369768123734685,0.0239043917422623,-0.2810495063211231,-0.293143570122419,-13.744267513082589,22.544243571935084,13.87164614712446,-0.8097603238229943,-1.335646279344268,0.4529750981987779,8378.7158203125,11.820222222222222,6.844444444444445,179.45796726770337,1.0123810145006853,40.99820138608264,1474.0,1435.0,1350.0,1528.0,1435.0,1021.7000000000002,241.0,294.77,1637177782.538839,1637177783.584922,acd43fe7-6008-489a-afa6-e7f3cd0fdfc3
-0.2843229844445628,-0.3395749101035124,-0.0483586529379765,0.4547159256339361,-0.0514403787159098,0.0221512322148174,-0.3059772465286606,-0.3340688937430965,-14.428573228472096,22.584317953904627,13.806762233895022,-0.8337068099776571,-1.35252739235713,0.5346405681487673,8378.7158203125,11.822333333333331,6.81,179.46476861829692,1.0323498670230271,40.8604091497668,1474.0,1435.0,1350.0,1528.0,1435.0,1021.7000000000002,241.0,294.77,1637177783.6932356,1637177784.814069,acd43fe7-6008-489a-afa6-e7f3cd0fdfc3
-0.2861994131889473,-0.343944112979994,-0.0472081419757897,0.4500864891978497,-0.0518375789514987,0.0258219099840121,-0.3020189404971317,-0.315920950220353,-14.171272731360238,22.62396047460281,13.13220212982777,-0.8146733599722097,-1.3641134687953886,0.5266205052784301,8379.626736111111,11.821,6.842222222222222,179.48485848137565,1.0386551276962033,40.7933670485136,1474.0,1435.0,1350.0,1528.0,1435.0,1021.7000000000002,241.0,294.77,1637177784.923815,1637177785.9336293,acd43fe7-6008-489a-afa6-e7f3cd0fdfc3
-0.4321669512226573,-0.6106999973703747,-0.0501183868708785,0.5806113934466746,0.0063684136216118,0.172318107164542,-0.2430755188587835,-0.2695964427669761,-14.193521160360742,23.264270700834697,14.095278847850752,-0.7756669458294361,-2.3892325214500665,0.3373328959193696,8386.9140625,11.79911111111111,6.913333333333333,179.5634952081999,1.0476356643739737,40.68137850797216,1423.0,1435.0,1350.0,1528.0,1394.0,1021.7000000000002,241.0,294.77,1637177787.9764605,1637177789.207094,177b333e-e69a-4952-a288-df22251315ae
-0.4239594236708005,-0.6107668366925602,-0.0461261138109257,0.586832917643694,0.0117829372863283,0.1720600640183636,-0.2376040169653054,-0.2543412142175483,-14.100451392871603,23.13456112105161,14.9007279288802,-0.7907668672791036,-2.3977957231246703,0.3180267578405243,8386.9140625,11.800222222222224,6.916666666666667,179.5896199228653,1.0744983359189086,40.62020391867094,1423.0,1435.0,1350.0,1528.0,1394.0,1021.7000000000002,241.0,294.77,1637177789.3151617,1637177790.4318435,177b333e-e69a-4952-a288-df22251315ae
-0.4219323326530459,-0.6001793933724293,-0.044838637296642,0.5652334468099638,0.0098380259368498,0.1727996781935468,-0.2386449556100675,-0.2679829879799317,-14.426981988573417,23.14984907938333,13.656380173822123,-0.7405790111271923,-2.342005411925358,0.3195049276366826,8382.359483506945,11.798222222222222,6.952222222222222,179.58457165415874,1.0621214639604146,40.634768158711125,1423.0,1435.0,1350.0,1528.0,1394.0,1021.7000000000002,241.0,294.77,1637177790.539814,1637177791.77631,177b333e-e69a-4952-a288-df22251315ae
-0.6202448586510427,-0.9852583168935776,-0.0425239188095832,0.7372348129486297,0.0927569916909121,0.3735090363252087,-0.1531921182521101,-0.1705730534698012,-14.43300864839476,24.62346420685961,11.388557207065928,-0.6680317332054212,-3.787148505525803,0.0328504065121967,8354.216796875,11.787666666666668,6.953333333333333,179.73278068786874,1.0719818973864186,40.59951869076955,1372.0,1435.0,1350.0,1528.0,1354.0,1021.7000000000002,241.0,294.77,1637177792.446023,1637177793.6196404,674910b2-76f9-4024-958d-bf6171e5c406
-0.6295037352496351,-0.9960923014837982,-0.0529606967929804,0.7585192629642706,0.090182038729943,0.3752895887873966,-0.1629166756258669,-0.1828451706801742,-14.699141926221792,24.469705505068887,12.843618055383107,-0.7134840850719536,-3.842079891504163,0.0652346982823664,8354.216796875,11.785555555555554,7.004444444444444,179.72984825998512,1.0709864921786278,40.59302393977878,1372.0,1435.0,1350.0,1528.0,1354.0,1021.7000000000002,241.0,294.77,1637177793.729664,1637177794.940971,674910b2-76f9-4024-958d-bf6171e5c406
-0.643734464526878,-1.003995220771518,-0.066575076575308,0.758163152502609,0.0779236188973898,0.3815626121372866,-0.1757777452281404,-0.2000480505475598,-14.790317100498331,24.57084278524552,12.485516281358272,-0.6986948987875534,-3.868719000348986,0.1172307132411376,8354.216796875,11.788000000000002,6.98,179.72295887584227,1.0816007958763043,40.59190986003416,1372.0,1435.0,1350.0,1528.0,1354.0,1021.7000000000002,241.0,294.77,1637177795.0494308,1637177796.098136,674910b2-76f9-4024-958d-bf6171e5c406
-0.8598251626441922,-1.41116685202551,-0.061014273614364,0.9725964554790252,0.1739090993763593,0.5895996222149967,-0.0837779549775665,-0.1031174975082431,-14.783946185671216,26.02037573118305,13.772411198951346,-0.7048225893079422,-5.433335205718997,-0.1982361125790394,8395.12890625,11.774,6.976666666666666,179.80266718345632,1.0483235450575716,40.64492351164208,1321.0,1435.0,1350.0,1528.0,1314.0,1021.7000000000002,241.0,294.77,1637177798.1039002,1637177799.1500485,a9f22e33-e4e8-4940-9f9c-4295e468d53b
-0.861633109359991,-1.4202476798535233,-0.0689582779787618,0.9791708031585028,0.1676634688493259,0.5856139240402546,-0.0969129553782725,-0.1251963509531641,-15.17637438754579,26.354756183574747,12.719108168269722,-0.7271534538446046,-5.456588302201847,-0.163137741843101,8410.689236111111,11.774888888888889,6.952222222222223,179.89979702691335,1.05972609527415,40.66269414604263,1321.0,1435.0,1350.0,1528.0,1314.0,1021.7000000000002,241.0,294.77,1637177799.258066,1637177800.470413,a9f22e33-e4e8-4940-9f9c-4295e468d53b
-0.8600443077789844,-1.4264385308547396,-0.0733000871528957,0.9757877533868784,0.1663212062002124,0.5955576246316684,-0.0969677415537738,-0.1153622211845082,-15.27573918735215,26.17688533964056,12.81319027553007,-0.6986076403803713,-5.479800063464133,-0.1559557126012848,8411.60546875,11.776666666666666,6.925555555555556,179.91912190880507,1.0410579787598395,40.71621323164912,1321.0,1435.0,1350.0,1528.0,1314.0,1021.7000000000002,241.0,294.77,1637177800.5785797,1637177801.6067688,a9f22e33-e4e8-4940-9f9c-4295e468d53b
-0.1133214335691757,-0.0088988665610781,-0.0401270210337538,0.2968494031891682,-0.1140610477481065,-0.1354550736924618,-0.3658723072174197,-0.3904439388447273,-14.459440060745443,21.364668805314874,16.6103910579813,-0.8390049703499313,-0.1169832984043957,0.7370502661388548,8359.650390625,11.823333333333332,6.8500000000000005,179.4907597648185,1.010024575521096,40.7693103633469,1525.0,1435.0,1350.0,1528.0,1475.0,1021.7000000000002,241.0,294.77,1637177803.542229,1637177804.6795988,d2ad55b2-7d81-4fe7-8bc0-8d3ad97df0fe
-0.0885991439826724,0.0121116547162896,-0.0338539969113634,0.2914666560384558,-0.1101027419711718,-0.1501514820612355,-0.364831368468395,-0.3896906284664442,-14.621808779040071,21.182848732746407,16.774223681415346,-0.8608361723767706,-0.0374265837428782,0.724313237464254,8354.216796875,11.824555555555555,6.892222222222222,179.46917636704129,1.0146164073499837,40.9066840608486,1525.0,1435.0,1350.0,1528.0,1475.0,1021.7000000000002,241.0,294.77,1637177804.7878428,1637177805.9081109,d2ad55b2-7d81-4fe7-8bc0-8d3ad97df0fe
-0.1025148481680897,0.0003463106988087,-0.0206368175313006,0.2978903416066239,-0.0966664172821811,-0.1426731605479136,-0.3451357138093132,-0.360859366684052,-14.120495113212428,21.166101537003424,17.163431056502855,-0.8576601476992902,-0.0885047656256307,0.6594927038585927,8362.3671875,11.826333333333332,6.886666666666667,179.4671682914253,0.9848746094844436,41.0578425979152,1525.0,1435.0,1350.0,1528.0,1475.0,1021.7000000000002,241.0,294.77,1637177806.017372,1637177807.1367428,d2ad55b2-7d81-4fe7-8bc0-8d3ad97df0fe
-0.091133007411546,-0.0157882356671445,-0.0767516200511267,-0.2055266734847912,-0.200979415374856,0.3624422177843216,-0.2593541546700407,-0.2951843587127282,-14.001269944746868,20.17947086162657,20.94568206983041,1.4043152908158767,-0.1249776681512275,0.7553833195265746,8364.182074652777,11.825888888888889,6.861111111111111,179.51604816076554,1.1324157076118742,41.129616881898365,1525.0,1521.0,1350.0,1528.0,1475.0,1021.7000000000002,241.0,294.77,1637177808.053105,1637177809.18422,9b8c88af-fb55-41fb-8e1d-3a3f7bbbad36
-0.0877499573056304,-0.0058171408539094,-0.0628633090385987,-0.2215379521270935,-0.191200071602425,0.3556624218010273,-0.2501637627028201,-0.2736533645303521,-14.29608930266867,20.32186954186513,19.36447113924885,1.426432770320525,-0.0686249177478015,0.7086183823329408,8370.5341796875,11.82611111111111,6.84,179.51983208556572,1.1470012089874495,41.19638046321543,1525.0,1521.0,1350.0,1528.0,1475.0,1021.7000000000002,241.0,294.77,1637177809.2923405,1637177810.4200144,9b8c88af-fb55-41fb-8e1d-3a3f7bbbad36
-0.0763894830947124,-0.0190085706513252,-0.0704988668726568,-0.2072058717517176,-0.194517378455818,0.3635527347226802,-0.2541598711499521,-0.2764337659065929,-14.196451441448676,20.29212096500208,20.479215781158626,1.4114841402301426,-0.1309351097595311,0.7294180251863881,8374.170464409723,11.825888888888889,6.846666666666668,179.52373440031155,1.13316366075786,41.272932464523024,1525.0,1521.0,1350.0,1528.0,1475.0,1021.7000000000002,241.0,294.77,1637177810.5387838,1637177811.64213,9b8c88af-fb55-41fb-8e1d-3a3f7bbbad36
-0.0599733351862931,-0.0105835432882527,-0.1002686124098755,-0.8165166227777313,-0.292239596333223,0.9311095825750528,-0.1241965017204878,-0.1600540952973977,-13.714417816609194,19.242127887796386,22.96806392512972,4.053512445808757,-0.0516923037865869,0.7180137832482592,8378.7158203125,11.813222222222224,6.867777777777778,179.55053758043448,1.3259323980102795,41.48870003767849,1525.0,1607.0,1350.0,1528.0,1475.0,1021.7000000000002,241.0,294.77,1637177813.4685576,1637177814.6019697,45f4a7ba-6cc2-489c-b80b-42dc7221b4db
-0.0702457545958436,-0.0388395444312346,-0.1163757661847549,-0.7813301473341303,-0.2939516662892057,0.9404369382727464,-0.1373041091240983,-0.1715318123088961,-14.224661717253476,19.0828056272142,24.85534513874784,3.99328599612244,-0.1761410503809276,0.7602238940918721,8395.12890625,11.814666666666668,6.843333333333334,179.5502279451921,1.3462983738578018,41.52018037956307,1525.0,1607.0,1350.0,1528.0,1475.0,1021.7000000000002,241.0,294.77,1637177814.7099152,1637177815.82857,45f4a7ba-6cc2-489c-b80b-42dc7221b4db
