raw_voltage_G-,raw_voltage_G0,raw_voltage_G1,raw_voltage_G2,raw_voltage_G3,raw_voltage_G4,raw_voltage_G5,raw_voltage_G6,load_x,load_y,load_z,load_l,load_m,load_n,rpm,voltage,current,roll,pitch,yaw,aileron1_pwm,elevator_pwm,throttle_pwm,rudder_pwm,aileron2_pwm,pbaro,pdiff,Tt,sample_start_time,sample_end_time,uid
0.0415017303800302,0.2149461787263566,-0.0688289824738987,0.003725525278222,-0.1104051622303847,0.3255793025828252,-0.199395545392475,-0.2287565871435273,-13.180856550404032,9.044691424420217,75.59443385374561,0.7851627035329485,0.2248094684837985,0.6478247329446292,6372.8076171875,12.046,0.27,178.96908357639128,-11.224239400831422,110.60768043802544,1525.0,1435.0,1200.0,1528.0,1475.0,1018.02,242.0,295.35,1637186781.5076945,1637186782.567748,1c92764c-803c-4c8f-af1e-9a6f17dac74c
0.0892709436020803,0.2276083726042378,-0.0661466483842233,0.0079988513834938,-0.1091823334102256,0.3261446963298723,-0.2007630102287261,-0.2309129737507015,-13.370144033997835,9.130657686539518,78.00151060553856,0.7777855045756226,0.2519516295306124,0.6492467675934966,6346.07177734375,12.042,0.27,179.13095450626113,-11.225476234253623,110.38414200686928,1525.0,1435.0,1200.0,1528.0,1475.0,1018.02,242.0,295.35,1637186782.675554,1637186783.7963943,1c92764c-803c-4c8f-af1e-9a6f17dac74c
0.0775686040803069,0.2332623117487278,-0.0784538285048836,0.0011352320111085,-0.1246452010438249,0.3397667447482527,-0.208192024084325,-0.2256140484244045,-12.919434611280575,9.063021585980591,79.74841560166789,0.8233228690408673,0.2545482552817487,0.7010918792401971,6483.245008680556,12.04577777777778,0.27,179.29881171748357,-11.266543979866928,110.15188825433216,1525.0,1435.0,1200.0,1528.0,1475.0,1018.02,242.0,295.35,1637186783.9049318,1637186785.2305295,1c92764c-803c-4c8f-af1e-9a6f17dac74c
0.2462400743080562,0.4821934111707589,-0.0398229574480473,-0.1182417858975722,-0.1427378084105285,0.2091870498328149,-0.2190002535614529,-0.2435094259446003,-12.431148005247506,8.10000305808395,80.34780076305051,0.7950590939466663,1.1965534439438448,0.7191212217929736,6585.527126736111,12.042222222222223,0.2688888888888889,179.36641844770813,-11.32123264050505,109.93702416342192,1576.0,1435.0,1200.0,1528.0,1515.0,1018.02,242.0,295.35,1637186786.0266883,1637186787.0698287,b38fefed-0d77-4b99-9765-e84e9f367dee
0.1814958968823537,0.4675983596446105,-0.0440305404332205,-0.1053560627075675,-0.1451571686901827,0.2005615055735544,-0.2249040189063871,-0.249360596815734,-12.334422094407929,8.321414929535436,78.73433236412268,0.7476590594700379,1.153579162842361,0.7326056774209201,6595.66064453125,12.034888888888888,0.2944444444444444,179.41914750810065,-11.326926077496948,109.81735469570384,1576.0,1435.0,1200.0,1528.0,1515.0,1018.02,242.0,295.35,1637186787.1782978,1637186788.302416,b38fefed-0d77-4b99-9765-e84e9f367dee
0.2245052804999827,0.4667568431640647,-0.0395468348416436,-0.1114702070092477,-0.1445260313441405,0.190660537745229,-0.2260611041822711,-0.253870600752949,-12.440759359421277,8.70792667082329,76.41936662101261,0.7415652195702268,1.1727366564407626,0.7236282203180067,6573.756401909723,12.02988888888889,0.29,179.51035330081757,-11.360283203583473,109.70445622218296,1576.0,1435.0,1200.0,1528.0,1515.0,1018.02,242.0,295.35,1637186788.4104974,1637186789.418969,b38fefed-0d77-4b99-9765-e84e9f367dee
0.4533583228527825,0.8493575705420627,0.0300097695915965,-0.3159456036780408,-0.1810268151477799,-0.005504859691411,-0.2423654897926949,-0.2699777551448584,-11.276241810328711,8.75498056327212,75.25747982911376,0.7661781346924958,2.6393632215224825,0.7454024626404272,6428.570638020833,12.031666666666666,0.3133333333333333,179.49478046950992,-11.362111322687577,109.2100529791116,1627.0,1435.0,1200.0,1528.0,1556.0,1018.02,242.0,295.35,1637186791.6732094,1637186792.809375,7fd18fdb-cf5c-4781-b23f-ccf1255dad88
0.4606295512483384,0.8623879273619651,0.0340069732411697,-0.3047166158755051,-0.1771479494463071,-0.0142487426791992,-0.2401039136061931,-0.2626670789900147,-11.108412674490546,8.559334893001447,77.32370252409986,0.7205155407792665,2.6676018036375755,0.7362376959776767,6435.00439453125,12.033,0.32,179.51156452103038,-11.3394160270317,109.0373516459478,1627.0,1435.0,1200.0,1528.0,1556.0,1018.02,242.0,295.35,1637186792.9179652,1637186794.0425065,7fd18fdb-cf5c-4781-b23f-ccf1255dad88
0.4641139554646415,0.8616516004264184,0.0242243432404947,-0.3209289606378975,-0.1857603461837836,-0.001231533145342,-0.2488083514099776,-0.2721209927113392,-11.585976504385542,8.527688433828223,76.88138608007903,0.7853302272934347,2.6735158321864456,0.7725200790571156,6485.316731770833,12.027,0.3333333333333333,179.4848539279162,-11.3373430646186,108.97253998091358,1627.0,1435.0,1200.0,1528.0,1556.0,1018.02,242.0,295.35,1637186794.158942,1637186795.2657766,7fd18fdb-cf5c-4781-b23f-ccf1255dad88
0.6039503270548922,1.1303320418235214,0.0741630915762775,-0.454388253890681,-0.2140037487044737,-0.1357295534072434,-0.2613785069706468,-0.2831527509771322,-10.487078907535023,8.96699958524518,77.847591964694,0.7902527239948395,3.684494654678643,0.7941049362521345,6505.553059895833,12.026000000000002,0.3477777777777777,179.36866026757576,-11.310242676403025,108.67373134728405,1678.0,1435.0,1200.0,1528.0,1596.0,1018.02,242.0,295.35,1637186797.2000332,1637186798.3423088,217aceac-4674-4c5c-928c-09fae100f5ef
0.5916404092449019,1.1460770570945218,0.0769237699558362,-0.472815059905183,-0.2176207360658112,-0.139468165937398,-0.2607785972735086,-0.2798168163810073,-10.375559914513635,9.012024285318128,77.10933087765765,0.8237923124910518,3.7517464303090553,0.795175988979541,6508.845865885417,12.020888888888887,0.3611111111111111,179.33243901549727,-11.337410038417964,108.54482366925858,1678.0,1435.0,1200.0,1528.0,1596.0,1018.02,242.0,295.35,1637186798.4564564,1637186799.566304,217aceac-4674-4c5c-928c-09fae100f5ef
0.5877905809292092,1.1634273090650538,0.0751755411901093,-0.4741638974253327,-0.2236022978326649,-0.1575037956058228,-0.2671113390323587,-0.292514623692809,-10.115312210915064,8.946454546031509,76.75407112438705,0.7858591432098385,3.818181243391856,0.8165179970214487,6520.950900607639,12.01988888888889,0.37,179.32358405469327,-11.302870625558857,108.42012111103212,1678.0,1435.0,1200.0,1528.0,1596.0,1018.02,242.0,295.35,1637186799.6744568,1637186800.796292,217aceac-4674-4c5c-928c-09fae100f5ef
0.7581083662623381,1.4155568489568982,0.13103887210797,-0.6224089167083718,-0.2464246020901852,-0.2748997515975327,-0.2711195004528294,-0.2901029337958237,-9.297661641588167,9.71840018061601,75.96490679611117,0.8646439273153669,4.786834189160704,0.8055115083547927,6512.692220052083,12.021,0.3677777777777777,179.21805307855715,-11.261879909301191,108.13860499856123,1729.0,1435.0,1200.0,1528.0,1636.0,1018.02,242.0,295.35,1637186802.5282552,1637186803.5938408,5ea2a6dd-3f30-46fc-8de5-8bc473cd6d5b
0.7269958145810124,1.4059287155293076,0.1235495940317117,-0.6053616261395496,-0.2508069535763798,-0.2798787251633647,-0.2817721373766335,-0.3090556857977863,-9.436152751502238,9.913069004240873,76.07605691722205,0.8158665701744625,4.748147555075463,0.8358207137928989,6504.455729166667,12.010555555555555,0.43,179.18057051821194,-11.285667940360533,107.92279378808608,1729.0,1435.0,1200.0,1528.0,1636.0,1018.02,242.0,295.35,1637186803.7017128,1637186804.8873303,5ea2a6dd-3f30-46fc-8de5-8bc473cd6d5b
0.7794459589267534,1.4181701524417796,0.1260346976369116,-0.6305282389937101,-0.2508463995904751,-0.2769202679289447,-0.2779064200148566,-0.2954862292973564,-9.606042196199754,9.670682321694237,74.93626784030292,0.8775340553192192,4.8086167240915305,0.8266166652188628,6481.504231770833,12.01011111111111,0.4277777777777778,179.1485976437972,-11.278633604425329,107.74566117997078,1729.0,1435.0,1200.0,1528.0,1636.0,1018.02,242.0,295.35,1637186804.9951322,1637186806.1202471,5ea2a6dd-3f30-46fc-8de5-8bc473cd6d5b
-0.122252138177955,-0.1050930884715221,-0.1246320523391774,0.180062688766756,-0.0859222884275694,0.4774861783311336,-0.1900731188515196,-0.2033007090207406,-13.657481500554807,9.708402484306708,75.50997145551324,0.7301121141204936,-0.9966475835220132,0.6393672665351784,6483.1396484375,12.020777777777775,0.38,179.5346126149296,-11.30772338010041,107.39439062223629,1474.0,1435.0,1200.0,1528.0,1435.0,1018.02,242.0,295.35,1637186808.054704,1637186809.2839758,78948373-223a-48ce-8be5-1441d6d97420
-0.1301150590369568,-0.1144944067993818,-0.1180182577742399,0.1998646245250499,-0.0746670040566549,0.4630752085175953,-0.1866807549112245,-0.2133068673918496,-13.816285341370763,9.72352833714038,74.78362588791389,0.6532942976236755,-1.0263651925172317,0.608086183963135,6488.5888671875,12.029,0.32,179.5064555395312,-11.304734033973668,107.32979069306629,1474.0,1435.0,1200.0,1528.0,1435.0,1018.02,242.0,295.35,1637186809.3925552,1637186810.5098507,78948373-223a-48ce-8be5-1441d6d97420
-0.1320720235044129,-0.1109519288184776,-0.1195122785505037,0.195152460813062,-0.0792306974847298,0.4744389682407834,-0.1856255721758176,-0.197281345356027,-13.563315224617584,9.80152906310724,76.27078468023221,0.6902667542845169,-1.0275630793321278,0.6174659837885095,6497.333658854167,12.032000000000002,0.32,179.4352971109382,-11.308741552605436,107.27213934301194,1474.0,1435.0,1200.0,1528.0,1435.0,1018.02,242.0,295.35,1637186810.618141,1637186811.6505196,78948373-223a-48ce-8be5-1441d6d97420
-0.2875181180783066,-0.3971125196822314,-0.1658006233897059,0.3417259004267874,-0.0496581826275682,0.6283543049166594,-0.1725064591160807,-0.188968628363624,-14.804770197326247,10.27113374732313,77.35155437247964,0.7058568776057399,-2.122604198375533,0.5887275622571444,6617.162272135417,12.025,0.3433333333333333,179.42703409986228,-11.286090748042904,107.069567315878,1423.0,1435.0,1200.0,1528.0,1394.0,1018.02,242.0,295.35,1637186813.5847166,1637186814.7221262,3ff24d6e-62af-4e8d-8127-198a90cac90e
-0.2929090842966993,-0.3999526385864716,-0.1589238545883131,0.3520476262212227,-0.0406381766012467,0.6202152627403865,-0.1661424894346398,-0.1835513648975853,-14.765761307035676,10.18701258445176,77.20196103881977,0.6640646364002967,-2.133042925976435,0.5576049219902859,6618.86181640625,12.02,0.38,179.444778931326,-11.28911083002091,106.88909322743876,1423.0,1435.0,1200.0,1528.0,1394.0,1018.02,242.0,295.35,1637186814.8308084,1637186816.0431125,3ff24d6e-62af-4e8d-8127-198a90cac90e
-0.2809437688776963,-0.3892890438272945,-0.1615930401690715,0.3371501543964881,-0.0494215060729866,0.6211751174747843,-0.1696926377207226,-0.1957007614744231,-14.54257238134131,10.313850430606374,76.84714400438554,0.700590308204381,-2.0898157675430804,0.5790244430125933,6611.488389756944,12.01822222222222,0.3855555555555556,179.42422006192425,-11.300865300991289,106.73299380741754,1423.0,1435.0,1200.0,1528.0,1394.0,1018.02,242.0,295.35,1637186816.1508186,1637186817.3806312,3ff24d6e-62af-4e8d-8127-198a90cac90e
-0.4160729434628917,-0.5747251530758613,-0.1790545103806859,0.4026701029566967,-0.0252542016644945,0.706365512172935,-0.1563204127061459,-0.1853001417141564,-15.673383908921764,11.141699578677231,71.68856243024419,0.7474544663525822,-2.7407497694642267,0.5206008114299244,6553.078125,12.018,0.38,179.45257900735814,-11.260432573243316,106.44330727087952,1372.0,1435.0,1200.0,1528.0,1354.0,1018.02,242.0,295.35,1637186819.007354,1637186820.0450933,cccd3cd2-3f3e-45c6-a030-e3e2094ff0d9
-0.3706250139813185,-0.5550355223633506,-0.1695321141482698,0.3958755147765203,-0.0239239918318198,0.6883791931729443,-0.1525757732850426,-0.1795716936554794,-15.302992419714116,11.293211584051472,71.03246278205938,0.7239241349499231,-2.6622654304510687,0.5020717160287408,6491.319715711806,11.983111111111112,0.54,179.49389709837726,-11.277335014709378,106.02272623017744,1372.0,1435.0,1200.0,1528.0,1354.0,1018.02,242.0,295.35,1637186820.1592684,1637186821.2755604,cccd3cd2-3f3e-45c6-a030-e3e2094ff0d9
-0.3704601072535026,-0.5633252299244537,-0.1707313848416714,0.406693603675439,-0.0249386329109985,0.6900611304042917,-0.1504297962340161,-0.1675362513772614,-14.830898571682106,11.328036209117752,71.53343256188273,0.7037893528475475,-2.7025456956836864,0.5021472439085066,6483.136176215277,11.98522222222222,0.538888888888889,179.54916547132115,-11.270079835991009,105.63831331786032,1372.0,1435.0,1200.0,1528.0,1354.0,1018.02,242.0,295.35,1637186821.384339,1637186822.5921876,cccd3cd2-3f3e-45c6-a030-e3e2094ff0d9
-0.5086529357185819,-0.7812255054975435,-0.2020910283859643,0.4930016384701611,-0.0063069299524584,0.7978015371878615,-0.1456699679831561,-0.1617771221814315,-16.174296185636006,12.376051979028691,67.69086421466677,0.7553038142326158,-3.488836013898168,0.4803414576624703,6473.88671875,11.985777777777775,0.5222222222222223,179.60289781061178,-11.264480598691414,105.12218476085896,1321.0,1435.0,1200.0,1528.0,1314.0,1018.02,242.0,295.35,1637186823.508083,1637186824.644482,b623367d-7569-4a37-8659-c1973798b929
-0.5146092967873276,-0.7836974615203303,-0.1899547805494047,0.5000887851339704,0.0073940118098695,0.7973544815428465,-0.1346645083727283,-0.1547557176147526,-16.353562222205326,12.427040746334855,68.2998088851335,0.7392615001548674,-3.502337953546272,0.429943413251093,6477.149088541667,11.988333333333337,0.5233333333333333,179.6250503908199,-11.224461666570662,104.88651363700713,1321.0,1435.0,1200.0,1528.0,1314.0,1018.02,242.0,295.35,1637186824.752823,1637186825.8001702,b623367d-7569-4a37-8659-c1973798b929
-0.5129322896835079,-0.789767231130161,-0.1964047644303808,0.5009691998287603,0.0018940217690694,0.8093197940343408,-0.136454922528792,-0.1472478122315254,-16.16618932492298,12.382131785791644,69.23781277110587,0.7637881240361045,-3.535261018157351,0.4495215192393036,6495.150607638889,11.985222222222225,0.52,179.69208793861364,-11.232106640390414,104.64466574541584,1321.0,1435.0,1200.0,1528.0,1314.0,1018.02,242.0,295.35,1637186825.9082744,1637186826.8488724,b623367d-7569-4a37-8659-c1973798b929
0.034033270708131,0.1708454532615398,-0.0846600134012389,0.0739264149110132,-0.1047906684682313,0.3363612327273412,-0.2060093401994577,-0.2317807877057259,-13.17464969544278,8.637657809036257,80.08975238372619,0.6482682819767374,0.009865371607016,0.6729646426518889,6592.278591579861,11.997888888888887,0.4600000000000001,179.34221984638873,-11.241673648415356,104.23895933890628,1525.0,1435.0,1200.0,1528.0,1475.0,1018.02,242.0,295.35,1637186828.5233834,1637186829.6721487,ccd5f3c4-3c63-4b55-ac11-d0ce8e2e784c
0.0359661291693692,0.175171374169961,-0.0840288760029197,0.0646697328065789,-0.1080515453687374,0.3416601570141603,-0.2028668014442859,-0.2205255025304139,-12.83844917800464,8.657233428695832,80.24625360360466,0.6814118568545398,0.0235036326057993,0.672961543031898,6579.347764756944,12.04211111111111,0.25,179.2139595185146,-11.218143456997185,104.58993164504702,1525.0,1435.0,1200.0,1528.0,1475.0,1018.02,242.0,295.35,1637186829.7808073,1637186830.994007,ccd5f3c4-3c63-4b55-ac11-d0ce8e2e784c
0.0425930720761286,0.1744876419839497,-0.0852385561399126,0.0597652690537901,-0.1093006715827719,0.3404636255734313,-0.2061671247029419,-0.2288486280991421,-13.086039779949584,8.747275746346368,79.32233427306764,0.6900511180905476,0.0314089645856634,0.6793718400735982,6583.2763671875,12.040888888888889,0.2577777777777778,179.15258495645264,-11.180969014074527,104.81632433636634,1525.0,1435.0,1200.0,1528.0,1475.0,1018.02,242.0,295.35,1637186831.102621,1637186832.131171,ccd5f3c4-3c63-4b55-ac11-d0ce8e2e784c
0.0509819403057202,0.164257956634039,-0.1288790815736149,-0.4725860530763369,-0.20206473103566,0.8660169672689492,-0.0982820636649638,-0.1229884656779143,-12.953284236050484,7.299639215802266,83.18340922794386,3.060806544981796,0.0206339185170411,0.7118285257459668,6533.09912109375,12.044444444444444,0.2533333333333333,178.96265560947242,-11.019132899196691,105.27074516985628,1525.0,1521.0,1200.0,1528.0,1475.0,1018.02,242.0,295.35,1637186834.0132034,1637186834.9970372,b07d1e3d-ab06-4cb0-983d-adf1513ad718
0.0619611016612249,0.1698724497997601,-0.1275247657229319,-0.4689438636409989,-0.2024854893588384,0.855498011171542,-0.1008197620876452,-0.130496371758829,-12.905058185698628,7.393368478836095,82.94108337916599,3.029627585212828,0.0431370917400552,0.7145334415219671,6533.09912109375,12.036666666666669,0.2744444444444445,178.99086429074453,-11.05125926314028,105.34550842051124,1525.0,1521.0,1200.0,1528.0,1475.0,1018.02,242.0,295.35,1637186835.105482,1637186836.2273085,b07d1e3d-ab06-4cb0-983d-adf1513ad718
0.051571440201662,0.1508167023030945,-0.1294285876236469,-0.4608990512649236,-0.1999932633895159,0.860161415111046,-0.1021176481581236,-0.129743609130455,-13.171345788795668,7.566648130231074,81.99043636744706,3.0227280638987644,-0.0191315105379331,0.7117486196461552,6533.09912109375,12.03622222222222,0.28,179.00550518068542,-11.064573483698618,105.44080018417162,1525.0,1521.0,1200.0,1528.0,1475.0,1018.02,242.0,295.35,1637186836.3348114,1637186837.455561,b07d1e3d-ab06-4cb0-983d-adf1513ad718
0.0637750739049696,0.1364353162296348,-0.1622729374531032,-0.986942995843596,-0.2885141319697505,1.3727961912224498,-0.0029545601093799,-0.0250745027911951,-13.89452632178054,7.479577556678389,84.25955304852486,5.359098160371604,-0.0253794462867333,0.732278433800874,6444.68115234375,12.041,0.28,178.9680590480158,-10.89153149484999,105.64433223233894,1525.0,1607.0,1200.0,1528.0,1475.0,1018.02,242.0,295.35,1637186839.0044296,1637186840.11739,b6c5110b-e35c-473a-9cd4-2c640e77c2af
0.0708561946273966,0.1561583600228714,-0.1539454291626144,-1.0274437446988058,-0.2944995289887617,1.402586207343269,0.014138745253315,-0.0153225534451009,-13.030607270931066,7.598639060495394,86.03067824681011,5.519321200755965,0.0322983627217598,0.7098269119688316,6431.786295572917,12.027333333333331,0.32,178.96563660759017,-10.890708741646222,105.56762920795968,1525.0,1607.0,1200.0,1528.0,1475.0,1018.02,242.0,295.35,1637186840.2253788,1637186841.3464415,b6c5110b-e35c-473a-9cd4-2c640e77c2af
0.083866829471002,0.1748952515820524,-0.1496145770655804,-1.0456327876181422,-0.2938689394573197,1.406770232599753,0.0177420358725079,-0.0015733993674907,-13.19015562648839,7.458214790928299,86.88687157973449,5.56909421631419,0.098625554060728,0.7011956045337946,6496.798990885417,12.029,0.32,179.0345441093967,-10.842867345651037,105.54239545352604,1525.0,1607.0,1200.0,1528.0,1475.0,1018.02,242.0,295.35,1637186841.4544451,1637186842.5747497,b6c5110b-e35c-473a-9cd4-2c640e77c2af
0.0978964882104241,0.1435619093867604,-0.1793437816436486,-1.5470456314152172,-0.3772185384403114,1.9256967697765628,0.1203807583717818,0.1011047697384597,-13.73056096744424,7.742381671478402,90.93236297549306,7.867032271431327,0.0089310378285014,0.7061327693851467,6570.940972222223,12.021222222222224,0.3577777777777777,179.05064362418034,-10.700490060263611,105.44122137917046,1525.0,1693.0,1200.0,1528.0,1475.0,1018.02,242.0,295.35,1637186843.6910677,1637186844.826133,b4d17f77-a8b2-43c1-aaf4-d4417bc29f26
0.1028141005615259,0.1525161713141064,-0.1750178602236641,-1.5082437833263969,-0.3681064902960295,1.8759289390577647,0.1097434633313789,0.085247442449373,-14.035430073706143,7.702854355460682,90.1623269103806,7.667347007022458,0.0469937949877103,0.703111002258799,6582.715006510417,12.017333333333331,0.37,179.0619999520403,-10.712582341006687,105.2743059751436,1525.0,1693.0,1200.0,1528.0,1475.0,1018.02,242.0,295.35,1637186844.9364278,1637186846.0630963,b4d17f77-a8b2-43c1-aaf4-d4417bc29f26
0.090113555831114,0.1476254042534042,-0.1793114576689235,-1.5063854338489329,-0.3758023139847572,1.8731315543831963,0.1050701976751686,0.0867578986707883,-13.629956647622356,7.976290849970653,89.28723707503549,7.658532390709273,0.0330401463725848,0.7244609805363034,6531.446072048611,12.018555555555556,0.37,179.0339688556866,-10.710441361293103,105.1123546008235,1525.0,1693.0,1200.0,1528.0,1475.0,1018.02,242.0,295.35,1637186846.17563,1637186847.377353,b4d17f77-a8b2-43c1-aaf4-d4417bc29f26
0.10227500398279,0.1320830978688972,-0.1812108966862021,-1.802525143648925,-0.417650787549068,2.17654770103859,0.1781824254708998,0.1546331112031022,-13.472655836241254,8.681999069335903,91.7526096616124,9.013423437235614,-0.0118641328383408,0.6787733825600598,6503.3583984375,12.010333333333334,0.4022222222222222,179.11130936438838,-10.606870269993802,104.77516409860804,1525.0,1780.0,1200.0,1528.0,1475.0,1018.02,242.0,295.35,1637186849.0056698,1637186850.1541748,0879f65e-2358-41d7-93f7-125daf874afe
0.0993313396850617,0.1362983506565863,-0.1786540228754422,-1.797766403972192,-0.4163715285930631,2.1637589441143,0.1735255956826794,0.1599112164973473,-13.719631592132904,8.93067935464139,91.1352841304091,8.975503962368798,0.010745409172186,0.6795823273089546,6503.3583984375,11.994666666666667,0.4733333333333333,179.14702821810792,-10.588806696368842,104.47066439958007,1525.0,1780.0,1200.0,1528.0,1475.0,1018.02,242.0,295.35,1637186850.2626247,1637186851.3815837,0879f65e-2358-41d7-93f7-125daf874afe
0.1168629344037108,0.1341479909806376,-0.1746135377131503,-1.8143255700790155,-0.4150566587503875,2.1853173391602816,0.1858524979986293,0.15960989246071,-13.39059558982202,8.857872531996144,91.79452089127284,9.061291234736297,-0.0031976834996477,0.6555173119682439,6502.2626953125,11.993222222222222,0.4777777777777777,179.19369358833725,-10.585288390036377,104.16088041086424,1525.0,1780.0,1200.0,1528.0,1475.0,1018.02,242.0,295.35,1637186851.490133,1637186852.6106212,0879f65e-2358-41d7-93f7-125daf874afe
0.00730197098876,0.1614704331630962,-0.0435966334402703,0.6489846073147778,-0.0058467255378059,-0.2112556709976346,-0.317957354650335,-0.3472921012067212,-13.095754334107824,9.98342974187197,75.92667507427964,-1.8691483494756704,-0.0571337558091781,0.6391546036310721,6595.662380642361,12.004333333333332,0.4188888888888888,179.1853076338563,-11.358176090224523,103.84678353714249,1525.0,1349.0,1200.0,1528.0,1475.0,1018.02,242.0,295.35,1637186853.5216465,1637186854.655824,2c0041d1-a792-4c01-ba72-8b264b10f78d
0.0047642726040288,0.1495840121232883,-0.0548387691903001,0.6630274135537272,-0.0084107214020669,-0.1997242629266237,-0.3232299825720848,-0.3381932018654447,-13.255370068450125,9.60523112575351,77.68932412044576,-1.8777791438792653,-0.1186557301674232,0.6666927540625239,6633.660861545139,12.044777777777776,0.24,179.0382521432061,-11.38085222340523,104.20474919808342,1525.0,1349.0,1200.0,1528.0,1475.0,1018.02,242.0,295.35,1637186854.7640655,1637186855.97643,2c0041d1-a792-4c01-ba72-8b264b10f78d
-0.0017180347483768,0.157157660917863,-0.0484353537910584,0.6403064686484679,-0.0108037841304114,-0.1975021329455992,-0.3168134177961612,-0.3433606399712305,-12.90086578577022,9.87204206389688,76.13106486630748,-1.819515213892978,-0.0757403221923757,0.6507456257485975,6647.952799479167,12.045,0.24,179.02766383217275,-11.3388696118981,104.48249884068198,1525.0,1349.0,1200.0,1528.0,1475.0,1018.02,242.0,295.35,1637186856.08443,1637186857.204992,2c0041d1-a792-4c01-ba72-8b264b10f78d
-0.010251538807633,0.1842965690149809,-0.0070827029179854,1.0485471553621155,0.0554787943646209,-0.6362610725095228,-0.4156258878843043,-0.4412132567087444,-13.40849224371329,12.184443301583666,70.73575251192729,-3.710083401932614,0.0298560439122738,0.642735688701763,6561.998263888889,12.044777777777776,0.2422222222222222,178.974517371331,-11.512980430488094,105.01625991048068,1525.0,1262.0,1200.0,1528.0,1475.0,1018.02,242.0,295.35,1637186859.051349,1637186860.0346534,2f18cbec-2421-44fe-9508-92853ea1406a
-0.0031380940389631,0.1804308524127059,-0.0073456768558069,1.0310988364625902,0.0534670438722434,-0.6209165390365808,-0.4129172561392538,-0.4386361115935143,-13.541410459125032,12.295563731501684,70.10374534331756,-3.635687170640896,0.0240329572650629,0.6403270237798036,6507.221299913194,12.039888888888887,0.2644444444444444,178.93399765353485,-11.50397681820594,105.17067910396604,1525.0,1262.0,1200.0,1528.0,1475.0,1018.02,242.0,295.35,1637186860.1424816,1637186861.2094014,2f18cbec-2421-44fe-9508-92853ea1406a
-0.0087482044624685,0.1762923004646133,-0.0042831263861417,1.0411066372338764,0.056474808054489,-0.6253262839307148,-0.4085370958961548,-0.4357110740776857,-13.170383556883069,12.300192540184048,70.23701333546097,-3.667780414151443,0.0036657365737535,0.6258518470874881,6444.153157552083,12.041,0.27,178.94506407781012,-11.49278650188826,105.3111343551483,1525.0,1262.0,1200.0,1528.0,1475.0,1018.02,242.0,295.35,1637186861.3170774,1637186862.440822,2f18cbec-2421-44fe-9508-92853ea1406a
-0.0193904307409064,0.2013980914048044,0.0373818054428823,1.4898332916851558,0.1263683457977077,-1.0821478372706557,-0.5178767489071586,-0.5427086168496845,-13.93449369152736,15.018915154926054,67.2462714633583,-5.687300833107048,0.0771823568133182,0.6306407300926761,6410.93994140625,12.039333333333332,0.2744444444444445,178.8709838460721,-11.666617757040976,105.6333546005229,1525.0,1176.0,1200.0,1528.0,1475.0,1018.02,242.0,295.35,1637186864.0037048,1637186865.103627,8414c8d3-7980-40a2-961a-d5fd139c63c4
-0.0187603891507937,0.1812915441472437,0.0272600484013318,1.522102387278937,0.1254643726725801,-1.0852980489648232,-0.5258070588049812,-0.5500910656528176,-13.9029282625339,14.877207682992648,68.15346962525169,-5.768453843105294,-0.0111103918915499,0.656169915757635,6433.43408203125,12.032,0.3,178.86271476371698,-11.667368129212292,105.71961230064107,1525.0,1176.0,1200.0,1528.0,1475.0,1018.02,242.0,295.35,1637186865.2117927,1637186866.3289068,8414c8d3-7980-40a2-961a-d5fd139c63c4
-0.0198835069574521,0.1998092906039188,0.0366695842613746,1.494901019788374,0.129902057751906,-1.0793948293099769,-0.5166166655439048,-0.5431879963278581,-14.114178148867358,14.764708185150328,68.08534117699571,-5.694223338222973,0.0643850885343278,0.6260187290133036,6480.416286892361,12.029333333333334,0.3088888888888889,178.9152920421279,-11.648156704351816,105.8198726474677,1525.0,1176.0,1200.0,1528.0,1475.0,1018.02,242.0,295.35,1637186866.4369829,1637186867.5607884,8414c8d3-7980-40a2-961a-d5fd139c63c4
-0.0346423710323848,0.2041116534462456,0.0659451565720961,1.813104452397551,0.1742904114424017,-1.381674298943523,-0.5913451107949139,-0.6182867981518975,-14.24990942145584,17.305256123617472,67.16325474912531,-7.073190633479592,0.0523760141738504,0.6329242364078949,6503.3583984375,12.028888888888888,0.3111111111111111,178.91463482614776,-11.817093275190574,105.95512860687174,1525.0,1090.0,1200.0,1528.0,1475.0,1018.02,242.0,295.35,1637186868.5635395,1637186869.6095731,da5708de-e801-4dc7-bfff-994084649f82
-0.0244718540834493,0.2140674075874373,0.0587895265327284,1.8026901338821808,0.1680880620043134,-1.3844996271289107,-0.599535655319576,-0.62551803587323,-14.552769627236875,17.03916635097326,66.73106043811607,-7.058388962349078,0.096514326630407,0.6631887345444137,6503.3583984375,12.024555555555557,0.3299999999999999,178.9460309290326,-11.798792542219433,105.98886974137162,1525.0,1090.0,1200.0,1528.0,1475.0,1018.02,242.0,295.35,1637186869.7173688,1637186870.838317,da5708de-e801-4dc7-bfff-994084649f82
-0.0178016298369316,0.2194090650776313,0.0680484001026238,1.7695855452314209,0.1685263520300751,-1.3666256026976604,-0.5857706098472738,-0.6077535935009993,-14.255254438994903,17.24680381443271,65.76762321858547,-6.94171413352191,0.1276483383644755,0.629492487014178,6497.880696614583,12.022,0.3411111111111111,178.9887894310567,-11.80781446320311,106.0242243183354,1525.0,1090.0,1200.0,1528.0,1475.0,1018.02,242.0,295.35,1637186870.9464996,1637186872.0670545,da5708de-e801-4dc7-bfff-994084649f82
0.0221923218882307,0.1553502631193335,-0.0946119334134467,0.0546257722506404,-0.1125407296655015,0.3613875827839736,-0.2080605370089134,-0.2326869522522737,-13.372056484257888,8.58844388773046,78.9187149139612,0.7469355293849502,-0.0347303512266126,0.6961928882775034,6474.430447048611,12.028,0.321111111111111,179.0456575860862,-11.29897599477587,106.08648604607951,1525.0,1435.0,1200.0,1528.0,1475.0,1018.02,242.0,295.35,1637186874.094031,1637186875.1356726,adbad1f2-75cd-428c-ac9b-43c674482b32
0.0503524464631981,0.1943306674967698,-0.0816549883895697,0.0329304232812391,-0.1162935871361176,0.337295337960531,-0.2068689363016106,-0.2252360237313119,-12.934361528484786,9.028948577602703,78.1306759277648,0.7453964649929828,0.1188563711492576,0.685486333889798,6498.435221354167,12.047,0.24,179.032640763348,-11.23924902612374,106.1561683949019,1525.0,1435.0,1200.0,1528.0,1475.0,1018.02,242.0,295.35,1637186875.2435715,1637186876.36846,adbad1f2-75cd-428c-ac9b-43c674482b32
0.040874427908889,0.178059156503735,-0.0817234711537523,0.0626793491321378,-0.1053911257485129,0.3322139151117366,-0.2013355261968288,-0.2240444228369816,-12.835771215387735,8.505825147041742,79.06237778618141,0.6635984292845197,0.0451969210755222,0.662741456235964,6514.342393663194,12.045555555555556,0.24,179.09009024336686,-11.286868915289594,106.2182426718988,1525.0,1435.0,1200.0,1528.0,1475.0,1018.02,242.0,295.35,1637186876.476573,1637186877.596791,adbad1f2-75cd-428c-ac9b-43c674482b32
0.1119918902133503,0.2125268185758636,0.1602081582728198,0.0227779862189469,0.1093621511222773,0.3181371407569909,0.0465639782458689,0.023159298692379,-11.512165733410823,8.764263183101697,78.51503142491147,0.7363125526169887,0.1902088427819531,-0.3086274766461337,6517.094129774306,12.045111111111112,0.2477777777777777,179.14123014641245,-11.282758754092798,106.22284697830928,1525.0,1435.0,1200.0,1439.0,1475.0,1018.02,242.0,295.35,1637186878.5995102,1637186879.6452744,0405db11-d8e4-4935-bbd0-6b2e7ac80798
0.1203150149395083,0.2081746004324916,0.1571445120429037,0.0283267360336999,0.107416143968642,0.3162831747776791,0.0425930718265494,0.0182548348419472,-11.547457137377432,8.835145786806526,78.34396780584109,0.7199021302766253,0.1747751084599553,-0.2969201415597299,6516.551595052083,12.043888888888889,0.2444444444444444,179.14023445661348,-11.28980248153811,106.25282164293684,1525.0,1435.0,1200.0,1439.0,1475.0,1018.02,242.0,295.35,1637186879.7536106,1637186880.873414,0405db11-d8e4-4935-bbd0-6b2e7ac80798
0.1056147728006128,0.2078590317664112,0.167374197558532,0.0247897370024221,0.1138984512443663,0.3149551567827374,0.0529016499470829,0.0245399118032639,-11.275047120379758,9.014585279116789,77.72404838306448,0.7266337014077264,0.1782448441439724,-0.3351973652744263,6517.644476996527,12.045,0.24,179.2025682807988,-11.296300552759732,106.2927478931851,1525.0,1435.0,1200.0,1439.0,1475.0,1018.02,242.0,295.35,1637186880.9815648,1637186882.1030877,0405db11-d8e4-4935-bbd0-6b2e7ac80798
0.1928563699418908,0.2361550247925109,0.4242339630940313,0.020253436684128,0.3501936602625779,0.283279949480674,0.3171641375383041,0.2853311456046315,-9.58994961912116,8.905926471534828,78.56687307378208,0.6787402387666808,0.281815594324851,-1.3776257940607182,6507.199055989583,12.044111111111112,0.2466666666666666,179.2047114423784,-11.276467011502357,106.25791392841803,1525.0,1435.0,1200.0,1351.0,1475.0,1018.02,242.0,295.35,1637186883.1053798,1637186884.1466434,81a9790a-a111-49bc-979d-261928f131a5
0.2066756491566402,0.2371148795442144,0.4119925278749036,0.0123510701737654,0.3381626039800388,0.2884868327377214,0.3054355012029511,0.2781125121699799,-9.731158602399674,8.87069141627259,78.31535564091331,0.7073123099120575,0.2888405795412503,-1.328245736724086,6503.3583984375,12.042333333333334,0.2533333333333333,179.21486565694445,-11.286899840868337,106.25327319433195,1525.0,1435.0,1200.0,1351.0,1475.0,1018.02,242.0,295.35,1637186884.2562866,1637186885.3791444,81a9790a-a111-49bc-979d-261928f131a5
0.1995490561043128,0.2547187914446564,0.4197897041373129,-0.0003522141839031,0.3398292011996766,0.2807696443406436,0.3083819047079273,0.2827830382401732,-9.745464975533478,8.991585914570452,78.0475707900083,0.7197660379967443,0.3594009755205025,-1.343757780197688,6494.598470052083,12.041444444444444,0.26,179.227600165197,-11.279534145894644,106.27270204688102,1525.0,1435.0,1200.0,1351.0,1475.0,1018.02,242.0,295.35,1637186885.4869652,1637186886.607198,81a9790a-a111-49bc-979d-261928f131a5
0.2795851660816145,0.2751935017832725,0.6973849535034303,0.009563546023836,0.5952853370585288,0.2398103616015044,0.5931420997712776,0.5681332818710487,-7.61058800220509,9.09143914848108,78.52706879940075,0.6209929417780358,0.4332125843505646,-2.4708363337756163,6498.427734375,12.041000000000002,0.25,179.198509630612,-11.316560506521546,106.18207302569404,1525.0,1435.0,1200.0,1262.0,1475.0,1018.02,242.0,295.35,1637186887.520427,1637186888.5443954,9e09beee-80ee-40fa-8671-626c079a2869
0.2759429774101371,0.2787305008395608,0.6969773439673475,0.0120223523900079,0.5936023040879396,0.2349716416338433,0.5877905809099316,0.5638599559992888,-7.811477784271646,9.313501201285368,78.62990925234013,0.6059402776902935,0.4466640515061684,-2.4600059845211537,6501.71484375,12.04,0.27,179.16465921308543,-11.285281086035042,106.14304760150632,1525.0,1435.0,1200.0,1262.0,1475.0,1018.02,242.0,295.35,1637186888.653025,1637186889.8838298,9e09beee-80ee-40fa-8671-626c079a2869
0.2830295764397163,0.284974487659241,0.6984050730940125,0.0182203194568691,0.5940373067505474,0.2266956338460491,0.5858193723757547,0.5590289063265627,-7.786718685606203,9.363930079565728,79.13134330546391,0.573859673061132,0.4647916254638635,-2.45822433128162,6498.427734375,12.039666666666667,0.2666666666666667,179.1700095279353,-11.333169249853292,106.11847485760232,1525.0,1435.0,1200.0,1262.0,1475.0,1018.02,242.0,295.35,1637186889.991925,1637186891.2721338,9e09beee-80ee-40fa-8671-626c079a2869
0.3488524932840053,0.3066846272754268,0.9210968512626326,0.0113780658696857,0.7937911852297743,0.1947497816015448,0.8058353899366167,0.7756591347861104,-6.630135761305034,10.023468940994436,78.40910651474488,0.5334353175876556,0.5594040899971296,-3.345019247900296,6515.44482421875,12.037555555555556,0.2688888888888889,179.207545211974,-11.30437184422018,106.0250211737386,1525.0,1435.0,1200.0,1173.0,1475.0,1018.02,242.0,295.35,1637186892.0242946,1637186893.1575024,2b0e12b2-df85-47ee-a483-a037083e2197
0.3437053269942995,0.3053275724561474,0.9305343272524236,0.0507633428950312,0.8072379173823445,0.1656089848882063,0.8102511599865112,0.7862547915458474,-6.310516618527772,9.935289758864371,79.28537093070875,0.3792944635043865,0.540033433801021,-3.380808886059338,6520.950900607639,12.03122222222222,0.2988888888888888,179.22004445815517,-11.271661593966298,105.94817623320657,1525.0,1435.0,1200.0,1173.0,1475.0,1018.02,242.0,295.35,1637186893.2661426,1637186894.28287,2b0e12b2-df85-47ee-a483-a037083e2197
0.3374596967277538,0.2899326415106071,0.9111810914648464,0.0569952770782856,0.7960341334368985,0.1707178010825766,0.7930893736346962,0.7626693198837232,-6.746946714998477,9.740580970977586,78.54759218883886,0.374125234941106,0.4899234634559512,-3.317807621401773,6518.19482421875,12.025,0.3299999999999999,179.2267729533975,-11.264651922603097,105.86105413470344,1525.0,1435.0,1200.0,1173.0,1475.0,1018.02,242.0,295.35,1637186894.395646,1637186895.507408,2b0e12b2-df85-47ee-a483-a037083e2197
-0.0542733751378698,0.124627787237373,-0.3953111480672557,0.125285221778844,-0.3865278174155419,0.3299446693638412,-0.5397627598612414,-0.558144642720541,-15.276688554987905,9.209360724340645,76.988227107141,0.5047655433213537,-0.1471198196458552,1.9441251771209416,6523.15576171875,12.028,0.3022222222222221,179.24791466560842,-11.255399482734926,105.95265000711294,1525.0,1435.0,1200.0,1617.0,1475.0,1018.02,242.0,295.35,1637186897.5539954,1637186898.5800774,6b6e9e8d-1f47-4c73-a8ae-e658bd134acf
-0.076455226639142,0.1233129176818807,-0.3828330329220237,0.1362512342806202,-0.3749964086115815,0.3188471706246154,-0.5307953464419373,-0.5651134538497026,-15.181414884276208,9.396628176082338,76.74293835454232,0.456962947660356,-0.1511076444666545,1.8982231136108976,6482.632269965277,12.044555555555554,0.2477777777777777,179.2211797873772,-11.245915670208625,105.92813569927183,1525.0,1435.0,1200.0,1617.0,1475.0,1018.02,242.0,295.35,1637186898.6895573,1637186899.920199,6b6e9e8d-1f47-4c73-a8ae-e658bd134acf
-0.073943825476451,0.1358567735574533,-0.382030962295561,0.1170672868800165,-0.3827672895159524,0.3169274610242204,-0.5314133352899563,-0.5532796235887474,-14.820223017424462,9.60022897949593,75.70295631470675,0.497329056829241,-0.0949833965196495,1.9086457350662973,6449.537923177083,12.041333333333334,0.25,179.20274434789744,-11.243611809456086,105.9068528298181,1525.0,1435.0,1200.0,1617.0,1475.0,1018.02,242.0,295.35,1637186900.029105,1637186901.1498387,6b6e9e8d-1f47-4c73-a8ae-e658bd134acf
-0.1512713129156418,0.0869962191521169,-0.6889347683666089,0.1969193167862601,-0.6512242935087665,0.3238962695375185,-0.8612353614585747,-0.872911410494094,-17.55038526785221,9.973835575858836,77.89814532273851,0.3190328388121384,-0.3076538927414984,3.1580553745672364,6491.885904947917,12.042333333333334,0.2533333333333333,179.17342006906085,-11.290069617825653,105.94233793928603,1525.0,1435.0,1200.0,1706.0,1475.0,1018.02,242.0,295.35,1637186903.0841234,1637186904.2171843,d437aea3-cd24-44bb-91d5-980031b1d499
-0.1504560935571532,0.0919138315612343,-0.6848849685914081,0.1983393756687065,-0.6483184308506444,0.3204513111169478,-0.8584478365701739,-0.8712283770084204,-17.498573018130966,9.9792453931021,78.30502097087792,0.3084167069618042,-0.2931007114801638,3.145823678507527,6527.019965277777,12.037777777777778,0.2777777777777778,179.1471663397111,-11.29403606045866,105.88257606077816,1525.0,1435.0,1200.0,1706.0,1475.0,1018.02,242.0,295.35,1637186904.3257143,1637186905.452811,d437aea3-cd24-44bb-91d5-980031b1d499
-0.1539010524042878,0.1037739553745667,-0.6796649338012868,0.1925408011312698,-0.6467274378734647,0.3193731183762351,-0.8553447421359118,-0.8792359364285375,-17.471463542825067,10.032445932683943,79.07547751001232,0.3198230845423543,-0.2545926941001043,3.1345910798429784,6538.08251953125,12.037222222222224,0.2677777777777778,179.15817356901354,-11.31131586987636,105.82755661028398,1525.0,1435.0,1200.0,1706.0,1475.0,1018.02,242.0,295.35,1637186905.5878708,1637186906.5667694,d437aea3-cd24-44bb-91d5-980031b1d499
-0.2258901712331378,0.0933601880576616,-0.9087153285496108,0.2403231610656679,-0.8662844631357193,0.2744045797959539,-1.1199492702790508,-1.139028043095642,-18.727786336620746,11.222845378685395,75.58111179012923,0.1062841750810619,-0.2741716504437722,4.115460314408195,6503.3583984375,12.034,0.28,179.21637740548078,-11.31407944030554,105.72908121956046,1525.0,1435.0,1200.0,1795.0,1475.0,1018.02,242.0,295.35,1637186908.518566,1637186909.5497267,6e1b7a11-613c-4714-abf9-a7c1edc5a319
-0.222274279071422,0.0772398865587908,-0.9181035033348508,0.2517625260873612,-0.8654035005851299,0.2814128347192741,-1.1273256944841357,-1.146996158823543,-19.37547464137046,10.983461674668815,75.77114144456228,0.0938781449292852,-0.333740282251603,4.135623050430366,6452.228786892361,12.027888888888889,0.3,179.196732263608,-11.324844008164954,105.6410006178438,1525.0,1435.0,1200.0,1795.0,1475.0,1018.02,242.0,295.35,1637186909.6574423,1637186910.771778,6e1b7a11-613c-4714-abf9-a7c1edc5a319
-0.2268500259026708,0.0730454526113657,-0.912160288898258,0.254142440181025,-0.861971688560216,0.2833588416522882,-1.1182267898801914,-1.1360169895572267,-18.86253381292512,11.067156793079269,75.82921381266122,0.0940007951022356,-0.3535319536160762,4.109812249623944,6440.377332899306,12.03,0.31,179.19248843940372,-11.305637516218878,105.56838660004765,1525.0,1435.0,1200.0,1795.0,1475.0,1018.02,242.0,295.35,1637186910.8800848,1637186912.0043404,6e1b7a11-613c-4714-abf9-a7c1edc5a319
-0.2867160475470564,0.0554656457344233,-1.105012341654656,0.3453680888944733,-1.0373096578645125,0.2346560732693044,-1.3458966606124068,-1.3721677817227904,-20.157685191899787,12.07442646536458,76.77407797686382,-0.2246503031886855,-0.4421150011145816,4.934347096030059,6488.5888671875,12.029,0.31,179.1924580830074,-11.340296267660984,105.47983395636834,1525.0,1435.0,1200.0,1883.0,1475.0,1018.02,242.0,295.35,1637186913.008774,1637186914.05142,92931780-da9b-4f41-a1f5-c65e51663d9d
-0.2861583235918565,0.0647612261161931,-1.1080480483497672,0.3339670743515952,-1.0450027451202732,0.2390225358003546,-1.3463409764278262,-1.379144266894209,-19.75041299683245,12.017002741605694,77.1820105884109,-0.1893821727791857,-0.4125387045072846,4.9515045094270045,6528.131022135417,11.999333333333334,0.4499999999999999,179.24522812453492,-11.343085830754504,105.17465199733329,1525.0,1435.0,1200.0,1883.0,1475.0,1018.02,242.0,295.35,1637186914.1601102,1637186915.373882,92931780-da9b-4f41-a1f5-c65e51663d9d
-0.2874321036122884,0.0572966016548919,-1.1063222815658311,0.3299265898214807,-1.0389214697499085,0.2494867061104623,-1.344478243713013,-1.3601334251419124,-20.40917957166822,12.01488179662662,77.11830711394573,-0.1570233310718043,-0.4347015559616671,4.936728731308292,6542.518717447917,11.996444444444444,0.4511111111111112,179.23430589314214,-11.359234010635967,104.89752845540863,1525.0,1435.0,1200.0,1883.0,1475.0,1018.02,242.0,295.35,1637186915.4816658,1637186916.519562,92931780-da9b-4f41-a1f5-c65e51663d9d
0.026683149547873,0.1454684703273238,-0.1117726265483207,0.1108873997810899,-0.0975194390471832,0.3212533818704896,-0.2035110875791786,-0.2191711868932035,-12.701901412283528,5.621946048363314,79.18521024713917,0.5096962329480228,-0.0869634334149849,0.694007453276792,8321.7724609375,11.857,6.860000000000001,-178.775912166285,-11.3265812478076,92.60168986122773,1525.0,1435.0,1350.0,1528.0,1475.0,1018.02,242.0,295.35,1637186920.0050898,1637186921.0122335,8fa4529b-8c70-4435-ada0-0f16ab959797
0.0222608046607695,0.1596098927219413,-0.1168277527175458,0.0967700830956993,-0.1097192384457256,0.3115458096591091,-0.2112381389034749,-0.2358371609485418,-12.33851287108921,5.713629626875467,77.87546943265885,0.5200574399550074,-0.0234690457905514,0.7284729445532769,8313.701171875,11.858333333333336,6.876666666666666,-178.14381458627588,-11.16050036008808,86.7528531642435,1525.0,1435.0,1350.0,1528.0,1475.0,1018.02,242.0,295.35,1637186921.1201708,1637186922.3363326,8fa4529b-8c70-4435-ada0-0f16ab959797
0.0222471081043315,0.1490361498174539,-0.1143897651038558,0.1101516206971372,-0.1012547647112599,0.3266394162224177,-0.2072387433244728,-0.2250031820163599,-12.789733279694415,5.73496711796772,80.32549520205369,0.5242155786272615,-0.0831405363281862,0.7098956380395935,8305.6455078125,11.86188888888889,6.88,-177.88203772050633,-10.972962907409652,82.42034957830835,1525.0,1435.0,1350.0,1528.0,1475.0,1018.02,242.0,295.35,1637186922.4447567,1637186923.5311563,8fa4529b-8c70-4435-ada0-0f16ab959797
0.1905504174182356,0.4526614420366895,-0.0772173030897843,-0.0336348521020426,-0.1403858351073593,0.157555408962033,-0.2346044703699759,-0.256190249760945,-11.637342174833426,5.0682994493443845,79.79842867515221,0.4665358793921856,1.0722023705371109,0.7873004625996863,8378.7158203125,11.856444444444444,6.834444444444445,-178.0881773831168,-10.66499584387678,73.36827406835359,1576.0,1435.0,1350.0,1528.0,1515.0,1018.02,242.0,295.35,1637186925.6122217,1637186926.7563136,b28f8592-b759-4c5c-a790-f7f71b670256
0.1775249907230595,0.4327329509759905,-0.0877773502638297,-0.0229104467596425,-0.1464397144426853,0.1620478799187905,-0.2422608475511682,-0.2714345211177687,-11.606085905051364,5.136712949528806,78.99446561510369,0.4522547092782092,1.0023739984867956,0.8173841657546402,8379.626736111111,11.84911111111111,6.891111111111111,-178.19422138235058,-10.594133864466496,70.52552125612767,1576.0,1435.0,1350.0,1528.0,1515.0,1018.02,242.0,295.35,1637186926.8706057,1637186927.986581,b28f8592-b759-4c5c-a790-f7f71b670256
0.1888591664831513,0.4309792437553726,-0.0919312427907721,-0.0163525340283932,-0.1494304951956863,0.1538178921877749,-0.2489135407477895,-0.2737514313290087,-11.661382800846974,5.170813659622197,78.39733458496922,0.4188639839604173,1.0004100895208492,0.8355423825789069,8375.079535590277,11.851,6.916666666666667,-178.4124201233956,-10.567467477854429,67.82742577924341,1576.0,1435.0,1350.0,1528.0,1515.0,1018.02,242.0,295.35,1637186928.098595,1637186929.2072427,b28f8592-b759-4c5c-a790-f7f71b670256
0.3772142290760931,0.7658502082770906,-0.0440042428708137,-0.2048128088632987,-0.1879167323368345,-0.0045450044496611,-0.2703590669734133,-0.2910156719219584,-11.066876624138478,4.66024342096336,77.96379670053499,0.4873535809038327,2.282247624001667,0.8920469291934557,8337.962890625,11.845,6.978888888888889,-178.87057858818136,-10.513955696755794,64.40829910589699,1627.0,1435.0,1350.0,1528.0,1556.0,1018.02,242.0,295.35,1637186930.1191015,1637186931.258345,97686934-1c88-4b39-a682-960b1dd2758e
0.3795546967926214,0.7704785489189804,-0.0343399509067305,-0.2038529539393949,-0.180435123636775,-0.0064121193572085,-0.2594850939210192,-0.2778406763509903,-10.755538923127231,4.614386141395979,78.54631512436258,0.4814195269089121,2.292734005792879,0.8548275765252464,8329.8603515625,11.838333333333331,7.02,-179.13210501368133,-10.47364069490727,62.60010669924395,1627.0,1435.0,1350.0,1528.0,1556.0,1018.02,242.0,295.35,1637186931.3664591,1637186932.490837,97686934-1c88-4b39-a682-960b1dd2758e
0.3831179932290812,0.7797352302021358,-0.0387184668180066,-0.1920717210541605,-0.1869437287516079,-0.0232293022969048,-0.2701618365201246,-0.2850593117296677,-10.609988389794337,4.749024822668392,78.92661036832514,0.4178618993231084,2.3213256574627605,0.8866685977063888,8345.186848958334,11.841111111111111,6.994444444444445,-179.415902409335,-10.446855159439682,61.03756432282015,1627.0,1435.0,1350.0,1528.0,1556.0,1018.02,242.0,295.35,1637186932.6218245,1637186933.710143,97686934-1c88-4b39-a682-960b1dd2758e
0.5449258352293317,1.0643518870265465,0.0106154426211218,-0.355181319722033,-0.2177905731727139,-0.1373862884978308,-0.2832710884256337,-0.3188514662389986,-10.21530970335902,5.100648553587951,81.12251296789412,0.5346073676494048,3.3897712508640354,0.916337654397799,8395.12890625,11.838888888888889,6.9833333333333325,-99.99380248880698,-10.54970490687164,57.96157876427608,1678.0,1435.0,1350.0,1528.0,1596.0,1018.02,242.0,295.35,1637186935.5353584,1637186936.7855198,0657fde6-6b97-4ffb-b1c3-10de405241a0
0.5226256484706963,1.0385541464913106,-0.0027699304429072,-0.3384956212810813,-0.2237732307284891,-0.139516377438787,-0.2920018240640052,-0.3167082281974362,-10.061232148479908,4.974583106364996,79.32720345829573,0.4904710964253747,3.30493023291142,0.9498148308999412,8395.12890625,11.82877777777778,7.014444444444444,179.73596052038232,-10.510820829654234,56.75157128949312,1678.0,1435.0,1350.0,1528.0,1596.0,1018.02,242.0,295.35,1637186936.894057,1637186938.1063328,0657fde6-6b97-4ffb-b1c3-10de405241a0
0.5224021206679018,1.0408025734454678,0.0033310647287172,-0.3426506100593866,-0.2182113316099325,-0.1380831696146778,-0.2873340362924672,-0.3140916372274505,-10.275202289412707,5.038499459923194,79.34204615419267,0.5036864994272109,3.315645501232245,0.9273577559841324,8367.822048611111,11.825888888888889,7.072222222222222,179.5129305588644,-10.53378506400868,55.74322477049984,1678.0,1435.0,1350.0,1528.0,1596.0,1018.02,242.0,295.35,1637186938.214999,1637186939.444103,0657fde6-6b97-4ffb-b1c3-10de405241a0
0.6934797911004895,1.3399880014123955,0.0373730397266626,-0.5127947766336748,-0.2727652788168381,-0.2877021998294979,-0.326135844627348,-0.360624880832252,-9.47538278183969,5.6831636146734805,77.44414827570286,0.5573448078367936,4.472050255920482,1.0428323135288124,8354.216796875,11.829333333333333,7.06,179.07282048950546,-10.413442443202408,54.68015136078181,1729.0,1435.0,1350.0,1528.0,1636.0,1018.02,242.0,295.35,1637186940.0026443,1637186941.0878494,8a869462-a5ad-4908-bc35-0c44b4884658
0.7040118957790942,1.347456461056108,0.0448414991878244,-0.5247732419252147,-0.2747507322908296,-0.2940398723484434,-0.3219940047619498,-0.3463716919386727,-9.024967470679076,6.114858339931823,76.05338045024502,0.573362361496997,4.511155518900257,1.0284340545534374,8346.08203125,11.817555555555556,7.154444444444445,178.98993538501742,-10.409973940332645,53.89913440738902,1729.0,1435.0,1350.0,1528.0,1636.0,1018.02,242.0,295.35,1637186941.2004983,1637186942.5157163,8a869462-a5ad-4908-bc35-0c44b4884658
0.7081537346943112,1.3638397370995636,0.043500332218567,-0.5109013635984626,-0.2712663271805332,-0.3002460578173942,-0.3268853204151998,-0.3628864577516186,-9.469947727887629,5.721281597044773,79.25023146385459,0.5257344310773652,4.545618993231979,1.0389437486347757,8363.282009548611,11.817555555555556,7.155555555555556,178.85548842357508,-10.39084352910482,53.13316474019271,1729.0,1435.0,1350.0,1528.0,1636.0,1018.02,242.0,295.35,1637186942.623481,1637186943.8429945,8a869462-a5ad-4908-bc35-0c44b4884658
-0.156530791706377,-0.1392139574080673,-0.1663791660049423,0.2563645696853679,-0.0839368351818526,0.4615236625079839,-0.2041948199014468,-0.2336084567658085,-13.445273519356446,6.611335839871377,78.29571831957861,0.5000651881625086,-1.1629070107662212,0.7155641515502825,8403.359375,11.817,7.13,178.9062594964055,-10.551756904398538,52.00834566146786,1474.0,1435.0,1350.0,1528.0,1435.0,1018.02,242.0,295.35,1637186945.5037196,1637186946.61823,2aebdd52-a116-47b2-88c1-930380bab92b
-0.1405228007112424,-0.137249322899234,-0.1680117959332173,0.2361462587239978,-0.0886265370966095,0.4666593236603738,-0.2033215271769674,-0.2147033691827205,-13.372133050569795,6.577405038609547,76.65086020642967,0.5566816522139032,-1.1390925398155634,0.7207393589538954,8403.359375,11.845,6.96,178.78861176468178,-10.595392706276025,51.63429490503157,1474.0,1435.0,1350.0,1528.0,1435.0,1018.02,242.0,295.35,1637186946.7311862,1637186947.7706668,2aebdd52-a116-47b2-88c1-930380bab92b
-0.1356243632115988,-0.1203192796207076,-0.1605542930952422,0.2427030750891828,-0.0831347646346984,0.4424580545927724,-0.2028405040214071,-0.2330430629028596,-13.348662193772553,6.488770832895163,76.45858358164624,0.4872725295424556,-1.074392583921722,0.7042967239737178,8381.453993055555,11.841555555555551,7.031111111111112,178.7181226946274,-10.656460194416509,51.33646147063352,1474.0,1435.0,1350.0,1528.0,1435.0,1018.02,242.0,295.35,1637186947.8796203,1637186948.9632738,2aebdd52-a116-47b2-88c1-930380bab92b
-0.2827319919932517,-0.3842925382824419,-0.1986986642420924,0.3635395859656337,-0.0607425339056155,0.5827414820522405,-0.1897444012664912,-0.2036425750832023,-14.162240860474334,7.548209162848783,75.3460615101554,0.5344674910047544,-2.066111976668493,0.6736924447194669,8362.3671875,11.840555555555556,7.062222222222222,178.49704313157244,-10.762053401165092,50.58833149863938,1423.0,1435.0,1350.0,1528.0,1394.0,1018.02,242.0,295.35,1637186951.1017785,1637186952.1416075,956b563c-2e94-44ed-bbf7-9f169334aed5
-0.2968668424465476,-0.389972776138802,-0.194780352391011,0.3658537562706095,-0.0527875723806629,0.5928659771926711,-0.1809873687613615,-0.2066799242676456,-14.256287497787536,7.304576415891139,76.34870543387096,0.5506909036095593,-2.095677746676713,0.645829605445943,8362.3671875,11.831666666666669,7.043333333333334,178.46526605591393,-10.794590904551216,50.30202324955584,1423.0,1435.0,1350.0,1528.0,1394.0,1018.02,242.0,295.35,1637186952.249728,1637186953.377034,956b563c-2e94-44ed-bbf7-9f169334aed5
-0.2932115043067515,-0.3911298616495049,-0.2011443220470234,0.3573991452373651,-0.0614262661676882,0.5962451918006313,-0.185286992831536,-0.2125442431621331,-14.024657937679454,7.340773316570309,75.51894018880252,0.5772633786026353,-2.093664633781967,0.6711550376272974,8354.216796875,11.833,7.04,178.37798534524003,-10.767859820869509,50.13312747012461,1423.0,1435.0,1350.0,1528.0,1394.0,1018.02,242.0,295.35,1637186953.4907196,1637186954.4903295,956b563c-2e94-44ed-bbf7-9f169334aed5
-0.4239621630298819,-0.6089643689729052,-0.2232341339823585,0.4469943543671505,-0.0351946161730928,0.7087848720419708,-0.1647355787952667,-0.1848793833018186,-14.686599285778447,8.20521127406446,72.8924203314044,0.6319288774362233,-2.895129445070177,0.6061820063817599,8378.7158203125,11.827777777777778,7.140000000000001,178.44237733309532,-10.909879185371675,49.76598658839865,1372.0,1435.0,1350.0,1528.0,1354.0,1018.02,242.0,295.35,1637186956.5384333,1637186957.6713717,8649e495-163d-4a79-bbb9-aa9f4bd8ebf5
-0.4269863637027436,-0.6272936576487502,-0.2237469331492923,0.4719111315814204,-0.0275946695049538,0.7046956279087064,-0.1696400428762075,-0.2041290770324967,-15.317928465712708,8.401102231505162,72.99983303423916,0.5675060331393064,-2.963456000201002,0.6011427398259106,8378.7158203125,11.796777777777775,7.252222222222222,178.50154346732558,-10.975478504026464,49.5331158421065,1372.0,1435.0,1350.0,1528.0,1354.0,1018.02,242.0,295.35,1637186957.7792594,1637186958.9106514,8649e495-163d-4a79-bbb9-aa9f4bd8ebf5
-0.4077974813242913,-0.5957006173254072,-0.2195382543580367,0.4516068070145491,-0.0318679960848952,0.690159745616647,-0.1685733549284051,-0.1915150932931932,-14.972576666384777,8.182657204425091,72.6973806542508,0.5795306406718225,-2.84196357784998,0.6032568515060394,8378.7158203125,11.79977777777778,7.231111111111113,178.53975458118225,-11.038475615471215,49.46714797782776,1372.0,1435.0,1350.0,1528.0,1354.0,1018.02,242.0,295.35,1637186959.0455666,1637186960.1336606,8649e495-163d-4a79-bbb9-aa9f4bd8ebf5
-0.5447855629723404,-0.8257470118740858,-0.2455080280916348,0.554892546046638,-0.0098702267044516,0.7895704540909763,-0.1572013753567212,-0.1879167326064997,-15.571596974206354,9.485002457724852,68.24085372104548,0.5762608089919563,-3.675380563641556,0.5583345060462718,8378.7158203125,11.79977777777778,7.222222222222222,178.64580768733495,-11.0621813996693,49.31538383065475,1321.0,1435.0,1350.0,1528.0,1314.0,1018.02,242.0,295.35,1637186961.043294,1637186962.180437,32a05573-721e-4949-9685-ec82dc71110f
-0.5292996817160773,-0.8105449202431173,-0.2421923646638012,0.5312659846865248,-0.0145555453662765,0.792719566538063,-0.1556711955716416,-0.1905152445102115,-15.482849209255642,9.666959968281146,67.7294956996602,0.637967495188131,-3.611337242185927,0.5589162693021189,8378.7158203125,11.796444444444443,7.258888888888888,178.64632222825242,-11.11122082981765,49.25352166897708,1321.0,1435.0,1350.0,1528.0,1314.0,1018.02,242.0,295.35,1637186962.289095,1637186963.409344,32a05573-721e-4949-9685-ec82dc71110f
-0.5257988402036875,-0.8327552703851695,-0.2438644408156615,0.5510531270802906,-0.0030592017989802,0.8060589176504861,-0.1503772014136663,-0.1663791663463766,-15.94985302491059,9.231941198963131,69.14316392496869,0.6203310717273269,-3.706413125706141,0.5373313859589657,8378.7158203125,11.798222222222222,7.2444444444444445,178.64126940608645,-11.09547980510171,49.21134600976216,1321.0,1435.0,1350.0,1528.0,1314.0,1018.02,242.0,295.35,1637186963.5181715,1637186964.845236,32a05573-721e-4949-9685-ec82dc71110f
0.018069657684684,0.1435986161644476,-0.1297025185515405,0.126642276923169,-0.1122257087606055,0.3153945423588267,-0.2231404495048824,-0.2547110214338177,-12.681502073342289,5.567374764433012,80.00970956469581,0.4598786453294791,-0.1045057691740239,0.7675378037295655,8378.7158203125,11.796,7.25,178.43330987751716,-11.170537892255842,49.22797031074702,1525.0,1435.0,1350.0,1528.0,1475.0,1018.02,242.0,295.35,1637186965.5103912,1637186966.4815922,d6566d1c-4d89-4c41-9b31-8c3170ec2a53
0.0027525221037812,0.1283488682539473,-0.1321136609285061,0.1438906266353432,-0.1074993000344543,0.3218319244744377,-0.2226687400205846,-0.2489792846666758,-12.870716112138098,5.459139642270181,81.05280564257075,0.4346697189193435,-0.1718856495753558,0.7634046117488549,8386.9140625,11.854666666666668,6.946666666666666,178.46733332650268,-11.187618772413966,49.429092061047214,1525.0,1435.0,1350.0,1528.0,1475.0,1018.02,242.0,295.35,1637186966.5899413,1637186967.7109215,d6566d1c-4d89-4c41-9b31-8c3170ec2a53
0.0109337505494993,0.136010722936956,-0.1324144374108237,0.1199583564734468,-0.1132940404003925,0.3295567829954727,-0.2200039372998187,-0.2433565726232768,-12.646750203749315,5.442004641032483,80.09401681945872,0.5058451810990435,-0.1333092741596797,0.7674417527849334,8386.9140625,11.85388888888889,6.918888888888889,178.384692591005,-11.133461728166244,49.67059996099979,1525.0,1435.0,1350.0,1528.0,1475.0,1018.02,242.0,295.35,1637186967.818925,1637186969.038375,d6566d1c-4d89-4c41-9b31-8c3170ec2a53
0.0318637359264814,0.1250879916585622,-0.1825520637581255,-0.4487869073399812,-0.2145033988488917,0.8908285549102658,-0.1092875228055027,-0.1338492892263666,-12.712126568023985,3.8691713090413344,84.16040142158941,3.0377400417836053,-0.1430341207261284,0.816025692414005,8389.65234375,11.855,6.959999999999999,178.45480220610546,-10.953323647088666,49.97115294905235,1525.0,1521.0,1350.0,1528.0,1475.0,1018.02,242.0,295.35,1637186970.055416,1637186971.192469,ae58a927-05f8-465c-a308-e6b9450fb430
0.0191105961064751,0.115767209806255,-0.1852146749726059,-0.4348344938802178,-0.2162647764237344,0.8880476058858883,-0.1154717932919667,-0.1284972220150881,-12.790098905383909,4.2118359787208695,84.25538729038328,3.0021325288446543,-0.1801635327013194,0.8297925938178913,8395.12890625,11.84911111111111,6.983333333333334,178.48356337379047,-10.976063528701625,50.090035806651,1525.0,1521.0,1350.0,1528.0,1475.0,1018.02,242.0,295.35,1637186971.3005593,1637186972.5133889,ae58a927-05f8-465c-a308-e6b9450fb430
0.0228086669586714,0.1110008074645115,-0.1711346114896017,-0.4250688451923214,-0.1960897435093343,0.9000320936272992,-0.097296459008868,-0.1086919977172897,-13.102246169968526,3.936014271908258,86.70123289098997,3.006139754841605,-0.2178230428650654,0.7600964406531429,8395.12890625,11.846555555555556,6.997777777777778,178.53894254758094,-10.945671368761053,50.173181217237385,1525.0,1521.0,1350.0,1528.0,1475.0,1018.02,242.0,295.35,1637186972.6233654,1637186973.6506689,ae58a927-05f8-465c-a308-e6b9450fb430
0.0560178909865299,0.1123995000191375,-0.2264818623017886,-1.0294335817857156,-0.3258202758764287,1.4576030948271703,-0.011960869240006,-0.0293171491353817,-13.319370216642644,4.286087361280434,87.15708450243565,5.621903142085821,-0.1441730947804721,0.8859563512413294,8378.7158203125,11.843666666666667,7.04,178.5639713963395,-10.702021919912465,50.3802607897686,1525.0,1607.0,1350.0,1528.0,1475.0,1018.02,242.0,295.35,1637186975.5844612,1637186976.7187698,48e57341-d29f-4e79-9ea0-384dbdcdc495
0.0512016331421629,0.1165616101642372,-0.2155936449117773,-1.0240332991438614,-0.3190848551720444,1.4496886748949656,-0.0007083243583371,-0.0232802535912666,-12.716887895211611,4.352008073715454,87.39973752999049,5.593257780636467,-0.1349510181045814,0.8472068815377143,8378.7158203125,11.836666666666666,7.068888888888889,178.62303583664212,-10.68887627221739,50.41013831392796,1525.0,1607.0,1350.0,1528.0,1475.0,1018.02,242.0,295.35,1637186976.827808,1637186978.0423248,48e57341-d29f-4e79-9ea0-384dbdcdc495
0.0569514484110578,0.1248118690121425,-0.2117553209093054,-1.0334702346466964,-0.3180362464898627,1.448530493853343,9.64854565419876e-05,-0.014353932096606,-12.906772309163893,4.457810851434078,87.16668902694794,5.612702377674784,-0.0991910607356778,0.8398113325003465,8375.079535590277,11.83777777777778,7.055555555555555,178.6252958703475,-10.714883830165768,50.416536303905495,1525.0,1607.0,1350.0,1528.0,1475.0,1018.02,242.0,295.35,1637186978.15028,1637186979.271556,48e57341-d29f-4e79-9ea0-384dbdcdc495
0.0725983969142028,0.1202887176154152,-0.243917035644743,-1.5436138177051664,-0.408775415834144,1.9486149547147376,0.0926633071872563,0.0775949014287894,-13.524067168099103,4.659041484235129,91.07847106087635,7.887263244763806,-0.0856824670487334,0.8754285456128386,8370.5341796875,11.829777777777778,7.114444444444445,178.70186380876314,-10.581627503504988,50.48652980579006,1525.0,1693.0,1350.0,1528.0,1475.0,1018.02,242.0,295.35,1637186981.0935447,1637186982.2518528,6fcdf4fb-90ea-4333-99b8-1110460aaa61
0.0605804886458178,0.1204727993548311,-0.2385786641820834,-1.5537777715510237,-0.4062771627321043,1.967299258345819,0.1030507771591321,0.0844979668934762,-13.322390755744411,4.717174035741606,92.48764280082716,7.953154091344754,-0.0973181078099243,0.8519973490801317,8387.826822916666,11.822333333333331,7.140000000000001,178.7556249866302,-10.57927829788546,50.49446534724075,1525.0,1693.0,1350.0,1528.0,1475.0,1018.02,242.0,295.35,1637186982.360427,1637186983.572591,6fcdf4fb-90ea-4333-99b8-1110460aaa61
