raw_voltage_G-,raw_voltage_G0,raw_voltage_G1,raw_voltage_G2,raw_voltage_G3,raw_voltage_G4,raw_voltage_G5,raw_voltage_G6,load_x,load_y,load_z,load_l,load_m,load_n,rpm,voltage,current,roll,pitch,yaw,aileron1_pwm,elevator_pwm,throttle_pwm,rudder_pwm,aileron2_pwm,pbaro,pdiff,Tt,sample_start_time,sample_end_time,uid
0.0182340163364199,0.1627874942143582,-0.0487284600800149,0.1303951338505899,-0.0948858645444429,0.21727240216529,-0.2341524838989605,-0.2656271799378211,-13.607951039187403,12.510551198102007,69.42209045341211,0.2788246134965594,0.0726481875808563,0.6331469064921137,6588.916124131944,12.040777777777777,0.27,179.14083854890004,-8.987954642664068,107.03941506633198,1525.0,1435.0,1200.0,1528.0,1475.0,1018.02,242.0,295.25,1637185280.0560837,1637185281.1541207,a7afd23c-824a-464d-9261-389019f3328a
0.0294443757568261,0.1590510731479942,-0.0465419413585302,0.1369218177640331,-0.0930357333318172,0.2181018656476097,-0.231754490122816,-0.2690047522433809,-13.45801807355232,12.627650818111498,69.88909261441,0.2670009856756771,0.0527711448875609,0.6245528394873621,6638.251410590277,12.041888888888888,0.27,179.24051984746703,-9.015568148841046,106.74359046645986,1525.0,1435.0,1200.0,1528.0,1475.0,1018.02,242.0,295.25,1637185281.2868023,1637185282.2637355,a7afd23c-824a-464d-9261-389019f3328a
0.042238057310741,0.1826135360292042,-0.0377586120035445,0.1147531163575569,-0.0883416485519014,0.2051504004780456,-0.2257981300360599,-0.2630089457576894,-13.583548818426028,12.312675919530037,68.49001964030629,0.2859676083444095,0.1577140468921553,0.59843099294152,6649.6708984375,12.04288888888889,0.2688888888888889,179.32376163961172,-9.038790507427873,106.4832858859114,1525.0,1435.0,1200.0,1528.0,1475.0,1018.02,242.0,295.25,1637185282.372844,1637185283.6045332,a7afd23c-824a-464d-9261-389019f3328a
0.1722655123577476,0.4244876233947046,-0.0119805923438621,-0.0063102170229299,-0.1247580606955099,0.0699111321727092,-0.2571627051715794,-0.2806933970585744,-13.13803496965578,12.128081175396575,67.08673085725432,0.2552165748383725,1.0907095542617202,0.6841630559303763,6544.760091145833,12.040333333333333,0.2833333333333334,179.31878015497705,-9.04649420190174,106.09504275528974,1576.0,1435.0,1200.0,1528.0,1515.0,1018.02,242.0,295.25,1637185284.6080294,1637185285.8579638,91814cd6-7034-4a6e-ab39-9fbc5c518624
0.1878658920185793,0.4390059742877211,-0.0068580793083272,-0.0115012129407908,-0.124278681069327,0.0642681500380965,-0.2535057235228528,-0.2727904813284638,-12.868507978898384,12.10167889295071,67.65960555367094,0.2545526910996746,1.139140592381627,0.6740393305078939,6518.746039496527,12.037,0.29,179.36201677024306,-9.066203945980412,105.8764638003809,1576.0,1435.0,1200.0,1528.0,1515.0,1018.02,242.0,295.25,1637185285.9666326,1637185286.974076,91814cd6-7034-4a6e-ab39-9fbc5c518624
0.1744876419593877,0.4227350118954469,-0.0087262899544147,0.0058819118155365,-0.1219497181013146,0.0748205266052911,-0.2517799569474618,-0.2680054501787355,-12.77774427129185,12.18545882339201,69.16591156514427,0.2398013845527685,1.0618645868969552,0.6712938805759748,6524.824055989583,12.036,0.2933333333333333,179.41685711799897,-9.063300736128202,105.67530941695466,1576.0,1435.0,1200.0,1528.0,1515.0,1018.02,242.0,295.25,1637185287.0825112,1637185288.202882,91814cd6-7034-4a6e-ab39-9fbc5c518624
0.3916569750266993,0.807046165497956,0.0345466178668043,-0.1830369223242468,-0.1732438817071197,-0.1264016478971991,-0.289719429214998,-0.3137979840576501,-11.79296260174318,11.323059630538816,69.3864157817021,0.210751512389686,2.520329304232271,0.7823892328157607,6649.6708984375,12.037,0.29,179.41180277801317,-9.06942143939818,105.30558217026298,1627.0,1435.0,1200.0,1528.0,1556.0,1018.02,242.0,295.25,1637185290.0454462,1637185291.067202,bc8bcf04-b6c9-470f-a771-32543aeeafbf
0.3936238007192167,0.8091488609735259,0.040331496357437,-0.1794095252900671,-0.1675888461995026,-0.1292735424095693,-0.283915374753036,-0.3113830059128471,-11.697988093492148,11.274215442106758,69.79033694077445,0.1961919123849874,2.523882833298236,0.7594800984138714,6663.457356770833,12.025,0.3333333333333333,179.40147553198813,-9.03997250960924,105.12003552800012,1627.0,1435.0,1200.0,1528.0,1556.0,1018.02,242.0,295.25,1637185291.1756127,1637185292.4079068,bc8bcf04-b6c9-470f-a771-32543aeeafbf
0.3976423706827991,0.8074707587771573,0.0335330724876934,-0.1715592052248306,-0.1740656753758588,-0.1367288536431417,-0.2934311971731318,-0.3112778160884786,-11.667087723783135,11.379006188942505,69.46036824520576,0.1620495438076734,2.518898979720214,0.7904962688941289,6670.37109375,12.029555555555554,0.3311111111111111,179.3821658282946,-9.01761028053914,104.93514003043816,1627.0,1435.0,1200.0,1528.0,1556.0,1018.02,242.0,295.25,1637185292.5166066,1637185293.5865183,bc8bcf04-b6c9-470f-a771-32543aeeafbf
0.5750100493913507,1.121009616466153,0.078199741493819,-0.3500927736638444,-0.2191974838759319,-0.2909893744238374,-0.324032052947928,-0.3612691685786758,-11.122091658142269,11.861128086482283,67.87932831693237,0.2235760022917522,3.729836803609977,0.8689771102093473,6577.679904513889,12.025555555555554,0.3488888888888888,179.26418721185104,-8.990509038549915,104.54536238398296,1678.0,1435.0,1200.0,1528.0,1596.0,1018.02,242.0,295.25,1637185295.5759284,1637185296.7128134,bb613172-36f8-4def-a319-cc9845d3b87d
0.5582345060210118,1.101152346663395,0.0739790100397128,-0.3437523612687901,-0.2203874409532035,-0.2754065233931409,-0.3221802779080548,-0.3416978774514541,-10.962889882384705,11.952405764723116,68.14739470927965,0.2448081282221155,3.650810647692388,0.8718194804702774,6544.184136284723,12.017222222222223,0.37,179.2551789512457,-8.983065650174417,104.33523768544676,1678.0,1435.0,1200.0,1528.0,1596.0,1018.02,242.0,295.25,1637185296.8221776,1637185297.941475,bb613172-36f8-4def-a319-cc9845d3b87d
0.5640555428742899,1.1107810269465632,0.0669252824142914,-0.3374793364860826,-0.2268659139090878,-0.2899659672804959,-0.3344797894707818,-0.3584213782902641,-11.108145117597129,11.875815544549814,68.16717524900434,0.1970117877687643,3.686556008108384,0.9089481118683022,6539.191569010417,12.020333333333332,0.37,179.21088441556827,-8.958296538331796,104.1861149242078,1678.0,1435.0,1200.0,1528.0,1596.0,1018.02,242.0,295.25,1637185298.049271,1637185299.171307,bb613172-36f8-4def-a319-cc9845d3b87d
0.7516572877607897,1.443758064609966,0.116945113796781,-0.5205475790515174,-0.2710510172541561,-0.4466820193346514,-0.3592979578646679,-0.3778978884971583,-10.194426984431594,12.165569927806414,68.39312520319815,0.2627144276286728,4.952668210294818,0.9758069109123132,6601.924641927083,12.014,0.3899999999999999,179.0651388034189,-8.952049761153388,103.95935188485343,1729.0,1435.0,1200.0,1528.0,1636.0,1018.02,242.0,295.25,1637185300.082658,1637185301.218068,e3c2fdcd-74bd-4fc8-a668-f04b513cf5d1
0.7738868002634929,1.4590982112657842,0.1259437524903445,-0.5178219624352001,-0.2675857875564622,-0.4579131999860092,-0.3537371543542862,-0.3742272101796673,-9.80076097430117,12.249426147893828,69.3424200464317,0.2326815914615017,4.99923954560662,0.9543634467934062,6652.539279513889,12.006333333333332,0.4344444444444444,179.0759335379472,-8.943835320311585,103.7586915517772,1729.0,1435.0,1200.0,1528.0,1636.0,1018.02,242.0,295.25,1637185301.326581,1637185302.4470685,e3c2fdcd-74bd-4fc8-a668-f04b513cf5d1
0.7663399971783331,1.451674676051289,0.1336001286394378,-0.5248072100389382,-0.2609429557416757,-0.4498048356170339,-0.3428894779087373,-0.3803906625579045,-9.709509280883712,12.339793829555594,68.6167676786673,0.2675697313346853,4.978529296144434,0.9174781677390538,6662.883680555556,12.006333333333332,0.4222222222222222,179.05004256753332,-8.947725777090078,103.53748752749736,1729.0,1435.0,1200.0,1528.0,1636.0,1018.02,242.0,295.25,1637185302.5555494,1637185303.6768048,e3c2fdcd-74bd-4fc8-a668-f04b513cf5d1
-0.1755586004059055,-0.1752983656335132,-0.0836683825493495,0.3123539065247077,-0.0522210827093137,0.3612917070058266,-0.2075948539882761,-0.2298791577239819,-14.007067649081373,13.79280024723865,66.57902310263975,0.1981071127258689,-1.1919527361030842,0.5407222264946675,6581.59228515625,12.015666666666668,0.3866666666666666,179.49620570231673,-8.951883275292367,103.15109461923085,1474.0,1435.0,1200.0,1528.0,1435.0,1018.02,242.0,295.25,1637185305.6108449,1637185306.7555573,4e254563-c57e-4071-bd6a-6a4b0ed28f45
-0.1527401319038346,-0.1666558364608663,-0.0834903272336874,0.3002050598351372,-0.0548919116677533,0.3580730159678996,-0.2072387433007374,-0.2415760201250336,-13.89528649167294,13.685552491798754,65.73819390270914,0.2174992482329082,-1.151371656693153,0.5434857543207293,6584.965983072917,12.031,0.3066666666666666,179.44138660403823,-8.946331754453224,103.1197577113188,1474.0,1435.0,1200.0,1528.0,1435.0,1018.02,242.0,295.25,1637185306.8938606,1637185307.864165,4e254563-c57e-4071-bd6a-6a4b0ed28f45
-0.1678063476187864,-0.182639721706959,-0.0903796966334915,0.318613233357663,-0.057562740745027,0.3593330992642232,-0.2133748022984421,-0.2381107901239063,-13.86148533976263,13.808563535661818,66.04865019185394,0.1793454078476728,-1.2170128502537445,0.563889305500239,6592.841688368056,12.032888888888888,0.3088888888888889,179.3754342974126,-8.957768716490936,103.07646341889983,1474.0,1435.0,1200.0,1528.0,1435.0,1018.02,242.0,295.25,1637185307.972027,1637185309.2060995,4e254563-c57e-4071-bd6a-6a4b0ed28f45
-0.3249130157833761,-0.4459073417615522,-0.1130349014870494,0.4431286380048462,-0.0176411062266953,0.499207822622206,-0.1825389150887995,-0.2197102837525113,-14.678847600062827,14.638829342738704,65.5882209457224,0.2166773611416888,-2.2113132787453327,0.464167002090488,6593.40478515625,12.023666666666664,0.3433333333333333,179.4432869144473,-8.96859608414522,102.97178014513068,1423.0,1435.0,1200.0,1528.0,1394.0,1018.02,242.0,295.25,1637185310.116813,1637185311.3428853,db33a800-8c25-4345-beae-8b0829b90e83
-0.3091822418198661,-0.44521648716779,-0.1195533680863957,0.4392388156963829,-0.0209655349969483,0.5014622759488826,-0.1857351443201546,-0.2104300423338565,-14.761074125350625,14.27968116706687,65.4631763500549,0.2277511685656369,-2.206972314311544,0.4820941520237678,6588.3369140625,12.021444444444445,0.3522222222222222,179.44501874685687,-8.930665387499465,102.80836331577866,1423.0,1435.0,1200.0,1528.0,1394.0,1018.02,242.0,295.25,1637185311.4516766,1637185312.6911714,db33a800-8c25-4345-beae-8b0829b90e83
-0.3153456942421844,-0.4327526161076299,-0.1251004746272308,0.4241041197037843,-0.0285808217699041,0.4995858476026227,-0.1954049155298289,-0.216853729710277,-15.166175502266242,14.287988730486877,64.89513450753311,0.2571591457646145,-2.150811582452861,0.5140830061783216,6590.026204427083,12.020666666666664,0.36,179.38599376986943,-8.947875092614433,102.66369232005871,1423.0,1435.0,1200.0,1528.0,1394.0,1018.02,242.0,295.25,1637185312.799761,1637185313.9169,db33a800-8c25-4345-beae-8b0829b90e83
-0.492154604857184,-0.7717836416335375,-0.1537399807751706,0.5735198639466406,0.0163438913129888,0.6783670098178778,-0.1567258307621063,-0.1917753280753935,-15.861725690213596,15.762153976250715,62.67187581318016,0.3295008173429223,-3.417943305655058,0.3929220990925623,6556.97802734375,12.016111111111112,0.3788888888888888,179.46215948603398,-8.969102656508664,102.37587649644335,1372.0,1435.0,1200.0,1528.0,1354.0,1018.02,242.0,295.25,1637185315.544917,1637185316.7842004,c94e5bcf-a793-4081-bcea-fe600b953894
-0.5059180063280551,-0.7651972376071678,-0.1587660702587816,0.5702502218071869,0.0092216807682565,0.6752294024823732,-0.1643674152905102,-0.178936172851665,-15.88451928435473,15.840631094218171,62.665657246558446,0.3300832099252294,-3.3929385770221883,0.4210652764303845,6549.740885416667,12.014333333333331,0.4,179.49248552594884,-8.954136099353612,102.1640457684345,1372.0,1435.0,1200.0,1528.0,1354.0,1018.02,242.0,295.25,1637185316.8927982,1637185317.8374996,c94e5bcf-a793-4081-bcea-fe600b953894
-0.5057865192335155,-0.7727182952085897,-0.1632892221924992,0.5828072255115515,0.009629290248583,0.6730204217285568,-0.168627593295385,-0.1932551037039311,-16.036234518530073,15.725638493994524,62.91602335073354,0.2957698289608448,-3.424127030963801,0.432235505849518,6538.08251953125,12.014,0.4099999999999999,179.45734647939878,-8.961790464683471,102.00260514048234,1372.0,1435.0,1200.0,1528.0,1354.0,1018.02,242.0,295.25,1637185317.9456074,1637185319.033064,c94e5bcf-a793-4081-bcea-fe600b953894
-0.6303573052735744,-1.0010718255231996,-0.1822364950708685,0.6838417976885188,0.0398581432541922,0.7791040928493955,-0.1485758298533614,-0.1781209529170534,-16.79603995576873,16.911482894069547,59.411363357445744,0.3122212896047882,-4.25777274152425,0.3556345183502208,6558.09228515625,12.005,0.4311111111111111,179.5400585524279,-8.950146035649723,101.55133530092954,1321.0,1435.0,1200.0,1528.0,1314.0,1018.02,242.0,295.25,1637185321.0638106,1637185322.200888,b3dafbc2-88a8-4b1d-8f64-0c5e108c055f
-0.6242740303044024,-0.9878785297607768,-0.1774469390589967,0.6704581412567493,0.0391778411590948,0.7822792168517357,-0.1435604594245026,-0.1573237167354628,-16.58835465147955,16.931434152313066,59.98449656844642,0.3501131185383966,-4.212887686434329,0.3453160493034042,6561.439615885417,11.981333333333332,0.5233333333333333,179.57926535608354,-8.962791941170526,101.1566406771818,1321.0,1435.0,1200.0,1528.0,1314.0,1018.02,242.0,295.25,1637185322.3089306,1637185323.5420485,b3dafbc2-88a8-4b1d-8f64-0c5e108c055f
-0.6223952187855233,-0.9915724343479676,-0.1815713900827169,0.670217558250347,0.0381625093101042,0.7852001565708157,-0.1446591616662211,-0.1629577658187681,-16.64103099718949,16.699968638020227,59.83676038889481,0.3554297074995705,-4.2252956350418325,0.3532860853884609,6563.11328125,11.983333333333334,0.52,179.58212492861605,-8.964815953894574,100.77846903994627,1321.0,1435.0,1200.0,1528.0,1314.0,1018.02,242.0,295.25,1637185323.6510231,1637185324.863144,b3dafbc2-88a8-4b1d-8f64-0c5e108c055f
0.0158645117573786,0.1349149982693198,-0.0543440492897269,0.1584319885363848,-0.0906262346555326,0.2159164428907546,-0.2359330367275009,-0.2622030402840762,-13.612437137633052,12.393732216249498,68.99034391625116,0.2114082097743012,-0.0318422248772144,0.6338440525653998,6566.46875,12.005333333333336,0.4233333333333334,179.25492699315632,-8.986029098500557,100.54155937512492,1525.0,1435.0,1200.0,1528.0,1475.0,1018.02,242.0,295.25,1637185325.5693195,1637185326.7129662,01ebc0b6-5106-4de2-8930-d0a7470714c7
-0.0123553302028582,0.1117026191010855,-0.0560484491493046,0.1719104974750702,-0.0871188198407372,0.2234139387532821,-0.2350679620349821,-0.2612470197469398,-13.723813605177044,12.553030029824486,68.58301398223544,0.1987020120414944,-0.1162691508003397,0.6267501399491926,6578.22412109375,12.043,0.25,179.14534343811263,-8.960202445701444,100.88648392821058,1525.0,1435.0,1200.0,1528.0,1475.0,1018.02,242.0,295.25,1637185326.831575,1637185327.9800107,01ebc0b6-5106-4de2-8930-d0a7470714c7
-0.0097069635944743,0.1172738312094836,-0.0583845342656648,0.1799081916684267,-0.0898044411952361,0.2156699048791958,-0.2394667492139277,-0.2596280865966492,-13.594933185513574,12.522576661838071,69.2784172774542,0.1631168212011295,-0.103582543059852,0.641683004772085,6583.2763671875,12.042666666666667,0.25,179.08358031417794,-8.947971284445243,101.11506759243368,1525.0,1435.0,1200.0,1528.0,1475.0,1018.02,242.0,295.25,1637185328.0900466,1637185329.1641529,01ebc0b6-5106-4de2-8930-d0a7470714c7
0.0139552114256891,0.0917297498342659,-0.1030155943498916,-0.3607958139918588,-0.1806455027049092,0.762457844972682,-0.1265780595275009,-0.146235362068042,-13.68607487085196,11.092617143800531,72.94815980754082,2.600355490988946,-0.1675495219979869,0.6633866346201656,6592.841688368056,12.041444444444444,0.2544444444444445,179.02534156785498,-8.753817844918277,101.39242184297028,1525.0,1521.0,1200.0,1528.0,1475.0,1018.02,242.0,295.25,1637185330.0747242,1637185331.1161454,a4d870ba-30d2-4485-9140-e393d2ef35e0
0.0125773375430805,0.1143427677250494,-0.0982689147204456,-0.3705702278201784,-0.1832834601198919,0.7518216464456898,-0.1239225705154556,-0.1491927239250668,-13.216227446421604,11.019419323297996,73.3330278720344,2.598552190763611,-0.0879703844770828,0.6602804449496831,6583.2763671875,12.040666666666665,0.27,179.04372236582134,-8.757054405947478,101.45774349546258,1525.0,1521.0,1200.0,1528.0,1475.0,1018.02,242.0,295.25,1637185331.2270465,1637185332.3492534,a4d870ba-30d2-4485-9140-e393d2ef35e0
0.0258284842131664,0.1203544611012734,-0.0940087369803742,-0.376613698581066,-0.1805534617556199,0.7467057083626876,-0.122817532135711,-0.1469453916587079,-13.409275876820274,11.073387244148485,72.67344212897403,2.601056155010316,-0.0571955696870106,0.648768643502577,6587.212348090277,12.038222222222222,0.27,179.00965338224134,-8.751785009866552,101.55506610203618,1525.0,1521.0,1200.0,1528.0,1475.0,1018.02,242.0,295.25,1637185332.457195,1637185333.4617443,a4d870ba-30d2-4485-9140-e393d2ef35e0
0.0527175681856747,0.1187897662799323,-0.1298257876709736,-0.929845295627472,-0.2790635051589785,1.279582890047931,-0.0186930019592919,-0.0397046193489253,-13.574375713737012,10.822432681629737,76.0523992443319,5.043465733744191,-0.0260034173053956,0.6832274663883737,6586.087782118056,12.032000000000002,0.3033333333333334,179.0442794056937,-8.57840369342541,101.73915032490672,1525.0,1607.0,1200.0,1528.0,1475.0,1018.02,242.0,295.25,1637185335.6041403,1637185336.8551772,1a8b3e67-469c-4412-b06f-5028e22bdeef
0.0261309041945079,0.0895996610323496,-0.1388063478170106,-0.9193394810845475,-0.2820088134989655,1.2984775666856685,-0.0222562986966702,-0.0356942671181504,-13.706820827119545,11.014466933707707,75.99793344097618,5.062976545996775,-0.1359234699115198,0.7008658046958187,6589.463107638889,12.025777777777778,0.32,179.08718210060022,-8.555642088016343,101.6813851383662,1525.0,1607.0,1200.0,1528.0,1475.0,1018.02,242.0,295.25,1637185336.9629228,1637185337.9670832,1a8b3e67-469c-4412-b06f-5028e22bdeef
0.0388062474829605,0.0989746813608668,-0.1385959686442477,-0.9217062476991762,-0.284480768693658,1.2945198091390058,-0.0251884580257804,-0.0569688583734858,-13.722458135659622,11.097112823349702,76.41968724456191,5.060039485600832,-0.104082621843288,0.7097843151830736,6595.662380642361,12.026444444444444,0.3277777777777778,179.08763441090528,-8.555395442296316,101.66774373277389,1525.0,1607.0,1200.0,1528.0,1475.0,1018.02,242.0,295.25,1637185338.0751488,1637185339.2026713,1a8b3e67-469c-4412-b06f-5028e22bdeef
0.0592919162911358,0.0929394298670203,-0.1539010522434176,-1.4210415337421918,-0.3605065424400366,1.782704657800577,0.0838668295281694,0.0561756752112787,-13.856519910927236,11.37858713643535,79.96913749924892,7.28503624738432,-0.096714941719158,0.6786136156182594,6606.958170572917,12.023666666666664,0.3400000000000001,179.11283173766338,-8.38971459496193,101.6375042085885,1525.0,1693.0,1200.0,1528.0,1475.0,1018.02,242.0,295.25,1637185341.1344645,1637185342.2678769,961a40d6-75a2-4fe9-b166-d8c2215308cd
0.0589237528068022,0.0968182952156551,-0.1494567926183959,-1.4208968978717047,-0.3610587877976302,1.7727247950068616,0.0851816991014514,0.0524677426786657,-13.515063083266575,11.632857153885734,79.12743914829143,7.264228490276781,-0.0768553877253125,0.6708535863834492,6608.6552734375,12.021444444444445,0.3522222222222222,179.1111651715059,-8.36459505646939,101.51542520191325,1525.0,1693.0,1200.0,1528.0,1475.0,1018.02,242.0,295.25,1637185342.375873,1637185343.503783,961a40d6-75a2-4fe9-b166-d8c2215308cd
0.0699949550544332,0.1113476043212551,-0.1441578676435159,-1.4206339238990902,-0.3564304459002496,1.7628632705146594,0.0866543530916166,0.0624739007099275,-13.673709893528605,11.488874546412658,79.81199519606345,7.240813759572196,-0.0270048806783329,0.6579038611061945,6608.6552734375,12.015666666666666,0.36,179.12284934844607,-8.392479967802139,101.36523010097456,1525.0,1693.0,1200.0,1528.0,1475.0,1018.02,242.0,295.25,1637185343.616923,1637185344.730467,961a40d6-75a2-4fe9-b166-d8c2215308cd
0.0643147183168617,0.09717330999475,-0.152270613824046,-1.6969541108265722,-0.4015041851693823,2.035146557411894,0.142510013672079,0.1183690078326222,-13.88651887407167,12.316561162047137,80.5477961364431,8.48107434625139,-0.0516616162913072,0.6472392998710553,6603.56396484375,12.017777777777775,0.3588888888888888,179.15606228165012,-8.309623986481837,101.1425325419962,1525.0,1780.0,1200.0,1528.0,1475.0,1018.02,242.0,295.25,1637185346.572543,1637185347.5922432,6b38e088-5958-4042-ab32-dfd103e08159
0.0745969986789361,0.0909539767498571,-0.1607909697104727,-1.6842787514338633,-0.4065664343871086,2.0338842827589056,0.1334242648098297,0.1145164399350327,-13.9649926473955,12.312874423624232,81.09367677199246,8.449244159412723,-0.0813714212050311,0.6787597695167407,6603.56396484375,12.000666666666667,0.44,179.1681790372377,-8.284326199024711,100.9019201557348,1525.0,1780.0,1200.0,1528.0,1475.0,1018.02,242.0,295.25,1637185347.7000723,1637185348.934348,6b38e088-5958-4042-ab32-dfd103e08159
0.0722565308086907,0.0972127560989804,-0.1506138780389442,-1.6951790331115084,-0.401214913846199,2.04387729486876,0.1449162249746804,0.118553089536656,-13.81073952343914,12.461972127580008,82.03938832585366,8.498011693691122,-0.0653810167457426,0.6432784676951461,6602.434299045139,12.004222222222223,0.4322222222222222,179.16106046230274,-8.290421573676516,100.70453072436106,1525.0,1780.0,1200.0,1528.0,1475.0,1018.02,242.0,295.25,1637185349.042269,1637185350.0990858,6b38e088-5958-4042-ab32-dfd103e08159
-0.0301148364384094,0.1178764797579124,-0.0178427195547544,0.7682301221244584,0.0078794179974934,-0.3576954602987406,-0.3584898609146023,-0.3837189275792867,-13.371785699698686,13.829634393769084,64.5518557516067,-2.4423796059181355,-0.1308529524346584,0.621019247005209,6598.48046875,12.008666666666668,0.4011111111111111,179.13939054879603,-9.041514804269324,100.37279830220236,1525.0,1349.0,1200.0,1528.0,1475.0,1018.02,242.0,295.25,1637185352.101115,1637185353.1264238,859b54a8-d3c4-41e9-b12a-d75c37ebfff1
-0.0251753093618056,0.1236679325017033,-0.0248860380024214,0.7521755655061273,-0.0005872468143963,-0.3477654535013116,-0.364700977294713,-0.3945879701117595,-13.58938739808092,13.796847481594874,64.61904277440358,-2.3845172922163727,-0.1066572343573102,0.6515113173692488,6593.40478515625,12.041888888888886,0.24,179.09578662113464,-9.032100242272108,100.69244660189948,1525.0,1349.0,1200.0,1528.0,1475.0,1018.02,242.0,295.25,1637185353.2346427,1637185354.3514864,859b54a8-d3c4-41e9-b12a-d75c37ebfff1
-0.0224036736982859,0.1228757235643761,-0.0182673128728573,0.7536569851317632,0.0068247829571188,-0.349463827109806,-0.3577913362198022,-0.3718987946588866,-13.618656349340968,13.741265300901594,64.51415797357738,-2.39174582936726,-0.1082554949676493,0.6223275018909943,6593.40478515625,12.045666666666667,0.24,179.0633143840006,-9.021854104743442,100.97393387579388,1525.0,1349.0,1200.0,1528.0,1475.0,1018.02,242.0,295.25,1637185354.459339,1637185355.583023,859b54a8-d3c4-41e9-b12a-d75c37ebfff1
-0.0413350575577109,0.1311889865684295,0.0175316568676254,1.2206109878800764,0.0789623657874983,-0.8071153003879307,-0.4654594577218486,-0.4915333291187957,-14.08220185768826,15.99682284151521,61.44032323560448,-4.45747203316029,-0.1017358392296547,0.62808697161415,6597.3525390625,12.045333333333332,0.2444444444444444,179.0366371829224,-9.200024142702672,101.57305833812978,1525.0,1262.0,1200.0,1528.0,1475.0,1018.02,242.0,295.25,1637185357.6308346,1637185358.652022,b3d373e7-bc23-474a-87a5-4b3b11411457
-0.0614920096361109,0.098369841321995,0.0077621754239988,1.2375070622629183,0.0773187787795811,-0.7879181950303774,-0.4708109783787821,-0.4960433329605368,-14.386755620189634,16.227330774381407,61.750190673107326,-4.451509278389989,-0.2281140705601097,0.6475683808838052,6590.026204427083,12.039666666666667,0.26,179.05288089058843,-9.184454916217105,101.78142312458984,1525.0,1262.0,1200.0,1528.0,1475.0,1018.02,242.0,295.25,1637185358.7621791,1637185359.993183,b3d373e7-bc23-474a-87a5-4b3b11411457
-0.0316313193296328,0.1242464750978802,0.0092085320182493,1.2158643086022638,0.0717963264457425,-0.7928752559574906,-0.4695224057910454,-0.4916648167437317,-14.080949026175462,15.978895121728415,61.82856011734461,-4.415236169678813,-0.1311678071362243,0.6546516279195767,6583.2763671875,12.039,0.2633333333333333,179.04693407255112,-9.206905178836504,101.93877246922916,1525.0,1262.0,1200.0,1528.0,1475.0,1018.02,242.0,295.25,1637185360.1019225,1637185361.2261512,b3d373e7-bc23-474a-87a5-4b3b11411457
-0.0621362957512428,0.1412871850309765,0.0594234033351434,1.7074678022153122,0.1554483304205064,-1.2840056876346173,-0.5753036960798985,-0.5914765981385787,-14.473671077181772,18.6224275967997,58.49568453969595,-6.608513168922653,-0.0922347265970815,0.6231882266525273,6596.78857421875,12.037666666666668,0.2733333333333333,179.01818352960476,-9.379086563849713,102.28127230515943,1525.0,1176.0,1200.0,1528.0,1475.0,1018.02,242.0,295.25,1637185363.1611302,1637185364.1860268,14750123-8c3b-4127-9434-72785e06ed9f
-0.0704857182336327,0.1343315248759989,0.0554787944232648,1.714186787259645,0.1547251521174252,-1.2796929115275142,-0.5786303171727125,-0.6090038155080556,-14.648746697698614,18.622246849210864,58.99211589733258,-6.6141847772235165,-0.1225607186869962,0.6340816467682315,6584.963216145833,12.025333333333332,0.31,179.05013060108266,-9.40179580447514,102.3753536075169,1525.0,1176.0,1200.0,1528.0,1475.0,1018.02,242.0,295.25,1637185364.2944567,1637185365.4147892,14750123-8c3b-4127-9434-72785e06ed9f
-0.0503583506495093,0.1477349767815329,0.0635833221306501,1.691035763734991,0.1549256697699566,-1.2729547461571176,-0.5682937951182914,-0.5946185894060344,-14.280555632732945,18.66378396220053,58.85500295831884,-6.5459777955812966,-0.0703154873350401,0.6095100463964501,6575.983778211806,12.029,0.3,179.05685302504577,-9.402586019416615,102.46096851094322,1525.0,1176.0,1200.0,1528.0,1475.0,1018.02,242.0,295.25,1637185365.5221646,1637185366.642751,14750123-8c3b-4127-9434-72785e06ed9f
-0.0725330799680849,0.1595824996112914,0.0795261161912789,1.937135591588949,0.186112732552191,-1.5189999765521964,-0.6393652608088969,-0.6755789754367978,-15.093469918221794,20.478611988649924,57.514666953032936,-7.641813496310424,-0.0375057917104369,0.6468786023425368,6572.620008680556,12.027222222222225,0.3144444444444444,179.1282467157102,-9.513627345529406,102.5595478723241,1525.0,1090.0,1200.0,1528.0,1475.0,1018.02,242.0,295.25,1637185367.554046,1637185368.5989144,83f0420d-1b56-4fc2-8438-9eda28aee5a0
-0.0732995393726568,0.1447978868175308,0.074491809160484,1.9553076440657369,0.1861505350883097,-1.5237592625206804,-0.646017407712835,-0.6691985678596558,-15.27131774821458,20.5876526697608,57.11244303456448,-7.69318141747842,-0.0906880825708225,0.6607946359881102,6555.306640625,12.01822222222222,0.3566666666666667,179.11014823222948,-9.524042625103768,102.59264089776272,1525.0,1090.0,1200.0,1528.0,1475.0,1018.02,242.0,295.25,1637185368.706983,1637185369.827792,83f0420d-1b56-4fc2-8438-9eda28aee5a0
-0.0721358797190956,0.1421056913375375,0.0752527899602859,1.9252880643486483,0.1831405795414322,-1.4936202249398935,-0.636187658281964,-0.6616906601224216,-15.142651805904372,20.57961695809504,57.13241661406924,-7.557685585679063,-0.0981289850575003,0.6493940126789176,6548.072265625,12.012999999999998,0.37,179.15209166501262,-9.514311787402484,102.56750276597742,1525.0,1090.0,1200.0,1528.0,1475.0,1018.02,242.0,295.25,1637185369.9362414,1637185371.056382,83f0420d-1b56-4fc2-8438-9eda28aee5a0
-0.0039133192013968,0.1131922568142519,-0.0640412132100815,0.1336138251203022,-0.0993235498906815,0.2601700215092519,-0.2321801792504167,-0.2633261576186583,-13.60945980516084,12.43177832458837,68.9834084688996,0.3666053573358645,-0.1108337729057486,0.6506957662957126,6572.623263888889,12.026888888888887,0.3122222222222222,179.20323308587805,-8.947959616205413,102.59962666346382,1525.0,1435.0,1200.0,1528.0,1475.0,1018.02,242.0,295.25,1637185372.1724136,1637185373.3094351,b6510b59-aa4a-4418-8cd2-2b3316782864
-0.0159580730361529,0.1040500780251929,-0.0574159135988667,0.143246340542304,-0.0936537221147325,0.2599936098412645,-0.2260479553440167,-0.2531211245292016,-13.406659562592257,12.725417621522164,68.99035553944965,0.3468599998959354,-0.147380423961809,0.6242206235190736,6588.900010850694,12.044777777777776,0.24,179.16206525902064,-8.972637089676669,102.69911975237366,1525.0,1435.0,1200.0,1528.0,1475.0,1018.02,242.0,295.25,1637185373.4173565,1637185374.5371172,b6510b59-aa4a-4418-8cd2-2b3316782864
0.0073677144499582,0.1333979674792075,-0.0588622702034317,0.1324907072480105,-0.0975194389916327,0.2427425212534169,-0.2327669398705701,-0.2538706005770375,-13.586804182229308,12.338742949145065,69.19193586145084,0.3296626948349548,-0.0365935774908008,0.6447976367721724,6597.3525390625,12.043666666666669,0.24,179.1740302326267,-8.96389150676316,102.76948891466262,1525.0,1435.0,1200.0,1528.0,1475.0,1018.02,242.0,295.25,1637185374.6453578,1637185375.6514275,b6510b59-aa4a-4418-8cd2-2b3316782864
0.0744129170297777,0.1655596775820528,0.2009296691185031,0.1118341059287095,0.1351072978889939,0.2127240491925857,0.0350194230417981,0.0168873707617999,-11.553227509172698,12.436795032768122,68.71981095163147,0.3233377061745707,0.092838021241799,-0.4030176743288936,6583.2763671875,12.045666666666667,0.24,179.18845559215373,-8.945438707219246,102.85836864851215,1525.0,1435.0,1200.0,1439.0,1475.0,1018.02,242.0,295.25,1637185377.5888517,1637185378.7271025,c65a5759-6000-4836-9de8-15946b0b0e5f
0.0921269499673336,0.1690605178344457,0.2046030859672674,0.1052893426229906,0.1404621042473085,0.2165464846039143,0.0406552829607893,0.0158234220131502,-11.74644894729274,12.190278350908423,68.93380284651535,0.3451761830263941,0.1064737644809512,-0.422708565109233,6583.842339409723,12.046111111111111,0.2344444444444444,179.17522627464135,-8.970472583755944,102.894800877545,1525.0,1435.0,1200.0,1439.0,1475.0,1018.02,242.0,295.25,1637185378.835336,1637185379.863123,c65a5759-6000-4836-9de8-15946b0b0e5f
0.0890737131591822,0.1671506697270467,0.199588502122871,0.1142403173317467,0.1362249370776509,0.2131579561647711,0.032139858504245,0.0100237511197619,-11.888749110495722,12.36935219475908,69.30408859802422,0.318295306000125,0.0956190877264269,-0.3977811730426192,6598.48046875,12.043111111111113,0.24,179.18097577610266,-8.949463491051416,102.9599403916594,1525.0,1435.0,1200.0,1439.0,1475.0,1018.02,242.0,295.25,1637185379.9707897,1637185381.099805,c65a5759-6000-4836-9de8-15946b0b0e5f
0.1669649443961188,0.1899066792648857,0.4726173261339249,0.0985506356270091,0.3837677579482348,0.1902627896551524,0.3141344590028641,0.280427230299416,-10.01832376027528,12.60934425344172,69.28922575388818,0.3183639920097069,0.1871056545245467,-1.5048075265452685,6603.56396484375,12.042444444444444,0.2422222222222222,179.1488632622649,-8.959903150606564,103.00348588325788,1525.0,1435.0,1200.0,1351.0,1475.0,1018.02,242.0,295.25,1637185383.1189368,1637185384.1654584,ed326d72-5ca2-4894-a186-d3884cb2d0a9
0.1446532511419215,0.1764292661292127,0.4658238336733695,0.1141099260200865,0.3843019236764145,0.1873180297668752,0.3088886774426838,0.2960823958146758,-10.197714063558257,12.409732564255997,68.98731182691735,0.2748488283612006,0.1381529588938961,-1.4907696199943334,6601.869466145833,12.039666666666667,0.25,179.144287035521,-8.944854441453995,102.99586490996396,1525.0,1435.0,1200.0,1351.0,1475.0,1018.02,242.0,295.25,1637185384.273538,1637185385.3919327,ed326d72-5ca2-4894-a186-d3884cb2d0a9
0.1687942566977278,0.1953414735069752,0.4781436131164534,0.102353896114691,0.3876542931011608,0.1791948750853098,0.3151392385596384,0.2951795186804591,-10.050372187983491,12.72813959881776,68.9947757847156,0.2859132978072171,0.2102100598473273,-1.5188601631593033,6599.045301649306,12.04,0.25,179.1589218541826,-8.949186204343862,103.00147780764188,1525.0,1435.0,1200.0,1351.0,1475.0,1018.02,242.0,295.25,1637185385.499863,1637185386.6235113,ed326d72-5ca2-4894-a186-d3884cb2d0a9
0.2548524698544732,0.2291336213526512,0.7484018900446546,0.0961082654262369,0.6297349178952953,0.1311232430304438,0.5880272574249916,0.5751283876529143,-7.895800812757081,12.994234990480576,68.1273283985526,0.2081458511989938,0.3472962147514764,-2.60130073389014,6595.66064453125,12.040333333333333,0.2555555555555555,179.18025329387046,-8.952703087720247,102.95588022365278,1525.0,1435.0,1200.0,1262.0,1475.0,1018.02,242.0,295.25,1637185387.7369485,1637185388.875455,b592372e-6da5-41fa-943c-a3b61cbbca07
0.2461721393372188,0.2196008170163623,0.7370293645994871,0.1005503332809449,0.6237451394746117,0.1336823080155048,0.5759167614732483,0.5454830111002241,-8.371016514893759,12.962716317364722,67.65757175806307,0.202786884805562,0.3178008981265846,-2.5624941353787225,6546.41845703125,12.04,0.26,179.1608206467719,-8.940240364078436,102.9485612965022,1525.0,1435.0,1200.0,1262.0,1475.0,1018.02,242.0,295.25,1637185388.983327,1637185390.1951306,b592372e-6da5-41fa-943c-a3b61cbbca07
0.2422034247028764,0.2184568804974218,0.7359632245677742,0.0875484643768308,0.6204782366356585,0.1432463406892898,0.5781788848855436,0.5528676468916968,-8.248228615371586,12.98071322080418,67.15986172950971,0.2536562614420097,0.3185860955072596,-2.5606879230145445,6508.29638671875,12.038444444444444,0.2622222222222222,179.16657318387286,-8.955297326376252,102.92339660287011,1525.0,1435.0,1200.0,1262.0,1475.0,1018.02,242.0,295.25,1637185390.303826,1637185391.3651874,b592372e-6da5-41fa-943c-a3b61cbbca07
0.3037387717182116,0.2399402055330282,0.938642689314654,0.1252452279679436,0.8066489653621055,0.0836350837331206,0.7699147986541055,0.7440420019616557,-7.0734801390504485,13.602755543195594,68.11695560381628,0.0496267274094642,0.3905824146339294,-3.3586785520704283,6518.19482421875,12.035555555555554,0.2722222222222222,179.13169216669152,-8.975361860836811,102.82647545963772,1525.0,1435.0,1200.0,1173.0,1475.0,1018.02,242.0,295.25,1637185393.0623462,1637185394.0862284,99ced148-b7fc-464f-9103-cc341e95e5a6
0.2888506134318131,0.2376117907088183,0.9490931627098836,0.129943147401979,0.8171268317340917,0.08151211717962,0.7822827898866702,0.7579440075831174,-6.833973897779394,13.54197191090758,68.19307479263723,0.0345088997975292,0.3795626936314052,-3.404745062707336,6518.19482421875,12.028666666666666,0.3066666666666666,179.12559053103294,-8.982962912745652,102.72611341888349,1525.0,1435.0,1200.0,1173.0,1475.0,1018.02,242.0,295.25,1637185394.194034,1637185395.4278424,99ced148-b7fc-464f-9103-cc341e95e5a6
0.3085385934235481,0.2434656995509665,0.9581893205601476,0.135146743970429,0.8264656924018847,0.0706786873070028,0.7880978002991674,0.768519393421368,-6.9337806652826615,13.493253610275922,68.20810334074099,-0.001491178715076,0.4020267686166744,-3.43741798551871,6519.297254774306,12.028777777777778,0.2977777777777777,179.16366200546662,-8.981378593449424,102.66322634937536,1525.0,1435.0,1200.0,1173.0,1475.0,1018.02,242.0,295.25,1637185395.5355203,1637185396.659094,99ced148-b7fc-464f-9103-cc341e95e5a6
-0.1176906360142846,0.052612378738635,-0.3666804043610643,0.2353655551155318,-0.3639410921521241,0.2356668794875168,-0.561924893575496,-0.5740874423483859,-15.753428922835033,13.003003063560511,67.95215688361763,0.0694902516190819,-0.3454345439956123,1.883504907012514,6568.142578125,12.03377777777778,0.2866666666666667,179.20911463766333,-8.994995239606013,102.84265921342111,1525.0,1435.0,1200.0,1617.0,1475.0,1018.02,242.0,295.25,1637185398.5300224,1637185399.6161444,f3de88d0-e44f-4428-a863-6c066829b4bb
-0.1010082266304888,0.0617616798603264,-0.3591609922932306,0.2392553775269046,-0.3592157786932478,0.2265175787996856,-0.5583500906548968,-0.5889893029420422,-15.668217280442375,13.10840957506054,68.47578798234751,0.041355597205801,-0.3163635804770816,1.8636253531946707,6570.940972222223,12.044555555555554,0.24,179.18542298816226,-8.972393005277578,102.83020398401464,1525.0,1435.0,1200.0,1617.0,1475.0,1018.02,242.0,295.25,1637185399.7244587,1637185400.850762,f3de88d0-e44f-4428-a863-6c066829b4bb
-0.1052267670024479,0.0615288383474558,-0.3590925095275599,0.2356394862695383,-0.3596951582334363,0.2300786838136412,-0.5578570144728882,-0.5946185900405575,-15.703056929858278,13.145710102311506,68.47815507293127,0.0577479600589912,-0.3165611030641326,1.8633866877087173,6578.785481770833,12.041222222222224,0.23,179.1806448913829,-8.97391186859426,102.85135176750482,1525.0,1435.0,1200.0,1617.0,1475.0,1018.02,242.0,295.25,1637185400.9768183,1637185402.074496,f3de88d0-e44f-4428-a863-6c066829b4bb
-0.188140260295039,0.043342547854197,-0.6557605950553083,0.2947193144778397,-0.6336181828825024,0.2085033178461558,-0.8879798231670047,-0.9115817462456348,-17.863478312234964,13.94553761336502,68.20057086701686,-0.1346060723055828,-0.3930871978507388,3.1069824137707367,6587.777886284723,12.039888888888887,0.2477777777777777,179.16554106639828,-9.002728911021238,102.89519323396732,1525.0,1435.0,1200.0,1706.0,1475.0,1018.02,242.0,295.25,1637185404.1215985,1637185405.2642148,4871e0e2-9e12-46d4-a36a-8537b8fd7298
-0.1964896831411582,0.0274194766138168,-0.6569176807827372,0.2883947920423755,-0.6332237218493507,0.2276741161321955,-0.8824047730735071,-0.9044945954545892,-17.81513266389635,13.995080568229422,67.89635618487813,-0.0770135022546299,-0.4497481564775193,3.097686956030501,6588.3369140625,12.033222222222223,0.2622222222222222,179.17277195999958,-9.00956953520248,102.83733242477842,1525.0,1435.0,1200.0,1706.0,1475.0,1018.02,242.0,295.25,1637185405.3856504,1637185406.4820898,4871e0e2-9e12-46d4-a36a-8537b8fd7298
-0.1957665047606098,0.0297993906726975,-0.6528941782594139,0.3026742752620544,-0.6278984979180812,0.2156956543857418,-0.8788677716892728,-0.8956192198472676,-17.546750472665046,13.830035318235344,68.4236176758434,-0.1368163368887731,-0.4489005207219276,3.0813256486444653,6591.718098958333,12.036666666666669,0.26,179.1874948122105,-9.006565485196276,102.7906200021348,1525.0,1435.0,1200.0,1706.0,1475.0,1018.02,242.0,295.25,1637185406.596012,1637185407.716121,4871e0e2-9e12-46d4-a36a-8537b8fd7298
-0.2717495419498217,0.0153029528837457,-0.9187203962214264,0.3753306784197575,-0.8734258524449938,0.177429114834489,-1.182119093014963,-1.2052389032212023,-19.47238691040297,14.782100160711764,68.2834832419457,-0.394618077934546,-0.5141811636176363,4.20680639632691,6592.278591579861,12.033111111111111,0.2755555555555556,179.2186951163391,-9.022729791913283,102.77201077228617,1525.0,1435.0,1200.0,1795.0,1475.0,1018.02,242.0,295.25,1637185408.611818,1637185409.6520612,913a5491-65a4-47b3-bb0b-3e6cfe56e8d4
-0.2814697169851909,0.0071573354582954,-0.9151581932103774,0.3832363314752075,-0.8673495079217451,0.1793263620605697,-1.1763177741095534,-1.2014055079659955,-19.40854153168018,14.735881425173645,68.48961857929875,-0.4082519448420966,-0.547759349913621,4.184852728892091,6591.715494791667,12.021666666666668,0.3266666666666666,179.2330703878123,-9.008937552976777,102.61762041737728,1525.0,1435.0,1200.0,1795.0,1475.0,1018.02,242.0,295.25,1637185409.7608612,1637185410.8801117,913a5491-65a4-47b3-bb0b-3e6cfe56e8d4
-0.2905001332460486,0.0019898977520124,-0.9111461951342864,0.3865344625139831,-0.8625370828204894,0.1758677072210971,-1.1729834813704068,-1.193076350228891,-19.443447181053457,14.800380898932444,67.73805999512392,-0.4229738075261151,-0.5603829220831801,4.166374683077808,6588.3369140625,12.025,0.31,179.27044214731097,-9.018866371300255,102.50262052232176,1525.0,1435.0,1200.0,1795.0,1475.0,1018.02,242.0,295.25,1637185410.9891407,1637185412.1094246,913a5491-65a4-47b3-bb0b-3e6cfe56e8d4
-0.3365101676695478,-0.0222825960575846,-1.1019092457095876,0.4544759618752009,-1.034469536007708,0.1435882067781872,-1.390378742464176,-1.4155190756650289,-20.828607031542912,15.511723791670342,67.08999573863551,-0.654353239582641,-0.6563182824279898,4.9655925488706005,6593.40478515625,12.016,0.3566666666666667,179.2802624415176,-9.01454874310742,102.32386764155336,1525.0,1435.0,1200.0,1883.0,1475.0,1018.02,242.0,295.25,1637185413.1329665,1637185414.1580153,4d5b1b35-0901-4710-90b9-19263041efb6
-0.3364931839462013,-0.018198830026933,-1.1066646946816847,0.4631667015275606,-1.0419347132177752,0.1338740598209017,-1.3996343384011307,-1.4249729991672286,-20.631581288692285,15.748441678433414,67.35753322424517,-0.6943121376377309,-0.6461348262564478,4.996408893803478,6593.40478515625,12.0,0.4333333333333333,179.2801349446531,-9.032553216623311,102.01945521716478,1525.0,1435.0,1200.0,1883.0,1475.0,1018.02,242.0,295.25,1637185414.2678516,1637185415.387244,4d5b1b35-0901-4710-90b9-19263041efb6
-0.3503294498202213,-0.0259379337153076,-1.098332798084647,0.4668751814213179,-1.032155363963658,0.1369218179729463,-1.391956587789182,-1.4206470729024077,-20.84944702238884,15.903725161610453,67.25926726949227,-0.6945099066112976,-0.6726740035697618,4.959541691944922,6588.3369140625,12.003333333333334,0.4266666666666666,179.31756893476424,-9.058957304998506,101.72009713276202,1525.0,1435.0,1200.0,1883.0,1475.0,1018.02,242.0,295.25,1637185415.4955833,1637185416.641448,4d5b1b35-0901-4710-90b9-19263041efb6
-0.0024751804743088,0.1101927105513243,-0.0749162811678209,0.2126429654828778,-0.0786417453190899,0.2013980914360099,-0.231166633791233,-0.2643123098473259,-13.08201606345697,9.781146464815835,70.54617240221289,0.03866835542252,-0.1501323025699077,0.639898095552487,8379.626736111111,11.86022222222222,6.772222222222222,-178.9368526726079,-9.00152091617553,88.6860296846988,1525.0,1435.0,1350.0,1528.0,1475.0,1018.02,242.0,295.25,1637185421.0395143,1637185422.0583477,8c7797e9-ffc2-4710-9ee7-f65adc7ac46e
-0.0149801387807051,0.0946745098968975,-0.0834355409944883,0.2112048268463079,-0.0869281636323313,0.2153411874525842,-0.2349468843417984,-0.2561080703078323,-12.870045383005944,9.960618887783838,70.12811087613237,0.0740500436324848,-0.206489963883082,0.6657740819328171,8386.9140625,11.861666666666666,6.766666666666666,-178.4830882961882,-8.852317046440156,83.12452462680878,1525.0,1435.0,1350.0,1528.0,1475.0,1018.02,242.0,295.25,1637185422.1722574,1637185423.3729925,8c7797e9-ffc2-4710-9ee7-f65adc7ac46e
-0.005570602779804,0.1145345195138978,-0.0813810570467966,0.1907147760535942,-0.0918863180629088,0.2061371005182477,-0.238576472734515,-0.2714482180431978,-12.963548014757777,10.077930958532304,68.89749703357778,0.1002245075078378,-0.1177791682706424,0.6752687367642967,8386.9140625,11.860444444444443,6.768888888888888,-178.3513931420715,-8.721926078999935,79.00941609632633,1525.0,1435.0,1350.0,1528.0,1475.0,1018.02,242.0,295.25,1637185423.4818375,1637185424.5103405,8c7797e9-ffc2-4710-9ee7-f65adc7ac46e
0.1652178114680587,0.4130444235642002,-0.0490664911541737,0.0493777993085387,-0.1316271592031379,0.0375439727182664,-0.2729888066567453,-0.2980765229093413,-12.350792396420497,9.40554973536891,68.00567818575381,0.0375128679688872,1.0248204737627138,0.7686718338322815,8346.08203125,11.856222222222222,6.875555555555556,-178.40756613562547,-8.537046518546028,69.6891334769534,1576.0,1435.0,1350.0,1528.0,1515.0,1018.02,242.0,295.25,1637185426.53711,1637185427.6757853,ddc0c950-5428-461c-b876-d003905bc527
0.1576923744850821,0.4141741156049054,-0.04915305339143,0.0530095787958182,-0.1302777741239963,0.0391212684837183,-0.2737492396391887,-0.2905001336374047,-12.512184204968662,9.3762088887495,68.86011371002353,0.0327210046244446,1.0221738218388816,0.7693074304330217,8346.08203125,11.846333333333332,6.9366666666666665,-178.59848661894526,-8.494018413777196,66.79271131495926,1576.0,1435.0,1350.0,1528.0,1515.0,1018.02,242.0,295.25,1637185427.784237,1637185428.904107,ddc0c950-5428-461c-b876-d003905bc527
0.160637134544367,0.4007377927321221,-0.0476464319081559,0.0670759444573369,-0.1231555631828312,0.0408059452033393,-0.2693800368772652,-0.2865966138901745,-12.55736943046024,9.249892105792766,69.09365667750005,0.0040285569850553,0.9683908651691612,0.7501793911115393,8355.122395833334,11.845222222222224,6.943333333333333,-178.825180597498,-8.466049548035901,64.38107473077523,1576.0,1435.0,1350.0,1528.0,1515.0,1018.02,242.0,295.25,1637185429.0132968,1637185430.1320124,ddc0c950-5428-461c-b876-d003905bc527
0.3704032048772415,0.7809712075401333,-0.0197711950118308,-0.1278403345427232,-0.1947672037377401,-0.1598705608145872,-0.3249524617485868,-0.3601120822528131,-11.329664333225772,8.828660938866255,67.90572104185182,-0.0082107360699829,2.4220949628740485,0.9324985147002453,8365.996961805555,11.844555555555557,6.9688888888888885,-179.28118072250604,-8.439256423469232,60.80335182381104,1627.0,1435.0,1350.0,1528.0,1556.0,1018.02,242.0,295.25,1637185431.1556969,1637185432.2896478,1eb2cb6c-8ecc-40e6-8662-67b6d07e1f6f
0.3786863350747489,0.7897474135965226,-0.0136652690478839,-0.1264290409973388,-0.1883922768918489,-0.1679570096730097,-0.3179343440669521,-0.3383559167484978,-11.15511236634824,8.514072722482402,68.21654637875413,-0.0312095954207958,2.4512287859380506,0.9072641496119288,8377.806749131945,11.841888888888889,7.014444444444444,-179.49109216735812,-8.431338526673896,59.08894322683162,1627.0,1435.0,1350.0,1528.0,1556.0,1018.02,242.0,295.25,1637185432.3977213,1637185433.5268278,1eb2cb6c-8ecc-40e6-8662-67b6d07e1f6f
0.3678655067476775,0.7775262494412369,-0.0232950457083125,-0.1291157581600407,-0.1961346683237678,-0.1538090113270571,-0.3226382908788652,-0.3481204686149458,-11.110793789187657,8.527170621009278,68.11828522357672,0.0062573960153275,2.40566973812501,0.9360181394363064,8378.7158203125,11.837555555555554,6.996666666666666,-179.66996723262167,-8.449805650642316,57.6583358200554,1627.0,1435.0,1350.0,1528.0,1556.0,1018.02,242.0,295.25,1637185433.6407874,1637185434.750706,1eb2cb6c-8ecc-40e6-8662-67b6d07e1f6f
0.5757726736994948,1.1363278469622229,0.0298125392748482,-0.2916731066738099,-0.2394727758161308,-0.3445834685451591,-0.3576006801286515,-0.3907354015655999,-10.281202511805402,8.856794844003325,69.7565883607371,-0.0502404584162831,3.754388612763072,1.0171789807263945,8386.9140625,11.834555555555555,6.997777777777778,179.9385317886064,-8.546309393425428,55.58189228720955,1678.0,1435.0,1350.0,1528.0,1596.0,1018.02,242.0,295.25,1637185435.548853,1637185436.7989254,58ae317b-5abb-4971-ace6-45172e8712d1
0.574218388375694,1.1379276049730005,0.0329441204938387,-0.3011286642720884,-0.2347140428799057,-0.3305214835301379,-0.3519018149624132,-0.3865130265887835,-10.635254784667772,8.723379936054876,70.77754191218933,0.0019441541131722,3.755206331778751,0.9996725421224392,8395.12890625,11.826333333333334,7.029999999999999,179.74957232848828,-8.554241519781534,54.55557250487032,1678.0,1435.0,1350.0,1528.0,1596.0,1018.02,242.0,295.25,1637185436.9072182,1637185438.027149,58ae317b-5abb-4971-ace6-45172e8712d1
0.5777581266492776,1.131475978251812,0.0325474681707191,-0.2862426943965634,-0.232175248464478,-0.3347745394652743,-0.3503688958698914,-0.3682248290135366,-10.389598939866737,8.596964240159725,71.22724719749326,-0.0418545644470314,3.723424319660461,0.9947805630788048,8415.278211805555,11.829,7.006666666666668,179.5276837674716,-8.560422935844137,53.619133458549015,1678.0,1435.0,1350.0,1528.0,1596.0,1018.02,242.0,295.25,1637185438.1352646,1637185439.2585433,58ae317b-5abb-4971-ace6-45172e8712d1
0.7498219490903735,1.4317790537377555,0.0701001447078572,-0.4768856776899378,-0.2885963111914411,-0.4768199339874319,-0.387014318919453,-0.4103532596043034,-9.715490636467706,9.586220423257446,67.89749248143511,0.0772306485016924,4.900353443000824,1.1026491459083618,8385.092230902777,11.824,7.056666666666666,179.03085884288453,-8.7344698162744,51.874560848920055,1729.0,1435.0,1350.0,1528.0,1636.0,1018.02,242.0,295.25,1637185441.0405433,1637185442.1229908,fbae64c4-cbc3-4f81-8849-b0024592515b
0.7263909746197319,1.412581956135655,0.0649984505603441,-0.4588851081033935,-0.285716746376032,-0.4725203091588569,-0.3891181107813377,-0.420661839593449,-9.906078582706806,9.476902140004132,68.16554551729647,0.0452556824340812,4.8247843130217865,1.1068012251586732,8375.079535590277,11.812555555555557,7.110000000000001,178.8789281149867,-8.771705161717156,51.280625433078576,1729.0,1435.0,1350.0,1528.0,1636.0,1018.02,242.0,295.25,1637185442.2304027,1637185443.3533163,fbae64c4-cbc3-4f81-8849-b0024592515b
0.7285736579918657,1.4191431559273986,0.0680357994023675,-0.4656172425176748,-0.2865582629810424,-0.4753472796182861,-0.3863568839981684,-0.4130487430236318,-9.656394427872874,9.51949722704951,67.81699952126354,0.0545928802743809,4.851736896663708,1.1002761745771357,8370.5341796875,11.816333333333334,7.093333333333333,178.70969575901142,-8.81035207958838,50.66779126325863,1729.0,1435.0,1350.0,1528.0,1636.0,1018.02,242.0,295.25,1637185443.4614143,1637185444.67401,fbae64c4-cbc3-4f81-8849-b0024592515b
-0.1727645022293547,-0.1991440763878623,-0.1181974086513941,0.3421987056609801,-0.0549330013476878,0.3520465306172013,-0.213867878397216,-0.2390558528820474,-13.600093098017444,10.996361036639804,65.72501193740901,0.0898208900476315,-1.282610951399709,0.5980184299924493,8377.806749131945,11.81688888888889,7.116666666666666,178.88541983033792,-8.861500235779237,49.65895676519463,1502.3333333333333,1435.0,1350.0,1528.0,1457.3333333333333,1018.02,242.0,295.25,1637185446.6082077,1637185447.7472527,e5000bc4-30a5-4f93-a8ea-1c7ce313335b
-0.188390085506499,-0.2067325184504339,-0.1228832755483647,0.3548482983810707,-0.0574422110006488,0.3588980965758875,-0.2164757033839191,-0.246283801479651,-13.471639090898526,11.043926401457483,67.26764391561107,0.0770754481801279,-1.3275073849679098,0.6129751699572703,8391.481553819445,11.846,6.96,178.8639001809929,-8.9249947178048,49.36861035649179,1474.0,1435.0,1350.0,1528.0,1435.0,1018.02,242.0,295.25,1637185447.8568704,1637185448.9053028,e5000bc4-30a5-4f93-a8ea-1c7ce313335b
-0.1884689777598438,-0.2027484631117799,-0.1204902126472873,0.3623693521349398,-0.0540629959087239,0.3578199035857217,-0.2170542460905231,-0.2512145634289522,-13.699277700252953,11.09567587954706,68.66058948897002,0.0582566181680153,-1.3240726441517134,0.6082664814536819,8413.443467881945,11.845888888888888,6.934444444444444,178.77038881997615,-8.913800796665056,49.189383536485984,1474.0,1435.0,1350.0,1528.0,1435.0,1018.02,242.0,295.25,1637185449.013608,1637185450.1074257,e5000bc4-30a5-4f93-a8ea-1c7ce313335b
-0.3201268895999547,-0.4561896245378986,-0.1418305481335818,0.4637589406690475,-0.0160238165011597,0.4924756907572017,-0.1829070785641963,-0.2175670460048051,-14.380444347730338,11.645919746556016,65.82158349463624,0.1339256712590899,-2.258474682042721,0.5024429121204775,8420.795464409723,11.83911111111111,6.928888888888888,178.80439709076356,-8.933500295459973,48.92191256967837,1423.0,1435.0,1350.0,1528.0,1394.0,1018.02,242.0,295.25,1637185451.2270126,1637185452.2472131,b42f1054-8325-4a47-9d15-91592e1df481
-0.3176812316992418,-0.4536387768736958,-0.1426983621563143,0.460826781634744,-0.0204943733563771,0.4852833545477384,-0.186391483372434,-0.2055622846828187,-14.200009890304807,11.838204634248196,64.75122138014198,0.1255294364658863,-2.2403886729362084,0.5134965050913751,8370.5341796875,11.827000000000002,7.12,178.7994763189215,-8.965573535710014,48.73226591663875,1423.0,1435.0,1350.0,1528.0,1394.0,1018.02,242.0,295.25,1637185452.3549757,1637185453.5890665,b42f1054-8325-4a47-9d15-91592e1df481
-0.3093318082159455,-0.4339025793869125,-0.1465772278495427,0.4500580003519754,-0.0272133573107649,0.48131244863406,-0.1922032077179525,-0.2163968114384862,-14.235530064734805,11.631471136798345,65.49101641401244,0.1394344575894628,-2.1715948525065083,0.5396070652667623,8354.216796875,11.830444444444444,7.096666666666668,178.72924679605566,-8.957159501562465,48.5621623320893,1423.0,1435.0,1350.0,1528.0,1394.0,1018.02,242.0,295.25,1637185453.6969364,1637185454.822211,b42f1054-8325-4a47-9d15-91592e1df481
-0.537750460590944,-0.8268986190454665,-0.1891318910699781,0.6251558848766574,0.0192612583685532,0.6885435518591683,-0.1571778171434305,-0.1693129698762632,-15.360596951587668,13.16353357561926,63.091333350113246,0.2172209237343903,-3.640567716844512,0.4336275543394408,8361.468967013889,11.822,7.135555555555555,178.77209940290834,-8.903133274410095,48.33186656711426,1372.0,1435.0,1350.0,1528.0,1354.0,1018.02,242.0,295.25,1637185455.7319815,1637185456.7643292,5875c582-1013-465c-8881-f711e78d80d0
-0.5270260523097865,-0.8181054242642246,-0.1889812289159672,0.6213071522833172,0.0174807057076392,0.6835306119059047,-0.1600814877900225,-0.1881594359344582,-15.448923626673398,13.191953476599844,63.08922201986919,0.2147890790763994,-3.60646012851712,0.4409353912007507,8387.826822916666,11.818333333333332,7.111111111111111,178.7462797700258,-8.900555162589633,48.21384734899066,1372.0,1435.0,1350.0,1528.0,1354.0,1018.02,242.0,295.25,1637185456.878154,1637185458.0979211,5875c582-1013-465c-8881-f711e78d80d0
-0.5457191207111276,-0.8156093621503845,-0.1909146353839482,0.6339162028891852,0.0190043107925947,0.6825532255775333,-0.1615930402259499,-0.1931762114091716,-15.491089219687126,12.977324970799453,64.93697012960598,0.1829040801792702,-3.614855136806148,0.4467250274409906,8403.359375,11.826333333333332,7.04,178.7676491552091,-8.911657160766794,48.17614925823164,1372.0,1435.0,1350.0,1528.0,1354.0,1018.02,242.0,295.25,1637185458.2063706,1637185459.4173045,5875c582-1013-465c-8881-f711e78d80d0
-0.645412567387728,-1.0280003728507454,-0.2018806490700906,0.7194090175912186,0.049575029843791,0.7787096320029009,-0.136886638024186,-0.1686670395175877,-15.994303327729812,14.277803366956158,60.256608482973135,0.2132051325844888,-4.377606133550238,0.3524212213667707,8403.359375,11.817,7.061111111111112,178.8426233828184,-8.894282297883144,48.12941520665564,1321.0,1435.0,1350.0,1528.0,1314.0,1018.02,242.0,295.25,1637185461.031834,1637185462.0829737,b7799c14-5907-4bf9-ba2d-d7b62534ca1f
-0.6538934796419182,-1.0332993008004023,-0.1977651067451226,0.7298227840219709,0.0583189128607497,0.7737525739848281,-0.1338229915577323,-0.1602518733301546,-16.278353411710754,14.168687432301589,60.20754813886597,0.1779058353970263,-4.396058182464487,0.3297669025044986,8395.12890625,11.79277777777778,7.264444444444444,178.84375719422064,-8.8423720064174,47.99685906924853,1321.0,1435.0,1350.0,1528.0,1314.0,1018.02,242.0,295.25,1637185462.191512,1637185463.4194386,b7799c14-5907-4bf9-ba2d-d7b62534ca1f
-0.6534042383406493,-1.0279094275873673,-0.2035132790387664,0.7185937984972267,0.0467776447074151,0.7729417377895397,-0.1415911323168011,-0.1564108102451171,-16.068875107184198,14.432363639895286,59.31731446885345,0.2028388769102648,-4.368412801520215,0.3637184937219345,8386.9140625,11.794444444444444,7.23888888888889,178.80266829399363,-8.78726404805523,47.88165540688278,1321.0,1435.0,1350.0,1528.0,1314.0,1018.02,242.0,295.25,1637185463.5275657,1637185464.7450545,b7799c14-5907-4bf9-ba2d-d7b62534ca1f
-0.0043790022041268,0.1067411778182839,-0.0915712972167199,0.2135195452083418,-0.0948310783968987,0.1990011938005306,-0.2483832099426917,-0.2795428857013341,-13.026678397628322,9.82102672822648,69.7087393060105,0.0306342836710463,-0.1572102554152792,0.7075951646535906,8386.9140625,11.803777777777778,7.1677777777777765,178.555260628418,-8.820322732820522,47.78736654266553,1525.0,1435.0,1350.0,1528.0,1475.0,1018.02,242.0,295.25,1637185466.5864296,1637185467.611,121036d7-537e-459f-adda-341ef4da6c3f
-0.0092686736606827,0.1052345564304575,-0.0955569959288273,0.2130675587826249,-0.0972005830922034,0.2071232526983691,-0.2473148781790901,-0.2778719052424243,-12.84664052355074,9.582538582427452,70.58447811964896,0.0483560015209883,-0.1720979839070525,0.7160070577423253,8390.565104166666,11.855555555555554,6.901111111111111,178.58128364915578,-8.837793028625077,47.95118066135425,1525.0,1435.0,1350.0,1528.0,1475.0,1018.02,242.0,295.25,1637185467.7189696,1637185468.952224,121036d7-537e-459f-adda-341ef4da6c3f
-0.0039407122757935,0.1066042122295816,-0.0897359582691551,0.2153274908792652,-0.0894346339835356,0.1986313867055589,-0.2431648204869347,-0.275159986368956,-13.034571662754963,9.451407264487136,69.90528876704303,0.0233934886626936,-0.1595226205820641,0.6907360423824332,8397.872395833334,11.857,6.87,178.55705469144,-8.833211584375553,48.16520084444706,1525.0,1435.0,1350.0,1528.0,1475.0,1018.02,242.0,295.25,1637185469.060895,1637185470.181577,121036d7-537e-459f-adda-341ef4da6c3f
0.0171897907710968,0.1049967841511813,-0.1415675742080161,-0.3761008990986572,-0.2004342923693506,0.7699526011182385,-0.1364001362220015,-0.1598442637021619,-13.109397201366365,8.284985408569945,73.70206495745583,2.6316004314850847,-0.1291607241028381,0.7609648397174478,8395.12890625,11.854,6.949999999999999,178.63337522522573,-8.613549570164572,48.593211233691335,1525.0,1521.0,1350.0,1528.0,1475.0,1018.02,242.0,295.25,1637185472.1006577,1637185473.2622232,ecf1e7ef-98a9-457d-a72e-71541e84444b
-0.0006398416005923,0.0948065447138968,-0.1389378347477595,-0.3738787690945653,-0.1979623371888708,0.7736342357164862,-0.1315482669368694,-0.1625791925339026,-12.914938203648749,8.420001965742161,73.12341867412333,2.635892605824354,-0.1637327136927991,0.7451562057887045,8402.444878472223,11.848777777777778,6.99,178.7075450083328,-8.637803002724857,48.66725731448344,1525.0,1521.0,1350.0,1528.0,1475.0,1018.02,242.0,295.25,1637185473.3760722,1637185474.4796417,ecf1e7ef-98a9-457d-a72e-71541e84444b
0.028013359337117,0.1006051196802241,-0.1281137176558206,-0.380007158416314,-0.1904330642789624,0.7686821084665109,-0.122169410865629,-0.1478915499113595,-12.821868637149244,8.487301033074104,72.5017343476779,2.6395215107085828,-0.1356914145261072,0.7066016360991142,8395.12890625,11.853,6.946666666666666,178.7361376980183,-8.668426155868609,48.74155042045053,1525.0,1521.0,1350.0,1528.0,1475.0,1018.02,242.0,295.25,1637185474.5877464,1637185475.7112377,ecf1e7ef-98a9-457d-a72e-71541e84444b
0.0338491890558613,0.0932287012043953,-0.1770296107920493,-0.9690547306130192,-0.3048086559938025,1.3544778651066154,-0.0203234402586017,-0.052156435584927,-13.208650117938737,8.374825439240942,77.84461606141438,5.2821054891012,-0.1385523004400179,0.785310080669009,8413.441840277777,11.84988888888889,6.925555555555556,178.81648348995486,-8.46655071316625,48.90360500651806,1525.0,1607.0,1350.0,1528.0,1475.0,1018.02,242.0,295.25,1637185476.6222951,1637185477.7613847,34147fbf-f344-4bbe-8125-58eb1800f0e7
0.0338891829688391,0.1041251351804915,-0.1654505392025212,-0.9688087401365658,-0.2947460668852226,1.3473068946167397,-0.0102548258958739,-0.0296354569749493,-13.150441303367494,8.25520594889265,78.45927508866241,5.265347336124388,-0.1028420071500682,0.7437627096122839,8419.869140625,11.842,6.991111111111112,178.81809996805845,-8.43841517183646,48.96390077814608,1525.0,1607.0,1350.0,1528.0,1475.0,1018.02,242.0,295.25,1637185477.8694143,1637185478.9891522,34147fbf-f344-4bbe-8125-58eb1800f0e7
0.0329304239119796,0.1062891914073643,-0.1747641998279299,-0.97187677135191,-0.3039912452713545,1.344129293000584,-0.0213627351635339,-0.0487010671211596,-13.274516408723263,8.252750001876425,77.82981172365051,5.264484732526032,-0.0884811273074523,0.7841272043768237,8422.628580729166,11.841333333333331,6.930000000000001,178.7871045696049,-8.451278789637056,49.03799770590201,1525.0,1607.0,1350.0,1528.0,1475.0,1018.02,242.0,295.25,1637185479.0970738,1637185480.135686,34147fbf-f344-4bbe-8125-58eb1800f0e7
0.0654466495296031,0.1004336149347933,-0.192667985541999,-1.4839135221689954,-0.3874402224801256,1.842378601620969,0.0807248628480856,0.0626025284821562,-13.726763899640282,9.08947171664252,81.13068395585212,7.544100685054976,-0.074575880643753,0.7756393755306729,8412.531467013889,11.833000000000002,7.033333333333334,178.88324024108277,-8.262512566954198,49.19350821183476,1525.0,1693.0,1350.0,1528.0,1475.0,1018.02,242.0,295.25,1637185482.039096,1637185483.2881107,fb9d2267-5a12-4545-817d-d65a3a2caf42
