raw_voltage_G-,raw_voltage_G0,raw_voltage_G1,raw_voltage_G2,raw_voltage_G3,raw_voltage_G4,raw_voltage_G5,raw_voltage_G6,load_x,load_y,load_z,load_l,load_m,load_n,rpm,voltage,current,roll,pitch,yaw,aileron1_pwm,elevator_pwm,throttle_pwm,rudder_pwm,aileron2_pwm,pbaro,pdiff,Tt,sample_start_time,sample_end_time,uid
-0.1439869345631215,-0.0525640444328828,0.01809705083166,0.3985940075248069,-0.0737728923611751,-0.3875928617507695,-0.3924710289494649,-0.425763535994138,-14.551668790324664,25.217937165054103,-11.903174318802977,-1.6112518471465938,-0.0361569747494362,0.5944282298747154,6616.026475694444,12.047333333333334,0.24,179.39732733043218,5.722686565540531,76.33281067130062,1525.0,1435.0,1200.0,1528.0,1475.0,1021.7000000000002,250.0,289.15,1637182909.138827,1637182910.2312622,665dfc0a-da26-491b-982d-b007a05961e6
-0.1487730603651023,-0.0570608987155372,0.0009248533136205,0.3988701300712363,-0.0869084405621174,-0.3808607280156155,-0.4063166088577583,-0.4311413527626215,-14.650125898358432,24.977531311612047,-11.652523294302604,-1.5992050543853589,-0.0556742703490232,0.6552817085429749,6631.952311197917,12.04588888888889,0.24,179.4148414532839,5.737955453430095,75.6775708925637,1525.0,1435.0,1200.0,1528.0,1475.0,1021.7000000000002,250.0,289.15,1637182910.3391898,1637182911.551822,665dfc0a-da26-491b-982d-b007a05961e6
-0.144815302592672,-0.0528138696877517,0.0003857567392994,0.3977656396997552,-0.089577626020964,-0.3873035904159179,-0.4103269620848105,-0.42788047529629,-14.672945756130508,25.11975930579045,-12.14025325644814,-1.6103647975518518,-0.035156854979449,0.6651039471859472,6632.520670572917,12.044333333333334,0.24,179.42623724445912,5.768829141707152,75.1123393467092,1525.0,1435.0,1200.0,1528.0,1475.0,1021.7000000000002,250.0,289.15,1637182911.6605198,1637182912.7819388,665dfc0a-da26-491b-982d-b007a05961e6
0.0015105180522656,0.2053016104966348,0.0209185419697019,0.3000680943225357,-0.1268673307500351,-0.5380517848412941,-0.453722052006324,-0.4763350766960282,-14.569990170974153,24.674514835035712,-10.49069168888648,-1.7303488012112729,0.9309071887237742,0.7826474639547087,6732.099446614583,12.036444444444443,0.27,179.41391406537662,5.793693686470677,74.08611860211295,1576.0,1435.0,1200.0,1528.0,1515.0,1021.7000000000002,250.0,289.15,1637182914.8006656,1637182915.8578408,6a7ab3bc-e04c-40d5-9397-e58ca9f1a523
0.0056331822450831,0.2075341494482554,0.0233017431545857,0.2942333606797673,-0.1252785298692943,-0.5341893543349401,-0.4483803930494889,-0.4760337523334755,-14.412593916099782,24.53812517315156,-10.363974747728845,-1.709193721923076,0.9379106158784206,0.7701932588369917,6754.47314453125,12.039,0.27,179.4436360130049,5.795015375506942,73.78173198066123,1576.0,1435.0,1200.0,1528.0,1515.0,1021.7000000000002,250.0,289.15,1637182915.9750717,1637182916.9957974,6a7ab3bc-e04c-40d5-9397-e58ca9f1a523
-0.0181851335809765,0.1922624872303842,0.011467916325158,0.289727193193392,-0.13263358237399,-0.511713295595365,-0.453283762232183,-0.4819643632474535,-14.595091007097066,24.447562478921395,-9.94851954318592,-1.6497374420887112,0.8780451662839335,0.801931391520856,6739.13525390625,12.038111111111112,0.2744444444444445,179.4711692644591,5.810174838074179,73.43051226989056,1576.0,1435.0,1200.0,1528.0,1515.0,1021.7000000000002,250.0,289.15,1637182917.1098003,1637182918.309832,6a7ab3bc-e04c-40d5-9397-e58ca9f1a523
0.2155740288427354,0.6097472579592377,0.0215211905262501,0.0841555529648837,-0.2190314815116972,-0.7294201678741624,-0.5395173171508515,-0.55521357834418,-14.685018920694509,23.593416717551914,-9.938696207049428,-1.6804399488115451,2.470349416000741,1.0776976947763943,6647.381727430556,12.029,0.32,179.36746270774128,5.821862809563886,73.06462662515204,1627.0,1435.0,1200.0,1528.0,1556.0,1021.7000000000002,250.0,289.15,1637182919.1282284,1637182920.2651603,50f7c224-e85d-4c76-ad25-46e5a7d3b80b
0.2146152698398937,0.6062272427450561,0.0201926243071223,0.0723080298349067,-0.2208531239901001,-0.71440873343794,-0.5351618101809366,-0.5611441895826128,-14.580161704992191,23.5052266059378,-9.833809940954348,-1.6205634164560845,2.456848424891083,1.0755161602700964,6635.372884114583,12.03,0.32,179.38353186612858,5.826426941181139,72.84146309549031,1627.0,1435.0,1200.0,1528.0,1556.0,1021.7000000000002,250.0,289.15,1637182920.372574,1637182921.4957478,50f7c224-e85d-4c76-ad25-46e5a7d3b80b
0.226942172016906,0.6139794941558852,0.0245070403323034,0.0842925185335076,-0.2164154385243311,-0.7328853986667827,-0.5358466384463545,-0.5595690852341958,-14.54783560008642,23.45877504099833,-9.797437668742829,-1.6891880543915452,2.4841700943639555,1.0657019730375126,6629.10009765625,12.031333333333333,0.32,179.3999136953979,5.85407056659508,72.60949924653798,1627.0,1435.0,1200.0,1528.0,1556.0,1021.7000000000002,250.0,289.15,1637182921.6029491,1637182922.7226784,50f7c224-e85d-4c76-ad25-46e5a7d3b80b
0.4311715433868094,0.9813759488467282,0.034615100627926,-0.1075825751339153,-0.2926641896487763,-0.9109133534484124,-0.6072605167052599,-0.6291339285074281,-14.629185610056313,22.72677651588088,-9.275354880411976,-1.660724357066133,3.882331057244657,1.3012077936525106,6633.660861545139,12.019666666666666,0.3611111111111111,179.26546521613577,5.851734973922021,72.26436143976827,1678.0,1435.0,1200.0,1528.0,1596.0,1021.7000000000002,250.0,289.15,1637182923.6339753,1637182924.7718823,0dd70e89-d672-4e21-ab41-624bd1923f90
0.4333766890819939,0.9768286917306002,0.0313416230710403,-0.0970636174807931,-0.2978003998694616,-0.9134472180552656,-0.6121227964575416,-0.6375299220528674,-14.334595411422962,23.0161162983904,-8.928557420941535,-1.688187838699261,3.8586196613664456,1.3197068616984298,6625.684733072917,12.023666666666664,0.3566666666666667,179.28457456761362,5.853166325439961,72.07156872570593,1678.0,1435.0,1200.0,1528.0,1596.0,1021.7000000000002,250.0,289.15,1637182924.880706,1637182925.9997494,0dd70e89-d672-4e21-ab41-624bd1923f90
0.4333766891323353,0.9915524911718956,0.0461202099010674,-0.1063772779183674,-0.286665096139602,-0.9216788544552164,-0.6015079601862828,-0.6358589418131951,-14.490376111684949,23.02880048388339,-9.168483328220445,-1.684972790365698,3.919155705695209,1.2705294465761432,6635.94384765625,12.018333333333333,0.36,179.3016819147548,5.870509456403094,71.88401400782709,1678.0,1435.0,1200.0,1528.0,1596.0,1021.7000000000002,250.0,289.15,1637182926.1072338,1637182927.434102,0dd70e89-d672-4e21-ab41-624bd1923f90
0.6194920845105601,1.3276282266717172,0.0517971594801104,-0.2726469404901653,-0.3617951148898899,-1.0935598172779013,-0.670473991598012,-0.692169348852592,-14.055157820736705,22.397498505513266,-8.794861987438672,-1.6997723089778274,5.194072817720484,1.5036116222595282,6660.0048828125,12.008888888888889,0.42,179.20379771484943,5.861845266577195,71.63832223755293,1729.0,1435.0,1200.0,1528.0,1636.0,1021.7000000000002,250.0,289.15,1637182928.1399262,1637182929.161122,585a046f-67e5-42cf-897b-f0ce74cb6445
0.6297875126735759,1.334215723581452,0.0656295879373944,-0.2757894792670933,-0.3481730631585865,-1.097622767240398,-0.6549585243598353,-0.682215782091321,-13.954411321366706,22.13809377153672,-8.750693500000244,-1.7027866112834025,5.2189348298073215,1.445120801768259,6665.18359375,12.008333333333333,0.42,179.21593571991446,5.860694901452608,71.50602450896943,1729.0,1435.0,1200.0,1528.0,1636.0,1021.7000000000002,250.0,289.15,1637182929.2707882,1637182930.3015823,585a046f-67e5-42cf-897b-f0ce74cb6445
0.6300592523698131,1.3236666339493997,0.0631450322318497,-0.2765159449888768,-0.351888118334807,-1.0848597572285863,-0.6566640203589519,-0.6827970642946548,-13.966492154960957,22.50755703889732,-8.521463266297369,-1.6701117331666462,5.177361375038228,1.4548762424296149,6660.0048828125,12.008555555555557,0.4122222222222222,179.21285151004926,5.880146236707682,71.39176834562356,1729.0,1435.0,1200.0,1528.0,1636.0,1021.7000000000002,250.0,289.15,1637182930.410174,1637182931.529562,585a046f-67e5-42cf-897b-f0ce74cb6445
-0.3078536754556401,-0.3808426484206668,0.014974235389823,0.5542214147365595,-0.0034613327073974,-0.2177850946451197,-0.3195642348192415,-0.3405610629308834,-14.33182185031592,25.963206062135622,-12.858089594450869,-1.575984994563224,-1.2798403594695231,0.3592582035647244,6648.525499131944,12.043444444444445,0.25,179.68083026904162,5.873029606479351,71.14390761083295,1474.0,1435.0,1200.0,1528.0,1435.0,1021.7000000000002,250.0,289.15,1637182933.6703978,1637182934.806935,7844b19a-8b03-4392-b270-1f24de6c4f07
-0.3326838965876428,-0.405422497289887,-0.0087525872951505,0.5681858766921051,-0.0192452471107222,-0.2041159277850219,-0.3400471674951981,-0.3709203123360374,-14.620642221487469,26.02980318727764,-12.680199925481222,-1.577625941502297,-1.3747845179697995,0.4394319318758517,6644.5166015625,12.043444444444445,0.25,179.70381765014827,5.8767692773455416,71.23745388170545,1474.0,1435.0,1200.0,1528.0,1435.0,1021.7000000000002,250.0,289.15,1637182934.9146082,1637182936.0319393,7844b19a-8b03-4392-b270-1f24de6c4f07
-0.3361233769057482,-0.3994973649278592,-0.0060499824052925,0.5637816117406645,-0.0188562649590634,-0.2083070750982162,-0.3371506189492328,-0.354175444791933,-14.41139952133782,25.96750285050544,-13.005846250106073,-1.577334073687351,-1.350443908946237,0.4314850350680355,6639.36962890625,12.043666666666669,0.2433333333333333,179.7266198572374,5.886391353770666,71.3224221938903,1474.0,1435.0,1200.0,1528.0,1435.0,1021.7000000000002,250.0,289.15,1637182936.1400936,1637182937.2700682,7844b19a-8b03-4392-b270-1f24de6c4f07
-0.454242521633908,-0.6540479768042851,0.0079615973410228,0.6768466919633415,0.0471337552584464,-0.0652739035101537,-0.264230130264917,-0.2896098580937666,-14.185315159171717,26.92475875233272,-13.006163534391048,-1.5038093562228017,-2.319777063954976,0.1886371759041405,6644.5166015625,12.031333333333334,0.3033333333333333,179.78400255318442,5.868309139421096,71.48282463308861,1423.0,1435.0,1200.0,1528.0,1394.0,1021.7000000000002,250.0,289.15,1637182938.1742997,1637182939.3118994,9979c5d6-2710-4b27-af98-7cf44fdbb9b3
-0.4738483280492665,-0.6594159339043418,-0.0085816542249567,0.6796999587748955,0.0351377613723822,-0.0608214262417191,-0.2776828918797626,-0.3093055109426175,-14.271174391622695,26.67027516461768,-12.859460310626176,-1.5027708961079815,-2.3420070712266847,0.2463070999471432,6644.5166015625,12.028333333333332,0.32,179.78635669171834,5.880412946108397,71.48117628076892,1423.0,1435.0,1200.0,1528.0,1394.0,1021.7000000000002,250.0,289.15,1637182939.4212277,1637182940.5419843,9979c5d6-2710-4b27-af98-7cf44fdbb9b3
-0.4454208399433241,-0.6337891158273137,0.0148624715296408,0.6622647892468833,0.0487861081011043,-0.0696704990278264,-0.2597875138762029,-0.2795763044515483,-14.157073824907089,26.849833183427,-12.673934961499429,-1.4808817915140815,-2.244706884415918,0.1734971698979752,6639.36962890625,12.029,0.31,179.79769025228111,5.870008006681529,71.47597623008082,1423.0,1435.0,1200.0,1528.0,1394.0,1021.7000000000002,250.0,289.15,1637182940.6502385,1637182941.7720222,9979c5d6-2710-4b27-af98-7cf44fdbb9b3
-0.666580332574843,-1.003995220855718,0.0031678016135714,0.835206287416805,0.11679445156936,0.1261218078354454,-0.1921040447210069,-0.2061293230876647,-14.260766361839126,28.237436051912383,-13.56767783207989,-1.4226023777274868,-3.646560377835168,-0.0447395364956461,6641.657172309027,12.020333333333332,0.3499999999999999,179.87283144007017,5.866283988332187,71.55269898611766,1372.0,1435.0,1200.0,1528.0,1354.0,1021.7000000000002,250.0,289.15,1637182943.704502,1637182945.0477457,d9fbf1a7-bb68-466a-b803-7813dacd944a
-0.6578117924693363,-0.9969299836415024,0.0075386476131505,0.8298843530896715,0.1212617211018383,0.1251274377332007,-0.183656554369145,-0.2140168977028692,-14.013735969945412,27.84772390659823,-13.368982120366448,-1.4150416680503417,-3.622645175027035,-0.0673883162652174,6633.090766059027,12.021444444444445,0.35,179.86219304098293,5.862592033926449,71.5087064965835,1372.0,1435.0,1200.0,1528.0,1354.0,1021.7000000000002,250.0,289.15,1637182945.1566002,1637182946.278075,d9fbf1a7-bb68-466a-b803-7813dacd944a
-0.6474599299862657,-0.9949007001065528,-3.719298386530417e-05,0.8293852505400646,0.1134661879879197,0.1255191591785381,-0.1923779757725693,-0.2110737805603263,-14.073872158879944,27.88300838564412,-13.15894849766677,-1.4131756762487242,-3.6168882408022864,-0.0335455027523066,6618.298068576389,12.022555555555556,0.3444444444444444,179.85195231068732,5.876443847290712,71.500226437274,1372.0,1435.0,1200.0,1528.0,1354.0,1021.7000000000002,250.0,289.15,1637182946.3980303,1637182947.3930333,d9fbf1a7-bb68-466a-b803-7813dacd944a
-0.8751653162013483,-1.4015792512799994,-0.0185275475426712,1.0272731137182298,0.1825105378698235,0.3457324175471046,-0.1258674819994682,-0.1563012377307642,-14.297113206414574,29.619970494867104,-12.430931979133897,-1.3541161062156697,-5.172559376655511,-0.2443940298267913,6603.56396484375,12.012,0.3899999999999999,179.92558326775986,5.853489194173853,71.49984091104085,1321.0,1435.0,1200.0,1528.0,1314.0,1021.7000000000002,250.0,289.15,1637182949.1070511,1637182950.054711,61d25726-f02b-4bb1-9f8a-9ee6ed7f77d7
-0.8653640539400999,-1.3953226568033168,-0.0033879191725747,1.021999938951228,0.1946840386709142,0.3447763978463793,-0.1092349280988959,-0.1364658801998352,-14.045314384171885,29.55577148860717,-12.263986830133772,-1.343887789209949,-5.150747220581824,-0.3041442590642086,6601.869466145833,12.011666666666663,0.3899999999999999,179.92360251290054,5.84725579278257,71.45737990170058,1321.0,1435.0,1200.0,1528.0,1314.0,1021.7000000000002,250.0,289.15,1637182950.1631804,1637182951.3969183,61d25726-f02b-4bb1-9f8a-9ee6ed7f77d7
-0.863427359554079,-1.3997302138346228,-0.0048583817603195,1.0338885510861304,0.1946730814082208,0.3383225798534323,-0.1143212824183151,-0.1389613943019044,-14.174329309708218,29.72863749887696,-12.265735417568782,-1.384200667332343,-5.167903636017754,-0.2954757589991011,6609.788519965277,12.013444444444444,0.3822222222222222,179.91507691899656,5.8321869725174444,71.3753174555526,1321.0,1435.0,1200.0,1528.0,1314.0,1021.7000000000002,250.0,289.15,1637182951.5042503,1637182952.7175293,61d25726-f02b-4bb1-9f8a-9ee6ed7f77d7
-0.1257716061145016,-0.0287040907356204,0.0127006066865037,0.3839184200928232,-0.0828602854766308,-0.3831573673470057,-0.3977305085195392,-0.4128104230683713,-14.52808730189358,24.95074651420989,-9.909425911771343,-1.5698904299278915,0.0369551543049893,0.6273464508457305,6626.823187934027,12.044888888888888,0.2355555555555555,179.49757781143,5.816070714283977,71.3792379841362,1525.0,1435.0,1200.0,1528.0,1475.0,1021.7000000000002,250.0,289.15,1637182954.6516778,1637182955.7888055,4dc5fff8-8b67-44fd-8628-aff7fac5e225
-0.1354413771549757,-0.0291012909756611,0.0091942876428319,0.3858770278076291,-0.0876129915590969,-0.3869239217364191,-0.4020449253206224,-0.4254386526340379,-14.361912165403146,25.033536251761944,-10.275579897625528,-1.5823730065402373,0.0370724542800811,0.6442770333008284,6629.10009765625,12.047,0.24,179.51930995554918,5.833433387177234,71.60255709032903,1525.0,1435.0,1200.0,1528.0,1475.0,1021.7000000000002,250.0,289.15,1637182955.8971655,1637182957.018778,4dc5fff8-8b67-44fd-8628-aff7fac5e225
-0.1183206777102134,-0.0285397320511308,0.0104269779696163,0.3793437698234177,-0.0856132939130877,-0.382212304669431,-0.4004150344925409,-0.4307529188707026,-14.606407365319583,24.985722639302832,-10.369842237750326,-1.5574416256140784,0.0426262823366388,0.6372788209305095,6639.36962890625,12.047,0.24,179.54489584418005,5.848416071167826,71.784564176782,1525.0,1435.0,1200.0,1528.0,1475.0,1021.7000000000002,250.0,289.15,1637182957.127164,1637182958.1537428,4dc5fff8-8b67-44fd-8628-aff7fac5e225
-0.1107738735133766,-0.0549466978737228,-0.0309229333615754,-0.0845175692611625,-0.1703813007168635,0.0925104536222289,-0.3069360058512888,-0.3353563708270293,-14.420204389543429,24.13245202961639,-7.076145773235908,0.5485847132020266,-0.0324503178404121,0.6738696301588893,6639.36962890625,12.04577777777778,0.2377777777777777,179.51521335986698,5.960830976781827,72.12660107766854,1525.0,1521.0,1200.0,1528.0,1475.0,1021.7000000000002,250.0,289.15,1637182960.1864555,1637182961.2270966,fd69f26d-a016-4757-bdd1-69f0aafa8000
-0.1117068830893208,-0.0620968495963523,-0.0318811446089996,-0.0880918234055436,-0.1692192845596438,0.1007103091683643,-0.3026128234903064,-0.3302908335532969,-14.3353782626851,23.947563419171285,-7.35940408221211,0.5737977099688719,-0.0569814151683083,0.666276962329038,6644.5166015625,12.043888888888889,0.2344444444444444,179.51263154836073,5.976670185467086,72.15003773344057,1525.0,1521.0,1200.0,1528.0,1475.0,1021.7000000000002,250.0,289.15,1637182961.3352537,1637182962.3390694,fd69f26d-a016-4757-bdd1-69f0aafa8000
-0.1277986969138662,-0.0690404572418863,-0.0372233505214687,-0.0850517351367504,-0.1731343092539853,0.1047688733888186,-0.3051143633034781,-0.3312884912462206,-14.19070410215688,23.90722434781304,-7.382132487776435,0.5755959348540286,-0.0845603438034692,0.6817251940363341,6639.36962890625,12.044,0.24,179.48523338287006,5.982503546473231,72.20294361984159,1525.0,1521.0,1200.0,1528.0,1475.0,1021.7000000000002,250.0,289.15,1637182962.447755,1637182963.572148,fd69f26d-a016-4757-bdd1-69f0aafa8000
-0.1083769755587055,-0.0713688723129931,-0.0688624020157508,-0.6234909439681496,-0.2606142382118833,0.6269638304343069,-0.1940489560764246,-0.233344388210943,-14.338441037882603,23.08879900261481,-3.642394214999744,2.957145579582408,-0.0611191120058237,0.6863743831440482,6644.5166015625,12.039666666666667,0.26,179.45749370792092,6.147032890318168,72.16023065241195,1525.0,1607.0,1200.0,1528.0,1475.0,1021.7000000000002,250.0,289.15,1637182965.8222268,1637182966.9609835,0fcadfee-d208-40af-9f17-6766caaddcfb
-0.1039666835037221,-0.0627537366354352,-0.0578777615636466,-0.6345851601966838,-0.2553547590541633,0.6281006446900639,-0.1829958323068405,-0.1955144887012787,-14.071455828784403,23.205281925723146,-3.6510455164134377,2.986178142334067,-0.0285558160846703,0.6495720728858619,6634.801920572917,12.040888888888889,0.26,179.4626011716003,6.144378033733279,72.08712106644604,1525.0,1607.0,1200.0,1528.0,1475.0,1021.7000000000002,250.0,289.15,1637182967.0698564,1637182968.1860695,0fcadfee-d208-40af-9f17-6766caaddcfb
-0.1126229090976129,-0.0770392478480527,-0.0826685337517332,-0.626860298627155,-0.2722563145781854,0.6392633388541924,-0.2030065063826816,-0.2261263009079903,-14.295226323327148,22.94202502967244,-3.211180055890833,2.990814711503349,-0.0869770558079689,0.7337872229043357,6639.36962890625,12.038111111111112,0.25,179.4463377322766,6.135911350210879,72.04707339061254,1525.0,1607.0,1200.0,1528.0,1475.0,1021.7000000000002,250.0,289.15,1637182968.2944634,1637182969.3061292,0fcadfee-d208-40af-9f17-6766caaddcfb
-0.0762974422756884,-0.0737860410476094,-0.1021346316272803,-1.1272862485391644,-0.3499086913495602,1.117945970491688,-0.0926412724074514,-0.1116805864705441,-14.027087089891388,22.500300717777986,0.1341730148397971,5.1920875550311765,-0.0459515484448504,0.7100434146203399,6638.798665364583,12.028555555555556,0.31,179.43521059520873,6.325222754798738,71.89885069652419,1525.0,1693.0,1200.0,1528.0,1475.0,1021.7000000000002,250.0,289.15,1637182971.148853,1637182972.1707156,54e97aeb-c872-4892-8e48-8b81c19dc343
-0.0655615313237927,-0.0695472299113463,-0.0909960417510619,-1.1337975966585387,-0.3423142223088432,1.115807663704064,-0.0854078456076201,-0.1025148490164348,-14.187251624760568,22.773228692239883,-0.3631419974714447,5.204174502529315,-0.0229996916916301,0.6737478545065726,6634.23095703125,12.030444444444443,0.3055555555555556,179.41210330633663,6.330466015919715,71.70620976444343,1525.0,1693.0,1200.0,1528.0,1475.0,1021.7000000000002,250.0,289.15,1637182972.2783306,1637182973.3989828,54e97aeb-c872-4892-8e48-8b81c19dc343
-0.0719715210154224,-0.0741629703472524,-0.1037749315589553,-1.1334277895173217,-0.3490803233201583,1.1222313495054976,-0.0902427309415082,-0.1132666487046868,-14.074621320127225,22.17793704641737,-0.1058882831826627,5.213290327238178,-0.0442544678637101,0.7073970636193394,6639.36962890625,12.029,0.3,179.36405520225537,6.338167528527596,71.52572429235555,1525.0,1693.0,1200.0,1528.0,1475.0,1021.7000000000002,250.0,289.15,1637182973.507022,1637182974.743798,54e97aeb-c872-4892-8e48-8b81c19dc343
-0.0635207440262397,-0.0859831010394493,-0.1186356985501565,-1.6038502596484854,-0.4299037312741653,1.5868460260929258,0.0032636776606785,-0.0217873294945677,-14.22068553092113,23.56432728994056,3.0008047221341934,7.327371661626292,-0.0580873858250899,0.7027607510559251,6634.801920572917,12.017,0.36,179.36426921484932,6.511409442705055,71.13794713241724,1525.0,1780.0,1200.0,1528.0,1475.0,1021.7000000000002,250.0,289.15,1637182976.6781693,1637182977.7029517,d478edf0-73b5-4aee-8cd5-8b147c8ccd3a
-0.0529322080718797,-0.0819382330905294,-0.1099844037593302,-1.5933028002120897,-0.4216216944317207,1.5730618077867609,0.0079594059361296,-0.0291199191865105,-14.170223243322315,23.60858155610084,3.0359556444824363,7.273359346537241,-0.0443347946945659,0.6736505483785448,6643.947970920139,12.019222222222222,0.3588888888888888,179.33297480589215,6.504259894759475,70.85211206366121,1525.0,1780.0,1200.0,1528.0,1475.0,1021.7000000000002,250.0,289.15,1637182977.8108227,1637182979.0457146,d478edf0-73b5-4aee-8cd5-8b147c8ccd3a
-0.0528237314225778,-0.0653971725199853,-0.0959678928320853,-1.5948105198463995,-0.4101532897248472,1.5573573319477114,0.017151988263894,-0.0061047686609345,-14.221146221915916,23.509571034080533,3.000918448481722,7.241480696024081,0.0194477188902423,0.6277796981685677,6637.65673828125,12.019333333333334,0.3533333333333333,179.3386195777862,6.5148363478255,70.5927690219659,1525.0,1780.0,1200.0,1528.0,1475.0,1021.7000000000002,250.0,289.15,1637182979.1543314,1637182980.2367706,d478edf0-73b5-4aee-8cd5-8b147c8ccd3a
-0.1769112726858977,-0.0612684817354722,0.0333626873090117,1.014005532133516,0.005474302299104,-0.9594693250035948,-0.5449433472706066,-0.5650345619704957,-15.112608853876193,26.89154914847165,-14.395974731422823,-4.273377268028242,-0.1175142714562764,0.6825177489670408,6637.659505208333,12.045,0.23,179.35201585547833,5.640072249593988,70.41385221665743,1525.0,1349.0,1200.0,1528.0,1475.0,1021.7000000000002,250.0,289.15,1637182981.18466,1637182982.3274844,696a596c-4a3f-4e22-abb2-86439d554c39
-0.1591079363779119,-0.0473440118787259,0.039292749404798,1.011191711349524,0.011312323528926,-0.967976536711452,-0.5367911532215481,-0.5587363339037007,-14.860269507726292,26.40635733366513,-13.975689311080778,-4.288873918871656,-0.0700858710773222,0.6575044029598369,6647.952799479167,12.043666666666669,0.24,179.3945861478453,5.630703364486845,70.79884038268465,1525.0,1349.0,1200.0,1528.0,1475.0,1021.7000000000002,250.0,289.15,1637182982.463991,1637182983.4393642,696a596c-4a3f-4e22-abb2-86439d554c39
-0.1752298829895723,-0.0523032619678714,0.0467502516240927,1.0050299039826387,0.0159877808066362,-0.9598511853853274,-0.5266425484355575,-0.5603360934277289,-14.63091887852598,26.578427600754164,-14.253332655490505,-4.2551324420358645,-0.0866142810784863,0.6255654949261288,6649.6708984375,12.044111111111112,0.24,179.41562768394837,5.6357126441968814,71.13519532509164,1525.0,1349.0,1200.0,1528.0,1475.0,1021.7000000000002,250.0,289.15,1637182983.5526972,1637182984.670491,696a596c-4a3f-4e22-abb2-86439d554c39
-0.1824616666177871,-0.0310188092184444,0.0950717100659417,1.5450304276296676,0.1085354269712521,-1.50044111812808,-0.6441864511241328,-0.6760994452291307,-15.236936423454386,28.713513318804715,-17.735983101707372,-6.672319463334131,-0.0350148463401626,0.6021004034107983,6648.525499131944,12.029,0.3077777777777777,179.46515414453003,5.466436793197478,71.69928926499438,1525.0,1262.0,1200.0,1528.0,1475.0,1021.7000000000002,250.0,289.15,1637182986.7138128,1637182987.738919,8f334221-14f5-4771-ba66-6bf44a28f37d
-0.1603828123079711,-0.00573496146313,0.1154932785627072,1.5328404892324132,0.123930358531853,-1.5136583126311287,-0.6282984377466301,-0.6542260341837509,-15.305318065669278,28.554411998216136,-17.546884985439206,-6.674564872047665,0.061415734435909,0.5339106076343677,6644.5166015625,12.031,0.2933333333333333,179.4707290967126,5.458948866296767,71.90416761933807,1525.0,1262.0,1200.0,1528.0,1475.0,1021.7000000000002,250.0,289.15,1637182987.8475342,1637182988.9728172,8f334221-14f5-4771-ba66-6bf44a28f37d
-0.1742815331715332,-0.0266085172141762,0.0898363375583517,1.538007379520034,0.1030113310584396,-1.494700609907732,-0.6470561550082136,-0.6615854706203723,-15.197356275623063,28.554505754823737,-17.254759088616254,-6.644795632421319,-0.0224886885532418,0.6220903877320343,6640.513400607639,12.029777777777776,0.3022222222222221,179.47288136521107,5.45146814904018,72.11601732009466,1525.0,1262.0,1200.0,1528.0,1475.0,1021.7000000000002,250.0,289.15,1637182989.1081295,1637182990.197637,8f334221-14f5-4771-ba66-6bf44a28f37d
-0.2024997337706841,-0.01744551926996,0.1345862808423429,2.015055341159949,0.1820037652378518,-1.96163229370251,-0.7560188958254187,-0.7743312052850483,-16.09585003254617,31.39586686338893,-20.1834795430694,-8.750011955047073,-0.0116551011609518,0.6080068012000891,6649.6708984375,12.021666666666668,0.3400000000000001,179.46317946095002,5.264680072463817,72.46437745833282,1525.0,1176.0,1200.0,1528.0,1475.0,1021.7000000000002,250.0,289.15,1637182992.2435348,1637182993.270034,1923beee-b4b7-42ea-b09e-03c65ec3cfeb
-0.2126214915974156,-0.0253484337918792,0.1325044040000914,2.019534117318277,0.1845239319508459,-1.957427443007299,-0.754882080979327,-0.7799467964273923,-16.216363951612195,31.18780361198985,-20.100771067033342,-8.752196535228359,-0.0418628525086835,0.6049942728227794,6644.5166015625,12.025,0.3299999999999999,179.46934029158135,5.245727862768716,72.67908673162188,1525.0,1176.0,1200.0,1528.0,1475.0,1021.7000000000002,250.0,289.15,1637182993.4031022,1637182994.6058843,1923beee-b4b7-42ea-b09e-03c65ec3cfeb
-0.1998820471965383,-0.0076480968087554,0.144916225047808,2.011531489035329,0.1913311212922663,-1.9670418957243792,-0.7457897536442166,-0.7655654018899422,-16.049834497871338,31.19656704507491,-19.967926088496,-8.754968402851157,0.0239404033858448,0.5682302220289533,6644.5166015625,12.024555555555557,0.3377777777777778,179.4670650796778,5.248758759212911,72.84193058399352,1525.0,1176.0,1200.0,1528.0,1475.0,1021.7000000000002,250.0,289.15,1637182994.714261,1637182995.8387978,1923beee-b4b7-42ea-b09e-03c65ec3cfeb
-0.2130734780299167,-0.0262387101704548,0.1543367177641171,2.191083592902141,0.2106021783955045,-2.120197644761646,-0.7934790005712022,-0.8194065990166157,-16.339429513718212,33.06909209871734,-20.993195451903127,-9.491582312594824,-0.0561268221952599,0.5939482750272392,6659.430338541667,11.982555555555557,0.5322222222222223,179.45252436584482,5.125101741680022,73.16554570577861,1525.0,1090.0,1200.0,1528.0,1475.0,1021.7000000000002,250.0,289.15,1637182997.661319,1637182998.709566,3f032f03-9734-4ada-b004-c74b01df4068
-0.2177511272108732,-0.0150245155843014,0.1614441356873987,2.2065004484682254,0.2181939064596065,-2.1458513512242363,-0.7934143530484857,-0.8291262287891402,-16.362997519189985,32.979156412528624,-21.03106368323063,-9.58426645787802,-0.015013438351242,0.5752869445980587,6652.539279513889,11.988222222222223,0.4944444444444444,179.4319199618486,5.155858557831282,73.0696073508768,1525.0,1090.0,1200.0,1528.0,1475.0,1021.7000000000002,250.0,289.15,1637182998.8181925,1637182999.9319885,3f032f03-9734-4ada-b004-c74b01df4068
-0.210251986633105,-0.0121997372719917,0.156733615407205,2.1973566196762992,0.2119718341723293,-2.1368526928633607,-0.7967524796130642,-0.8090519966179036,-16.389857176788755,32.99896700359278,-20.58669213725485,-9.543464944249854,-0.007339634830793,0.5957968277813308,6644.5166015625,11.992555555555557,0.48,179.43157845239008,5.173928582190459,73.01590536798254,1525.0,1090.0,1200.0,1528.0,1475.0,1021.7000000000002,250.0,289.15,1637183000.0407038,1637183001.1630547,3f032f03-9734-4ada-b004-c74b01df4068
-0.1287848491809575,-0.0497830951376795,0.0118514200486401,0.3668388128110353,-0.0842162448382032,-0.3440262924090714,-0.389991951399673,-0.413728093038566,-14.641297067967509,25.29673062091236,-9.495813959251024,-1.4411700383316852,-0.0429135905492725,0.6169946721999464,6641.085286458333,12.047,0.23,179.4194844640997,5.675315314233215,72.97593585986952,1525.0,1435.0,1200.0,1528.0,1475.0,1021.7000000000002,250.0,289.15,1637183002.2791188,1637183003.410909,4118b542-fc57-4e14-8ce4-6fe146e70992
-0.1367157049717673,-0.0410063400608035,0.024053410291761,0.3670371389358207,-0.0770600665787231,-0.354707966406605,-0.3850157167924491,-0.405475092518,-14.702279265034404,25.67494902555332,-9.703785405283083,-1.4625695767766116,-0.0069650228482503,0.5841024727262512,6654.833984375,12.046333333333331,0.22,179.41499323526548,5.704427003431887,73.0118049777508,1525.0,1435.0,1200.0,1528.0,1475.0,1021.7000000000002,250.0,289.15,1637183003.5184991,1637183004.7377186,4118b542-fc57-4e14-8ce4-6fe146e70992
-0.1624082594573372,-0.0737202975836788,-0.0062148889021441,0.3889954599524792,-0.0955076883146583,-0.3412436991524891,-0.4071186794734338,-0.4272887842580606,-14.723955696834372,25.44959280676027,-9.67083727043459,-1.4848528949362656,-0.1344270614846469,0.6783156757206674,6654.833984375,12.044333333333332,0.22,179.4046538466819,5.716437606496139,73.056504771319,1525.0,1435.0,1200.0,1528.0,1475.0,1021.7000000000002,250.0,289.15,1637183004.846803,1637183006.0748093,4118b542-fc57-4e14-8ce4-6fe146e70992
-0.070149878637713,-0.0164456704885473,0.2481855333829435,0.3505673023940516,0.1290939610247044,-0.3745422304312453,-0.1479874256445296,-0.1717372607492724,-13.005055950969398,25.275851146115382,-9.487178342167825,-1.4605844175369038,0.0874499108969264,-0.3351976574456793,6660.0048828125,12.04811111111111,0.2255555555555556,179.38513468385383,5.713695190680641,73.0115515018416,1525.0,1435.0,1200.0,1439.0,1475.0,1021.7000000000002,250.0,289.15,1637183008.22038,1637183009.3562205,9ba41614-a16c-4df3-8c0b-09b882d14776
-0.0379081784601268,0.0083177079224575,0.2668128520277513,0.3414590915641959,0.1407634286345807,-0.3888551368456254,-0.133195141341509,-0.1697101699697697,-12.73821946630468,25.19601705379361,-9.136895681158473,-1.471613095196356,0.1776354209627604,-0.3939141178828656,6660.0048828125,12.047666666666666,0.22,179.38168316159323,5.72157443050255,73.03429071940839,1525.0,1435.0,1200.0,1439.0,1475.0,1021.7000000000002,250.0,289.15,1637183009.4650817,1637183010.5861845,9ba41614-a16c-4df3-8c0b-09b882d14776
-0.0584152146092591,-0.0017180346580166,0.2598884202538092,0.3422518483291417,0.136882371891924,-0.3780600551498728,-0.1370444224589081,-0.1653272710412069,-12.870823696199343,25.180546810124724,-8.937098220529355,-1.4496256155872578,0.1386261851519586,-0.3747206217058466,6654.833984375,12.046,0.2233333333333333,179.39967691550672,5.71830737078143,73.06319380324616,1525.0,1435.0,1200.0,1439.0,1475.0,1021.7000000000002,250.0,289.15,1637183010.6994102,1637183011.810497,9ba41614-a16c-4df3-8c0b-09b882d14776
0.0381882587773192,0.0559915936500224,0.5219024702484806,0.3008597553219225,0.3688385102149772,-0.405014887731417,0.1318069752225185,0.1003815914919391,-11.139034116843902,24.963758914720074,-8.112234940356247,-1.4042136387528317,0.3572073247502104,-1.4215109706618525,6474.440538194444,12.04322222222222,0.24,179.34673687815982,5.713882451700385,72.94288381556595,1525.0,1435.0,1200.0,1351.0,1475.0,1021.7000000000002,250.0,289.15,1637183013.615651,1637183014.6773107,42bb3a46-cf58-464f-b3f4-e71ae740be70
0.0291156583749843,0.0438684957212675,0.527451219568049,0.3195309027409126,0.3761491847848197,-0.4142058282845773,0.1368429257854596,0.109730314547349,-10.873386715435126,25.09954854877596,-8.625274215573011,-1.4657560482202965,0.3124604500232635,-1.448098789772203,6460.347547743056,12.042444444444444,0.24,179.35554175090988,5.710144156358402,72.94942410115117,1525.0,1435.0,1200.0,1351.0,1475.0,1021.7000000000002,250.0,289.15,1637183014.7855742,1637183015.905969,42bb3a46-cf58-464f-b3f4-e71ae740be70
0.0280270558064565,0.0372722330689309,0.522842601962782,0.3241329461834855,0.3731666224127465,-0.4131254434500813,0.1312306240095951,0.1162739819482465,-11.022142112196354,25.21932663283053,-8.827929295929907,-1.473252000808653,0.289712695103669,-1.4309604688132247,6564.813313802083,12.044666666666666,0.24,179.3693281082946,5.71777954894057,72.96880514237604,1525.0,1435.0,1200.0,1351.0,1475.0,1021.7000000000002,250.0,289.15,1637183016.014039,1637183017.2312126,42bb3a46-cf58-464f-b3f4-e71ae740be70
0.125163048687107,0.0824434831849603,0.8160995899069471,0.3261600366781029,0.635414606266378,-0.4756502476066811,0.4203649595826444,0.3849730548212213,-8.950406744510323,25.663218320971527,-8.93313551149331,-1.599755263601395,0.4637504324952166,-2.5929571973392083,6612.057454427083,12.039,0.25,179.31796963919552,5.682531978273764,72.90000464686649,1525.0,1435.0,1200.0,1262.0,1475.0,1021.7000000000002,250.0,289.15,1637183019.1673355,1637183020.3027422,e093a100-dd37-4d46-b1e1-68725bf1b5d6
0.1269436012717413,0.078430391596957,0.8073885794370561,0.3204622687129558,0.6281417343627255,-0.468911539111807,0.4122429009912263,0.3754128576930636,-9.20152429276113,25.678524011206463,-9.343428156058732,-1.572283813370774,0.454262205884669,-2.56090925482702,6616.024631076389,12.040555555555557,0.2555555555555555,179.32303460392006,5.693768350936474,72.8936745793257,1525.0,1435.0,1200.0,1262.0,1475.0,1021.7000000000002,250.0,289.15,1637183020.4107673,1637183021.4397802,e093a100-dd37-4d46-b1e1-68725bf1b5d6
0.1262587733573833,0.0766772320913382,0.8100868012366217,0.3326659015288785,0.6317987151501371,-0.476061144518235,0.4142015087020014,0.3908625746553147,-9.029844265721396,25.67017363694664,-8.989585228710142,-1.615656515322206,0.4420039647131651,-2.5718393867600846,6613.7548828125,12.040777777777778,0.251111111111111,179.32137714468146,5.713309047833188,72.86751343698475,1525.0,1435.0,1200.0,1262.0,1475.0,1021.7000000000002,250.0,289.15,1637183021.5491931,1637183022.667963,e093a100-dd37-4d46-b1e1-68725bf1b5d6
0.2002722343215364,0.1274547569234441,1.0588031375782097,0.320188337506076,0.850251681749106,-0.5297171528801775,0.6547568844214999,0.6231079756105119,-7.577775704724454,26.20869598318989,-9.308075229029944,-1.6914478950281324,0.6423086175019053,-3.544527641949519,6620.56689453125,12.030666666666669,0.2966666666666666,179.30236948713124,5.701075088096703,72.8115309298176,1525.0,1435.0,1200.0,1173.0,1475.0,1021.7000000000002,250.0,289.15,1637183023.6725771,1637183024.804938,231e83a1-0a49-43dc-80a0-9db362438d19
0.2059179555113238,0.1380925998115804,1.0591587001989722,0.3246808083743863,0.8483138928213149,-0.5431195133265561,0.651521757596916,0.6282102171355369,-7.389131260000575,26.19045150385845,-9.15546272222742,-1.73168265616901,0.6789883283231934,-3.536085614643101,6626.253960503473,12.032444444444444,0.29,179.30327866120075,5.706150250673107,72.76575044854071,1525.0,1435.0,1200.0,1173.0,1475.0,1021.7000000000002,250.0,289.15,1637183024.9142945,1637183025.9449432,231e83a1-0a49-43dc-80a0-9db362438d19
0.2088216257733784,0.145365472217743,1.0766765977198711,0.3305703282579351,0.8658043966182404,-0.5557340471145044,0.6665331843501581,0.6553020074141483,-7.397368555816233,26.073387903547182,-9.038090414691448,-1.773203702855202,0.7056674854826394,-3.604020722918562,6618.86181640625,12.033222222222223,0.28,179.298717612655,5.693560978804173,72.72436936799926,1525.0,1435.0,1200.0,1173.0,1475.0,1021.7000000000002,250.0,289.15,1637183026.0528886,1637183027.1739054,231e83a1-0a49-43dc-80a0-9db362438d19
-0.2481777616183792,-0.1154033104690548,-0.3338497476621317,0.4389922777101409,-0.3962923694887424,-0.3294120619461863,-0.7584294911440098,-0.774194238122127,-16.92640561649498,26.28328409947206,-9.86225562591856,-1.5829727565922538,-0.3003906102234704,2.028031764258621,6615.459906684027,12.046,0.2211111111111111,179.38805193353932,5.688019798112524,72.98276908467918,1525.0,1435.0,1200.0,1617.0,1475.0,1021.7000000000002,250.0,289.15,1637183028.1766112,1637183029.2210753,ffbaa17a-98bb-4275-8e59-70a578122653
-0.272031810178499,-0.1226225883292424,-0.3385613646404797,0.4387123915140461,-0.3963441783141642,-0.3219539869111859,-0.7584765359826986,-0.7762415770117225,-17.04994599789709,25.997918797195364,-9.858472160705448,-1.567770023595736,-0.3268955068100652,2.033751837425558,6634.23095703125,12.045333333333334,0.22,179.3824329645821,5.702616576415011,72.94734924146331,1525.0,1435.0,1200.0,1617.0,1475.0,1021.7000000000002,250.0,289.15,1637183029.3295572,1637183030.4511354,ffbaa17a-98bb-4275-8e59-70a578122653
-0.2510540392928203,-0.1111573770717362,-0.3243169413690344,0.4339382480301606,-0.3860062520275207,-0.3289463789042938,-0.7460751900452421,-0.7682773231269956,-16.90068415171251,25.99714082795697,-9.778711920823286,-1.5719215952331165,-0.2841665389186781,1.9841602450594689,6638.798665364583,12.046,0.2211111111111111,179.39380143500068,5.691999521668918,72.92614378082014,1525.0,1435.0,1200.0,1617.0,1475.0,1021.7000000000002,250.0,289.15,1637183030.5599988,1637183031.6802034,ffbaa17a-98bb-4275-8e59-70a578122653
-0.359339047751294,-0.1575065345682706,-0.6304487981151015,0.507529850841914,-0.6609784379360916,-0.337082136177508,-1.080312496489664,-1.1171973565187765,-19.263058468392725,26.796417208486204,-10.2199874543476,-1.7674126779190975,-0.465827014558646,3.2442909509542166,6639.36962890625,12.037,0.2522222222222222,179.43229638116284,5.703989254710706,72.93551328254158,1525.0,1435.0,1200.0,1706.0,1475.0,1021.7000000000002,250.0,289.15,1637183033.818536,1637183035.0448349,71278d0d-ee8d-4c82-8e07-851c66912c18
-0.3602019311849888,-0.1649985527720174,-0.6424195944241747,0.5117483904507639,-0.6694018245801431,-0.3335895132677993,-1.0897905218164423,-1.104007560800392,-19.28721325234981,26.664946804001755,-10.295642927550777,-1.770572097462514,-0.4943656505832495,3.284636923779607,6651.22216796875,12.037900000000002,0.2599999999999999,179.43261982856555,5.684329399472096,72.8407456979545,1525.0,1435.0,1200.0,1706.0,1475.0,1021.7000000000002,250.0,289.15,1637183035.1534116,1637183036.1849754,71278d0d-ee8d-4c82-8e07-851c66912c18
-0.3697073443853689,-0.1623003304404759,-0.6341331734895198,0.5144329157244144,-0.6637177506090104,-0.3385339716810101,-1.082558733650792,-1.1038705953450805,-19.04708672033112,26.77051293261169,-10.214139401645896,-1.7864923022418384,-0.4864710138788208,3.2558927570648533,6665.18359375,12.036888888888887,0.26,179.44118018054328,5.694923174656768,72.79333758259841,1525.0,1435.0,1200.0,1706.0,1475.0,1021.7000000000002,250.0,289.15,1637183036.2931836,1637183037.4100378,71278d0d-ee8d-4c82-8e07-851c66912c18
-0.4603374915107537,-0.2054992801677568,-0.9297324355941748,0.6072955741886842,-0.9304035672667202,-0.3677624328036958,-1.4115366598207142,-1.4388750224915394,-21.02317426625015,27.758686992614628,-10.635991077785638,-2.070878065306411,-0.6609242565444283,4.483661959741959,6669.218315972223,12.028777777777778,0.3,179.45323166987885,5.670595368925522,72.72387152309973,1525.0,1435.0,1200.0,1795.0,1475.0,1021.7000000000002,250.0,289.15,1637183039.1436195,1637183040.287776,760e83a6-69a5-4414-8587-c00f21c037ba
-0.4660215647108507,-0.2178398807681841,-0.928842158741504,0.6223754837491441,-0.9244592574525052,-0.3687211918959237,-1.410632685942265,-1.4333963926136002,-21.20736664900624,27.76821267350056,-10.509475130732588,-2.107014180019599,-0.7088267103420706,4.4717497113627305,6654.833984375,12.026222222222222,0.3,179.45030531327444,5.676772990438582,72.63046033819084,1525.0,1435.0,1200.0,1795.0,1475.0,1021.7000000000002,250.0,289.15,1637183040.4017818,1637183041.5068247,760e83a6-69a5-4414-8587-c00f21c037ba
-0.4623169186115141,-0.2213538702033911,-0.9318570467504304,0.620898994880906,-0.928872290999502,-0.365029694791381,-1.4142830964562334,-1.431836625947034,-21.198256281397967,27.980648217135787,-10.695597723133124,-2.094155239484009,-0.7204269259867576,4.486285988610079,6654.833984375,12.029444444444444,0.29,179.4604382783631,5.663434579626933,72.5493298334096,1525.0,1435.0,1200.0,1795.0,1475.0,1021.7000000000002,250.0,289.15,1637183041.6159315,1637183042.7348454,760e83a6-69a5-4414-8587-c00f21c037ba
-0.5276002122949882,-0.2368430360973724,-1.1170697037320845,0.7066810808536863,-1.0970705219052397,-0.4202805273803666,-1.6353260872750657,-1.652038101923602,-22.569584294885,28.93120021344589,-11.046177987487594,-2.415481812625366,-0.7879945937723004,5.27959578465471,6648.525499131944,11.998444444444443,0.4477777777777778,179.46990340273294,5.649217872892635,72.48764791283503,1525.0,1435.0,1200.0,1883.0,1475.0,1021.7000000000002,250.0,289.15,1637183043.6505537,1637183044.7522447,7ead3ca3-5c91-4c85-8b02-9c2a939924d5
-0.5320181753854893,-0.2441011172941788,-1.1250246706809035,0.7161612899309869,-1.1022248143879336,-0.4197808766990203,-1.6442935093970137,-1.6810573144929064,-22.71484584122074,29.013425745984133,-10.81063103233063,-2.4356306545149264,-0.8179464569882178,5.309629092565026,6637.659505208333,11.999,0.4466666666666666,179.451395107902,5.641512992622038,72.20270380431073,1525.0,1435.0,1200.0,1883.0,1475.0,1021.7000000000002,250.0,289.15,1637183044.8656683,1637183046.0163815,7ead3ca3-5c91-4c85-8b02-9c2a939924d5
-0.5207530266909707,-0.2440961865299163,-1.1188683367087102,0.7183746535792462,-1.0957896186382767,-0.4240005133217358,-1.6390915496832967,-1.664635667671306,-22.74987198398449,29.01129074523655,-11.07595552823478,-2.449873081909019,-0.8152107627851845,5.284688048620554,6635.372884114583,11.998444444444443,0.44,179.43872586590155,5.650256678260778,71.88933776083017,1525.0,1435.0,1200.0,1883.0,1475.0,1021.7000000000002,250.0,289.15,1637183046.1239665,1637183047.2449782,7ead3ca3-5c91-4c85-8b02-9c2a939924d5
-0.152959276867426,-0.0795594147012046,-0.0305942158629172,0.4025046486119148,-0.094132553767236,-0.3535864920148785,-0.4113585869849697,-0.4360397922259856,-14.79178768108499,22.97558291822136,-10.54989559124842,-1.560850928434067,-0.1513068781921508,0.714851148715273,8291.363498263889,11.861,6.857777777777779,178.6734972742302,5.409481221232948,61.80298112414862,1525.0,1435.0,1350.0,1528.0,1475.0,1021.7000000000002,250.0,289.15,1637183052.2050629,1637183053.1868584,9c225205-78ce-4fd2-8ad9-fdeab39a3f6e
-0.1408241250569353,-0.0697937679747834,-0.0238692054703664,0.3989846333360469,-0.0875171156796201,-0.3592842613992595,-0.4066058802635439,-0.4374505374946147,-14.97734596046925,22.823198869490792,-10.4134758083714,-1.566461255825482,-0.113718380024794,0.6911828761442337,8297.60546875,11.861555555555556,6.854444444444444,178.49481648990303,5.351768968658496,57.73672438333982,1525.0,1435.0,1350.0,1528.0,1475.0,1021.7000000000002,250.0,289.15,1637183053.295667,1637183054.4121635,9c225205-78ce-4fd2-8ad9-fdeab39a3f6e
-0.158533776640667,-0.0799292218121646,-0.0232939499502477,0.4014911033590373,-0.0876677777843801,-0.3536686713654274,-0.4036063332773272,-0.4341496660218494,-14.7261329857744,23.00101019952145,-10.688385490178272,-1.558206248802464,-0.1513431167366733,0.6848437833344713,8305.6455078125,11.861,6.860000000000001,178.44251697251832,5.317373132067566,54.19900589434438,1525.0,1435.0,1350.0,1528.0,1475.0,1021.7000000000002,250.0,289.15,1637183054.5203254,1637183055.641817,9c225205-78ce-4fd2-8ad9-fdeab39a3f6e
-0.0086523285879686,0.1773332389600208,-0.0102137361875372,0.2653610168684898,-0.1311132642098277,-0.4659393852089397,-0.4395735037514599,-0.4650080196545222,-14.709936396257955,21.98147468603836,-8.711683203665821,-1.5092014764296775,0.8134858799723946,0.8105508326151836,8294.049153645834,11.845222222222224,6.975555555555555,178.42103678648857,5.347667534925641,49.34185536714799,1576.0,1435.0,1350.0,1528.0,1515.0,1021.7000000000002,250.0,289.15,1637183056.644811,1637183057.689189,577b78ae-9de0-4c26-8e95-c561835a030a
-0.0161580428990516,0.1858114084101496,-0.0160895599815369,0.2526506112326636,-0.139495558687671,-0.4624193688158264,-0.4456547771884145,-0.476828152705584,-14.757359791060123,21.953615709330887,-8.7396447819208,-1.473125554831895,0.8470595986073644,0.839488898499412,8256.759657118055,11.844888888888889,7.044444444444444,178.46608264297467,5.359849888788398,47.15212859345803,1576.0,1435.0,1350.0,1528.0,1515.0,1021.7000000000002,250.0,289.15,1637183057.7976837,1637183058.9190853,577b78ae-9de0-4c26-8e95-c561835a030a
-0.0023245183301776,0.1900847345085154,-0.0090495287033869,0.2585401310837989,-0.1346195834536186,-0.4690074149837089,-0.4401487593503872,-0.4555163021678517,-14.512146391177264,22.02596257878072,-8.264153248422403,-1.5001857150898443,0.8568597414541911,0.8167930529365615,8241.755859375,11.846,7.08,178.54126784753836,5.3955758098564495,45.291383952421,1576.0,1435.0,1350.0,1528.0,1515.0,1021.7000000000002,250.0,289.15,1637183059.0277283,1637183060.1475356,577b78ae-9de0-4c26-8e95-c561835a030a
0.2206554519340483,0.6071038224082881,-0.0125558477950284,0.0461612995601068,-0.2342209666534621,-0.687166267754323,-0.5410787252088521,-0.5597060510259338,-14.782192501147316,21.18152057085072,-9.381804917315838,-1.517429769349372,2.458663681876644,1.1481145733984248,8297.60546875,11.840555555555556,7.04111111111111,178.7468702019341,5.551873921977875,41.6811941206921,1627.0,1435.0,1350.0,1528.0,1556.0,1021.7000000000002,250.0,289.15,1637183062.1737578,1637183063.4238975,5057ebc3-09ce-41f7-b22a-353db172cbd8
0.2177106919761391,0.6085145678088636,-0.0075018175422689,0.0457367063117054,-0.2286738597728646,-0.6884263515187713,-0.5343674095547636,-0.5629795298114743,-14.6951963013968,21.024300097085234,-9.37329398454142,-1.5200489956630243,2.4636336736855244,1.124418876355986,8297.60546875,11.843555555555556,6.972222222222222,178.83494169673187,5.589543553615357,40.73742172793192,1627.0,1435.0,1350.0,1528.0,1556.0,1021.7000000000002,250.0,289.15,1637183063.5318558,1637183064.6528976,5057ebc3-09ce-41f7-b22a-353db172cbd8
0.201493967290814,0.5875588351885533,-0.0130078342063849,0.0575431396765173,-0.2314679580351742,-0.6810028142214382,-0.5394762274058457,-0.565951683627481,-14.77365816073447,21.38528265509464,-9.73595905332528,-1.527978209717742,2.387010005767076,1.1398570568582969,8297.60546875,11.840555555555556,7.0488888888888885,178.93762979635346,5.654241998777741,39.97200037314398,1627.0,1435.0,1350.0,1528.0,1556.0,1021.7000000000002,250.0,289.15,1637183064.7609336,1637183065.8820486,5057ebc3-09ce-41f7-b22a-353db172cbd8
0.4394579606523192,0.9946753063206424,0.0024007944256536,-0.1422348708009283,-0.3109490981622128,-0.8979974917682401,-0.6190395609183654,-0.6325306762935127,-14.816679967590716,20.60543840464875,-10.265197426873703,-1.569452432679455,3.9444999697528353,1.3874438152676485,8308.330729166666,11.832333333333334,7.073333333333333,178.99710556582613,5.725016324093675,38.98528088924764,1678.0,1435.0,1350.0,1528.0,1596.0,1021.7000000000002,250.0,289.15,1637183066.7926376,1637183067.8163471,be3168cf-1207-4f3f-8f31-e65a060e75fe
0.4197897041591047,0.9902513182058786,-0.0010096486963143,-0.1355509495841185,-0.3135788378008877,-0.8960114893340556,-0.6213542800880064,-0.6422278434889245,-14.680034826563926,20.639339664475283,-9.747623860455615,-1.5798607025776663,3.921314379653334,1.3993050316373126,8352.409071180555,11.836333333333334,7.04,179.0831659493683,5.774390054056405,38.53578082759974,1678.0,1435.0,1350.0,1528.0,1596.0,1021.7000000000002,250.0,289.15,1637183067.9239128,1637183068.968008,be3168cf-1207-4f3f-8f31-e65a060e75fe
0.4086954925849889,0.9928536641600042,-0.0094741220329225,-0.1300586291814183,-0.3183726339614309,-0.9007778944565478,-0.632174564980866,-0.6584582708357306,-15.025333770244028,20.480703328749925,-9.41445088289016,-1.6045545792025977,3.929350281497481,1.4334347282449624,8378.7158203125,11.835,7.036666666666667,179.15975969072082,5.791430806853155,38.1943157653287,1678.0,1435.0,1350.0,1528.0,1596.0,1021.7000000000002,250.0,289.15,1637183069.0775664,1637183070.1832798,be3168cf-1207-4f3f-8f31-e65a060e75fe
0.6213345453984611,1.3337883909734736,0.0238906952122217,-0.2933079281243949,-0.3690362127601649,-1.0755460906623613,-0.6744832496877248,-0.6997123223517074,-14.424500596123698,19.97872308624985,-8.172813025349262,-1.6301976035532173,5.215011760242781,1.5593981595334503,8359.650390625,11.820666666666666,7.163333333333333,179.20765297718094,5.8608464462748175,37.70390552673712,1729.0,1435.0,1350.0,1528.0,1636.0,1021.7000000000002,250.0,289.15,1637183071.1851375,1637183072.4315355,c797a5d0-2369-4e5a-8cdc-25c082042143
0.5998857367192231,1.3170511960355753,0.0053729477849379,-0.2945680116050356,-0.3820616423631582,-1.0535904920905317,-0.685782914701039,-0.713545850524981,-14.572720416588773,19.851044444669665,-7.660706437063179,-1.5797794370577194,5.147726430234491,1.6171040873250384,8346.08203125,11.818888888888887,7.188888888888889,179.25526091351574,5.851132494318983,37.31752779666876,1729.0,1435.0,1350.0,1528.0,1636.0,1021.7000000000002,250.0,289.15,1637183072.5404131,1637183073.664003,c797a5d0-2369-4e5a-8cdc-25c082042143
0.6112401826812509,1.3145858154487884,0.0151248975935022,-0.2944447426410421,-0.3717618284730425,-1.056233929685735,-0.6769075414837301,-0.71227207060809,-14.707652008185647,19.886369436064303,-8.291365041843719,-1.5854463549985969,5.145627921690941,1.575850169279284,8337.962890625,11.817,7.212222222222223,179.29438271926176,5.865251586266392,37.05963427289732,1729.0,1435.0,1350.0,1528.0,1636.0,1021.7000000000002,250.0,289.15,1637183073.772418,1637183074.8897333,c797a5d0-2369-4e5a-8cdc-25c082042143
-0.3273301849553793,-0.4057293002852788,-0.0234035224313895,0.5437024587147458,-0.013199586038713,-0.1791881887280595,-0.3226596574736288,-0.3462862264001933,-14.504419412837487,23.36368998994985,-12.342456657277758,-1.484672554378914,-1.377710796173047,0.4278123115403751,8319.978841145834,11.855333333333334,7.0,179.84447401245606,5.8843887328196445,36.74510747671281,1474.0,1435.0,1350.0,1528.0,1435.0,1021.7000000000002,250.0,289.15,1637183075.690955,1637183076.7360203,c28c0160-3861-4518-ac57-64303c96f751
-0.3285080892070624,-0.3957719002371638,-0.0148842628356387,0.5377033666024643,-0.0108711710460269,-0.1872554626082001,-0.3177151991094205,-0.3332197065821452,-14.262574734003982,23.589462604930656,-12.839499350764203,-1.4873049307623667,-1.3363884110464912,0.4065160598295754,8313.701171875,11.854111111111113,7.024444444444445,179.87550887422478,5.887475551437667,36.60330629880914,1474.0,1435.0,1350.0,1528.0,1435.0,1021.7000000000002,250.0,289.15,1637183076.844076,1637183077.9617836,c28c0160-3861-4518-ac57-64303c96f751
-0.3172632127180107,-0.4074687635689424,-0.0323610719973918,0.5449899351364101,-0.0226091220045117,-0.1780650707739424,-0.3317541738285388,-0.3650642111010136,-14.417875485143924,23.44476905539541,-12.327499012215606,-1.4849155846492217,-1.385704948681986,0.4656363750734023,8313.701171875,11.854,6.991111111111112,179.90306489297623,5.8804377055441375,36.46029352123769,1474.0,1435.0,1350.0,1528.0,1435.0,1021.7000000000002,250.0,289.15,1637183078.070144,1637183079.1933148,c28c0160-3861-4518-ac57-64303c96f751
-0.4708564509736243,-0.6615810866186757,-0.0374561919779179,0.6460705278075712,0.0253836200974125,-0.0269098416244074,-0.2770638072720795,-0.3090452766197321,-14.472899146390844,24.32136278974428,-12.821960048548188,-1.3678118289988246,-2.346762140944475,0.2983893291630659,8313.701171875,11.84122222222222,7.056666666666667,-179.97660478085987,5.898367805889069,36.3523237881129,1423.0,1435.0,1350.0,1528.0,1394.0,1021.7000000000002,250.0,289.15,1637183081.128557,1637183082.266097,d00fee71-6b1f-4ac0-a2e5-759aad4bf717
-0.4692813464086614,-0.6516373815436596,-0.0235815777517744,0.6348804405265185,0.0364778326320983,-0.0265948208406893,-0.262476970468151,-0.2840627511629991,-14.437438670556304,24.20733149442994,-12.746237754140251,-1.341896983520264,-2.3081339245887347,0.2448809087645621,8313.701171875,11.838111111111113,7.14777777777778,-179.97354485611172,5.92936291975137,36.32927265857401,1423.0,1435.0,1350.0,1528.0,1394.0,1021.7000000000002,250.0,289.15,1637183082.373942,1637183083.6971118,d00fee71-6b1f-4ac0-a2e5-759aad4bf717
-0.4681171387057179,-0.6655530900692272,-0.0254032200224138,0.6457007207626825,0.0361628118162599,-0.0258962961832389,-0.2633124605905722,-0.2759269935055728,-14.27951592506607,24.38905861967156,-13.181826912999616,-1.3636111622724227,-2.359028023412094,0.2468152032992244,8319.08203125,11.841,7.08,-179.97463313291948,5.89184782114386,36.29102056358231,1423.0,1435.0,1350.0,1528.0,1394.0,1021.7000000000002,250.0,289.15,1637183083.804897,1637183084.929002,d00fee71-6b1f-4ac0-a2e5-759aad4bf717
-0.6510484295555325,-1.0272930819530854,-0.0246499093491925,0.8176062112095002,0.1158356925485049,0.1658418266813379,-0.1808043827562472,-0.204321377078852,-14.120894200673217,25.48576423649597,-13.501521399003332,-1.3131900794042046,-3.735161060501163,-0.0232562826616061,8325.367078993055,11.829555555555554,7.117777777777777,-179.86017130498857,5.900538620248401,36.28498077908125,1372.0,1435.0,1350.0,1528.0,1354.0,1021.7000000000002,250.0,289.15,1637183085.6344788,1637183086.9765365,0a796dd0-efd9-4ff2-b998-98ce1e02d4fa
-0.6591020090778154,-1.0239511195081132,-0.0261839238982393,0.8314534307119327,0.1160137478349468,0.1506797366934732,-0.1855981786253128,-0.2085399170490557,-14.068941638904262,25.38719888653667,-13.402277307177576,-1.379185068309846,-3.725677783831344,-0.0138398745396252,8329.8603515625,11.828666666666669,7.163333333333333,-179.87369963300463,5.890679953659525,36.30506684761044,1372.0,1435.0,1350.0,1528.0,1354.0,1021.7000000000002,250.0,289.15,1637183087.084016,1637183088.2059853,0a796dd0-efd9-4ff2-b998-98ce1e02d4fa
-0.6503499048969531,-1.018787513583428,-0.013172192925879,0.8272896772840367,0.1241221103442143,0.1425987674024139,-0.1774487255323377,-0.2064169502396163,-14.052483427399688,25.71015892880153,-14.298828638336332,-1.385297470036685,-3.69713849879544,-0.0550205208887342,8334.361762152777,11.83,7.137777777777779,-179.89664299733664,5.867511951994842,36.32014297238342,1372.0,1435.0,1350.0,1528.0,1354.0,1021.7000000000002,250.0,289.15,1637183088.314011,1637183089.4300468,0a796dd0-efd9-4ff2-b998-98ce1e02d4fa
-0.8905602562579525,-1.4346838678197844,-0.0431950501928461,1.029450866346216,0.1863729672697403,0.3716326079536201,-0.115403310526266,-0.1396599179782146,-14.089381824618918,27.10107234545188,-13.100152007937483,-1.318755864465451,-5.294135442497033,-0.2346803964471348,8329.8603515625,11.825555555555557,7.188888888888889,-179.78876698958544,5.883022694985642,36.36262712847586,1321.0,1435.0,1350.0,1528.0,1314.0,1021.7000000000002,250.0,289.15,1637183090.140176,1637183091.171903,425404ec-7820-48bf-b704-9e2db1989e27
-0.8771847378631787,-1.4232768138364222,-0.0376402737465366,1.0137031121663114,0.1907657273469852,0.3806460385504704,-0.1065920399629941,-0.1284714720862257,-14.166930910272832,26.81367340853694,-12.232729113894385,-1.2645077827167637,-5.256204973776542,-0.2582513157040113,8337.962890625,11.821555555555555,7.195555555555554,-179.80134212675733,5.869547063776292,36.41093743593032,1321.0,1435.0,1350.0,1528.0,1314.0,1021.7000000000002,250.0,289.15,1637183091.2885902,1637183092.3985927,425404ec-7820-48bf-b704-9e2db1989e27
-0.8558257655754643,-1.4038528822530616,-0.0262797998600803,0.9954286170590844,0.1959605578788549,0.3758922373544888,-0.0965568448039554,-0.1273330147890895,-14.031620634896688,26.724852386434577,-12.512288769262485,-1.2339670062687127,-5.178864714766757,-0.2931735682713665,8328.063042534723,11.822333333333336,7.2155555555555555,-179.841133291042,5.850818922231462,36.394266461986135,1321.0,1435.0,1350.0,1528.0,1314.0,1021.7000000000002,250.0,289.15,1637183092.5069687,1637183093.7347262,425404ec-7820-48bf-b704-9e2db1989e27
-0.1309899952624708,-0.054727552926427,-0.0123777924977742,0.3660718055641188,-0.0835040237691103,-0.3509978420978958,-0.3895947510759374,-0.4144951013864408,-14.576997101036794,22.609729424772848,-11.334644521414113,-1.4743855227638651,-0.0471030415903628,0.6464354046944328,8313.701171875,11.856000000000002,7.02,179.7739940493206,5.835744789596983,36.37194919832807,1525.0,1435.0,1350.0,1528.0,1475.0,1021.7000000000002,250.0,289.15,1637183094.643994,1637183095.6705582,30b6e844-57f1-480a-ad3c-1d170e18c529
-0.1334690726363825,-0.053125055533842,-0.0259236893143375,0.3701259865413893,-0.0930779187566633,-0.3467793013936415,-0.4008944141651014,-0.4324786856095289,-14.68350012758573,22.304931299112017,-10.073204449866894,-1.4765987064327923,-0.0528820746029105,0.6960874712770361,8313.701171875,11.853666666666664,7.027777777777778,179.75246225741708,5.845652737897993,36.50384318684064,1525.0,1435.0,1350.0,1528.0,1475.0,1021.7000000000002,250.0,289.15,1637183095.7789614,1637183096.9211285,30b6e844-57f1-480a-ad3c-1d170e18c529
-0.1521128294598407,-0.0624124183087317,-0.0278839407850016,0.3784239089827716,-0.0907347113362301,-0.3478706434553533,-0.4025297835425327,-0.4324956690547603,-14.877095231975884,22.24889425547542,-10.447655474118848,-1.4983954020612662,-0.0841732348429199,0.6962048620162429,8306.540581597223,11.854111111111113,7.037777777777778,179.72801776928753,5.857832340712334,36.54355276831023,1525.0,1435.0,1350.0,1528.0,1475.0,1021.7000000000002,250.0,289.15,1637183097.0547082,1637183098.0325692,30b6e844-57f1-480a-ad3c-1d170e18c529
-0.116238800761048,-0.0755600194014571,-0.0510705716782731,-0.1306886709644173,-0.1672858782606026,0.1533505655707587,-0.283994266888406,-0.3086206832894347,-14.494431833084828,21.438380292340767,-7.298777035682424,0.7705158638768835,-0.1029025591670625,0.6622935933318117,8315.494791666666,11.852666666666668,7.05111111111111,179.71571735750226,6.000012641546821,36.68630296305359,1525.0,1521.0,1350.0,1528.0,1475.0,1021.7000000000002,250.0,289.15,1637183099.6171772,1637183100.6981878,1ee946df-fb85-432c-803d-8cd99314c067
-0.1400845108508401,-0.086298121854331,-0.0713414791765318,-0.1272508344929616,-0.1841463432904654,0.1604453827225106,-0.3033201137483985,-0.3397118764482753,-14.671680515418297,21.49412749349266,-7.487935646367856,0.7779447721509198,-0.1419533347430075,0.738722728888661,8321.7724609375,11.851444444444446,7.061111111111112,179.71340723574298,5.993233014749413,36.76141265608146,1525.0,1521.0,1350.0,1528.0,1475.0,1021.7000000000002,250.0,289.15,1637183100.807212,1637183101.8120816,1ee946df-fb85-432c-803d-8cd99314c067
-0.1477271910664467,-0.0909549520382205,-0.0656848002194308,-0.1209230239956727,-0.1769419528192582,0.157076029400446,-0.2970333924279105,-0.3096068360638226,-14.616019630190726,21.453347882196272,-7.74089528496089,0.7560984221124074,-0.1579924356548867,0.711439351241414,8321.7724609375,11.852111111111112,7.064444444444444,179.69617390955713,5.992743422995157,36.83472373262788,1525.0,1521.0,1350.0,1528.0,1475.0,1021.7000000000002,250.0,289.15,1637183101.922032,1637183103.0433142,1ee946df-fb85-432c-803d-8cd99314c067
-0.1208819343626832,-0.0947762920361114,-0.1080071684267078,-0.704478724820854,-0.2803372852056044,0.7237026143616072,-0.1819275006257897,-0.2060882336603597,-14.438012758490936,20.478943925220253,-3.8243079494014673,3.337889822698929,-0.1391486281681095,0.7465406600421721,8329.8603515625,11.84611111111111,7.086666666666667,179.67156246124785,6.168535606485837,36.91217124762665,1525.0,1607.0,1350.0,1528.0,1475.0,1021.7000000000002,250.0,289.15,1637183105.2961147,1637183106.321534,bdd443a0-db6a-41b6-8ee7-b7cb2ba2e228
-0.0987345978413396,-0.0883799988494621,-0.0986387218052782,-0.7082589763656958,-0.2728863563368236,0.7217166135508998,-0.1698882245437477,-0.1857899310079408,-14.105035559147488,20.284473226962177,-3.627681273967299,3.3413306070318143,-0.1182020264875137,0.707811442144434,8329.8603515625,11.8444,7.087000000000001,179.65323767083262,6.1770386702519415,36.93588581620692,1525.0,1607.0,1350.0,1528.0,1475.0,1021.7000000000002,250.0,289.15,1637183106.4297705,1637183107.5511963,bdd443a0-db6a-41b6-8ee7-b7cb2ba2e228
