raw_voltage_G-,raw_voltage_G0,raw_voltage_G1,raw_voltage_G2,raw_voltage_G3,raw_voltage_G4,raw_voltage_G5,raw_voltage_G6,load_x,load_y,load_z,load_l,load_m,load_n,rpm,voltage,current,roll,pitch,yaw,aileron1_pwm,elevator_pwm,throttle_pwm,rudder_pwm,aileron2_pwm,pbaro,pdiff,Tt,sample_start_time,sample_end_time,uid
0.0246029161044104,0.1754568105005611,0.008687514908749,0.1483787149239926,-0.0771214272400074,0.1003037953780602,-0.2398913426562296,-0.2514923297266989,-13.522923464294353,16.553200957763227,57.07022983775594,0.0031459718700766,0.2305325148570978,0.521527461984674,6654.833984375,12.042333333333334,0.25,179.46038970812904,-6.596986922386521,102.44266815742702,1525.0,1435.0,1200.0,1528.0,1475.0,1018.02,242.0,295.0,1637183685.5685613,1637183686.643834,39cd3d43-8d3d-4ca0-807c-a5352179ea51
0.0196036722520737,0.1694303249310099,0.0100160812012649,0.1506934333217802,-0.0751628191889821,0.1051386804765204,-0.2373163892733797,-0.2716673630536795,-13.50948370535592,16.63248042076593,57.23502944270829,0.0094139087671344,0.2061743690154511,0.512882986535889,6646.807400173611,12.04288888888889,0.2455555555555555,179.49434030176343,-6.60544872042639,101.98521851449514,1525.0,1435.0,1200.0,1528.0,1475.0,1018.02,242.0,295.0,1637183686.7518466,1637183687.872816,39cd3d43-8d3d-4ca0-807c-a5352179ea51
0.0384912266778702,0.1675401999032431,0.0070302313715409,0.1652528746233416,-0.0747793155564128,0.0950169238323028,-0.2415349298094557,-0.2637233581568396,-13.491322643756485,16.49444076860918,57.41248619162929,-0.0471998898559903,0.1953997098834006,0.5226555803990754,6650.244574652777,12.044555555555554,0.25,179.47755473242316,-6.634698151773324,101.57330270712012,1525.0,1435.0,1200.0,1528.0,1475.0,1018.02,242.0,295.0,1637183687.981158,1637183689.1065238,39cd3d43-8d3d-4ca0-807c-a5352179ea51
0.1518850337755885,0.3990394195998729,0.0300267534668205,0.049695011518614,-0.1082947962165056,-0.0302791950830161,-0.2681610430242706,-0.2849804197936784,-12.951924266992997,15.93076171334179,56.70944530559317,-0.070518944209897,1.0817517822091958,0.6014831863380895,6654.833984375,12.044000000000002,0.25,179.3541286606616,-6.58951763621042,100.81758097986352,1576.0,1435.0,1200.0,1528.0,1515.0,1018.02,242.0,295.0,1637183691.0639336,1637183692.17247,2676633d-09ac-4bcb-a964-33fafde5f756
0.1543093246224638,0.3984915572975574,0.0179737817982408,0.0661719715570296,-0.1166496974782232,-0.0423732566502747,-0.2860624475842643,-0.3026900725262877,-13.268554877583304,15.97869157815782,56.956416970313775,-0.1352663400746758,1.0769571477423792,0.6549655900024162,6651.391927083333,12.037,0.28,179.3111075758094,-6.595088366956604,100.49233875523608,1576.0,1435.0,1200.0,1528.0,1515.0,1018.02,242.0,295.0,1637183692.2807796,1637183693.4075072,2676633d-09ac-4bcb-a964-33fafde5f756
0.1531040275316207,0.4027100970058226,0.0244385574716691,0.064665350153716,-0.1133077369988033,-0.0451673547014586,-0.2824054658707864,-0.2949378193543414,-13.242179396343827,16.183743402501033,56.98593355252789,-0.1364472848628608,1.0929297597955256,0.6368679074074163,6650.244574652777,12.035888888888888,0.2722222222222222,179.3056919947075,-6.5910679468564055,100.241610099904,1576.0,1435.0,1200.0,1528.0,1515.0,1018.02,242.0,295.0,1637183693.5204153,1637183694.6306083,2676633d-09ac-4bcb-a964-33fafde5f756
0.3788709646210067,0.7865725516072337,0.0690088028907003,-0.123974617683572,-0.1630788429139911,-0.2506097228085235,-0.316589889663988,-0.3394554768396491,-11.98621296090634,15.138284709187468,56.60108206464569,-0.176718464091089,2.553202261603676,0.7381331258275179,6622.280002170139,12.029111111111112,0.3177777777777778,179.11044268927367,-6.5990289592208775,99.68457629887337,1627.0,1435.0,1200.0,1528.0,1556.0,1018.02,242.0,295.0,1637183696.6595562,1637183697.9071853,18d92078-09fb-405b-be1a-428f5b0a1ed9
0.3521287099132917,0.7744072694066486,0.0607618310465353,-0.1133899163762695,-0.1701210660982621,-0.2523415158387178,-0.3269466809971275,-0.3390955315059284,-12.010661592596186,15.437600745694406,55.97126188797336,-0.2030256729118579,2.5115092375417043,0.7713048419664584,6603.56396484375,12.025333333333334,0.33,179.10870174994523,-6.59894002446606,99.43107458673823,1627.0,1435.0,1200.0,1528.0,1556.0,1018.02,242.0,295.0,1637183698.0152638,1637183699.1352863,18d92078-09fb-405b-be1a-428f5b0a1ed9
0.3701259866075539,0.7731334895788052,0.0608714035348842,-0.1104862457696036,-0.1662997259164648,-0.2534646337780884,-0.32474153472472,-0.360516952326356,-12.106288258847805,15.145318759189216,56.02718790343562,-0.2140707760897091,2.506557425306155,0.7628143154981067,6598.48046875,12.025555555555554,0.33,179.07597451908217,-6.589599361321114,99.23130217825404,1627.0,1435.0,1200.0,1528.0,1556.0,1018.02,242.0,295.0,1637183699.2432575,1637183700.462886,18d92078-09fb-405b-be1a-428f5b0a1ed9
0.5855454412489455,1.1542402056984882,0.1095489722672417,-0.2935133766159905,-0.2166345835284047,-0.4459561015213828,-0.3622838081886444,-0.3853762107028724,-11.211158769184564,14.985533420001486,57.82714485491695,-0.2316583501447738,3.939268587920736,0.8662109229541034,6593.40478515625,12.025,0.3400000000000001,178.96528599121277,-6.583736734851651,99.01085251042257,1678.0,1435.0,1200.0,1528.0,1596.0,1018.02,242.0,295.0,1637183701.063949,1637183702.0954158,5258d9c0-a58b-476d-ab7b-e41d2ede2263
0.5901573460200819,1.1526190810292287,0.1017227587990997,-0.2888066905904414,-0.2253905204535095,-0.446722561094417,-0.3701576872771113,-0.3940620218404592,-10.98224152851954,15.079538240293424,58.04557513324451,-0.2436142913853067,3.9285581830418046,0.900290237201531,6642.835557725694,12.01722222222222,0.3611111111111111,178.97624920374054,-6.58512710523457,98.81165156109893,1678.0,1435.0,1200.0,1528.0,1596.0,1018.02,242.0,295.0,1637183702.2038603,1637183703.324664,5258d9c0-a58b-476d-ab7b-e41d2ede2263
0.5834361714335845,1.1693064196129548,0.1166574860099264,-0.2936914320538326,-0.2155114656857977,-0.4590774077129189,-0.3587090058217532,-0.3868417436355011,-10.792902205008888,15.06866523985351,58.07485993294944,-0.2595869533771362,3.991094214816082,0.852330962798041,6684.822862413194,12.019777777777778,0.36,178.9413970251357,-6.579189631275453,98.6493336332934,1678.0,1435.0,1200.0,1528.0,1596.0,1018.02,242.0,295.0,1637183703.4333887,1637183704.666668,5258d9c0-a58b-476d-ab7b-e41d2ede2263
0.7563415103588866,1.458153148631083,0.1398594557602058,-0.4640903494701979,-0.2740779571236328,-0.6010970631901563,-0.4066469699195511,-0.4314651406747813,-10.55929286490329,15.525118196937546,55.712506639526346,-0.1904236670775468,5.11618749038123,0.9988278004212744,6657.789713541667,12.016444444444444,0.3777777777777778,178.83948301362005,-6.549294225301392,98.3595795537736,1729.0,1435.0,1200.0,1528.0,1636.0,1018.02,242.0,295.0,1637183706.601141,1637183707.7388332,7f2573d8-73e9-4fe4-b65f-cef269ed1670
0.7516161980955429,1.457002637636294,0.1448586995295678,-0.4629946245350364,-0.2697361474681766,-0.6027817405029118,-0.4022229806636135,-0.4255482265107802,-10.52491502335836,15.600255791210952,55.4915234213012,-0.1959519448596753,5.113770917911611,0.9793526825956836,6569.8447265625,12.00288888888889,0.4277777777777777,178.83960899266472,-6.558642098090462,98.14034034724496,1729.0,1435.0,1200.0,1528.0,1636.0,1018.02,242.0,295.0,1637183707.8476446,1637183708.9669774,7f2573d8-73e9-4fe4-b65f-cef269ed1670
0.7550156836243985,1.454355366605402,0.1467833398870378,-0.4549930933085111,-0.268373613624177,-0.6088328820131553,-0.3998211516834173,-0.4302209444610759,-10.1857453327923,15.621068823925691,55.32470258681685,-0.2272212183286629,5.102057216326561,0.9711968723656308,6548.072265625,12.005000000000004,0.4222222222222222,178.80546715373353,-6.549871992900557,97.97822049492538,1729.0,1435.0,1200.0,1528.0,1636.0,1018.02,242.0,295.0,1637183709.075566,1637183710.1955357,7f2573d8-73e9-4fe4-b65f-cef269ed1670
-0.1819411973292307,-0.2139363611689231,-0.0293615256199305,0.3738788433706815,-0.0200752586046383,0.2573896202556154,-0.205403404307251,-0.2218255803512113,-13.952565700286335,17.594037878462135,54.659219760974246,-0.1481296015216479,-1.2356773511341232,0.3973225099917865,6668.646918402777,12.012111111111112,0.381111111111111,179.27997860921212,-6.562605884538793,97.72996740371246,1474.0,1435.0,1200.0,1528.0,1435.0,1018.02,242.0,295.0,1637183712.1306362,1637183713.0865011,e066b109-704e-4818-93b7-f075b0909b31
-0.201253346704832,-0.2244964089781556,-0.0282794975053422,0.3804942806460938,-0.0168839604694456,0.2604028629752999,-0.2051020800742007,-0.2302626614760645,-14.14925552057492,17.78306802952045,54.48686513494291,-0.1551007499816929,-1.2731069552610756,0.3893939171246887,6684.248155381944,12.03477777777778,0.2822222222222222,179.25433352560842,-6.560095457995728,97.77131129766845,1474.0,1435.0,1200.0,1528.0,1435.0,1018.02,242.0,295.0,1637183713.1953,1637183714.1323185,e066b109-704e-4818-93b7-f075b0909b31
-0.2139500579244922,-0.2476846853020578,-0.0347990595621917,0.3950948109908789,-0.0150897111983892,0.2717162197296678,-0.2049651144645756,-0.229372384800093,-14.207885436854786,17.60140707433771,54.7542977600548,-0.1641291116623837,-1.3642463944195182,0.3933749364862898,6694.103407118056,12.035555555555554,0.28,179.26964529190778,-6.590564742155678,97.79389797434378,1474.0,1435.0,1200.0,1528.0,1435.0,1018.02,242.0,295.0,1637183714.240719,1637183715.317317,e066b109-704e-4818-93b7-f075b0909b31
-0.3678446119872105,-0.4994685688727729,-0.0573983819774635,0.5325534610715609,0.0216718526957529,0.3877260630216734,-0.1798319270206879,-0.2058827844484428,-14.612280524211618,18.47944866786137,54.17074200361623,-0.2091137768402732,-2.3188966796742343,0.3075985705680054,6652.539279513889,12.028555555555554,0.3188888888888889,179.28425582545236,-6.566487376693999,97.88754745696372,1423.0,1435.0,1200.0,1528.0,1394.0,1018.02,242.0,295.0,1637183717.2508583,1637183718.387885,13d7475d-6ebc-46ec-838c-f535ac80c4ab
-0.3400132002657194,-0.4877443116958915,-0.0534811660864086,0.5057766914747225,0.0220964459926395,0.4012719584519272,-0.1724357847437664,-0.2026093070644963,-14.713895635794422,18.305339078007005,54.27039811418797,-0.1192669162728978,-2.271545458505065,0.292474939194267,6654.833984375,12.02111111111111,0.3400000000000001,179.2647002349487,-6.575114664525632,97.8086314512934,1423.0,1435.0,1200.0,1528.0,1394.0,1018.02,242.0,295.0,1637183718.495927,1637183719.616759,13d7475d-6ebc-46ec-838c-f535ac80c4ab
-0.3366027565529378,-0.4772938349066329,-0.0465917968341821,0.5079133544578373,0.0233291363066178,0.3859592071455511,-0.170888073496208,-0.1939256881679805,-14.404698107718788,18.53807693138133,53.85719611935912,-0.156520833938628,-2.230698414537939,0.2800225583119917,6654.833984375,12.020111111111111,0.3400000000000001,179.26269215933272,-6.567216499387897,97.75657554398909,1423.0,1435.0,1200.0,1528.0,1394.0,1018.02,242.0,295.0,1637183719.725377,1637183720.845261,13d7475d-6ebc-46ec-838c-f535ac80c4ab
-0.5310451715520088,-0.8368576657118555,-0.0868295484457225,0.6686682036987049,0.0685091523820363,0.5805062039087122,-0.1342174525598053,-0.1649854050616025,-15.345954817455013,19.46540809851651,52.45451579470615,-0.078524891656475,-3.582514983798276,0.1760081357217818,6653.112955729167,12.018333333333333,0.3566666666666667,179.40771832488952,-6.564680222476099,97.65089354478133,1372.0,1435.0,1200.0,1528.0,1354.0,1018.02,242.0,295.0,1637183721.646919,1637183722.7778752,f2c7d9fa-3df7-4d52-a739-310af8298699
-0.5592403674711274,-0.8556203168271589,-0.0917356559913361,0.6832703773207142,0.0690756420209896,0.5829157022603307,-0.1395777381282003,-0.1652861808688659,-15.638805733998396,19.632825915823,52.05535338070462,-0.1053948542301465,-3.649381861754602,0.1865772835497295,6649.6708984375,12.013777777777776,0.3877777777777778,179.42544797815506,-6.58032998827563,97.52800629905424,1372.0,1435.0,1200.0,1528.0,1354.0,1018.02,242.0,295.0,1637183722.8860767,1637183724.0168514,f2c7d9fa-3df7-4d52-a739-310af8298699
-0.5414074428569627,-0.8677828670226382,-0.0902290344086975,0.7037056407545093,0.0747460173197435,0.5767796446053118,-0.140016027948777,-0.1768049879272592,-15.73281072882171,19.756215769836214,52.16707949319798,-0.1644168667049467,-3.697742115166901,0.1761730745205211,6649.098198784723,12.012222222222222,0.3888888888888889,179.43516809625388,-6.598604301695605,97.41586218198172,1372.0,1435.0,1200.0,1528.0,1354.0,1018.02,242.0,295.0,1637183724.134732,1637183725.1465962,f2c7d9fa-3df7-4d52-a739-310af8298699
-0.6810576005346083,-1.0715877824188462,-0.1064731538596608,0.78346069380783,0.0990848016696582,0.6746689393590803,-0.1193479197098387,-0.1373999855521293,-16.148348927468877,20.8749291597161,48.14337207271749,-0.1185977466427494,-4.434361737697141,0.1053523737860773,6649.6708984375,12.006111111111112,0.4188888888888888,179.53337103832052,-6.601516903057924,97.1952159564841,1321.0,1435.0,1200.0,1528.0,1314.0,1018.02,242.0,295.0,1637183727.0811176,1637183728.218644,aa6bba36-ee1b-4f5e-aa20-37a2eb41c8b3
-0.666525546383264,-1.073601177857132,-0.1059115948548091,0.7732841517235206,0.1016734512269054,0.6896529730031404,-0.1132118609574259,-0.1372767165810309,-16.27832985695188,20.63346417873456,48.68992428179564,-0.0635218808185039,-4.444552845191445,0.0927708492275731,6649.6708984375,11.981666666666667,0.52,179.54833674170192,-6.602519849932924,96.9054155834599,1321.0,1435.0,1200.0,1528.0,1314.0,1018.02,242.0,295.0,1637183728.3272982,1637183729.2631311,aa6bba36-ee1b-4f5e-aa20-37a2eb41c8b3
-0.6826365403325455,-1.0783862109522115,-0.10685501384189,0.7797483789130013,0.0991587631125927,0.6841442176682699,-0.1179656628593083,-0.1421329684901693,-16.249337776162125,20.9773126550594,48.0606538925879,-0.0883357807294414,-4.457977480826537,0.102719642389283,6639.36962890625,11.981000000000002,0.52,179.5385984097653,-6.618421289230621,96.7518698952784,1321.0,1435.0,1200.0,1528.0,1314.0,1018.02,242.0,295.0,1637183729.3715312,1637183730.5645058,aa6bba36-ee1b-4f5e-aa20-37a2eb41c8b3
-0.0176235746833417,0.0961811313049925,-0.0112135850463324,0.2286816348656324,-0.0678077669847713,0.1055358806571496,-0.2490543414100592,-0.275214772952587,-13.782393844452594,16.275896971904587,57.17650067545216,-0.1691834411043291,-0.0770582242803012,0.540209448358044,6644.5166015625,11.991111111111111,0.48,179.30322250186757,-6.608697091991031,96.38872619203669,1525.0,1435.0,1200.0,1528.0,1475.0,1018.02,242.0,295.0,1637183731.587516,1637183732.720024,3aa50098-e29b-4e64-ad0e-984d79f37f09
-0.0354017082391852,0.085223884583892,-0.0197191480873325,0.2223538250685081,-0.0763133301994333,0.1206979707661934,-0.2539303167777718,-0.2680788642140942,-13.764577247419735,16.434156541689912,56.92396884512517,-0.1202438966318839,-0.1157999142250479,0.5685407238345696,6644.5166015625,12.043666666666669,0.24,179.20813109042285,-6.595115687713284,96.762768600464,1525.0,1435.0,1200.0,1528.0,1475.0,1018.02,242.0,295.0,1637183732.82807,1637183733.9528036,3aa50098-e29b-4e64-ad0e-984d79f37f09
-0.014866731270146,0.0887186984285263,-0.0110273118286935,0.2311585203553506,-0.0664622169566749,0.1136749234919996,-0.2457184071516241,-0.2831001568128501,-13.692346028749546,16.290498980988495,57.630954319149325,-0.1562573279753926,-0.1100049334193945,0.5331898989678806,6654.833984375,12.047333333333334,0.23,179.15521685601283,-6.600611855561028,97.06808488655274,1525.0,1435.0,1200.0,1528.0,1475.0,1018.02,242.0,295.0,1637183734.0618098,1637183735.182391,3aa50098-e29b-4e64-ad0e-984d79f37f09
0.0087423011728524,0.093003529751632,-0.0486051910154365,-0.3304803939370646,-0.1620811855345355,0.6434955750463857,-0.1317433059725697,-0.1449330933683346,-13.353982775617752,14.97973743387876,60.33124615647529,2.2912806486193085,-0.0535163763294083,0.5525499901582123,6608.6552734375,12.043,0.2433333333333333,179.13054469491095,-6.372087955493173,97.63626100284942,1525.0,1521.0,1200.0,1528.0,1475.0,1018.02,242.0,295.0,1637183737.1168442,1637183738.2469566,57385efa-323d-47af-a50d-1649d5eca599
0.0285612216684258,0.1079190818583506,-0.0377849094484898,-0.3338223546370825,-0.155191815993052,0.6309495285999215,-0.1257853025725178,-0.1569312796496678,-13.342170515567274,15.017129079900116,60.25196747326572,2.2714066116654514,0.0041431025317881,0.5215908370948149,6612.621636284723,12.039222222222222,0.2577777777777778,179.12598971764444,-6.3929147200923575,97.74958826046816,1525.0,1521.0,1200.0,1528.0,1475.0,1018.02,242.0,295.0,1637183738.3546116,1637183739.4870389,57385efa-323d-47af-a50d-1649d5eca599
0.0099612948277784,0.0868811681204345,-0.0461672035978372,-0.3283437304221927,-0.1601225775296253,0.6439475614342204,-0.1301134154941898,-0.1484394130053468,-13.354585655840536,15.179665653949227,59.83597322373407,2.288844023957821,-0.0721902192238467,0.5427353466906378,6613.7548828125,12.038666666666668,0.2566666666666666,179.13065853139713,-6.390552518140656,97.83698432544804,1525.0,1521.0,1200.0,1528.0,1475.0,1018.02,242.0,295.0,1637183739.5959349,1637183740.710801,57385efa-323d-47af-a50d-1649d5eca599
0.0310402987516031,0.0810738273636112,-0.0841614586574478,-0.8823560134614286,-0.256751808256362,1.196247549717197,-0.0187466924246179,-0.0306353066015437,-13.383125596218882,14.50567666357417,65.3054840316533,4.7741495093690105,-0.0764547089962944,0.5699863211024194,6663.478841145833,12.037333333333333,0.2666666666666667,179.1072173221656,-6.178185572850073,98.08478814199552,1525.0,1607.0,1200.0,1528.0,1475.0,1018.02,242.0,295.0,1637183742.6465015,1637183743.78326,066a5f51-4ad8-4fd8-9c64-018d0fc15a18
0.0363474413848959,0.0910328689305582,-0.0797161034426321,-0.8858497333340892,-0.2552906592749869,1.1921177634776017,-0.0177331471462117,-0.0402963107223083,-13.43716494077092,14.603596255645192,65.66816077547917,4.773651384895495,-0.0412205415433355,0.5621015586968348,6701.66259765625,12.029333333333334,0.2988888888888888,179.13202912269057,-6.17816090827807,98.06349009434363,1525.0,1607.0,1200.0,1528.0,1475.0,1018.02,242.0,295.0,1637183743.8913453,1637183745.019069,066a5f51-4ad8-4fd8-9c64-018d0fc15a18
0.025394577266225,0.0858917287846292,-0.0846337159958516,-0.8895445189197845,-0.2576705735163031,1.20036199581928,-0.019429328881,-0.0480408930239652,-13.563750321380104,14.46684293073445,65.6172580009399,4.79928855416843,-0.0590150151372498,0.5737026698482316,6714.497938368056,12.032222222222224,0.2877777777777777,179.17350051351107,-6.202158208744479,98.05096428631572,1525.0,1607.0,1200.0,1528.0,1475.0,1018.02,242.0,295.0,1637183745.1518452,1637183746.2414973,066a5f51-4ad8-4fd8-9c64-018d0fc15a18
0.0389158199442168,0.0673498757199674,-0.1088563551300576,-1.3893482123117185,-0.3410952283753996,1.698966072286159,0.0819778001918244,0.0574335666276978,-13.849370474384855,14.948747376695788,68.77937403543939,7.049501931142383,-0.0945533238277009,0.5734025151580124,6717.41845703125,12.025777777777778,0.3122222222222222,179.1496919918842,-6.030946900320893,98.02507635154156,1525.0,1693.0,1200.0,1528.0,1475.0,1018.02,242.0,295.0,1637183747.152028,1637183748.2883148,0d95e6ea-e95c-462c-bd91-c3d199669634
0.0517494954134992,0.0929350469834598,-0.104377580211093,-1.392197099391888,-0.3437386646164187,1.6714085915822945,0.0776907773853635,0.0615425340804828,-13.600047229772963,14.994469429462477,68.05198010932429,6.994538646012182,0.0067243142856888,0.579202211301601,6712.158203125,12.021777777777778,0.3400000000000001,179.17479976727316,-6.008568686710861,97.90511242677928,1525.0,1693.0,1200.0,1528.0,1475.0,1018.02,242.0,295.0,1637183748.3969097,1637183749.514785,0d95e6ea-e95c-462c-bd91-c3d199669634
0.0473118104442665,0.0812107929273435,-0.105938987951057,-1.3795962526627668,-0.3418485391889759,1.6689706035780167,0.0753075762369142,0.0613370858156923,-13.712876682060305,15.09595139783787,67.70624354717165,6.961118819113492,-0.0350346309549306,0.5802329974848877,6684.242838541667,12.020666666666669,0.3400000000000001,179.13772550045837,-6.018989800405139,97.80484373194366,1525.0,1693.0,1200.0,1528.0,1475.0,1018.02,242.0,295.0,1637183749.6236875,1637183750.7468536,0d95e6ea-e95c-462c-bd91-c3d199669634
0.0926370098440624,0.0929525785743475,-0.1109179612244322,-1.7399898520041417,-0.4005048840062307,2.0068637000691107,0.1461390537909225,0.1255876419751556,-13.931940103389367,16.11643946925212,70.43946828651161,8.540211826309601,0.0304040116864292,0.567606757973362,6665.18359375,12.015666666666668,0.3611111111111111,179.20124474191965,-5.912989201331688,97.60522841781042,1525.0,1780.0,1200.0,1528.0,1475.0,1018.02,242.0,295.0,1637183751.65776,1637183752.7947032,bee25810-09eb-4a7f-bf7f-7461917a9d62
0.0554749593686506,0.0798000474410991,-0.1138829924115375,-1.727229024525003,-0.4004835173420494,2.0041391796735124,0.1452558997130793,0.1255602483526973,-13.71917393188282,16.11221582331223,69.87503317812464,8.505145653858618,-0.0171884790597057,0.5707516134344391,6665.18359375,12.00822222222222,0.4,179.2256983369681,-5.896234937025124,97.39384848228676,1525.0,1780.0,1200.0,1528.0,1475.0,1018.02,242.0,295.0,1637183752.9031832,1637183754.0234292,bee25810-09eb-4a7f-bf7f-7461917a9d62
0.0643914189970879,0.0701713668142794,-0.1159237797792459,-1.729612229218195,-0.401250524830103,2.0162332455260645,0.1474747421481992,0.1120417455287308,-13.680193285367045,16.125622970518375,69.94142488792968,8.537716025654362,-0.0540019332342249,0.5703483940380508,6665.18359375,12.009888888888888,0.39,179.2639504319598,-5.8656011117107925,97.2174201425659,1525.0,1780.0,1200.0,1528.0,1475.0,1018.02,242.0,295.0,1637183754.132497,1637183755.25409,bee25810-09eb-4a7f-bf7f-7461917a9d62
-0.0420171462663383,0.1010981957950826,0.029862394774891,0.7877614128739658,0.0251781716784567,-0.4400802767266485,-0.3607771865861665,-0.3942241894481511,-13.451712211478954,17.622367665249442,53.19639048699136,-2.645899571871426,-0.0918889638581671,0.5161997543519115,6660.0048828125,12.021,0.3333333333333333,179.2577000499593,-6.713241390383324,96.9494126264535,1525.0,1349.0,1200.0,1528.0,1475.0,1018.02,242.0,295.0,1637183757.187297,1637183758.2129145,ae588047-e4c4-419f-9d64-98eafdb7432e
-0.0507555509163575,0.1023993688198506,0.0340809348665861,0.7834059075874658,0.0296295532906504,-0.4352727834058039,-0.355462920772374,-0.3774869917013712,-13.560244247773598,17.564655743177447,53.52867364143844,-2.6254457282291512,-0.0883829179341515,0.4973557906398713,6649.098198784723,12.046666666666669,0.2288888888888889,179.22435203079172,-6.726502771839333,97.31311033392788,1525.0,1349.0,1200.0,1528.0,1475.0,1018.02,242.0,295.0,1637183758.321933,1637183759.553157,ae588047-e4c4-419f-9d64-98eafdb7432e
-0.0272265061609206,0.1043130519394202,0.0317585464080415,0.7787753754866826,0.0246582503852355,-0.4351385571779305,-0.3592837134507551,-0.3946274158710702,-13.516857533349414,17.734518372380922,53.18243396029948,-2.613721710429285,-0.0780180383389662,0.5123957916631694,6649.6708984375,12.045,0.23,179.16706799313272,-6.72608755325604,97.622571027023,1525.0,1349.0,1200.0,1528.0,1475.0,1018.02,242.0,295.0,1637183759.6617384,1637183760.7789834,ae588047-e4c4-419f-9d64-98eafdb7432e
-0.0558369743010386,0.1332440181878126,0.0720751884173841,1.2879870985515425,0.1022897963449151,-0.9552902285565462,-0.478800456827422,-0.499728805057256,-13.782365792417592,19.88288237565159,49.59959274017471,-4.915684369012433,0.0040219412125988,0.5237139548479591,6644.5166015625,12.047,0.22,179.11776313424411,-6.889798365333568,98.1588000718418,1525.0,1262.0,1200.0,1528.0,1475.0,1018.02,242.0,295.0,1637183762.5627196,1637183763.5012672,9add5157-a826-460f-b40a-727d60893430
-0.0639453372986556,0.1165205204944417,0.0640763982272195,1.2999852839065416,0.1027554793003184,-0.9470996817749856,-0.4826765838345766,-0.4987563485267929,-14.08067000830423,19.6582315787218,49.963505536466414,-4.926323755928684,-0.0618034929649913,0.5379802010206768,6639.36962890625,12.03877777777778,0.26,179.10705187980574,-6.8859296797830565,98.3557182201628,1525.0,1262.0,1200.0,1528.0,1475.0,1018.02,242.0,295.0,1637183763.6098716,1637183764.8745575,9add5157-a826-460f-b40a-727d60893430
-0.061794977492014,0.120273377491154,0.0685962625503647,1.287576201850551,0.1026459068545441,-0.9430865879077271,-0.477882787245402,-0.5059196502496774,-13.932154476009751,19.82041865185593,49.46573972277307,-4.88801832033788,-0.0425503586015347,0.5248235583326866,6639.36962890625,12.037777777777778,0.2622222222222222,179.09203608837043,-6.884669794472404,98.52585747347791,1525.0,1262.0,1200.0,1528.0,1475.0,1018.02,242.0,295.0,1637183764.9835155,1637183766.1077204,9add5157-a826-460f-b40a-727d60893430
-0.0818193471582301,0.1190132941205944,0.104193617918629,1.8199341047592683,0.1821544273362758,-1.4519004605093968,-0.6075207511832951,-0.6440768794109023,-15.02878266215436,22.696004387608525,46.25761393319042,-7.212488323140086,-0.0743204365649581,0.5506272264437552,6635.94384765625,12.035333333333334,0.2633333333333333,179.13226134912236,-7.085562543707927,98.73291162252724,1525.0,1176.0,1200.0,1528.0,1475.0,1018.02,242.0,295.0,1637183767.2234125,1637183768.244172,8ee3488a-bd52-4e7d-9111-f199df916db6
-0.0809183516565352,0.124587197810328,0.1018342368324825,1.8146948719838407,0.1774964065989536,-1.4512847101168265,-0.6090101035873509,-0.6289618297460359,-14.828401300714008,22.65445516416856,46.420209793087785,-7.199552354923911,-0.0557794569764497,0.5633232517359864,6625.115505642361,12.027222222222225,0.2922222222222222,179.13579786929256,-7.104304155903619,98.84939518645244,1525.0,1176.0,1200.0,1528.0,1475.0,1018.02,242.0,295.0,1637183768.3525813,1637183769.490908,8ee3488a-bd52-4e7d-9111-f199df916db6
-0.0823672094452096,0.1245056139966731,0.1069466261438369,1.8214270300012607,0.1822776963923762,-1.455982039574873,-0.6049047078796058,-0.6294900394055394,-14.712931850929786,22.704809104603324,46.65647945279071,-7.224609828172004,-0.0595006828485038,0.544439482497521,6623.97705078125,12.026,0.3066666666666666,179.15793375348267,-7.101491114034828,98.96509707317264,1525.0,1176.0,1200.0,1528.0,1475.0,1018.02,242.0,295.0,1637183769.5997417,1637183770.7127595,8ee3488a-bd52-4e7d-9111-f199df916db6
-0.0872157915270034,0.1405031940179858,0.1372571096442968,2.1061922806708666,0.2272161031879439,-1.7450208794373454,-0.6771677764758416,-0.6946172003503422,-15.527574273460486,24.981098318999425,44.8892540262048,-8.500572052326945,-0.0111718882073414,0.5452385458905146,6629.10009765625,12.023111111111112,0.3166666666666666,179.17649668982696,-7.2296869345667965,99.17177556181758,1525.0,1090.0,1200.0,1528.0,1475.0,1018.02,242.0,295.0,1637183772.6404605,1637183773.890484,dc7a4a2b-3d2b-4779-a1f2-488feb84201a
-0.0797686982320995,0.1348443240266098,0.1290588977783109,2.0925274917479304,0.2177994456636695,-1.729944233464852,-0.678836565553195,-0.7126813242662975,-15.270163245812714,24.918273759558293,44.41718588313682,-8.436638763891379,-0.0288724155547264,0.5703508887320529,6618.294379340277,12.020555555555555,0.3333333333333333,179.20863804224123,-7.225861174857944,99.23026930186955,1525.0,1090.0,1200.0,1528.0,1475.0,1018.02,242.0,295.0,1637183773.9992104,1637183775.1185417,dc7a4a2b-3d2b-4779-a1f2-488feb84201a
-0.1010630130063815,0.128107808776691,0.13107996191007,2.091934157131986,0.2233536738307936,-1.7173674885238157,-0.6716206679416219,-0.6967401674377861,-15.366120260305252,24.718190363620028,45.22706560753397,-8.40818366551966,-0.0604394433171315,0.5500939509894874,6611.488389756944,12.015444444444444,0.36,179.22333509151528,-7.218764513446562,99.22978891189794,1525.0,1090.0,1200.0,1528.0,1475.0,1018.02,242.0,295.0,1637183775.2269566,1637183776.3472252,dc7a4a2b-3d2b-4779-a1f2-488feb84201a
-0.0241979229870615,0.0886480242023427,-0.0156101805033049,0.1716902568577354,-0.0788334971938425,0.163540804880452,-0.2368096165885743,-0.2707770868341522,-13.62001350404151,16.315064743860184,56.94164916489143,0.0898049826189626,-0.0976409590989625,0.5421410874237346,6603.56396484375,12.016,0.36,179.27646940979855,-6.641355783803054,99.19275410839832,1525.0,1435.0,1200.0,1528.0,1475.0,1018.02,242.0,295.0,1637183778.062647,1637183779.0104485,2fd3788c-1ef3-41ad-8d2c-0ed0eb388fed
-0.0155416976813329,0.0969618351551048,-0.0075429072859029,0.174059761417015,-0.0744232050920775,0.153323172452305,-0.2325636829201015,-0.2461917609952887,-13.451717801828714,16.457799910820956,57.00209598480368,0.062941832875358,-0.0679639014480047,0.5202633388793775,6637.085774739583,12.045,0.2244444444444444,179.23880471107546,-6.643122952955188,99.28285948174896,1525.0,1435.0,1200.0,1528.0,1475.0,1018.02,242.0,295.0,1637183779.1186144,1637183780.339627,2fd3788c-1ef3-41ad-8d2c-0ed0eb388fed
-0.0146377248244434,0.0912229771781168,-0.0178427195453818,0.1857429254945068,-0.0790252489283669,0.1527890066603074,-0.2440824900354732,-0.2559026230640934,-13.82741408552748,16.36027710549934,57.5750068420648,0.0341299922679596,-0.0939997712546917,0.5569649624614679,6665.18359375,12.04577777777778,0.22,179.2733062733029,-6.650704036047079,99.37173238540936,1525.0,1435.0,1200.0,1528.0,1475.0,1018.02,242.0,295.0,1637183780.449199,1637183781.6707354,2fd3788c-1ef3-41ad-8d2c-0ed0eb388fed
0.0566528633439295,0.1200953222179506,0.2227236321755093,0.1621848455969415,0.1361339919144027,0.130696458325321,0.0061536516021383,-0.0086660256874616,-11.89049993956931,16.407867384171784,57.25106474687284,0.0508437777464216,0.0216031002119214,-0.4161259628797653,6675.56591796875,12.043333333333331,0.2233333333333333,179.16736396799675,-6.626934550848612,99.4834014248796,1525.0,1435.0,1200.0,1439.0,1475.0,1018.02,242.0,295.0,1637183783.6092498,1637183784.7446146,ac9997f2-c14c-43e1-93c2-de90b629f9ff
0.0668704960288442,0.1406812492846407,0.2244220054100541,0.1426946432012722,0.1349149982483466,0.1218621782050921,0.0067289070409938,-0.0058308378371439,-11.953260462287746,16.05148209659662,56.32519089151123,0.0724999570454326,0.109964327850782,-0.4164832391446322,6631.477322048611,12.045,0.2244444444444444,179.21515556052924,-6.612356602998212,99.50661344331894,1525.0,1435.0,1200.0,1439.0,1475.0,1018.02,242.0,295.0,1637183784.853804,1637183785.8602364,ac9997f2-c14c-43e1-93c2-de90b629f9ff
0.06817166913098,0.1317647898723801,0.2271065307111897,0.1483102322084613,0.1371475372291121,0.1245193105428719,0.0076602730163133,-0.0150075322718127,-12.013655317716683,16.394359922295337,56.20624671610883,0.0681607835704117,0.0774884434284071,-0.4258897819031205,6563.11328125,12.048,0.23,179.22327589654248,-6.605300495835028,99.56359922938417,1525.0,1435.0,1200.0,1439.0,1475.0,1018.02,242.0,295.0,1637183785.9685068,1637183787.090798,ac9997f2-c14c-43e1-93c2-de90b629f9ff
0.1512686886985231,0.1857292290597287,0.5121866803375599,0.1267107598156445,0.3902599262012076,0.0803342131729902,0.2938361604883928,0.269511073260571,-10.08499733468482,16.553591455141696,56.80104339835765,0.0339103924973808,0.281700284581158,-1.5582244879033944,6549.185601128473,12.044555555555554,0.2311111111111111,179.22001865521827,-6.615835398583602,99.526050643877,1525.0,1435.0,1200.0,1351.0,1475.0,1018.02,242.0,295.0,1637183788.1133082,1637183789.1387098,89073baa-7aa5-46c2-b351-d34384fc0cc3
0.1587223557083828,0.170069680243198,0.5065579431359262,0.1363038291958358,0.3898369765035183,0.0959899273057444,0.2962971580021145,0.2771658059339232,-9.892968474698446,16.353953556521777,58.0895914057792,0.0461496254891408,0.2086466242260972,-1.5532568480571476,6606.981879340277,12.042222222222222,0.2322222222222222,179.21431468835146,-6.593229512001236,99.55028491396207,1525.0,1435.0,1200.0,1351.0,1475.0,1018.02,242.0,295.0,1637183789.2484827,1637183790.4755173,89073baa-7aa5-46c2-b351-d34384fc0cc3
0.1624828826661888,0.1686233237061544,0.5038493119506187,0.1431148536672268,0.3883643226234539,0.0890079697152351,0.2904328397788343,0.2534061128842063,-10.03962071377448,16.429565494433135,57.75425218278309,0.0153353249490806,0.2062229660642313,-1.539931184127115,6639.36962890625,12.041,0.2477777777777777,179.21614366122918,-6.593310478202023,99.54406261162822,1525.0,1435.0,1200.0,1351.0,1475.0,1018.02,242.0,295.0,1637183790.584326,1637183791.707639,89073baa-7aa5-46c2-b351-d34384fc0cc3
0.2267668561046229,0.2067808387595961,0.794211943431869,0.1348311751590016,0.6491160942809011,0.0419882320435709,0.5799539587087597,0.557943043263473,-8.230946948743462,16.887198766552753,57.518205907133,-0.0532737146448807,0.3580626728003353,-2.697808600103948,6654.833984375,12.040333333333333,0.25,179.2133448014893,-6.616711322912788,99.44484273028516,1525.0,1435.0,1200.0,1262.0,1475.0,1018.02,242.0,295.0,1637183793.6424778,1637183794.6903455,20a108bf-bae0-4742-9d9e-08a6997240dc
0.2154984239210521,0.1968141274192054,0.7769214095000879,0.1438906267159697,0.6370850383821716,0.0473397515170054,0.5660426394044501,0.5509216401303114,-8.251229979424778,16.70263380216465,57.95856258807892,-0.0637085101374026,0.3147074635682447,-2.6384901016715387,6654.833984375,12.037,0.25,179.2123749146271,-6.611564633077574,99.43973374878598,1525.0,1435.0,1200.0,1262.0,1475.0,1018.02,242.0,295.0,1637183794.7983823,1637183795.8965762,20a108bf-bae0-4742-9d9e-08a6997240dc
0.2363517073051175,0.214300249096922,0.7896104480376268,0.1312580171489593,0.6423861539089474,0.0377653091825189,0.5744649264173294,0.5616449487400835,-8.0846102542686,16.843755099837825,57.45844668860153,-0.0551559979909953,0.3859064278084791,-2.673640219473881,6649.6708984375,12.039888888888887,0.25,179.23765875711473,-6.60145756578951,99.422303864934,1525.0,1435.0,1200.0,1262.0,1475.0,1018.02,242.0,295.0,1637183796.0048516,1637183797.0360498,20a108bf-bae0-4742-9d9e-08a6997240dc
0.2998867517831317,0.2366546752469364,1.0052090549624482,0.1545147729061283,0.8411396360775761,-0.0134335233225952,0.7865857003318204,0.7727532732718142,-6.67714432861994,17.1067630320187,57.97407183426619,-0.2093985951389826,0.4660263048197137,-3.5357366853158254,6644.5166015625,12.036,0.2588888888888889,179.19633763045596,-6.62816298882996,99.31832789519892,1525.0,1435.0,1200.0,1173.0,1475.0,1018.02,242.0,295.0,1637183799.172036,1637183800.1969385,91d1f8be-e3c2-49a9-b488-e2455b46f3eb
0.2886999513249094,0.2336260923567633,1.0000306604642797,0.1392294140268502,0.8333572522070098,-0.0022560355034484,0.7829813143148883,0.7617379540081961,-6.7186902149128045,17.283289300554667,57.10506938409077,-0.1490483355376709,0.4642199419966395,-3.5147738350564146,6635.94384765625,12.027,0.2966666666666666,179.21828530498897,-6.606011546986747,99.23249214898948,1525.0,1435.0,1200.0,1173.0,1475.0,1018.02,242.0,295.0,1637183800.305515,1637183801.545257,91d1f8be-e3c2-49a9-b488-e2455b46f3eb
0.285988032898037,0.2354066448449472,0.9924975536888596,0.1342575633302598,0.8238244482466618,0.003222587844312,0.7741607314009222,0.746808706543975,-6.787238220509657,17.468234582089256,57.416062080797296,-0.1246558653903128,0.468764660890535,-3.4784760881266075,6642.229058159723,12.030666666666669,0.2899999999999999,179.23334207755929,-6.61982916197329,99.14992730448252,1525.0,1435.0,1200.0,1173.0,1475.0,1018.02,242.0,295.0,1637183801.662933,1637183802.7543728,91d1f8be-e3c2-49a9-b488-e2455b46f3eb
-0.1005973299390409,0.05092770203974,-0.3314528495789735,0.2020281330909847,-0.3697210408832885,0.1951661575534047,-0.5678692017386107,-0.5873183220577548,-15.634879982129258,16.874106223254348,57.6676988186353,0.0795171580835995,-0.2550378330900297,1.835314458029055,6639.36962890625,12.034111111111113,0.2744444444444444,179.22790828261955,-6.609418246130899,99.34426136456756,1525.0,1435.0,1200.0,1617.0,1475.0,1018.02,242.0,295.0,1637183803.5662262,1637183804.8151848,7cd03d1a-106e-45de-90d8-a4bb0acddf09
-0.1274699795561291,0.0354916804470893,-0.3369999567352876,0.2103693368558099,-0.3704469585865531,0.200466725497681,-0.5718001151828315,-0.6014531751833223,-15.84114839648891,16.909947644349373,57.32742104082706,0.0724158456073206,-0.3098345384812778,1.8470277710177576,6645.089301215277,12.045222222222222,0.22,179.2412787573748,-6.605675681920685,99.32638979514924,1525.0,1435.0,1200.0,1617.0,1475.0,1018.02,242.0,295.0,1637183804.924302,1637183806.0453703,7cd03d1a-106e-45de-90d8-a4bb0acddf09
-0.1211213502458233,0.0553999023364932,-0.3273192274530085,0.2028493786563233,-0.3658054679618532,0.1874522560235207,-0.5669411226034627,-0.5924496016225411,-15.787356578096292,16.887903548245387,57.32188918217408,0.060495876608379,-0.2339590982684981,1.822973647469841,6642.229058159723,12.044555555555554,0.22,179.25513493447104,-6.603705504368221,99.3270272794718,1525.0,1435.0,1200.0,1617.0,1475.0,1018.02,242.0,295.0,1637183806.1539383,1637183807.2736995,7cd03d1a-106e-45de-90d8-a4bb0acddf09
-0.2167304596489164,0.0005243659279803,-0.64370707140557,0.2751814488075716,-0.6490076414250036,0.185784015268485,-0.9078864122484795,-0.938224307624974,-18.08931189223068,17.613146921022313,56.38305979869912,-0.1186709888276894,-0.4441128574738629,3.116172816949676,6634.23095703125,12.042,0.23,179.25627481715253,-6.625941327506805,99.3813379081121,1525.0,1435.0,1200.0,1706.0,1475.0,1018.02,242.0,295.0,1637183809.2082844,1637183810.232845,1474c729-0236-42ec-85ed-15f562b4e3f9
-0.2150030494899972,0.0078147702887557,-0.6261628695480116,0.2772184008897072,-0.6349330528451841,0.1831657812335955,-0.890241400019823,-0.9160654549610708,-17.767974215824214,17.645839605848337,57.425728063249935,-0.1277311067043084,-0.4274229293016162,3.050547195413153,6634.23095703125,12.039333333333332,0.25,179.25552956762309,-6.614930635677922,99.34129630355784,1525.0,1435.0,1200.0,1706.0,1475.0,1018.02,242.0,295.0,1637183810.341367,1637183811.3704937,1474c729-0236-42ec-85ed-15f562b4e3f9
-0.2169753540100026,0.000753920278802,-0.6391274884391794,0.2766135609144002,-0.6437558311879289,0.1845726916873658,-0.9034426982704532,-0.9324224413733412,-18.145065137686768,17.572741515283088,56.46578033334699,-0.1246781869879452,-0.4434771190987456,3.0965848805469154,6639.36962890625,12.03588888888889,0.2588888888888889,179.25846047768695,-6.621158013221812,99.29249460193812,1525.0,1435.0,1200.0,1706.0,1475.0,1018.02,242.0,295.0,1637183811.478432,1637183812.5985796,1474c729-0236-42ec-85ed-15f562b4e3f9
-0.300484925955755,-0.024006171036617,-0.9027228068022582,0.3533887932059675,-0.8875744048182336,0.1505016815298413,-1.2004040134716705,-1.2192367987953967,-19.64624382262041,18.59765754654869,56.06144664475173,-0.3815775131256142,-0.5482797726477195,4.206430132079502,6634.23095703125,12.034,0.27,179.27172470505514,-6.634050469598903,99.24295144533846,1525.0,1435.0,1200.0,1795.0,1475.0,1018.02,242.0,295.0,1637183813.7135394,1637183814.7384837,05b0e888-3905-46c0-91ab-adf2a0e565da
-0.304936308201062,-0.0354838874516611,-0.9021749440672624,0.3623600384455859,-0.8814246467976333,0.1555283183358587,-1.1956650003354754,-1.232481382376501,-19.71657678768548,18.380364404364386,56.37482780390828,-0.3919175519888047,-0.5946813833500753,4.189731645114534,6629.10009765625,12.025,0.3022222222222221,179.29841860215134,-6.655315362374223,99.0899362351825,1525.0,1435.0,1200.0,1795.0,1475.0,1018.02,242.0,295.0,1637183814.8463335,1637183816.0794928,05b0e888-3905-46c0-91ab-adf2a0e565da
-0.279812980877733,-0.0256618110551415,-0.89948493871899,0.3438822865428223,-0.8860469638361549,0.1619437862090783,-1.1956332242481469,-1.2203790914881727,-19.724289492163827,18.73320510876348,56.24248163867199,-0.3333718690087576,-0.5541635330424447,4.193004981201447,6626.823187934027,12.026111111111112,0.3044444444444444,179.30511218753793,-6.662859306312502,98.97851308252235,1525.0,1435.0,1200.0,1795.0,1475.0,1018.02,242.0,295.0,1637183816.1872957,1637183817.3105114,05b0e888-3905-46c0-91ab-adf2a0e565da
-0.3710496073261941,-0.0483312598116382,-1.0869142425365117,0.4348970070087761,-1.0519606007377973,0.1119047803439347,-1.4136048423507852,-1.4388339308032256,-21.02222715157569,19.37240630364749,56.32402467321241,-0.6568588435269902,-0.6538010171185181,4.981817275798598,6634.23095703125,12.023999999999996,0.3,179.3063719779849,-6.65937424972037,98.86159238649026,1525.0,1435.0,1200.0,1883.0,1475.0,1018.02,242.0,295.0,1637183818.0606258,1637183819.0389826,07456dc1-c5cb-456f-b569-b9fd1106bac1
-0.3532988643623412,-0.04278415342045,-1.0875031952716128,0.4298155841760557,-1.0564119855498884,0.108535426931798,-1.416960502845115,-1.4522976623738773,-20.93974630275193,19.566061613369072,55.93479461878554,-0.6517338738040028,-0.6295384588410757,4.993516648276269,6637.664822048611,11.999555555555556,0.43,179.3413911167694,-6.691285652432579,98.5118980846342,1525.0,1435.0,1200.0,1883.0,1475.0,1018.02,242.0,295.0,1637183819.1473916,1637183820.380353,07456dc1-c5cb-456f-b569-b9fd1106bac1
-0.3623736577790303,-0.0581653892916985,-1.1017909077385086,0.4469023135142899,-1.0643433944791212,0.1119392956344498,-1.4309162155317492,-1.452401208148647,-21.171982135340603,19.599584264893025,56.404776957524135,-0.683159592137875,-0.6927581169156625,5.042440589227591,6668.644368489583,11.999666666666668,0.4166666666666667,179.4058149788408,-6.682464984870069,98.21518100671054,1525.0,1435.0,1200.0,1883.0,1475.0,1018.02,242.0,295.0,1637183820.488776,1637183821.701758,07456dc1-c5cb-456f-b569-b9fd1106bac1
-0.0313612233747035,0.0712260018075054,-0.0593843830124798,0.1730736093126736,-0.0971594934092468,0.1924953287199353,-0.2491639138048107,-0.2739820824949669,-13.434865356402083,13.896523678839271,58.62314168317899,0.1338979340699708,-0.1821839826089938,0.6457584526657653,8378.7158203125,11.86,6.75,-179.39770526756627,-6.737130403892266,85.64666532375465,1525.0,1435.0,1350.0,1528.0,1475.0,1018.02,242.0,295.0,1637183825.061403,1637183826.002865,0f5ff711-cba2-429e-af64-29d12a4bdf21
-0.0231706810559204,0.0846075394239659,-0.0454823755447094,0.1765662316365347,-0.0857091698294308,0.1877015333718822,-0.2328376140495226,-0.2510677367146089,-12.926262370677495,13.614989613067271,60.37877614799356,0.1146089154762698,-0.1507084695654412,0.5925647431746522,8379.626736111111,11.863777777777775,6.75,-179.0937041723477,-6.612309645447667,81.2292791824542,1525.0,1435.0,1350.0,1528.0,1475.0,1018.02,242.0,295.0,1637183826.1107216,1637183827.0521228,0f5ff711-cba2-429e-af64-29d12a4bdf21
-0.0255127926492118,0.0880727687280924,-0.0603568387387476,0.1592400855740141,-0.103336641711673,0.1815243857091242,-0.2546425379140989,-0.2842955916791043,-13.424518630383425,13.916362824957996,57.57474755873454,0.1403709830687034,-0.1081378140015729,0.6637355023404764,8383.270399305555,11.862555555555556,6.754444444444443,-178.93447576677676,-6.535963640748166,76.3808929263278,1525.0,1435.0,1350.0,1528.0,1475.0,1018.02,242.0,295.0,1637183827.1603596,1637183828.3684723,0f5ff711-cba2-429e-af64-29d12a4bdf21
0.1552510998627907,0.3895214078562831,-0.0208756854955404,0.0161904897128486,-0.1378596416000024,0.0127192340343947,-0.2806544975047391,-0.3126058351409509,-12.581854668442606,13.222217203672884,56.89677392001543,0.0814085342520013,1.042626146262405,0.7291144140048827,8370.5341796875,11.857,6.85,-178.950109310877,-6.422799975646402,70.62867760316239,1576.0,1435.0,1350.0,1528.0,1515.0,1018.02,242.0,295.0,1637183829.0751622,1637183830.0982754,3538793e-c191-4f19-b473-e750c3c28af1
0.1550670181889694,0.3811851350677349,-0.0258590415106938,0.0095635468068217,-0.1421724142927968,0.0283398853354853,-0.2811015532523458,-0.3060446340003426,-12.582407185872864,13.251140958511783,57.06735973313452,0.1314294984625782,1.0103525585627602,0.7415794847457772,8362.3671875,11.852444444444444,6.834444444444444,-179.0191093996923,-6.358253881648005,67.34622605074759,1576.0,1435.0,1350.0,1528.0,1515.0,1018.02,242.0,295.0,1637183830.2059824,1637183831.328831,3538793e-c191-4f19-b473-e750c3c28af1
0.1469674215693507,0.3817505289766301,-0.0279628329608658,0.009221680693259,-0.1425537265002833,0.0316007620064975,-0.2813119324518622,-0.2999304894206143,-12.627982604951187,13.08075037834752,57.55800914168123,0.1383492662727777,1.008352919924661,0.7460615726437428,8362.3671875,11.852666666666668,6.878888888888889,-179.0958594764858,-6.316083013051876,64.50489847132849,1576.0,1435.0,1350.0,1528.0,1515.0,1018.02,242.0,295.0,1637183831.436828,1637183832.6649358,3538793e-c191-4f19-b473-e750c3c28af1
0.2612657460774477,0.6047480145588572,-0.0049816507305336,-0.0861611563743458,-0.1726138399945134,-0.0753408744557801,-0.3036899209637842,-0.3346167558771425,-11.968401341728224,12.564170035325937,60.93363156453821,0.1117873876428929,1.823334454148801,0.8191208264833115,8370.5341796875,11.85,6.892222222222222,-179.428180053823,-6.282789018783303,60.21538333711948,1627.0,1435.0,1350.0,1528.0,1556.0,1018.02,242.0,295.0,1637183833.579141,1637183834.9215052,2f882160-b803-4447-9f7e-a121a98977b4
0.2822077829652124,0.6093089681282918,-0.0054336371329759,-0.0661230902151552,-0.1696279899227395,-0.0913795453591269,-0.3078125856892862,-0.3339319275402532,-12.000219561912246,12.387732487165954,61.896080973977085,0.0294906564941519,1.829637079146769,0.8236750776234217,8384.181315104166,11.844333333333331,6.926666666666667,-179.62537823990002,-6.244562062682295,58.08376477724836,1627.0,1435.0,1350.0,1528.0,1556.0,1018.02,242.0,295.0,1637183835.0297234,1637183836.2417476,2f882160-b803-4447-9f7e-a121a98977b4
0.2635119815371907,0.5997898608258724,-0.0088440802974232,-0.0752586952197244,-0.1732164885832157,-0.0726289557495896,-0.3088124345617103,-0.3356850883681235,-12.217210034182004,12.624848839410006,62.02106468316415,0.0935461729164525,1.7952753228939853,0.8333304238173644,8395.12890625,11.85,6.860000000000001,-179.84643503565778,-6.209714722128106,56.301351781252656,1627.0,1435.0,1350.0,1528.0,1556.0,1018.02,242.0,295.0,1637183836.3506162,1637183837.5838668,2f882160-b803-4447-9f7e-a121a98977b4
0.3956426732966253,0.82530367642619,0.0141661385328709,-0.1488503089686842,-0.2023764645029534,-0.2045953072691989,-0.3356439970897257,-0.3477791507544882,-11.230767209506894,12.057409149994514,65.02435694093602,-0.0386357674483085,2.6179991438969163,0.9116848786917804,8403.359375,11.844111111111111,6.92,179.79574137163794,-6.1865499932624,54.24669920804383,1678.0,1435.0,1350.0,1528.0,1596.0,1018.02,242.0,295.0,1637183838.5867891,1637183839.8326066,cffffcbe-e59a-4580-97af-d8b1a466c350
0.3836570897565085,0.8253217558856693,0.0108652678524094,-0.165853218155263,-0.2053650539084404,-0.1915852189444184,-0.3328022346994874,-0.3530512305489498,-11.216442055997488,11.786773557746407,64.65223772169678,0.0269434911418922,2.6231432208470813,0.915658186413148,8411.60546875,11.837222222222222,6.93,179.60406349623017,-6.132667721833162,53.197219013139,1678.0,1435.0,1350.0,1528.0,1596.0,1018.02,242.0,295.0,1637183839.941969,1637183840.959778,cffffcbe-e59a-4580-97af-d8b1a466c350
0.3816453393413329,0.8091488609788994,0.0070652945984472,-0.1619612038170487,-0.2012100654986126,-0.1728483250885638,-0.3288839225385057,-0.3548920484085843,-11.489235697800764,11.476235050748254,65.57768819925896,0.0580307568344444,2.555488199170384,0.9089190317033068,8411.60546875,11.84,6.962222222222223,179.45059369903942,-6.134173114498981,52.2203888842509,1678.0,1435.0,1350.0,1528.0,1596.0,1018.02,242.0,295.0,1637183841.07156,1637183842.116946,cffffcbe-e59a-4580-97af-d8b1a466c350
0.4777754495921033,0.964947749796971,0.0276298557696718,-0.2190791457138033,-0.2198286213050955,-0.2551854696028851,-0.3493958921169587,-0.3751015985242955,-11.395904500033437,11.68830969291972,68.09265529872711,0.0047300093453607,3.125217813310166,0.957327326273382,8395.12890625,11.83522222222222,7.005555555555556,179.18870906806296,-6.219566985414634,50.405011118591005,1729.0,1435.0,1350.0,1528.0,1636.0,1018.02,242.0,295.0,1637183844.1163466,1637183845.161834,462d8b12-2439-4217-95d7-8268c92407eb
0.4637556534896737,0.9549141995693397,0.03106769198204,-0.2180179361929613,-0.2137035196703346,-0.2430963376334568,-0.3426977259536194,-0.3557368528843875,-11.550353442581814,11.702007913407355,68.59194908906233,0.0297659074702479,3.084341338180508,0.9341476279936513,8395.12890625,11.831222222222223,7.0200000000000005,179.0138319401936,-6.18091627299387,49.75567793566633,1729.0,1435.0,1350.0,1528.0,1636.0,1018.02,242.0,295.0,1637183845.26921,1637183846.3904345,462d8b12-2439-4217-95d7-8268c92407eb
0.4811415155228993,0.9682217749266492,0.0421460164952437,-0.2310707580193769,-0.2096252319500985,-0.2468228978063107,-0.3319607179951518,-0.3447412539611608,-11.157524963924418,11.756736351976494,68.28854220816058,0.0518996003347211,3.136471897443928,0.8995247591487279,8395.12890625,11.829333333333333,7.04,178.8674488437217,-6.189969166988161,49.176577311247165,1729.0,1435.0,1350.0,1528.0,1636.0,1018.02,242.0,295.0,1637183846.497982,1637183847.615464,462d8b12-2439-4217-95d7-8268c92407eb
-0.0948995612384648,-0.0289232356795975,-0.0697389817531549,0.1952894264753195,-0.0911330073471986,0.2159301394688589,-0.245890435924735,-0.2646136348844386,-13.5833642862199,14.51633342277909,50.8836987127973,0.1387303835238991,-0.4915401440881927,0.6238065737300863,8395.12890625,11.840666666666667,6.993333333333333,178.9075936600234,-6.291407768878475,48.03425245767957,1474.0,1435.0,1350.0,1528.0,1435.0,1018.02,242.0,295.0,1637183849.6460469,1637183850.896547,e2c26c04-b53d-4450-9f30-71a588c86132
-0.0807784085848733,-0.0224310667583055,-0.0703279337777898,0.1960427371370366,-0.0906673242710618,0.2063562453848409,-0.24809558212399,-0.264175344481961,-13.661631735035398,14.3138605530822,50.51791765267347,0.1140480324479902,-0.4635282162495466,0.6274193819029349,8394.216145833334,11.855222222222222,6.967777777777777,178.8323113149915,-6.277680037284133,47.71980724431016,1474.0,1435.0,1350.0,1528.0,1435.0,1018.02,242.0,295.0,1637183851.0045905,1637183852.1307166,e2c26c04-b53d-4450-9f30-71a588c86132
-0.078532720876916,-0.0192189497690984,-0.0710774095292461,0.1846384350840986,-0.0949817404934882,0.2122112500747578,-0.2487426076330268,-0.2734621600673189,-13.615175508517275,14.461314614641244,50.29752448285453,0.1538587459570965,-0.4484971895985456,0.6351884146193097,8403.359375,11.856000000000002,6.934444444444444,178.802936948101,-6.337633682839344,47.40516129927013,1474.0,1435.0,1350.0,1528.0,1435.0,1018.02,242.0,295.0,1637183852.2433128,1637183853.4468927,e2c26c04-b53d-4450-9f30-71a588c86132
-0.1847489920499279,-0.1808865620241353,-0.079244393844563,0.2541024463045198,-0.0682323602699403,0.2930280636517424,-0.2229486976655391,-0.2482188514540294,-13.749627756019054,15.015516426599556,48.423814124691184,0.1816719757394453,-1.046351611996345,0.5512453440672509,8395.12890625,11.857444444444443,6.924444444444445,178.76790566675788,-6.360466293756658,47.16224220634405,1423.0,1435.0,1350.0,1528.0,1394.0,1018.02,242.0,295.0,1637183854.06223,1637183855.1970289,de73a18e-bb80-473b-ba96-584b545ea2e9
-0.1782261424289541,-0.1676808869805451,-0.0737860411223724,0.2558386219513267,-0.0661597969987992,0.2744966209585017,-0.2233261749134971,-0.2421814078874251,-13.653550206618291,15.058051551523585,47.87498265585049,0.1366275988433236,-0.9925050439727549,0.5424083142714345,8395.12890625,11.856666666666667,6.913333333333333,178.70949540679578,-6.345023330906997,47.019271548272485,1423.0,1435.0,1350.0,1528.0,1394.0,1018.02,242.0,295.0,1637183855.305741,1637183856.4229505,de73a18e-bb80-473b-ba96-584b545ea2e9
-0.1619716132316273,-0.1623277235994938,-0.0852434868041126,0.2459803875102515,-0.0785047796738903,0.2768250357701293,-0.2379190379061642,-0.2568339885455492,-14.01661722779111,15.153305009296368,47.5618217763623,0.1639258834696764,-0.966593156360478,0.5954441284871008,8393.303385416666,11.853666666666664,6.947777777777778,178.7024026347977,-6.382622194195579,46.87785399932719,1423.0,1435.0,1350.0,1528.0,1394.0,1018.02,242.0,295.0,1637183856.5314596,1637183857.654773,de73a18e-bb80-473b-ba96-584b545ea2e9
-0.291830891071873,-0.395863393217184,-0.0910765774921093,0.3544801349137811,-0.0363911475792355,0.3760571439016854,-0.200815604590808,-0.2257192382852971,-14.112285306531463,16.2510104165022,43.45258610672532,0.1484480125670869,-1.819106550427296,0.4595879600565119,8378.7158203125,11.855666666666666,6.955555555555556,178.68975767791426,-6.420808690912128,46.58899391567873,1372.0,1435.0,1350.0,1528.0,1354.0,1018.02,242.0,295.0,1637183859.5893652,1637183860.6106718,2a973ffa-feef-45c3-9f33-ac70a2bcd455
-0.3118300611082251,-0.4042654118582007,-0.0963623536494185,0.3598579512729955,-0.0407696635780725,0.3725595909774428,-0.2107691686386147,-0.2467308571098989,-14.426171660141216,16.589393611578835,42.428594537326816,0.1301162621581888,-1.8403134823886704,0.4841563774809861,8373.261393229166,11.854333333333331,6.98,178.73222172289414,-6.400517906435312,46.55854113780927,1372.0,1435.0,1350.0,1528.0,1354.0,1018.02,242.0,295.0,1637183860.718523,1637183861.9562323,2a973ffa-feef-45c3-9f33-ac70a2bcd455
-0.2834601011319026,-0.400538303520626,-0.0892702752189244,0.3638392666362122,-0.0298272086283816,0.370482097101962,-0.2020614436668814,-0.2319473381491375,-14.587381851413774,16.21716165199476,43.2392670085224,0.1144006282964307,-1.832425421607714,0.4488564335288176,8370.5341796875,11.853666666666664,6.952222222222223,178.7072126057932,-6.39611395224047,46.544928570793445,1372.0,1435.0,1350.0,1528.0,1354.0,1018.02,242.0,295.0,1637183862.0657628,1637183863.1836426,2a973ffa-feef-45c3-9f33-ac70a2bcd455
-0.4086439287952914,-0.5946585827641805,-0.1026868768945255,0.4346345809396663,-0.0060834019309783,0.4663360849161621,-0.1783313318677571,-0.2157262282360017,-14.808134947219278,17.266729322222904,39.12484666760092,0.1756231232519876,-2.5320152126072912,0.3717621914180036,8370.5341796875,11.851333333333336,6.976666666666667,178.76090244612894,-6.440084765410373,46.4769864023896,1321.0,1435.0,1350.0,1528.0,1314.0,1018.02,242.0,295.0,1637183864.0948722,1637183865.2356176,dd783ab3-4d94-4d67-9380-af8b6917fea9
-0.4225815497397254,-0.611725596043229,-0.1021083342900209,0.4363044652245647,-0.0005215033426438,0.4809837312364878,-0.1738213286888074,-0.1879561784993232,-15.130969481239246,17.281944507134284,39.06962335733584,0.2047298517578593,-2.5934211667277287,0.3546164168291763,8370.5341796875,11.848777777777778,6.9944444444444445,178.7799829590303,-6.429027116030945,46.47429075439717,1321.0,1435.0,1350.0,1528.0,1314.0,1018.02,242.0,295.0,1637183865.3483286,1637183866.460698,dd783ab3-4d94-4d67-9380-af8b6917fea9
-0.4206092447747525,-0.6116204064308021,-0.1055664415073278,0.429164723760115,-0.0048868705397954,0.4885573796016981,-0.1760697558881307,-0.2028668016402998,-15.17344678822015,17.32086395949531,39.20400951309298,0.2379402094173972,-2.593256569414004,0.3685712540019057,8370.5341796875,11.849,6.99,178.82401339405982,-6.425472998637208,46.42161102314868,1321.0,1435.0,1350.0,1528.0,1314.0,1018.02,242.0,295.0,1637183866.5689514,1637183867.692977,dd783ab3-4d94-4d67-9380-af8b6917fea9
0.0725720995044231,0.2404546482508871,-0.0400727825938241,0.0805665066654883,-0.1203850231333062,0.0917166011128319,-0.2639030562929682,-0.2897402483483792,-12.72497007192746,13.289960956293392,55.78170573218336,0.1129530492291441,0.4852890124816664,0.6884573943580535,8380.539496527777,11.851777777777777,6.963333333333334,178.6384492968691,-6.413418568525781,46.439583527584695,1525.0,1435.0,1350.0,1528.0,1475.0,1018.02,242.0,295.0,1637183869.6245697,1637183870.6500227,037b0d85-7d92-4361-aae6-041500b8d631
0.0469420033185884,0.2302293459848964,-0.0442496852683637,0.097098800541459,-0.1200053545368838,0.0930720125037078,-0.2682843120789779,-0.291910879214209,-12.868934401892856,13.331043132372317,56.68104434148192,0.0788412836920995,0.437686464922504,0.699930418119069,8407.940538194445,11.857,6.924444444444444,178.6897455353557,-6.4435819171291575,46.55798903085136,1525.0,1435.0,1350.0,1528.0,1475.0,1018.02,242.0,295.0,1637183870.7575538,1637183871.8778389,037b0d85-7d92-4361-aae6-041500b8d631
0.0594606579564148,0.2275996068606062,-0.0500844193806205,0.0818134413555123,-0.1302092913077822,0.0884425757949957,-0.2760776548836769,-0.2912260512037967,-12.789716178337038,13.600236200760513,53.601436040716486,0.1039612982987544,0.4560737770892824,0.7280271725856728,8411.60546875,11.857222222222225,6.911111111111111,178.68315819735622,-6.421360845301906,46.67466611680307,1525.0,1435.0,1350.0,1528.0,1475.0,1018.02,242.0,295.0,1637183871.9869509,1637183873.2160084,037b0d85-7d92-4361-aae6-041500b8d631
0.0715958087437552,0.2300102010716701,-0.0780117035202952,-0.4328484922576683,-0.2111011732540131,0.5816693155500979,-0.1681213683594859,-0.19341891573196,-12.936419775420887,12.667606173277852,56.999663614310045,2.3661536094217435,0.4976145398964064,0.7234182070375129,8411.60546875,11.859222222222222,6.921111111111111,178.69940494066194,-6.267854288412509,46.83477258113733,1525.0,1521.0,1350.0,1528.0,1475.0,1018.02,242.0,295.0,1637183874.1315114,1637183875.155552,e43fb2f3-baa0-488b-8583-59c0ee34bed5
0.0894287279041395,0.2348039963304383,-0.0871062188551139,-0.4192888961776257,-0.2188123365450297,0.5770535757559703,-0.1766543250701185,-0.2044857353056044,-12.650879806762228,12.476049067061597,58.71811918198844,2.3238892631189603,0.4960933077093004,0.7618680030610783,8411.60546875,11.849555555555556,6.947777777777778,178.76421432896646,-6.269310589093667,46.88841498960384,1525.0,1521.0,1350.0,1528.0,1475.0,1018.02,242.0,295.0,1637183875.263751,1637183876.3583896,e43fb2f3-baa0-488b-8583-59c0ee34bed5
0.073663989144673,0.2222442526907503,-0.0866405358358577,-0.411413373475871,-0.2114572838202351,0.5806420737556117,-0.1777911395605606,-0.1908576584062941,-13.364902867461945,12.495626354379754,58.51086828526994,2.313948357660934,0.4549373803908545,0.7505836053016598,8403.359375,11.850444444444443,6.954444444444444,178.79029047339776,-6.259734426717963,46.93822072903157,1525.0,1521.0,1350.0,1528.0,1475.0,1018.02,242.0,295.0,1637183876.4663064,1637183877.7256217,e43fb2f3-baa0-488b-8583-59c0ee34bed5
0.1009206882940773,0.2187330030971836,-0.1162957783157016,-1.0088821560913062,-0.3126321314558292,1.1582598715254924,-0.0515647435104924,-0.0741147587794362,-12.82618794965464,12.242721600853594,62.29290385111143,4.9573967513904185,0.4761120040327833,0.7492425098155968,8403.359375,11.849666666666666,6.973333333333333,178.89930636383045,-6.145710157780778,47.07619092972078,1525.0,1607.0,1350.0,1528.0,1475.0,1018.02,242.0,295.0,1637183879.6601038,1637183880.793975,4d7553f0-fd6a-4959-8b33-7225a970cada
0.1072890400455817,0.2322016503350687,-0.1077743268743857,-0.9993657812493698,-0.3015806505533938,1.144885456449325,-0.0512212337882168,-0.0890922203996241,-13.47661832389671,12.176351037522556,63.55105526337011,4.905733524248372,0.5194476616633015,0.7251452702412967,8408.856770833334,11.841,7.016666666666667,178.94477720986495,-6.164325269181217,47.09665645320386,1525.0,1607.0,1350.0,1528.0,1475.0,1018.02,242.0,295.0,1637183880.9021308,1637183882.027116,4d7553f0-fd6a-4959-8b33-7225a970cada
0.1054175423186165,0.2348664526305853,-0.1119172621953163,-1.0198350272491636,-0.3120798861465947,1.1526848245258294,-0.0500526433818849,-0.0738123386926306,-12.867110717539251,12.190436926730383,62.33731170412924,4.969433769091766,0.5381435251831279,0.7422806108467802,8403.359375,11.840666666666666,7.013333333333334,178.98456533850998,-6.1474403300749065,47.11706847353845,1525.0,1607.0,1350.0,1528.0,1475.0,1018.02,242.0,295.0,1637183882.1347792,1637183883.255598,4d7553f0-fd6a-4959-8b33-7225a970cada
0.1141088304509519,0.2260436778960339,-0.1356638091752801,-1.5448103495031784,-0.4024245940398556,1.670375322867919,0.0502061672866528,0.013337221891427,-13.383051521669984,13.094245600662916,66.26449962878478,7.322144491755189,0.5370435126785885,0.7540919559152082,8403.359375,11.837222222222222,7.028888888888889,179.03895641160048,-5.967264872684371,47.17025743333506,1525.0,1693.0,1350.0,1528.0,1475.0,1018.02,242.0,295.0,1637183885.191561,1637183886.2147229,12d3ff08-74a1-4dd7-ac65-27c8762b4510
0.1344493151887933,0.2315442155549844,-0.1302777740586866,-1.5489543852072307,-0.3986344815087102,1.6576983339749178,0.0593236924346982,0.0334098027770085,-12.787921353364078,12.714019519889073,64.74421668700239,7.3008103897461,0.5677811345392693,0.7276637597367928,8403.359375,11.829,7.073333333333333,179.0357735434473,-5.9574650216133485,47.15146985965808,1525.0,1693.0,1350.0,1528.0,1475.0,1018.02,242.0,295.0,1637183886.322982,1637183887.5564768,12d3ff08-74a1-4dd7-ac65-27c8762b4510
