raw_voltage_G-,raw_voltage_G0,raw_voltage_G1,raw_voltage_G2,raw_voltage_G3,raw_voltage_G4,raw_voltage_G5,raw_voltage_G6,load_x,load_y,load_z,load_l,load_m,load_n,rpm,voltage,current,roll,pitch,yaw,aileron1_pwm,elevator_pwm,throttle_pwm,rudder_pwm,aileron2_pwm,pbaro,pdiff,Tt,sample_start_time,sample_end_time,uid
-0.0790849659913708,0.0592393215773464,0.0109441600544413,0.1984445656799076,-0.10635536330725,-0.292974827680028,-0.3676857317802288,-0.3907748471549622,-14.561427234412458,23.020870440758884,-8.987282342245486,-0.961605276151623,0.3815511788487425,0.6300487195988389,4867.36328125,12.041444444444444,0.3299999999999999,179.1748878008225,8.552503141774029,66.05345413815195,1525.0,1435.0,1200.0,1528.0,1475.0,1021.7000000000002,135.0,293.35,1637164122.703822,1637164123.668441,861b321e-2d7c-4674-95b1-c29ff5068f37
-0.0571397910002919,0.0560310396515374,0.0051981796768342,0.1973006291615186,-0.1124037639519556,-0.2873471850260023,-0.3718801666471149,-0.38818455360165,-14.472205128176649,23.07391668635704,-8.82338212012104,-0.946242193884504,0.3672115135232782,0.6519648034428036,4855.415690104167,12.044666666666666,0.3333333333333333,179.216828197966,8.58139560087309,65.06041597036341,1525.0,1435.0,1200.0,1528.0,1475.0,1021.7000000000002,135.0,293.35,1637164123.777692,1637164124.8977597,861b321e-2d7c-4674-95b1-c29ff5068f37
-0.0616991017049993,0.0668704961270593,0.0207678798363022,0.198686172924156,-0.0987072045698847,-0.3008958225738518,-0.360640220808462,-0.3849516171756982,-14.528008452618815,23.05704143454511,-8.954426026302672,-0.9791988188576308,0.4102386263678785,0.5971898906576772,4850.83544921875,12.043444444444445,0.33,179.26050649879832,8.600869798289137,64.31006580743406,1525.0,1435.0,1200.0,1528.0,1475.0,1021.7000000000002,135.0,293.35,1637164125.00608,1637164126.016638,861b321e-2d7c-4674-95b1-c29ff5068f37
0.1038101142712159,0.3759881132850986,0.0185764304475441,0.0696645941437815,-0.1699019210892285,-0.4776088558707325,-0.4435318100597253,-0.4795948583299185,-14.943022164143988,22.713896297282613,-8.229813631533974,-1.0877327985691,1.581873348500683,0.8523114124783299,4933.759114583333,12.033444444444443,0.3655555555555556,179.28626238324853,8.618064230342211,63.33810788015391,1610.0,1435.0,1200.0,1528.0,1542.0,1021.7000000000002,135.0,293.35,1637164126.8367853,1637164127.9782486,404c0138-e80a-4a5f-96f4-215bec5e56a9
0.0941403439982531,0.3783028315184635,0.0163712844893216,0.0658843439445931,-0.1751340069324863,-0.4799372714235279,-0.4445316590470398,-0.4758967866480794,-14.5618502044287,22.7277077036876,-8.747481068067096,-1.084346631919962,1.5927710506636552,0.8636448366754044,5000.83203125,12.037,0.37,179.38203681361026,8.641028559560395,62.7988151160374,1610.0,1435.0,1200.0,1528.0,1542.0,1021.7000000000002,135.0,293.35,1637164128.1128263,1637164129.2023966,404c0138-e80a-4a5f-96f4-215bec5e56a9
0.1025637274407338,0.3823707091066053,0.0137826349027656,0.0653501781995565,-0.1765721456726219,-0.4843064746713987,-0.4477914407155358,-0.4774444981437209,-14.66118228761078,22.56956322414031,-8.891904500722871,-1.0942101474538797,1.609910112803383,0.8740527560807673,5024.937174479167,12.038555555555554,0.36,179.4648490627471,8.665544669812512,62.4489773802088,1610.0,1435.0,1200.0,1528.0,1542.0,1021.7000000000002,135.0,293.35,1637164129.3118143,1637164130.429113,404c0138-e80a-4a5f-96f4-215bec5e56a9
0.3307757765664443,0.7930619804738691,0.0240413573610395,-0.128004145255023,-0.26149081808328,-0.7003012724654729,-0.5354768310986906,-0.5603360936288563,-14.822601149778729,21.936414594584846,-7.993270306634851,-1.1470437260851247,3.167875655747892,1.149989355960467,5027.885470920139,12.029888888888888,0.4088888888888888,179.52090063071586,8.699362643940535,61.71479123940523,1695.0,1435.0,1200.0,1528.0,1609.0,1021.7000000000002,135.0,293.35,1637164132.2515638,1637164133.300925,97c8bdc4-0950-456a-bcc3-24fe9c82d005
0.3362680962019524,0.7888297442739306,0.0253425304467369,-0.1301134153472023,-0.2606690244470737,-0.6926859829515069,-0.5326279460725519,-0.5545698397452795,-14.804627986025023,22.03965737664968,-7.76181814734124,-1.1243780165290926,3.150167567197373,1.142806239799211,5031.492404513889,12.028555555555556,0.4044444444444445,179.56632745997572,8.725597305678816,61.46606003495042,1695.0,1435.0,1200.0,1528.0,1609.0,1021.7000000000002,135.0,293.35,1637164133.4132595,1637164134.528551,97c8bdc4-0950-456a-bcc3-24fe9c82d005
0.3140522796532838,0.7659564935759571,0.0282051111851646,-0.1260318407170819,-0.2519032258795055,-0.6717850268072539,-0.5198901431770043,-0.5410650299905576,-14.743693784854637,21.880675069733204,-7.380876942858087,-1.0874377882615642,3.0602476675991555,1.1067422433208438,5030.836046006944,12.033,0.4,179.6264604454285,8.72966012987011,61.28118047449652,1695.0,1435.0,1200.0,1528.0,1609.0,1021.7000000000002,135.0,293.35,1637164134.6375537,1637164135.6401062,97c8bdc4-0950-456a-bcc3-24fe9c82d005
0.4909296233237262,1.0922769771667362,0.0342315970375595,-0.2978962757937349,-0.3259605285931489,-0.821543262221717,-0.587359410490906,-0.6196696040040331,-14.73965154374036,21.565430679172653,-5.948557574898401,-1.0378398404143194,4.292961553113936,1.3355883219807465,4886.485677083333,12.020111111111111,0.4600000000000001,179.58372622852147,8.750538405479286,60.81563553957835,1779.0,1435.0,1200.0,1528.0,1677.0,1021.7000000000002,135.0,293.35,1637164137.2225754,1637164138.4185302,ffcfd3c2-d2d8-4c4d-bc83-1d631c0801dd
0.5067354505278487,1.0885104237350387,0.0350533905650448,-0.2926915827489649,-0.3252620039911568,-0.8232964225111491,-0.5867704582313267,-0.6176699052039182,-14.623610326876149,21.65841698341245,-6.037360717126677,-1.0528183442872432,4.278213301701777,1.3321857886408466,4867.671603732639,12.017,0.4499999999999999,179.60661950479957,8.755421990735847,60.66554440929705,1779.0,1435.0,1200.0,1528.0,1677.0,1021.7000000000002,135.0,293.35,1637164138.526954,1637164139.5335991,ffcfd3c2-d2d8-4c4d-bc83-1d631c0801dd
0.4931199767844231,1.0875067399611873,0.0270513131249366,-0.2935533704138603,-0.3296991418079203,-0.821210709536139,-0.5914502998704303,-0.6241248213798888,-14.673283650140776,21.321863644958235,-6.037986050421549,-1.0488420936536895,4.274399102942526,1.3557736464282633,4858.779568142361,12.020444444444443,0.4600000000000001,179.62647562362667,8.767905204945167,60.47140994251778,1779.0,1435.0,1200.0,1528.0,1677.0,1021.7000000000002,135.0,293.35,1637164139.6430385,1637164140.7654445,ffcfd3c2-d2d8-4c4d-bc83-1d631c0801dd
0.6203598983791424,1.342920160754882,0.0475764280592142,-0.3999394899165879,-0.3792565866514565,-0.9526451476896898,-0.6421385408164584,-0.6585218238821868,-14.527740757879874,22.17811385138162,-3.201283205846897,-1.0969881555589995,5.220597091101184,1.5011874684360882,4890.842502170139,12.00488888888889,0.51,179.53906134480906,8.77942830325741,60.19921627935405,1864.0,1435.0,1200.0,1528.0,1744.0,1021.7000000000002,135.0,293.35,1637164142.81117,1637164143.838155,ff1eb692-7836-4956-8132-682e0a020835
0.6231972771825802,1.3460194182176206,0.0466954654116828,-0.396853928529272,-0.3804180550186604,-0.958563708188322,-0.6468298876898159,-0.6733738286518681,-14.689136272703422,22.283141627160017,-3.228882805689627,-1.116681487952022,5.233174157472455,1.5108569228002502,4955.226182725694,12.005888888888888,0.5011111111111111,179.52524918448748,8.761227651530355,60.02659159609097,1864.0,1435.0,1200.0,1528.0,1744.0,1021.7000000000002,135.0,293.35,1637164143.9467213,1637164145.175357,ff1eb692-7836-4956-8132-682e0a020835
0.6300592523684276,1.3401846840713556,0.0394225927999909,-0.3919094700056014,-0.3866362937988095,-0.9575227693745392,-0.6540890664121681,-0.6749763266616449,-14.670071321723649,22.36606809908015,-3.3033767229995683,-1.125310535328688,5.210747233969995,1.5387872194784895,4977.920952690973,11.992555555555557,0.52,179.50173360208498,8.769431941952142,59.89072471421117,1864.0,1435.0,1200.0,1528.0,1744.0,1021.7000000000002,135.0,293.35,1637164145.2829008,1637164146.3034697,ff1eb692-7836-4956-8132-682e0a020835
-0.3069633992567017,-0.3913616075191515,0.0084272803450918,0.4441010936489775,-0.0086660250732528,-0.0832574857316071,-0.2771048969991969,-0.2964307453929345,-14.253468357854564,24.548782360897,-9.461565072477631,-1.034400543628539,-1.3368315906674029,0.3180058111826905,4977.599609375,12.04588888888889,0.3111111111111111,179.9504618523567,8.753439243738036,59.64548221860241,1440.0,1435.0,1200.0,1528.0,1408.0,1021.7000000000002,135.0,293.35,1637164148.2401078,1637164149.2675867,54f6d4f2-9189-4332-bbec-79995a71b82a
-0.3082371793302951,-0.3908548347603814,0.0065234587265326,0.443895645283807,-0.0097754463004555,-0.082161761023901,-0.2800085677057893,-0.3033749017814078,-14.43361611628721,24.560296998093204,-9.279900556393978,-1.0315550518340613,-1.3353611329478197,0.3264312422948941,4973.74853515625,12.045333333333332,0.3166666666666666,60.00161359429623,8.747623622250984,59.82418349349709,1440.0,1435.0,1200.0,1528.0,1408.0,1021.7000000000002,135.0,293.35,1637164149.3759358,1637164150.3257334,54f6d4f2-9189-4332-bbec-79995a71b82a
-0.2954856813864456,-0.3700497584023688,0.0237948193302891,0.4279254593066695,0.0020720771217379,-0.0864213909486075,-0.2649834409217745,-0.2935407703740507,-14.453683653281288,24.47191312589277,-8.952757369115794,-1.0047860440716263,-1.257027190994519,0.2682201779181918,4967.984212239583,12.044666666666666,0.3133333333333333,-179.99495066897055,8.739316404672955,59.95808252198602,1440.0,1435.0,1200.0,1528.0,1408.0,1021.7000000000002,135.0,293.35,1637164150.4352925,1637164151.5183897,54f6d4f2-9189-4332-bbec-79995a71b82a
-0.476020054889527,-0.7036980202908522,0.0207815763980572,0.5919417335128696,0.0685688694381332,0.0855936916520114,-0.1954733982716663,-0.2218803672222757,-14.050186698361816,25.78474565883629,-9.264537399155172,-0.979519419389196,-2.5288662559430595,0.0431592965802872,4922.022406684027,12.027444444444445,0.4,-179.92206496142737,8.739309859075,60.22864149320838,1355.0,1435.0,1200.0,1528.0,1341.0,1021.7000000000002,135.0,293.35,1637164153.2446623,1637164154.39425,9aa15d01-4f9b-4119-a498-d22d5c1b16cb
-0.4825944046627287,-0.7191888342982428,0.0086875149957312,0.5796148319652751,0.0596387132606549,0.1137949053631963,-0.1993358281784264,-0.227112452921955,-14.225469733743234,25.73293143171925,-9.086858818902062,-0.8893466532183046,-2.5865502496596604,0.0754741186366528,4917.62841796875,12.02888888888889,0.4055555555555555,-179.94491573875064,8.741267751773332,60.24808172940605,1355.0,1435.0,1200.0,1528.0,1341.0,1021.7000000000002,135.0,293.35,1637164154.5019586,1637164155.518602,9aa15d01-4f9b-4119-a498-d22d5c1b16cb
-0.462255010152527,-0.7069988922380482,0.0097558465903294,0.5753278095344617,0.0594332648789059,0.1054810944622122,-0.2004589460901546,-0.2331115465393335,-14.260733349149552,25.575040889599624,-9.130084319388525,-0.8993765450130787,-2.5396049887632897,0.0773133437890532,4917.62841796875,12.027444444444445,0.4177777777777777,-179.97614184581613,8.741148887509029,60.25802117246823,1355.0,1435.0,1200.0,1528.0,1341.0,1021.7000000000002,135.0,293.35,1637164155.6275551,1637164156.6373775,9aa15d01-4f9b-4119-a498-d22d5c1b16cb
-0.6300515979294716,-1.006323637511123,0.0216170664346081,0.725140752866915,0.1309292998095123,0.2750718763620807,-0.122032445259144,-0.1467684324478906,-13.78762131910974,27.01805763963436,-6.776809197265874,-0.8454548895849673,-3.704129129342443,-0.1797446616950544,4912.936306423611,12.022777777777778,0.4311111111111111,-179.92501560314884,8.73177900633263,60.32674881262662,1271.0,1435.0,1200.0,1528.0,1273.0,1021.7000000000002,135.0,293.35,1637164158.2017372,1637164159.298447,6a9a90cc-347c-4acc-aa96-c57dc3dd6b3c
-0.6355850094822423,-1.0086246606723186,0.020096748443396,0.7232643245292089,0.1286693677007931,0.2797697956423221,-0.1225803076688344,-0.156616259892126,-13.730367702718064,27.09613107922394,-6.684369520767376,-0.8301798630743438,-3.7138479102380586,-0.1739706550370735,4891.4365234375,12.023666666666664,0.4333333333333333,-179.9599937607984,8.727952108258917,60.30270654674819,1271.0,1435.0,1200.0,1528.0,1273.0,1021.7000000000002,135.0,293.35,1637164159.407141,1637164160.4258254,6a9a90cc-347c-4acc-aa96-c57dc3dd6b3c
-0.6267233329458798,-0.9983796282752428,0.0214253146595094,0.7214974686340244,0.1286419745859658,0.271592950682566,-0.1251826539422823,-0.143193630827932,-13.870587265611542,27.08513297577751,-6.655073214182141,-0.8446413984564044,-3.674388447380068,-0.1708672072262555,4881.22216796875,12.023888888888887,0.4311111111111111,-139.9861553078578,8.731372610077017,60.295159946625226,1271.0,1435.0,1200.0,1528.0,1273.0,1021.7000000000002,135.0,293.35,1637164160.5344102,1637164161.8687143,6a9a90cc-347c-4acc-aa96-c57dc3dd6b3c
-0.7512387951673439,-1.224633245771482,0.0321497201392915,0.8426435180571055,0.1827433794017042,0.3991900817054931,-0.0690404571996313,-0.1074045202047441,-13.64808452818967,28.560141757441908,-3.93552861980608,-0.8203318859871791,-4.562865935227723,-0.3620369301382893,4875.6689453125,12.007333333333332,0.51,-179.96746143429095,8.722388349997509,60.24289002672694,1186.0,1435.0,1200.0,1528.0,1206.0,1021.7000000000002,135.0,293.35,1637164162.7784903,1637164163.923196,f08f04a5-26a3-4426-a4d2-258ca854f105
-0.747472787632607,-1.2302537704098064,0.0252499416949924,0.8487001357369037,0.1789187525087824,0.3992645909843256,-0.0764552265334146,-0.1055006989005913,-13.837938998088518,28.54988894166661,-3.968934287771313,-0.8343391223125787,-4.583489785327689,-0.3376680975468997,4872.89697265625,12.00711111111111,0.5011111111111111,-139.99880937166006,8.713552646532452,60.13138263506704,1186.0,1435.0,1200.0,1528.0,1206.0,1021.7000000000002,135.0,293.35,1637164164.0617988,1637164165.2458217,f08f04a5-26a3-4426-a4d2-258ca854f105
-0.7587938198546844,-1.224402595399121,0.0248423321366813,0.8496073956954342,0.1769727455534955,0.3931241503326821,-0.0794005345944392,-0.0988343088331022,-13.804550559820688,28.59233185139832,-3.921698642787709,-0.8498986690620512,-4.562336108629305,-0.329479958501474,4877.210828993056,12.009,0.4955555555555555,179.98552956137533,8.702905994299957,60.06299878109686,1186.0,1435.0,1200.0,1528.0,1206.0,1021.7000000000002,135.0,293.35,1637164165.353947,1637164166.4554603,f08f04a5-26a3-4426-a4d2-258ca854f105
-0.0586858586207679,0.0629669769549855,0.0097832396955699,0.2002475805765803,-0.1090344103737711,-0.2940201492352386,-0.3696936476373736,-0.3883483649045523,-14.4396187049664,23.07531051915972,-8.394498525513407,-0.9675625208720596,0.3891215314535629,0.6395047505524359,4884.00390625,12.045,0.3144444444444444,179.59003428767494,8.708352216389395,60.02430727726856,1525.0,1435.0,1200.0,1528.0,1475.0,1021.7000000000002,135.0,293.35,1637164168.3099926,1637164169.541908,3fcb8140-b797-4c58-aa59-123b4d84b5a0
-0.0519882412366238,0.0668704961208706,0.009523005091907,0.2010830706257824,-0.1088837481880483,-0.297526468691892,-0.3711591796541395,-0.3872937296529428,-14.517890389098447,23.00646661766719,-8.245346790075365,-0.9778113065270428,0.402873629574546,0.6424044117390499,4889.576171875,12.04588888888889,0.31,179.60765465791377,8.700422271899274,60.190554840576574,1525.0,1435.0,1200.0,1528.0,1475.0,1021.7000000000002,135.0,293.35,1637164169.6504543,1637164170.7694294,3fcb8140-b797-4c58-aa59-123b4d84b5a0
-0.0687665262302231,0.0592004233126614,0.0098654190516831,0.2000832218647653,-0.1082126167960919,-0.2891304771248266,-0.3687074952457447,-0.3990864689969782,-14.51027622761036,23.11356275769045,-8.241613493099118,-0.9559575475194672,0.3741658401811675,0.6365626720329203,4885.860026041667,12.044333333333334,0.3166666666666666,179.60735109395063,8.688985025270348,60.30215785488487,1525.0,1435.0,1200.0,1528.0,1475.0,1021.7000000000002,135.0,293.35,1637164170.8776302,1637164171.9043648,3fcb8140-b797-4c58-aa59-123b4d84b5a0
-0.0489350043632251,0.0462747070348282,-0.0169705226351524,-0.1491675213542904,-0.1700476524797252,0.0563203109447257,-0.2985498756011685,-0.3113567087247308,-14.386893262960514,22.57001442895297,-6.480450306443322,0.6035439575645603,0.3504938941975677,0.6556421231325392,4937.79345703125,12.043333333333331,0.3144444444444444,179.59687510158366,8.76545145948584,60.593777334958,1525.0,1535.0,1200.0,1528.0,1475.0,1021.7000000000002,135.0,293.35,1637164173.8396912,1637164174.9766147,0e0e80eb-89b2-4d48-8c72-edd631625dfe
-0.054029028556727,0.0478322797266242,-0.0135009103486012,-0.1453165965944881,-0.1667106226949327,0.0522014818713179,-0.2951843567531211,-0.3175508417205073,-14.264396826336965,22.523807289732755,-6.318795265569374,0.5855555370591606,0.3537810345861573,0.6421305835967978,4957.450358072917,12.043333333333331,0.32,179.5944329295004,8.769129042035198,60.64275434476643,1525.0,1535.0,1200.0,1528.0,1475.0,1021.7000000000002,135.0,293.35,1637164175.0844753,1637164176.2068644,0e0e80eb-89b2-4d48-8c72-edd631625dfe
-0.0547549462031518,0.0506811639326532,-0.0124736684007171,-0.1492612056790935,-0.1658614359646934,0.0532561169429066,-0.2946364943414941,-0.3232075210213648,-14.389866186109408,22.500673079148218,-6.281427544012929,0.5966641034070627,0.3655733297062478,0.6390782608092986,4967.983235677083,12.044,0.3166666666666666,179.57884188435503,8.763544224023853,60.69643280145356,1525.0,1535.0,1200.0,1528.0,1475.0,1021.7000000000002,135.0,293.35,1637164176.3152297,1637164177.4346058,0e0e80eb-89b2-4d48-8c72-edd631625dfe
-0.0420582359568256,0.03732701924787,-0.0483997426292748,-0.5444206864609811,-0.2430552479456944,0.4507439239678306,-0.2226062836114893,-0.249369363312134,-14.334879033274774,22.12511473275785,-3.2223672338023204,2.377492063991609,0.3343543072875672,0.6900610214570783,4940.936848958333,12.037222222222224,0.3322222222222222,179.54855530775535,8.87650388465603,60.75630472189809,1525.0,1636.0,1200.0,1528.0,1475.0,1021.7000000000002,135.0,293.35,1637164179.254997,1637164180.3885715,33435d07-2392-4ed4-943e-70474824cacd
-0.0386067030447247,0.0342315969651276,-0.0454275892848949,-0.5379969987411073,-0.2383436312002105,0.448347026445612,-0.2199765440841762,-0.2359878237384499,-14.388230629452645,22.107469164000417,-3.1313647183427697,2.3576343188155167,0.3217128741756147,0.6756281283036346,4938.722493489583,12.040777777777778,0.3344444444444445,179.54831397440466,8.880451354541346,60.710304156747966,1525.0,1636.0,1200.0,1528.0,1475.0,1021.7000000000002,135.0,293.35,1637164180.4974842,1637164181.5293076,33435d07-2392-4ed4-943e-70474824cacd
-0.0412638355100188,0.0431754497494261,-0.0339087831407797,-0.5420922707526695,-0.2287697356605491,0.4450050664271535,-0.209841089656649,-0.224359443916922,-14.41815882062565,22.06651218470544,-2.8129205507000195,2.359700166370962,0.3538809736133598,0.6339473250356523,4940.3037109375,12.04,0.33,179.5216261485877,8.886097549391485,60.703511913073335,1525.0,1636.0,1200.0,1528.0,1475.0,1021.7000000000002,135.0,293.35,1637164181.6378314,1637164182.6776185,33435d07-2392-4ed4-943e-70474824cacd
-0.0243469415433376,0.043526629587945,-0.0558117725225898,-0.8835618587790657,-0.2919492291342114,0.7782231302787666,-0.1440132318281201,-0.1678649689091716,-14.223536972300042,22.00724272878268,0.0726279761248918,3.877831791690825,0.368898759316106,0.6574101176339242,4837.14794921875,12.032,0.37,179.47909380171615,8.976193626095737,60.5294096322198,1525.0,1737.0,1200.0,1528.0,1475.0,1021.7000000000002,135.0,293.35,1637164184.7057152,1637164185.7174013,2d82c4d8-af56-4def-b4c0-596cc451bf01
-0.0251977717901244,0.0394773789568735,-0.0542070836574317,-0.8849857538192305,-0.2898837878056038,0.7821184311775334,-0.1395229517480865,-0.1659847052880433,-14.101521795839185,21.943459312467898,-0.1003520084613812,3.889487931415202,0.3546570902896548,0.6453814306761317,4818.417154947917,12.035111111111112,0.3655555555555555,179.46291839594173,8.991205622981518,60.39305856581885,1525.0,1737.0,1200.0,1528.0,1475.0,1021.7000000000002,135.0,293.35,1637164185.8259635,1637164186.9465752,2d82c4d8-af56-4def-b4c0-596cc451bf01
-0.0261154412512157,0.0347109765183743,-0.0655889243610228,-0.9041746427137488,-0.3010190915971052,0.8059778340625187,-0.1448783065709778,-0.1706141428486873,-14.26475307083892,21.887242039712536,0.0526374549147945,3.98539143766544,0.3382196138045295,0.6830674169837468,4838.973958333333,12.035999999999998,0.3611111111111111,179.42132254389637,8.986811344888,60.278259022978986,1525.0,1737.0,1200.0,1528.0,1475.0,1021.7000000000002,135.0,293.35,1637164187.054692,1637164188.2877204,2d82c4d8-af56-4def-b4c0-596cc451bf01
-0.0225680324844677,0.0399156687799323,-0.0492078396109955,-0.962563105811905,-0.3034707759258579,0.8549156335058932,-0.1239362669998869,-0.1442893556414427,-14.019884921498488,22.897753528420555,0.2212927529832372,4.234735891215784,0.3627569505829303,0.6343726715599877,4909.803927951389,12.021,0.44,179.3684401837025,8.997168472990678,59.97154786047975,1525.0,1837.0,1200.0,1528.0,1475.0,1021.7000000000002,135.0,293.35,1637164190.222142,1637164191.356981,6fe4206d-f500-4953-8ec3-7e6710ef5e49
-0.0456215326407267,0.0393584928037137,-0.0461606291754202,-0.9679502398150812,-0.2993256488597919,0.8617304927107728,-0.1177552836812002,-0.1344015344420804,-14.07116367682392,22.736994606386,0.4448716200097704,4.261297712003458,0.3599022885072589,0.6160035751618156,4911.9921875,12.018,0.445,179.3412059427519,8.987268777834913,59.802568221503726,1525.0,1837.0,1200.0,1528.0,1475.0,1021.7000000000002,135.0,293.35,1637164191.4691365,1637164192.4718978,6fe4206d-f500-4953-8ec3-7e6710ef5e49
-0.0178427196505534,0.0450929679919719,-0.0485914944588742,-0.956851637543672,-0.3003479601352172,0.8446569120384133,-0.1259222681843865,-0.1517676766185418,-14.23063047936783,22.707392465618664,0.2298764923843551,4.197463548956463,0.3829231387902834,0.632726167106945,4909.491319444444,12.022555555555556,0.4388888888888889,179.31160845634852,8.978628019352415,59.64365779918411,1525.0,1837.0,1200.0,1528.0,1475.0,1021.7000000000002,135.0,293.35,1637164192.579797,1637164193.704158,6fe4206d-f500-4953-8ec3-7e6710ef5e49
-0.0945083875109623,0.0430006817032737,0.0298782828196114,0.6836314185664711,-0.04020426954229,-0.7419897787260882,-0.4778060863003919,-0.5039982966588061,-14.458662342402327,24.547055307909336,-11.935128393842644,-3.05442261096383,0.2875350658563156,0.668504267058875,4903.56201171875,12.043,0.32,179.2868649577153,8.505546919322528,59.39192814168367,1525.0,1334.0,1200.0,1528.0,1475.0,1021.7000000000002,135.0,293.35,1637164194.7274024,1637164195.86491,250b826f-7b15-49a4-ba38-53f2aaae15bc
-0.0850654316140995,0.0637339842516907,0.0489553976032927,0.6695327303876836,-0.0258962961381592,-0.7504443939528548,-0.4619947752481551,-0.484511924547589,-14.53901576277695,24.43821179340273,-11.958585975543462,-3.041433884918748,0.3690175735854256,0.6028406512627824,4909.492838541667,12.044555555555556,0.3144444444444444,179.33466110370722,8.484332636351686,59.636378335348695,1525.0,1334.0,1200.0,1528.0,1475.0,1021.7000000000002,135.0,293.35,1637164195.9778397,1637164196.9827397,250b826f-7b15-49a4-ba38-53f2aaae15bc
-0.087599295110552,0.0538724620540129,0.0331495689289462,0.6649991699368762,-0.0382505923500577,-0.7348850970447612,-0.4729794179029986,-0.5061798850092166,-14.68272091897297,24.332961535263127,-11.814983515214688,-2.9977776534813265,0.3313296224710463,0.6557647671843128,4909.1787109375,12.04011111111111,0.3288888888888889,179.36993675404062,8.475506039805522,59.8581340871315,1525.0,1334.0,1200.0,1528.0,1475.0,1021.7000000000002,135.0,293.35,1637164197.0919683,1637164198.20976,250b826f-7b15-49a4-ba38-53f2aaae15bc
-0.0958994100424076,0.065048853837862,0.0734996305315133,1.0774025152377191,0.0342042039488932,-1.1447000658316202,-0.5581035523548649,-0.5850994791230005,-14.938540959847336,26.12336236725518,-14.72190975795941,-4.835681722375427,0.3526351960597487,0.6232304271655454,4888.646809895833,12.035666666666668,0.35,179.447939032182,8.373669342236708,60.419951297310895,1525.0,1234.0,1200.0,1528.0,1475.0,1021.7000000000002,135.0,293.35,1637164200.257843,1637164201.3943207,12cb0d8b-28c2-4474-94f8-5dc362797d0e
-0.1122667985077415,0.0692673938735003,0.0793343644468055,1.0693626357746089,0.0373818055531451,-1.1405773984533027,-0.5507621948217357,-0.5762104092015753,-14.79873834904338,26.123894893551206,-14.55082503377652,-4.80788983407773,0.367311259234426,0.6012753034820391,4884.622612847223,12.031,0.3755555555555555,179.45542643733214,8.359643928231042,60.60110916357704,1525.0,1234.0,1200.0,1528.0,1475.0,1021.7000000000002,135.0,293.35,1637164201.5038264,1637164202.6240842,12cb0d8b-28c2-4474-94f8-5dc362797d0e
-0.1118422051727334,0.0655556265142469,0.0748008035888553,1.0699241946367126,0.0347794594100951,-1.1373313115264407,-0.5538987076175141,-0.5660886494825258,-14.873901245009677,26.05184252618669,-14.56112520188912,-4.8026050444446495,0.3536553840717396,0.6149835419071801,4878.4443359375,12.034555555555556,0.36,179.4515301938656,8.335611148726445,60.74059452789715,1525.0,1234.0,1200.0,1528.0,1475.0,1021.7000000000002,135.0,293.35,1637164202.7326858,1637164203.8533497,12cb0d8b-28c2-4474-94f8-5dc362797d0e
-0.1205691050431098,0.0625527929474103,0.0825914060004354,1.2455672129186062,0.0534275978707493,-1.3020062696150358,-0.6029817102361121,-0.6312514172183215,-15.127860321885969,27.41100771457237,-15.57010118351574,-5.55974996239144,0.3320244392689772,0.6478666052455851,4877.519205729167,12.026333333333334,0.3933333333333333,179.48631103493912,8.30639397105059,61.00240478570262,1525.0,1133.0,1200.0,1528.0,1475.0,1021.7000000000002,135.0,293.35,1637164204.763173,1637164205.9012232,4abc4927-50e5-4a5d-84b5-587f8e2d73b5
-0.1074319130923476,0.0776907773187963,0.0903737904961776,1.251882970026132,0.0581731814880549,-1.3229198377892637,-0.6028776163058985,-0.6285312794286119,-15.123904498828551,27.489927624431505,-15.578400456567808,-5.620080994452699,0.3885637376101238,0.6324922401294079,4873.512966579861,12.029444444444444,0.3877777777777778,179.47511559597956,8.296832654849958,61.10167930855904,1525.0,1133.0,1200.0,1528.0,1475.0,1021.7000000000002,135.0,293.35,1637164206.0087843,1637164207.1373062,4abc4927-50e5-4a5d-84b5-587f8e2d73b5
-0.1030813378673147,0.0781208493271294,0.0924923741778766,1.24397622084817,0.059936202508837,-1.314155676063263,-0.599102843579073,-0.6218237988022427,-15.243962932701258,27.48073489771264,-15.284367608527823,-5.58252007605787,0.3895281485554903,0.622145839103896,4872.58935546875,12.030666666666669,0.39,179.46229760763717,8.281848737630765,61.21452314056655,1525.0,1133.0,1200.0,1528.0,1475.0,1021.7000000000002,135.0,293.35,1637164207.2495575,1637164208.2587535,4abc4927-50e5-4a5d-84b5-587f8e2d73b5
-0.1123215848172958,0.0759650109680875,0.099454608737017,1.2647988246682902,0.0603509343108253,-1.3347536756922431,-0.6033022097785677,-0.6392009028499243,-14.929597800280282,28.331839793197616,-15.788025206791168,-5.669710516716177,0.381573443940756,0.6171515570975766,4875.6689453125,12.015333333333334,0.4477777777777777,179.4410435767599,8.263503134111327,61.346729041051226,1525.0,1033.0,1200.0,1528.0,1475.0,1021.7000000000002,135.0,293.35,1637164210.2923632,1637164211.5236175,1d79398e-4fe7-498c-ba87-3af9fb994233
-0.0986798116274146,0.0831420076052056,0.1006051196540677,1.275509533471402,0.0637613773802803,-1.350915630352614,-0.60836993812048,-0.6384612886334643,-15.258904171468828,28.264106569705167,-15.696371794729876,-5.730732200054331,0.4087630426115736,0.6190426086791257,4873.204969618056,12.01477777777778,0.4600000000000001,179.43114435592284,8.295824063582518,61.35072090716614,1525.0,1033.0,1200.0,1528.0,1475.0,1021.7000000000002,135.0,293.35,1637164211.633331,1637164212.7535431,1d79398e-4fe7-498c-ba87-3af9fb994233
-0.1135679716645538,0.07649917675628,0.0936609645520331,1.2774955345378427,0.0575294432529137,-1.3471901629311365,-0.614738839919223,-0.6359822108018419,-15.255921546929722,28.369262513612284,-15.884494532941083,-5.726517676739768,0.3848116466515471,0.644971562725935,4882.1494140625,12.017,0.4433333333333333,179.39699037443313,8.274341600823014,61.3367766965206,1525.0,1033.0,1200.0,1528.0,1475.0,1021.7000000000002,135.0,293.35,1637164212.8621771,1637164213.8875096,1d79398e-4fe7-498c-ba87-3af9fb994233
-0.071218210261729,0.0529000063739221,0.0111255024768273,0.1929199220144533,-0.1070894989113506,-0.2751599854567701,-0.3652696584011508,-0.4012505257829682,-14.665046632316994,23.25478058301286,-8.053791452263242,-0.9074544117194232,0.3509304439739156,0.6276941190665515,4893.608452690973,12.043444444444445,0.3055555555555556,179.3746283350905,8.562536215346086,61.381443098052856,1525.0,1435.0,1200.0,1528.0,1475.0,1021.7000000000002,135.0,293.35,1637164215.8229475,1637164216.871773,7c38c9de-a108-4fbc-9eda-35ebf71fb08e
-0.0605716008499913,0.0488255540993085,0.0045012987956657,0.1937899273825195,-0.113784377123533,-0.2746718399257613,-0.3716434900600584,-0.3915243233329951,-14.58659866709212,23.329321840847378,-8.48913743567789,-0.9081856085645746,0.3384262044499055,0.6538421516479027,4903.565104166667,12.042666666666667,0.3,179.37266124060957,8.55730410071438,61.3819743349883,1525.0,1435.0,1200.0,1528.0,1475.0,1021.7000000000002,135.0,293.35,1637164216.9794054,1637164218.190137,7c38c9de-a108-4fbc-9eda-35ebf71fb08e
-0.0823535129399093,0.0458051889955423,0.0080574732810969,0.2005078151737016,-0.1085550307848845,-0.27710489702341,-0.3680911499812619,-0.3947583555885688,-14.60011312965296,23.296923190497893,-8.348572791283086,-0.9288290185344192,0.3253456073543035,0.6367098988824681,4911.9921875,12.044333333333334,0.3077777777777777,179.3438848947264,8.558703340856848,61.35052359059012,1525.0,1435.0,1200.0,1528.0,1475.0,1021.7000000000002,135.0,293.35,1637164218.2983017,1637164219.305498,7c38c9de-a108-4fbc-9eda-35ebf71fb08e
-0.0215133974262127,0.0772387909210978,0.166663620181794,0.1799218883645473,0.0331632654746381,-0.2972662341261753,-0.2048281487108529,-0.2285095025617466,-13.47986172097948,23.10679133449848,-8.295569860487706,-0.9204879525134082,0.4474282259954449,-0.0004057297503623,4917.62841796875,12.042,0.3,179.31846596627523,8.535713303565538,61.24581451388409,1525.0,1435.0,1200.0,1439.0,1475.0,1021.7000000000002,135.0,293.35,1637164221.2396455,1637164222.376645,fea87c60-d353-4c20-8d19-b454f0c9250f
-0.0122134338908939,0.0802109440983013,0.1618972179407654,0.1712519671062306,0.0264793448439383,-0.2890072080414305,-0.2078961781362003,-0.2396448049847845,-13.416642606759874,23.122227815963367,-7.873368539754398,-0.8824074804070591,0.4551517486452355,0.0204803280189871,4914.80859375,12.046,0.3,179.3145909722861,8.5259919522381,61.25703651469044,1525.0,1435.0,1200.0,1439.0,1475.0,1021.7000000000002,135.0,293.35,1637164222.4849694,1637164223.7205248,fea87c60-d353-4c20-8d19-b454f0c9250f
-0.0168565673610497,0.0803068200290247,0.1605275621312016,0.1661842405219191,0.0249316337136914,-0.2835559770479195,-0.2082659852993322,-0.2216064353932717,-13.486196300050064,23.117488096084912,-7.75480819757816,-0.8588420191746534,0.4554898646533664,0.0250695750756258,4886.80078125,12.043666666666669,0.3,179.31568380255328,8.539701564858396,61.20428468700069,1525.0,1435.0,1200.0,1439.0,1475.0,1021.7000000000002,135.0,293.35,1637164223.828956,1637164224.98097,fea87c60-d353-4c20-8d19-b454f0c9250f
0.0424495321241931,0.1071657710966072,0.3263517885416929,0.1562679325206241,0.1732653612155117,-0.3073742957567028,-0.0400037519153073,-0.0527278558593719,-12.285269721401724,23.172157623224297,-7.418682776362703,-0.8807187537661818,0.5564825356778659,-0.6381181029531907,4825.64990234375,12.043666666666669,0.31,179.27867480199055,8.533395687570918,61.104103266804486,1525.0,1435.0,1200.0,1351.0,1475.0,1021.7000000000002,135.0,293.35,1637164226.7000475,1637164227.815478,d5959103-e1f6-408c-a43e-e35b1fb81578
0.0205427083632815,0.1135960313210251,0.3338103859776528,0.1543438399523219,0.1786820760095669,-0.3139338526495689,-0.0345503299746373,-0.0512623235317062,-12.242816765309298,23.187685543365,-7.6579343830467534,-0.890661116059288,0.5831299260789393,-0.6629802008558567,4823.53759765625,12.044111111111112,0.3,179.2585044944616,8.532705553873534,61.08144449368792,1525.0,1435.0,1200.0,1351.0,1475.0,1021.7000000000002,135.0,293.35,1637164227.9245918,1637164229.0506108,d5959103-e1f6-408c-a43e-e35b1fb81578
0.0440246363931515,0.1122198010742303,0.3383225799243441,0.1638147360620873,0.1831953658353399,-0.3246182657719231,-0.0333883138832016,-0.052056724173894,-12.215699871264007,23.311078200983804,-8.10822956457426,-0.9350499079247298,0.5808893257040845,-0.6776828082076195,4839.891655815973,12.041333333333334,0.31,179.2526214248565,8.541173660352008,61.04999223146992,1525.0,1435.0,1200.0,1351.0,1475.0,1021.7000000000002,135.0,293.35,1637164229.186195,1637164230.1610022,d5959103-e1f6-408c-a43e-e35b1fb81578
0.0936746610099613,0.1436807954732883,0.5228015122916422,0.1645543501933286,0.3491154673176313,-0.3668858527259379,0.1485293771653202,0.1169451126958011,-10.965328598345671,23.442525692915165,-8.23539474694991,-1.0210328730486609,0.7027705716751416,-1.4096947270857465,4911.9921875,12.04,0.32,179.2183035188267,8.511806503105632,61.00524159093791,1525.0,1435.0,1200.0,1262.0,1475.0,1021.7000000000002,135.0,293.35,1637164231.7197447,1637164232.7321725,44a1e3c4-a758-4cbe-abe4-8ad473094000
0.0871140095450986,0.1422974431043149,0.518336434603973,0.1640338809551227,0.3446640860966264,-0.3643930786017332,0.1433109884904695,0.124259075442233,-11.060653242635004,23.533453713370506,-8.179747529136831,-1.0139158974003148,0.6975462045984108,-1.3903129641459753,4926.10693359375,12.040666666666668,0.32,179.21306704046305,8.52688186896871,60.97015718590127,1525.0,1435.0,1200.0,1262.0,1475.0,1021.7000000000002,135.0,293.35,1637164232.8404572,1637164234.051978,44a1e3c4-a758-4cbe-abe4-8ad473094000
0.0985917254677639,0.1418043669631721,0.5161312888671586,0.1654857161396999,0.3421713126039176,-0.3662010246533895,0.1407634286550165,0.1179449618939142,-10.994225616286778,23.561492368827743,-8.33428715550714,-1.0211687044898483,0.6962783207313388,-1.3805146278714613,4928.625162760417,12.040666666666668,0.31,179.21783299468387,8.537207217719002,60.96858168893272,1525.0,1435.0,1200.0,1262.0,1475.0,1021.7000000000002,135.0,293.35,1637164234.160632,1637164235.3935063,44a1e3c4-a758-4cbe-abe4-8ad473094000
0.1473240799144976,0.1635545014181305,0.6642047696159423,0.1823598756877407,0.4766441140328508,-0.4091397441916657,0.282700859107958,0.2619779666446996,-10.03162909314561,23.84697458768402,-8.09202917293527,-1.145932979530086,0.776208741441773,-1.963923150461176,4902.31591796875,12.034777777777776,0.3499999999999999,179.2216396867813,8.526406032456533,60.88109000130449,1525.0,1435.0,1200.0,1173.0,1475.0,1021.7000000000002,135.0,293.35,1637164237.3269482,1637164238.466233,e32f461b-69e9-4c77-aa3f-586e67f3ee88
0.1478719422833097,0.1793055432329711,0.6770110506501933,0.1759909762238248,0.4860399523712441,-0.4182890472529373,0.2922199667109313,0.2600330556238105,-10.051853068905867,23.78274689491657,-7.945684384631373,-1.151900966208807,0.8357257234769885,-2.0056615155087654,4897.647189670139,12.036888888888887,0.3388888888888889,179.20211293485417,8.52646522742934,60.84721757539059,1525.0,1435.0,1200.0,1173.0,1475.0,1021.7000000000002,135.0,293.35,1637164238.5748646,1637164239.8979137,e32f461b-69e9-4c77-aa3f-586e67f3ee88
0.1418454566566181,0.1638695222501091,0.6608080234165233,0.175758134761386,0.4723844846859761,-0.4022366772131732,0.2803587477262403,0.2621149324628874,-10.071905212274809,23.882380379315183,-7.953413710720649,-1.1154615601017177,0.7770448606925754,-1.9500235342534995,4886.169379340277,12.037,0.34,179.23945889141598,8.530671770184421,60.84498182680227,1525.0,1435.0,1200.0,1173.0,1475.0,1021.7000000000002,135.0,293.35,1637164240.0063865,1637164241.0724285,e32f461b-69e9-4c77-aa3f-586e67f3ee88
-0.1427904032286327,0.0025158454988832,-0.2111899270151293,0.2398103621691803,-0.304953291707399,-0.2596823243071688,-0.5984191111033773,-0.6218369474487491,-16.147402228208577,23.75830368277277,-8.48482110328199,-0.9869941826324368,0.1564128706346404,1.524650722447763,4884.00390625,12.044,0.3,179.29685069428186,8.536244919955937,60.96265536146288,1525.0,1435.0,1200.0,1617.0,1475.0,1021.7000000000002,135.0,293.35,1637164241.7187855,1637164242.7673929,d56de3dd-14fb-4b34-adb4-d37ef20995a4
-0.1555314908055315,0.0112728773436854,-0.2024854891449024,0.2351557239370377,-0.2994571358111405,-0.2639556511043411,-0.5918579095472967,-0.6135138205184517,-16.103095934038734,23.816641804289024,-8.424056989194007,-0.985245052910646,0.1895308143312356,1.4970694327389955,4885.241319444444,12.043333333333331,0.3044444444444444,179.31425553410685,8.543677683592726,60.96310539503819,1525.0,1435.0,1200.0,1617.0,1475.0,1021.7000000000002,135.0,293.35,1637164242.875694,1637164243.9960248,d56de3dd-14fb-4b34-adb4-d37ef20995a4
-0.1500616327367463,0.0022002767960052,-0.2043263067935156,0.2432947665204066,-0.2985235782213342,-0.2609445994007252,-0.5917921660181537,-0.6211663633843847,-16.07868800007659,23.803721611050925,-8.201238275333926,-0.996968008709216,0.1522364486960412,1.497523742036997,4889.576171875,12.043,0.3,179.31279235580467,8.5277234051927,60.919857396123575,1525.0,1435.0,1200.0,1617.0,1475.0,1021.7000000000002,135.0,293.35,1637164244.104745,1637164245.2242117,d56de3dd-14fb-4b34-adb4-d37ef20995a4
-0.2090203919705235,-0.0203497377228087,-0.3907354007539916,0.2789671774051857,-0.4682206845170858,-0.2634560006244853,-0.7940060440742834,-0.8276930201888233,-17.395518248149994,24.226060439940355,-8.523655299313186,-1.0902761289392326,0.0636357414066588,2.266698183378479,4889.576171875,12.041,0.32,179.33423914979852,8.512229974834172,60.92986362325764,1525.0,1435.0,1200.0,1706.0,1475.0,1021.7000000000002,135.0,293.35,1637164246.2257073,1637164247.1696994,a23f67f0-c7a6-420d-80ed-4b53c71dc24f
-0.2074167987731445,-0.0216777560834874,-0.3945529062571622,0.2838787630430555,-0.4698429052361397,-0.2668735662939863,-0.7990808953129284,-0.8271040681504721,-17.551869385640032,24.178216871423256,-8.584308188585032,-1.1096308078584514,0.0594515028608862,2.281044018821808,4889.576171875,12.039666666666667,0.32,179.3387243073535,8.502849848374021,60.92061554712144,1525.0,1435.0,1200.0,1706.0,1475.0,1021.7000000000002,135.0,293.35,1637164247.2772114,1637164248.3840227,a23f67f0-c7a6-420d-80ed-4b53c71dc24f
-0.2107176696772512,-0.0193493410852084,-0.3886359918250202,0.2783590502471499,-0.4673227379014688,-0.2641616475859661,-0.7919038952552294,-0.8114215008658686,-17.290982427444135,24.26289153494276,-8.549039830052621,-1.0900927574488168,0.067081530080306,2.2597583117387168,4890.1962890625,12.040444444444445,0.32,179.3431244669988,8.507936252303434,60.89847890402143,1525.0,1435.0,1200.0,1706.0,1475.0,1021.7000000000002,135.0,293.35,1637164248.4920492,1637164249.619324,a23f67f0-c7a6-420d-80ed-4b53c71dc24f
-0.2687910849574906,-0.0485504048898284,-0.5704441554005467,0.352539606696105,-0.6276136093365121,-0.2938010043191252,-0.999420567302382,-1.0269643661334704,-18.82474991728705,24.931260845674064,-8.618092226244494,-1.3294347092257943,-0.0516201216482293,3.0170371242773903,4894.850206163194,12.035111111111112,0.3388888888888889,179.37829083430546,8.492498601823128,60.961798552177,1525.0,1435.0,1200.0,1795.0,1475.0,1021.7000000000002,135.0,293.35,1637164251.2196157,1637164252.187389,dbad6364-82db-435e-8076-9b3ba9dc892b
-0.2772281662091954,-0.0464959210098069,-0.5748818417226073,0.3444312445965351,-0.6342153528338716,-0.2897331256917407,-1.0030638542179453,-1.0289092789936674,-18.73905920949279,24.97919843400436,-8.847074505476527,-1.3018997141278137,-0.0417737913171214,3.0371600464716537,4892.36669921875,12.039444444444444,0.3244444444444444,179.36665826323903,8.484877533665472,60.91620476273743,1525.0,1435.0,1200.0,1795.0,1475.0,1021.7000000000002,135.0,293.35,1637164252.295841,1637164253.5074508,dbad6364-82db-435e-8076-9b3ba9dc892b
-0.2758448136128189,-0.0507555509111459,-0.5702387070061964,0.3549638974041282,-0.6275862162394329,-0.2945269219742892,-0.9993520845192776,-1.0254851378854704,-18.761595249559768,24.99219004404252,-8.711050412021246,-1.3361034396510734,-0.0597982915269819,3.0162647435111496,4892.36669921875,12.03711111111111,0.3288888888888889,179.343320265755,8.481432651866584,60.908819051514925,1525.0,1435.0,1200.0,1795.0,1475.0,1021.7000000000002,135.0,293.35,1637164253.615961,1637164254.7395985,dbad6364-82db-435e-8076-9b3ba9dc892b
-0.3280561026237727,-0.0800935806064116,-0.7229142997749148,0.4244328371416843,-0.7662639260999263,-0.3221391882724441,-1.176078905679702,-1.2088821918081365,-19.69588963552784,25.9996824528062,-8.904286376726445,-1.5562813361781866,-0.1797232342323097,3.660603569425229,4889.266384548611,12.027222222222225,0.38,179.3963893177862,8.471848283777502,60.98734118294312,1525.0,1435.0,1200.0,1883.0,1475.0,1021.7000000000002,135.0,293.35,1637164255.759157,1637164256.7841842,ae6cc3c7-58ab-425c-b561-10439c724de9
-0.3237553825101516,-0.074162970453838,-0.7071495550288912,0.4216661325397459,-0.7502937323562984,-0.3269877708245792,-1.1627521444114828,-1.176914398051072,-19.99852870333758,25.94276104310893,-9.015277397628289,-1.5606981341030834,-0.1530150488782814,3.59873655880638,4888.027235243056,12.029444444444444,0.3744444444444444,179.39474400110612,8.465949277064336,60.931790495513496,1525.0,1435.0,1200.0,1883.0,1475.0,1021.7000000000002,135.0,293.35,1637164256.8936126,1637164258.0136309,ae6cc3c7-58ab-425c-b561-10439c724de9
-0.3189752827926835,-0.0759161300518004,-0.7078617758647551,0.4316920126165228,-0.7512114016790562,-0.3361781631176643,-1.164272463031409,-1.1991987165656468,-19.707272695846807,25.967339423041945,-9.263822982330447,-1.6037316413455305,-0.1607281830588636,3.6028407214058213,4884.00390625,12.029777777777776,0.3622222222222222,179.39855524666302,8.465947000334612,60.88612764527233,1525.0,1435.0,1200.0,1883.0,1475.0,1021.7000000000002,135.0,293.35,1637164258.1216142,1637164259.1494775,ae6cc3c7-58ab-425c-b561-10439c724de9
-0.0721161566305998,0.0378332441424074,-0.0252542014546542,0.1796024846652446,-0.1104577567969725,-0.2584989414188854,-0.3659501036013197,-0.3940094268435087,-14.926230436529591,19.93910216303016,-9.62769383888853,-0.8641478069163601,0.3094961276031246,0.6798586230444255,7472.90869140625,11.83,7.940000000000001,178.2882093387894,8.289739123941946,52.062918872936265,1525.0,1435.0,1350.0,1528.0,1475.0,1021.7000000000002,135.0,293.35,1637164263.2203844,1637164264.2296047,24d53c9c-2591-40dc-8ab0-e87324580562
-0.0956117822766225,0.0224799497052843,-0.0387299719172733,0.188550719993414,-0.1182111051442178,-0.2477805612608558,-0.3763501763494523,-0.4099478417457851,-15.125073295068091,19.90978845490897,-9.161975412663413,-0.8611383838646481,0.2472351405210582,0.72234594874225,7472.90869140625,11.829444444444444,7.91,178.05332368669212,8.191057689178464,48.100996686793984,1525.0,1435.0,1350.0,1528.0,1475.0,1021.7000000000002,135.0,293.35,1637164264.337335,1637164265.373037,24d53c9c-2591-40dc-8ab0-e87324580562
-0.0802853324341321,0.0330536930134801,-0.0290054151070519,0.1860716430019067,-0.1118832947596132,-0.2596006927637584,-0.3696114683931266,-0.3995110620695301,-14.979503604149944,19.91105824371841,-9.631131473958918,-0.8816164818111677,0.2909426525779787,0.6915743798012174,7479.4296875,11.828666666666669,7.914444444444445,177.95362569210718,8.14255670560968,45.18072805767762,1525.0,1435.0,1350.0,1528.0,1475.0,1021.7000000000002,135.0,293.35,1637164265.4815648,1637164266.5219023,24d53c9c-2591-40dc-8ab0-e87324580562
0.0909539766757236,0.3385176189048441,-0.0409668939324508,0.0398449945938318,-0.192926385998134,-0.4150078988980292,-0.4533363568042193,-0.4651701864757612,-15.193182430195804,19.33285952452648,-8.67808355909202,-0.9053699213097376,1.4469191521623572,0.9745803142039456,7499.060546875,11.823,8.0,177.9065110472124,8.126557366933879,39.50691381981012,1610.0,1435.0,1350.0,1528.0,1542.0,1021.7000000000002,135.0,293.35,1637164268.2014923,1637164269.1854308,37eb952f-b8be-43a7-8ad2-e97857ef0c56
0.0671307307234086,0.3389252284664185,-0.036250894766306,0.037915971261191,-0.1890497117198955,-0.4102080759847828,-0.4471887920549129,-0.4647751780463254,-15.124699821925889,19.343983047901688,-8.150485116834616,-0.8898055352187626,1.4438238030024098,0.9549387596435296,7492.50537109375,11.820666666666666,7.989999999999999,178.02275175996712,8.167351525525426,37.73356676157275,1610.0,1435.0,1350.0,1528.0,1542.0,1021.7000000000002,135.0,293.35,1637164269.29301,1637164270.414316,37eb952f-b8be-43a7-8ad2-e97857ef0c56
0.0747460172474821,0.3388841387866579,-0.0340320522022017,0.0388610338148177,-0.1860501651426751,-0.4132350160382372,-0.4442303348059155,-0.4671857735190179,-15.07656033022188,19.231742008199465,-8.441596153708035,-0.899395051717503,1.4459314838319195,0.9432889883556824,7492.50537109375,11.82,8.084444444444443,178.16476505319002,8.220772142571388,36.12208835647553,1610.0,1435.0,1350.0,1528.0,1542.0,1021.7000000000002,135.0,293.35,1637164270.5228174,1637164271.6444995,37eb952f-b8be-43a7-8ad2-e97857ef0c56
0.3087380153008519,0.7622173334146108,-0.0272111658266673,-0.1659984015688581,-0.2776664558735645,-0.6335990075880223,-0.5381750539135187,-0.5506800167416768,-15.313109997385313,18.58746733316543,-7.945815622814607,-0.936441051680271,3.0566125608174226,1.2427587180376654,7499.060546875,11.815,8.054444444444446,178.2986489034808,8.353611732829059,33.96571415541264,1695.0,1435.0,1350.0,1528.0,1609.0,1021.7000000000002,135.0,293.35,1637164272.7575786,1637164273.783222,2b8b884b-b955-4041-bd01-59b34a27bdd4
0.3140111900111753,0.7603272085093172,-0.0267865725286687,-0.173723261458199,-0.2783923736444167,-0.6231759230945332,-0.534668734007161,-0.5685266374546002,-15.239515217682936,18.6091678883863,-7.724241554467543,-0.8953562343620431,3.0480171326729626,1.238235057810522,7499.060546875,11.81488888888889,8.064444444444444,178.45304760639868,8.396676170409727,33.02893397908778,1695.0,1435.0,1350.0,1528.0,1609.0,1021.7000000000002,135.0,293.35,1637164273.8915207,1637164275.128066,2b8b884b-b955-4041-bd01-59b34a27bdd4
0.3046564410957449,0.7501506664443619,-0.0349086319690495,-0.1639713107604156,-0.2826109141897908,-0.6246003654775606,-0.5435851961061872,-0.5579391946602191,-15.429271470999344,18.652364154391485,-8.132511031952438,-0.9208338281735516,3.0130956062955723,1.2658751513917508,7495.418782552083,11.814444444444444,8.064444444444446,178.66688413329382,8.460493378873572,32.071912916612554,1695.0,1435.0,1350.0,1528.0,1609.0,1021.7000000000002,135.0,293.35,1637164275.2369874,1637164276.4456513,2b8b884b-b955-4041-bd01-59b34a27bdd4
0.4671523997137661,1.0868805332823144,-0.0350592941123612,-0.3378491434036269,-0.3653244446653025,-0.7837407426753741,-0.620984472787889,-0.6439673067780393,-15.384448711642031,18.35784062160293,-6.909933168259303,-0.8879601998072021,4.286277952519901,1.5300357508592537,7499.060546875,11.798222222222222,8.212222222222222,178.7935917314966,8.542946094441627,31.170668696719467,1779.0,1435.0,1350.0,1528.0,1677.0,1021.7000000000002,135.0,293.35,1637164277.2637722,1637164278.400673,9ba0e712-e431-4f8e-8f78-c6aa29c7f60d
0.4856515179818099,1.085955193826417,-0.0402700130105083,-0.348265104381978,-0.3714068135276167,-0.7764262294852402,-0.6252030142465349,-0.6511716989494506,-15.494631944715492,18.40736101295503,-7.398523365233546,-0.8480921858685915,4.288870515164611,1.5504394591970614,7499.060546875,11.8,8.17,178.9461204804017,8.580431121244041,30.59912112315748,1779.0,1435.0,1350.0,1528.0,1677.0,1021.7000000000002,135.0,293.35,1637164278.509135,1637164279.8358448,9ba0e712-e431-4f8e-8f78-c6aa29c7f60d
0.4679270770078794,1.0716494130526693,-0.0444644472923406,-0.3352741902344639,-0.3719853562859495,-0.7736650020867734,-0.6266888174563098,-0.6475032114864022,-15.366316675453382,18.42165634267996,-7.320845607346583,-0.8712287751780525,4.2317533775643,1.5576367272828406,7499.060546875,11.799666666666669,8.186666666666666,179.04689309141608,8.6203689448684,30.164016444095296,1779.0,1435.0,1350.0,1528.0,1677.0,1021.7000000000002,135.0,293.35,1637164279.9446309,1637164281.0637252,9ba0e712-e431-4f8e-8f78-c6aa29c7f60d
0.599776164264659,1.3105453306064143,-0.0328130584480022,-0.4454082391510673,-0.4242881410073404,-0.8790551408687705,-0.6762090166377605,-0.7002601833302592,-15.34143770990967,18.99998124408624,-3.599296158319831,-0.8545993506179655,5.108906532478978,1.7164688231534209,7511.474663628473,11.784888888888888,8.306666666666665,179.17945036718805,8.719179204588727,29.5065348454908,1854.555555555556,1435.0,1350.0,1528.0,1736.5555555555557,1021.7000000000002,135.0,293.35,1637164282.7017543,1637164283.728467,fe72d643-cfac-4c09-a130-243d2b00048e
0.5973107839526905,1.3151747674787009,-0.0346894870253341,-0.452818079858153,-0.4274109570624465,-0.8782881341934835,-0.6794824954846241,-0.6984385409633226,-15.491909263868845,19.03136483491716,-3.8346694956438734,-0.8361596504113374,5.130214730713019,1.7279858366445808,7508.551052517361,11.784555555555556,8.277777777777779,179.24831385221992,8.741223640134942,29.27071156020244,1864.0,1435.0,1350.0,1528.0,1744.0,1021.7000000000002,135.0,293.35,1637164283.8374157,1637164284.9564896,fe72d643-cfac-4c09-a130-243d2b00048e
0.611719562194853,1.314216008374939,-0.031936478675528,-0.4422032438282899,-0.4234252576553436,-0.8885194682178915,-0.6785511290805447,-0.7166549707435025,-15.42304451195046,19.00751420686232,-4.018931593982857,-0.8831110284488689,5.126631711740426,1.7172535732283578,7505.62744140625,11.78588888888889,8.258888888888889,179.3253932959134,8.780476073248838,29.05328842508315,1864.0,1435.0,1350.0,1528.0,1744.0,1021.7000000000002,135.0,293.35,1637164285.0650575,1637164286.1905563,fe72d643-cfac-4c09-a130-243d2b00048e
-0.3120311266025737,-0.3971963425189194,-0.0227597841504681,0.3857948484578671,-0.0113505505581289,-0.0256908478245966,-0.2618058389319809,-0.2871444771126144,-14.654136184607234,21.010507407624104,-9.73957766436085,-0.7987705803404862,-1.3482739010834337,0.3419536616134764,7505.62744140625,11.826333333333334,8.053333333333333,179.8759687736289,8.795826543953487,28.730243624093728,1440.0,1435.0,1350.0,1528.0,1408.0,1021.7000000000002,135.0,293.35,1637164287.299058,1637164288.4249382,b8ba3870-22b8-4068-ad8c-7216cc708907
-0.3164277224911444,-0.4014696696558038,-0.0278138144097705,0.3872740766200161,-0.016527849850561,-0.0242801024030823,-0.2652847653128337,-0.2848571511426983,-14.46317828797638,21.034994069349143,-9.974648016998836,-0.7989679034912585,-1.3640717143914085,0.3601356225381491,7512.20556640625,11.82577777777778,8.04888888888889,179.93467197281544,8.80845499454641,28.637848240096385,1440.0,1435.0,1350.0,1528.0,1408.0,1021.7000000000002,135.0,293.35,1637164288.533509,1637164289.57501,b8ba3870-22b8-4068-ad8c-7216cc708907
-0.2977215078088239,-0.4046861701158095,-0.0332091628984767,0.3887456348215977,-0.019521369733169,-0.020809942042208,-0.2707535278743539,-0.307609329842239,-14.700389542359158,21.01274033429848,-9.777142200386043,-0.7949935621528597,-1.376730706901817,0.3790992275970696,7513.669867621527,11.823777777777778,8.07,99.99420774669773,8.822750011296815,28.560171724032937,1440.0,1435.0,1350.0,1528.0,1408.0,1021.7000000000002,135.0,293.35,1637164289.6858356,1637164290.781163,b8ba3870-22b8-4068-ad8c-7216cc708907
-0.5033583927418265,-0.7499787107453889,-0.0240472606995775,0.5439079071054194,0.0614740521204493,0.1701562424803937,-0.1813933347819261,-0.2176618262927827,-14.35794594276419,22.192122468497264,-10.05062530127541,-0.7074718677909347,-2.6902905076731494,0.0880117382127253,7512.20556640625,11.813111111111112,8.118888888888888,-179.866142408143,8.831170401314843,28.484362126342628,1355.0,1435.0,1350.0,1528.0,1341.0,1021.7000000000002,135.0,293.35,1637164292.829626,1637164293.8544834,ea05a0d5-6384-4322-9633-8039adaf6b3c
-0.4866074971547606,-0.7406102607049757,-0.0236911501555892,0.5384840704097423,0.0583923264514497,0.1653350540035701,-0.1843517917010606,-0.2027325756595753,-14.358107125748656,22.301760678431283,-10.152347124875782,-0.7053426346105258,-2.653558199991348,0.0968334011725473,7518.794921875,11.812,8.086666666666666,-179.83431828007016,8.83367746019519,28.459275790158543,1355.0,1435.0,1350.0,1528.0,1341.0,1021.7000000000002,135.0,293.35,1637164293.9629772,1637164295.082553,ea05a0d5-6384-4322-9633-8039adaf6b3c
-0.4943186616725272,-0.7458834379812936,-0.0278549040782663,0.5389634499183712,0.0572418155463796,0.1710739118791555,-0.1862282203561278,-0.2166619772816352,-14.500714133811698,22.18087304661158,-10.029383815714937,-0.6945889069593411,-2.673741336052484,0.1062371913090116,7530.541015625,11.812666666666669,8.117777777777778,-179.81970319306615,8.80821783520023,28.439780343265088,1355.0,1435.0,1350.0,1528.0,1341.0,1021.7000000000002,135.0,293.35,1637164295.1909444,1637164296.2187293,ea05a0d5-6384-4322-9633-8039adaf6b3c
-0.6597594438376548,-1.063917704149702,-0.0132132825732965,0.7021168401039019,0.135545039970227,0.3441162237898086,-0.1031996760451128,-0.1251004754694366,-14.056593991909898,23.757212989608977,-8.017986775510332,-0.6620508125409126,-3.906666271843641,-0.1731388408203564,7535.689290364583,11.80177777777778,8.205555555555556,-179.7409602188548,8.782205723792405,28.513977636856325,1271.0,1435.0,1350.0,1528.0,1273.0,1021.7000000000002,135.0,293.35,1637164298.3607986,1637164299.4961166,996c9f50-f493-4494-b72b-06b3277b8ce6
-0.6629370467655676,-1.0623973851785118,-0.0162676152331105,0.7001171427453067,0.1321072038202897,0.3441299203327339,-0.1069525333549634,-0.1388792141532128,-14.105112217586438,23.77733019356873,-8.092191201342716,-0.6575641847207734,-3.899910161010339,-0.1589301429159856,7532.00927734375,11.799,8.23,-179.7384907260149,8.788591381483936,28.52695101200233,1271.0,1435.0,1350.0,1528.0,1273.0,1021.7000000000002,135.0,293.35,1637164299.6052673,1637164300.7237198,996c9f50-f493-4494-b72b-06b3277b8ce6
-0.6585952359210515,-1.0593704436276576,-0.0168017810272177,0.6998158184837845,0.1319565416802961,0.3416782365187614,-0.1078702028246043,-0.1214845833971372,-14.142137556122094,23.689702296138066,-8.062894753643317,-0.6630151932945946,-3.888553137170776,-0.1562752334009981,7529.070258246527,11.801555555555556,8.203333333333333,-179.75041623630574,8.767017944399235,28.55773771023121,1271.0,1435.0,1350.0,1528.0,1273.0,1021.7000000000002,135.0,293.35,1637164300.8316357,1637164301.954522,996c9f50-f493-4494-b72b-06b3277b8ce6
-0.7965568925042216,-1.2924866041437677,-0.0036245956184629,0.8416787326030507,0.1909103630589324,0.455212288847931,-0.0537211297374887,-0.0766261597596347,-13.942869373129824,25.32796143842,-5.586399139571227,-0.7158855681436165,-4.802843175968676,-0.3556345183500343,7525.396484375,11.785222222222224,8.283333333333331,-179.73261676332868,8.742767357751104,28.658317558129006,1186.0,1435.0,1350.0,1528.0,1206.0,1021.7000000000002,135.0,293.35,1637164302.7513676,1637164303.7987678,977d75ef-4623-4882-942c-0dcfbce2fded
-0.7910410120086399,-1.2842407205923705,-0.002091676795312,0.8235368205873576,0.1888383477426585,0.4649335574059705,-0.0475368594163237,-0.0765461722400032,-13.687437976051108,25.156052838207245,-5.400433248272416,-0.6540219230343824,-4.773044269734438,-0.3623568238437784,7529.070258246527,11.78622222222222,8.287777777777778,-179.7384360845015,8.731300513635777,28.66498609948865,1186.0,1435.0,1350.0,1528.0,1206.0,1021.7000000000002,135.0,293.35,1637164303.9073384,1637164305.0266342,977d75ef-4623-4882-942c-0dcfbce2fded
-0.7640795980826033,-1.268332427427833,0.0007933663650882,0.8204304413555045,0.189648088251985,0.4526877394093037,-0.0505654425522924,-0.0764815243262456,-13.909536981721024,25.13105610523787,-5.331155159342839,-0.67465548681084,-4.711855611800512,-0.3612299753419473,7525.396484375,11.787,8.32,-179.75608529331683,8.725169659945784,28.682440268457672,1186.0,1435.0,1350.0,1528.0,1206.0,1021.7000000000002,135.0,293.35,1637164305.1347349,1637164306.2574835,977d75ef-4623-4882-942c-0dcfbce2fded
-0.0702320579911197,0.0495991358700319,-0.0276083660064796,0.1725531401538493,-0.1141432269991444,-0.2626413291715867,-0.3672282666495059,-0.3846639898295501,-14.761500809074576,19.653316532147485,-9.511984196870836,-0.8594650748471787,0.3521477647151677,0.6916647381199293,7518.794921875,11.827333333333335,8.020000000000001,179.81227042942936,8.698399018085134,28.765128815279567,1525.0,1435.0,1350.0,1528.0,1475.0,1021.7000000000002,135.0,293.35,1637164308.2827504,1637164309.5315888,7eb71ffb-ea92-4d25-a4e6-fc9d4d1c897c
-0.0807921051444228,0.0367106741789212,-0.03992157255711,0.1778263149943744,-0.1199368716569927,-0.252725019561632,-0.3768706456893353,-0.3943885482878786,-15.137198674129154,19.52990552529026,-9.28842677646325,-0.8506614959574023,0.3030539853123417,0.7286587948825248,7512.20556640625,11.82288888888889,8.084444444444443,179.81050520498388,8.711306937251594,28.81675442066616,1525.0,1435.0,1350.0,1528.0,1475.0,1021.7000000000002,135.0,293.35,1637164309.6405954,1637164310.762764,7eb71ffb-ea92-4d25-a4e6-fc9d4d1c897c
-0.0750258537328691,0.0499278532726455,-0.0256908477585238,0.1717039535558171,-0.1102260109945891,-0.2607101141446776,-0.3651600859265198,-0.3907041738094532,-15.000130418305815,19.54846045246367,-9.285077515986163,-0.8538933937528806,0.3532828835452846,0.6809994276052723,7515.866319444444,11.822888888888889,8.094444444444443,179.7958552081241,8.697436815185807,28.88432396430528,1525.0,1435.0,1350.0,1528.0,1475.0,1021.7000000000002,135.0,293.35,1637164310.8716986,1637164311.9943998,7eb71ffb-ea92-4d25-a4e6-fc9d4d1c897c
-0.0678488566927542,0.0398745792419519,-0.0516184339989788,-0.2226336768661416,-0.175421634674139,0.1314634655524048,-0.2805016439069179,-0.3154004812055369,-14.8535082048135,18.80500635358064,-6.323002031578585,0.9112285947717754,0.335181560805267,0.6845161687381079,7514.402018229167,11.823333333333332,8.103333333333333,179.74321721692053,8.793520785926177,28.98698246644048,1525.0,1535.0,1350.0,1528.0,1475.0,1021.7000000000002,135.0,293.35,1637164313.7291958,1637164314.8574517,44d76f25-c846-43ed-8d13-5ba24ae6797c
-0.0698074646989051,0.0274654970783172,-0.0666572559214321,-0.2154155897555389,-0.1860775581974337,0.1350793568617306,-0.2944721356341254,-0.3279054411123671,-15.011787534518987,18.809813343767164,-6.703225378007208,0.9022144988719112,0.2912881295320681,0.7373333507055615,7516.598470052083,11.825,8.096666666666668,179.7361092667243,8.783214884242275,28.989402630136382,1525.0,1535.0,1350.0,1528.0,1475.0,1021.7000000000002,135.0,293.35,1637164314.96576,1637164316.0845387,44d76f25-c846-43ed-8d13-5ba24ae6797c
-0.053522255857419,0.0322455960693948,-0.0512075372035077,-0.2170591768462281,-0.1742163373947191,0.1315045552618879,-0.2789813256761813,-0.292198507210509,-14.720653999762874,18.870807181493,-6.643945192384199,0.8992185993334262,0.3078132615942017,0.6788888137003125,7518.794921875,11.825,8.119999999999997,179.72451615897305,8.789072056046775,28.99471993240524,1525.0,1535.0,1350.0,1528.0,1475.0,1021.7000000000002,135.0,293.35,1637164316.1937344,1637164317.2010963,44d76f25-c846-43ed-8d13-5ba24ae6797c
-0.0446742786654199,0.0232469569888354,-0.087791046808839,-0.648952855154477,-0.2569983462922005,0.5616723419198945,-0.1997056353530412,-0.2197437034206547,-14.697923335406657,18.480257393722827,-3.1157366183256845,2.836272619228573,0.2934811214169119,0.7289132532714205,7518.794921875,11.82,8.08,179.6758032498125,8.903455526529687,29.0290996895925,1525.0,1636.0,1350.0,1528.0,1475.0,1021.7000000000002,135.0,293.35,1637164319.2483702,1637164320.280383,33307b47-f9ba-4817-ae72-b0211e9d3a63
-0.0517417031497756,0.0248494543713502,-0.0855037214195947,-0.6512675743695532,-0.2529167713147706,0.5627406733909726,-0.195541881107147,-0.2217023114199337,-14.776015108263872,18.254082961208976,-3.015744727092901,2.842485927900126,0.2995841096155161,0.7146606765998792,7518.794921875,11.818666666666664,8.112222222222222,179.66877270842684,8.911755249872376,29.038524591737207,1525.0,1636.0,1350.0,1528.0,1475.0,1021.7000000000002,135.0,293.35,1637164320.3933198,1637164321.502677,33307b47-f9ba-4817-ae72-b0211e9d3a63
