raw_voltage_G-,raw_voltage_G0,raw_voltage_G1,raw_voltage_G2,raw_voltage_G3,raw_voltage_G4,raw_voltage_G5,raw_voltage_G6,load_x,load_y,load_z,load_l,load_m,load_n,rpm,voltage,current,roll,pitch,yaw,aileron1_pwm,elevator_pwm,throttle_pwm,rudder_pwm,aileron2_pwm,pbaro,pdiff,Tt,sample_start_time,sample_end_time,uid
-0.0836212664365646,0.0480103350206805,0.0051324362273978,0.2486068395127516,-0.0989263495022937,-0.3796378990113686,-0.3888025418992109,-0.4080522384280243,-14.800975926045988,22.52810887782833,-16.396725339167816,-1.2743602205679156,0.4002479863949096,0.6465834609705172,4783.162109375,12.043,0.33,179.5671759212526,11.171337024388734,56.81631730882035,1525.0,1435.0,1200.0,1528.0,1475.0,1021.7000000000002,135.0,293.35,1637165702.1739604,1637165703.2091007,98ac88e8-001f-4d50-8645-93890750aedd
-0.0798196494344556,0.0409429107843121,-0.0007083243291537,0.2527601837242365,-0.1045556354163197,-0.3755694724067468,-0.393731112521796,-0.4313829605861749,-14.690684499469972,22.664932227449764,-16.302850387264517,-1.2739001799886298,0.3712489034055637,0.6685642206775774,4785.83251953125,12.042444444444444,0.33,179.47457980558465,11.149585053748227,56.293043994492194,1525.0,1435.0,1200.0,1528.0,1475.0,1021.7000000000002,135.0,293.35,1637165703.3170495,1637165704.5547965,98ac88e8-001f-4d50-8645-93890750aedd
-0.0757057509313232,0.0473529002108823,0.0050140979475619,0.2478968099504431,-0.1002806653145004,-0.3822676387094234,-0.3878689842942083,-0.4141269363561733,-14.553024899970907,22.518206616154885,-16.952814649173632,-1.278703311429334,0.4010356251416264,0.6465675810135301,4792.971408420139,12.041888888888888,0.3322222222222222,179.42708874137568,11.137611732133196,55.79755816643737,1525.0,1435.0,1200.0,1528.0,1475.0,1021.7000000000002,135.0,293.35,1637165704.6627305,1637165705.7885523,98ac88e8-001f-4d50-8645-93890750aedd
0.0857339443175804,0.3292477886670379,0.0045012987834698,0.1235627429130335,-0.1629605046121899,-0.5318603908266558,-0.4575307918430921,-0.4836309610340179,-14.927259584897012,22.03209711678109,-15.492616549749307,-1.3375946349334624,1.463287321758892,0.8668387762846524,4839.87890625,12.035555555555554,0.36,179.2924444633573,11.0991505574619,54.97491310732812,1610.0,1435.0,1200.0,1528.0,1542.0,1021.7000000000002,135.0,293.35,1637165707.717852,1637165708.7068098,fc5f312b-3040-4ffd-98a0-e24b6576c1df
0.0851143120539369,0.3416645399562096,0.0145633387341544,0.118561307666859,-0.1563149338506343,-0.5401747520066447,-0.4513799399085701,-0.4784580439821255,-14.973363457485258,22.07913894470384,-15.537623077390077,-1.344213615541963,1.5118373532167555,0.8366576470499677,4847.78857421875,12.037555555555556,0.3544444444444444,179.27529765290092,11.092967528715748,54.71587666523557,1610.0,1435.0,1200.0,1528.0,1542.0,1021.7000000000002,135.0,293.35,1637165708.8155496,1637165709.8787162,fc5f312b-3040-4ffd-98a0-e24b6576c1df
0.0741433686596542,0.3317893219065962,0.005564699584988,0.118917418185005,-0.1620263992743722,-0.5316691867813027,-0.4554478187391685,-0.4772116577947753,-14.919447609532634,21.91874008390487,-15.705955348331052,-1.3274148417331872,1.4752925721763308,0.8611691353324122,4848.091796875,12.037666666666668,0.3533333333333333,179.26678420155545,11.078035786552713,54.51720391720778,1610.0,1435.0,1200.0,1528.0,1542.0,1021.7000000000002,135.0,293.35,1637165709.9869852,1637165710.9980524,fc5f312b-3040-4ffd-98a0-e24b6576c1df
0.279961547459289,0.7130466927976634,0.0065645484006486,-0.0555082567870691,-0.248561265142079,-0.7335428335491994,-0.5492555729267137,-0.5747859672224229,-15.339236990190216,21.49746447609699,-14.482469841097725,-1.390349474147112,2.9188987349298423,1.1574398506002015,4845.35107421875,12.029777777777776,0.39,179.15334993763975,11.081471561432709,54.1148746597878,1695.0,1435.0,1200.0,1528.0,1609.0,1021.7000000000002,135.0,293.35,1637165712.6721947,1637165713.7700453,0ad95e05-2310-4fe8-8646-febbdabbd662
0.2855908327252308,0.7212235374831311,0.0209048454123178,-0.0571792369847381,-0.2367685268243881,-0.7417470755706255,-0.5338058504716879,-0.5564462697519744,-14.972528829851408,21.325742104981472,-14.61367201408416,-1.4052768196149874,2.9492461648101176,1.1009498229972263,4845.35107421875,12.027,0.3955555555555555,179.16057475996178,11.08376773822243,53.939767582216376,1695.0,1435.0,1200.0,1528.0,1609.0,1021.7000000000002,135.0,293.35,1637165713.87838,1637165714.8254836,0ad95e05-2310-4fe8-8646-febbdabbd662
0.2907955246545197,0.7192375366828884,0.0165767328222018,-0.0619456395709693,-0.240028308172139,-0.7338304615173922,-0.5366958251126476,-0.5538165291342311,-15.1402446296017,21.29741626355457,-14.415511053148249,-1.3771914167299375,2.941540196466065,1.1152958927943772,4844.438639322917,12.031,0.3899999999999999,179.18353330249192,11.06955866801908,53.81235913071372,1695.0,1435.0,1200.0,1528.0,1609.0,1021.7000000000002,135.0,293.35,1637165714.9344463,1637165716.0194674,0ad95e05-2310-4fe8-8646-febbdabbd662
0.4474567501782407,1.0133985007103057,0.0227127911641228,-0.2035680653187492,-0.306675771130004,-0.8810685361325424,-0.6032474235358404,-0.6199572317767614,-15.216909728042223,21.30611058729857,-13.145020582042989,-1.388062432408535,4.051930844385995,1.3285498006430314,4845.35107421875,12.019222222222222,0.44,179.0932336482049,11.06639420343112,53.622784953570296,1779.0,1435.0,1200.0,1528.0,1677.0,1021.7000000000002,135.0,293.35,1637165716.6909816,1637165717.8655326,1f98f4af-f6eb-4ccb-aabf-1d5e26e8f862
0.4558116502000555,1.0144257425154144,0.0247398818487834,-0.2099369656687008,-0.3042514799488809,-0.8761788618928076,-0.5997958896370257,-0.6275725210404063,-15.337423871036654,21.218152324956897,-13.117770685958924,-1.3632464730363851,4.057306243028094,1.3176291399240536,4844.438639322917,12.021,0.44,179.1062383283846,11.07924558380945,53.52465790249445,1779.0,1435.0,1200.0,1528.0,1677.0,1021.7000000000002,135.0,293.35,1637165717.9745977,1637165718.9825866,1f98f4af-f6eb-4ccb-aabf-1d5e26e8f862
0.4558390432975877,1.0116179482009884,0.029259746250096,-0.1970895924279136,-0.2976771307557803,-0.8821094749432431,-0.5970017907571324,-0.6281477765243775,-15.378430301657614,21.2396614774796,-12.642336409059704,-1.4051310876136391,4.041556892110749,1.2989413216417802,4842.61376953125,12.021,0.44,179.09334596687123,11.082604898516236,53.40199377628028,1779.0,1435.0,1200.0,1528.0,1677.0,1021.7000000000002,135.0,293.35,1637165719.091029,1637165720.2107437,1f98f4af-f6eb-4ccb-aabf-1d5e26e8f862
0.5770480971219458,1.2488017921431636,0.0152700811088483,-0.409380256170314,-0.3913402409230763,-0.8919244345503506,-0.6504353711244716,-0.6653591475546042,-15.204018820484317,22.207045411891105,-9.06446483061305,-0.941936445696289,4.923462546937545,1.553270445872168,4845.35107421875,12.00122222222222,0.5277777777777778,179.08142349222004,11.108675920305652,53.20091490438988,1864.0,1435.0,1200.0,1528.0,1744.0,1021.7000000000002,135.0,293.35,1637165722.25809,1637165723.2832153,21a548b4-f531-4b20-a97d-7c6168f829c2
0.554471787808103,1.2347063898985349,0.017110898580399,-0.3864226277792229,-0.384923675910034,-0.9022856127137464,-0.6494755160205663,-0.6790863915347475,-15.12303648583661,22.249125800837,-9.485375066826414,-1.016661896154337,4.871044398563278,1.5385964414136624,4845.35107421875,11.998777777777777,0.53,179.05639009000205,11.143381249843353,53.0964145279085,1864.0,1435.0,1200.0,1528.0,1744.0,1021.7000000000002,135.0,293.35,1637165723.391812,1637165724.5117157,21a548b4-f531-4b20-a97d-7c6168f829c2
0.5715913886940089,1.2425561614949212,0.0282478444291391,-0.3870537653536534,-0.3731950366620853,-0.9098724146249972,-0.6404423585188646,-0.6544588744324374,-15.324924546624976,22.09328826137737,-9.472520473103897,-1.0328648578553112,4.902581885417587,1.4954646290979394,4842.61376953125,12.0,0.51,179.08024566404316,11.138366562900222,53.04522795190356,1864.0,1435.0,1200.0,1528.0,1744.0,1021.7000000000002,135.0,293.35,1637165724.6205428,1637165725.7415302,21a548b4-f531-4b20-a97d-7c6168f829c2
-0.3078125858703558,-0.3814863869034183,0.010522853849422,0.4667688961470124,-0.0001604619970689,-0.1650396424657583,-0.2892263529724302,-0.3205914775787733,-14.3893999120415,23.91380164888336,-16.770526095713098,-1.2746475117573444,-1.2367210943440463,0.3120733586696504,4839.87890625,12.043666666666669,0.3166666666666666,179.5673671665494,11.13020562520692,52.93886558996345,1440.0,1435.0,1200.0,1528.0,1408.0,1021.7000000000002,135.0,293.35,1637165726.7641094,1637165727.9008007,2f197b46-b0a4-4b0c-9d46-2a5164ab0f4e
-0.3134829619959208,-0.386403452366564,-0.0037626569351041,0.4719461948204177,-0.0086523284404086,-0.1640808832387537,-0.3011560571507626,-0.3270699517278354,-14.573657839909268,23.591699316632788,-16.737486647727724,-1.2871058315295778,-1.2557002989924737,0.3595980379237027,4841.7021484375,12.044333333333334,0.3166666666666666,179.61465939636255,11.126830088800856,53.09446982126982,1440.0,1435.0,1200.0,1528.0,1408.0,1021.7000000000002,135.0,293.35,1637165728.0092075,1637165729.0183182,2f197b46-b0a4-4b0c-9d46-2a5164ab0f4e
-0.2963622611191237,-0.371241359163761,0.008934053050284,0.4651390058166434,-0.0027491116205491,-0.1718879223167727,-0.2930203001937315,-0.3223720305797386,-14.411721318567666,23.80640465179016,-16.54983981484386,-1.2871269944200332,-1.199995831402534,0.3247317606226153,4852.972005208333,12.043666666666669,0.31,179.6590601794271,11.13652658582881,53.21113210847831,1440.0,1435.0,1200.0,1528.0,1408.0,1021.7000000000002,135.0,293.35,1637165729.1264544,1637165730.1550825,2f197b46-b0a4-4b0c-9d46-2a5164ab0f4e
-0.4914834734031734,-0.6994657821027093,0.0077561490048216,0.6183486959198257,0.064788619316239,0.0086190321702247,-0.2207846411568118,-0.2334265665828238,-14.20879312946454,25.0651271910032,-16.29463987519618,-1.2186788890324427,-2.453651800536253,0.0931137697182897,4850.83544921875,12.026000000000002,0.38,179.7988286171428,11.156413061052255,53.45461089746138,1355.0,1435.0,1200.0,1528.0,1341.0,1021.7000000000002,135.0,293.35,1637165731.6906204,1637165732.7000802,5a271eda-2d6e-4af5-9abb-54f83961b947
-0.4742121087618391,-0.702794047218017,0.0030582292215016,0.6206360209727559,0.0605015964203641,0.0100845638858702,-0.2239485466732005,-0.2392065151853255,-14.06257071025243,25.04910182556755,-16.281339991171347,-1.2208097229123265,-2.467867334675668,0.1096062863236834,4850.83544921875,12.03133333333333,0.38,179.814108509226,11.159343591661145,53.537727469471264,1355.0,1435.0,1200.0,1528.0,1341.0,1021.7000000000002,135.0,293.35,1637165732.807803,1637165733.9349124,5a271eda-2d6e-4af5-9abb-54f83961b947
-0.4729657215454623,-0.680742579311302,0.005961899773836,0.6011458199943736,0.05852929201951,0.0107830884366826,-0.2222364765385649,-0.2477668663256213,-14.112029686393862,24.888854028802346,-15.64227328942635,-1.1761156707561655,-2.3878938759848274,0.1093268565973408,4851.140625,12.03011111111111,0.3711111111111111,179.82560751214865,11.154861185154584,53.58307878719529,1355.0,1435.0,1200.0,1528.0,1341.0,1021.7000000000002,135.0,293.35,1637165734.0470357,1637165735.272122,5a271eda-2d6e-4af5-9abb-54f83961b947
-0.6136020255477449,-0.9341838195427132,0.0225073427698249,0.725236628786849,0.1229989925480531,0.1644036879961854,-0.1496036196544546,-0.1693540593616321,-13.743131897632102,26.373768473591824,-12.53999577640179,-1.099480389418505,-3.3827631515880903,-0.1300045232069469,4731.240125868056,12.021777777777778,0.43,179.91164816403324,11.147449860722691,53.7129423122496,1271.0,1435.0,1200.0,1528.0,1273.0,1021.7000000000002,135.0,293.35,1637165737.208844,1637165738.3472984,e94e19b5-fd4e-4730-8f09-fa67b2cb69d0
-0.6119584378558527,-0.9674253868831398,0.0112213783738048,0.7498356456367947,0.1204514327347301,0.1679510966014742,-0.1577530726654807,-0.1859953795149563,-13.808932858057682,26.497687658172016,-13.521167924147916,-1.146928261319281,-3.50201944666996,-0.1048348365223299,4722.548828125,12.022555555555556,0.43,179.90639347183176,11.137776415583184,53.73248841637942,1271.0,1435.0,1200.0,1528.0,1273.0,1021.7000000000002,135.0,293.35,1637165738.4559562,1637165739.5748415,e94e19b5-fd4e-4730-8f09-fa67b2cb69d0
-0.6344892846002669,-1.0056388090708426,0.0176998506093423,0.7721199443583248,0.1353395915322857,0.1779906736656328,-0.1448783066131341,-0.1612319995548667,-13.788857621683576,26.62986273747984,-14.426227130536558,-1.173571286454811,-3.639794316064029,-0.1580199928440656,4801.664984809027,12.021222222222224,0.43,179.92502774570738,11.158973528217366,53.821708900777566,1271.0,1435.0,1200.0,1528.0,1273.0,1021.7000000000002,135.0,293.35,1637165739.6834972,1637165740.810912,e94e19b5-fd4e-4730-8f09-fa67b2cb69d0
-0.7650312356581629,-1.26238099401299,0.0210007213319081,0.8146203617395699,0.1754842036003673,0.4109143347841974,-0.0687802226354951,-0.0971321007920655,-13.5882043148807,28.451974332953835,-11.231619573030954,-0.7331776464785672,-4.637460060135723,-0.3523402907098028,4898.892523871527,12.004444444444449,0.5022222222222221,-179.9966233064073,11.14525594704304,53.93686285454435,1186.0,1435.0,1200.0,1528.0,1206.0,1021.7000000000002,135.0,293.35,1637165742.7385952,1637165743.881861,9a4dbf2c-c445-4e01-86c6-ed48b0b6e7dc
-0.7476963154760959,-1.2224434381137403,0.0186492960615755,0.8090699689608756,0.1641001723238114,0.3790681948455918,-0.0829901289909106,-0.1150466523692034,-13.393702052220917,28.43442514994273,-10.987210690028729,-0.7923164020913773,-4.490678765941897,-0.3081259763613518,4899.203342013889,11.999666666666668,0.5077777777777778,179.97497919583742,11.175967892646002,53.90441072852285,1186.0,1435.0,1200.0,1528.0,1206.0,1021.7000000000002,135.0,293.35,1637165743.9954462,1637165745.1018295,9a4dbf2c-c445-4e01-86c6-ed48b0b6e7dc
-0.7514962905044585,-1.22005037335194,0.0159012185492292,0.7919240705086266,0.1607604035835584,0.3952279414838918,-0.082503627127502,-0.105106237573599,-13.617835591756275,28.360730748801856,-10.60797732152705,-0.7180040836965665,-4.481542527976635,-0.2999762303949837,4849.0283203125,12.002,0.5033333333333333,179.9706852835792,11.170106736564485,53.85932123471701,1186.0,1435.0,1200.0,1528.0,1206.0,1021.7000000000002,135.0,293.35,1637165745.210312,1637165746.3364215,9a4dbf2c-c445-4e01-86c6-ed48b0b6e7dc
-0.076217454443028,0.0438191880644201,-0.0047488092116605,0.2517877280889256,-0.107801719992655,-0.3740217611002133,-0.3959225623547358,-0.4235348313521072,-14.62570319118879,22.481157842703634,-15.831906568679733,-1.26954031503715,0.3772632752735749,0.6827378839096029,4812.7041015625,12.046,0.31,179.57507161993317,11.130062191234346,53.76930161818596,1525.0,1435.0,1200.0,1528.0,1475.0,1021.7000000000002,135.0,293.35,1637165748.1715803,1637165749.1159542,01c1dd93-2e47-4dad-8a34-6360f97e5753
-0.0821754576679937,0.0457093131519368,-0.0017766559197857,0.2535271909623754,-0.1058978982327407,-0.3793771164157709,-0.3955801482687094,-0.425548225784026,-14.657181352184764,22.590852818619112,-16.090467894776072,-1.2846802023969075,0.3868429246471754,0.6754181579081421,4814.806911892361,12.044111111111112,0.3077777777777777,179.5955348666865,11.142566085738656,53.89269467736656,1525.0,1435.0,1200.0,1528.0,1475.0,1021.7000000000002,135.0,293.35,1637165749.22497,1637165750.3175898,01c1dd93-2e47-4dad-8a34-6360f97e5753
-0.0778473449626343,0.0400526344511771,-0.0031463118139572,0.2533491357039069,-0.1052678565124646,-0.3736656504136304,-0.3937311125272615,-0.4259865156216594,-14.643475771526028,22.48075540666761,-16.086669406844496,-1.2722346708673893,0.365429496007301,0.6731684853269138,4819.01806640625,12.044666666666666,0.31,179.59679617495323,11.150854425432726,53.97938913013667,1525.0,1435.0,1200.0,1528.0,1475.0,1021.7000000000002,135.0,293.35,1637165750.4256594,1637165751.6592674,01c1dd93-2e47-4dad-8a34-6360f97e5753
-0.0554260775580625,0.0369161225185937,-0.0226228185565565,-0.1170058079158102,-0.16223184762919,-0.0106383295339358,-0.313332299560734,-0.3419992023997891,-14.753676916978437,21.84989802912186,-13.156608480724788,0.3742259731043891,0.3728298048511909,0.6635209611376981,4811.503797743056,12.045,0.31,179.57964177539782,11.225329290322732,54.09854595421203,1525.0,1535.0,1200.0,1528.0,1475.0,1021.7000000000002,135.0,293.35,1637165752.7743733,1637165753.911805,019e89e5-5c4a-4c2d-966a-63c38b1a5b34
-0.0695472300013857,0.0395869514406168,-0.0203491897795923,-0.1176906359394959,-0.1617524680392577,-0.0128297789717118,-0.3107847392699954,-0.334630452944537,-14.546676467661785,21.855851070725247,-13.168375752738564,0.3711012957968123,0.3817147857888234,0.6565845258632249,4804.611328125,12.043333333333331,0.3,179.58593617417293,11.243246678926704,54.15080297264189,1525.0,1535.0,1200.0,1528.0,1475.0,1021.7000000000002,135.0,293.35,1637165754.0199325,1637165755.028221,019e89e5-5c4a-4c2d-966a-63c38b1a5b34
-0.0683556293703533,0.040668979598695,-0.0242116193949988,-0.1212654379795461,-0.1667106226732045,-0.009816536034187,-0.3147019556241552,-0.3418074505126509,-14.54250940417576,21.91683259059313,-13.088019628871004,0.3861631700622618,0.3852276729106913,0.6743707126107946,4807.3056640625,12.045,0.31,179.58756175919538,11.250488386994212,54.176867353969605,1525.0,1535.0,1200.0,1528.0,1475.0,1021.7000000000002,135.0,293.35,1637165755.1365302,1637165756.1802375,019e89e5-5c4a-4c2d-966a-63c38b1a5b34
-0.0470152945621783,0.0318242898741082,-0.0486851789061823,-0.5110065529147773,-0.2331351033143044,0.376267523038792,-0.2339240251633672,-0.2527398121809396,-14.442929706704582,21.532921729355373,-10.23492064807892,2.129647384769828,0.3724904332167761,0.682956603064675,4810.603569878473,12.045,0.3,179.55351250727296,11.3378537161228,54.26428998079624,1525.0,1636.0,1200.0,1528.0,1475.0,1021.7000000000002,135.0,293.35,1637165758.303714,1637165759.3252108,89562f92-784c-48e5-a0ac-a5d109907219
-0.0447142726162154,0.021436819749994,-0.0559958542861364,-0.5087186791378929,-0.2369482256682722,0.3859975575160609,-0.2385786641930773,-0.2598006630189025,-14.609582011924015,21.51556850858592,-10.044180093386574,2.1458186459056408,0.3322746616800224,0.7036654592273188,4818.11474609375,12.043666666666669,0.3066666666666666,179.5388716173321,11.33872617792553,54.1880411639968,1525.0,1636.0,1200.0,1528.0,1475.0,1021.7000000000002,135.0,293.35,1637165759.432765,1637165760.670741,89562f92-784c-48e5-a0ac-a5d109907219
-0.0473177145825319,0.0274381039070963,-0.0477560043440166,-0.5125898755285548,-0.2317692823425397,0.3820830813705676,-0.2308790059140174,-0.2639014132939721,-14.419700903281614,21.539468357558523,-10.211325135061264,2.146392427876122,0.3559199915070781,0.6749965050352852,4819.01806640625,12.044333333333334,0.3033333333333333,179.5293002455752,11.354149598845064,54.10049635267502,1525.0,1636.0,1200.0,1528.0,1475.0,1021.7000000000002,135.0,293.35,1637165760.7797637,1637165761.908457,89562f92-784c-48e5-a0ac-a5d109907219
-0.0449246517789107,0.0245267633658724,-0.0700386624533497,-0.8656796228218332,-0.2954862289462295,0.7251418486039753,-0.1626186384881255,-0.1836828520131927,-14.326929284132923,21.46271264339716,-7.893412978880701,3.712573083180376,0.3658594847008322,0.6948841805037944,4821.427897135417,12.033,0.36,179.44947961929478,11.435794170225073,53.934022254759526,1525.0,1737.0,1200.0,1528.0,1475.0,1021.7000000000002,135.0,293.35,1637165763.7206967,1637165764.7622173,bb568954-cf89-498f-8f16-c3f9c7bf2633
-0.0433599568390731,0.0177420360237657,-0.0725369148605238,-0.8500063685405366,-0.2940530208534465,0.7223280278658244,-0.1663265711274596,-0.1885741675742231,-14.460454019615058,21.475116296806515,-7.2105032007057135,3.67089450642742,0.3332171966124629,0.7017979864502811,4826.25341796875,12.034,0.3555555555555555,179.41468208220329,11.446742204554694,53.80402288483173,1525.0,1737.0,1200.0,1528.0,1475.0,1021.7000000000002,135.0,293.35,1637165764.870017,1637165765.882789,bb568954-cf89-498f-8f16-c3f9c7bf2633
-0.0427156707116467,0.0214499684298908,-0.0721819000672423,-0.8561073666639705,-0.295394188082153,0.7240768042969392,-0.1657217310839491,-0.1780157639378468,-14.421646729846437,21.47869948903321,-7.240609483118187,3.6886427638485593,0.3478900905718268,0.7026579891989408,4826.25341796875,12.034777777777778,0.36,179.4080127819337,11.457530108893778,53.70035655033899,1525.0,1737.0,1200.0,1528.0,1475.0,1021.7000000000002,135.0,293.35,1637165765.9913597,1637165767.111111,bb568954-cf89-498f-8f16-c3f9c7bf2633
-0.0352921357794449,0.0189325408762402,-0.0615484393656061,-0.9959964257784062,-0.3097711938149851,0.858189110772989,-0.1253196195394869,-0.1620811861929433,-14.180574634926424,22.257326017984948,-6.652802568862846,4.3114726018757645,0.3494428868459709,0.649368320307091,4821.126139322917,12.022888888888888,0.4099999999999999,179.31936147996643,11.472128499879815,53.35069222542432,1525.0,1837.0,1200.0,1528.0,1475.0,1021.7000000000002,135.0,293.35,1637165769.2508805,1637165770.2957077,3c37dbe0-3bd1-454e-a8bd-10732b86630d
-0.0350729907955897,0.0189873271654164,-0.0590419690471819,-1.013185618093612,-0.3083604480658408,0.8744606209718833,-0.1188274504156124,-0.1331677487193305,-14.315836653679847,22.217780198870567,-6.546415019887239,4.38662298719789,0.3519373935673965,0.6347143744388176,4828.066243489583,12.022333333333332,0.4133333333333333,179.28703343571482,11.466781125805865,53.1571925867829,1525.0,1837.0,1200.0,1528.0,1475.0,1021.7000000000002,135.0,293.35,1637165770.4044964,1637165771.524821,3c37dbe0-3bd1-454e-a8bd-10732b86630d
-0.037552067992642,0.0173300435158815,-0.0627537366865962,-0.9829983839429108,-0.3088398277684705,0.8469853267830748,-0.1298120911590531,-0.1640397942532698,-14.249791618790956,22.272198541120275,-6.788879471237553,4.2569578479353005,0.343452000028846,0.6558126735332199,4829.275119357639,12.021,0.4088888888888888,179.27349751859967,11.455060521190124,53.04811977810715,1525.0,1837.0,1200.0,1528.0,1475.0,1021.7000000000002,135.0,293.35,1637165771.6340988,1637165772.6377833,3c37dbe0-3bd1-454e-a8bd-10732b86630d
-0.1056376637787375,0.0403539586658137,0.0316977336861597,0.7199497576637812,-0.0257730271166518,-0.8277478062886914,-0.4889633057121859,-0.5250126582858858,-14.746947673093365,23.754163535307185,-19.76087630404717,-3.335615788271007,0.3446383959181017,0.6513382585290296,4828.97265625,12.041,0.32,179.26009061616884,10.913166972819653,52.78314866053577,1525.0,1334.0,1200.0,1528.0,1475.0,1021.7000000000002,135.0,293.35,1637165774.1908944,1637165775.2101572,486c6ebe-d9bc-4808-b161-3433bdaca248
-0.0882841230632773,0.0505305017799301,0.0356149494849641,0.7105676159311343,-0.024663605829835,-0.8273643023619427,-0.4859774551730889,-0.5235882158468269,-14.772521308104125,23.730997153812226,-19.49020542384602,-3.3135184387905974,0.3819917547713098,0.6417588556761548,4841.398274739583,12.038555555555556,0.3255555555555556,179.31933871266918,10.93310932278506,53.02767246846186,1525.0,1334.0,1200.0,1528.0,1475.0,1021.7000000000002,135.0,293.35,1637165775.318141,1637165776.439931,486c6ebe-d9bc-4808-b161-3433bdaca248
-0.1131022886750213,0.0449696989912924,0.0333961069731226,0.7175117704700602,-0.0244718540110436,-0.8266794743206499,-0.4884291397686882,-0.5224514014377358,-14.89208262841062,23.753704437270773,-19.276138740255178,-3.327629864928676,0.3590890696526649,0.6476099057012051,4842.61376953125,12.040888888888889,0.3288888888888889,179.35105052207564,10.92068805459696,53.21768150098244,1525.0,1334.0,1200.0,1528.0,1475.0,1021.7000000000002,135.0,293.35,1637165776.5493653,1637165777.669468,486c6ebe-d9bc-4808-b161-3433bdaca248
-0.1182932846869681,0.0472159345709635,0.0582142711996291,1.062528053429015,0.0279996628613327,-1.163998531622641,-0.5673213390161204,-0.5808535441116977,-15.10426280879895,25.33581404648579,-21.97602411402888,-4.852716439954331,0.3520658755527772,0.6533288646269535,4842.61376953125,12.029111111111112,0.361111111111111,179.4215517346885,10.813027956714542,53.68713026846623,1525.0,1234.0,1200.0,1528.0,1475.0,1021.7000000000002,135.0,293.35,1637165779.6953342,1637165780.7406497,bf34a25f-099d-48d7-b596-5a0592ed94d3
-0.1203203755112077,0.0456271337699274,0.052187785425431,1.0551866984249354,0.0229867223721199,-1.153945250060214,-0.5708413556610984,-0.5911944501547216,-15.244278916816691,25.25894892642633,-21.764403087348864,-4.81441144955258,0.345742841628439,0.6733586762580547,4839.87890625,12.02811111111111,0.3744444444444444,179.45046013089566,10.825108284626571,53.84913780211948,1525.0,1234.0,1200.0,1528.0,1475.0,1021.7000000000002,135.0,293.35,1637165780.848613,1637165781.97482,bf34a25f-099d-48d7-b596-5a0592ed94d3
-0.1228405424198575,0.0369024259319278,0.0510920607155904,1.055460629617778,0.0230825982733582,-1.144631582820185,-0.5681705260207118,-0.6044801151480103,-15.152856718065951,25.265936268831755,-21.614395342104952,-4.794038625470453,0.3109402325519642,0.6701383408924078,4839.87890625,12.029777777777776,0.37,179.46557609843876,10.821874759237,53.93156983739254,1525.0,1234.0,1200.0,1528.0,1475.0,1021.7000000000002,135.0,293.35,1637165782.0878525,1637165783.198871,bf34a25f-099d-48d7-b596-5a0592ed94d3
-0.1262098960373232,0.0537563152358801,0.0808952242281607,1.280503298868582,0.0627500235073963,-1.378308227042143,-0.6162881951770242,-0.6401793847876156,-15.296214230312591,26.851691138285563,-23.114568286753165,-5.815097511689328,0.3626718943316477,0.6451397687458327,4838.968587239583,12.022333333333332,0.3966666666666667,179.53182286210864,10.763982550150663,54.346375194241446,1525.0,1133.0,1200.0,1528.0,1475.0,1021.7000000000002,135.0,293.35,1637165785.2252357,1637165786.362856,c9be887d-f355-4f90-a720-cebc8d313c4a
-0.139108767933593,0.0505348846880606,0.0753727718094192,1.286683186324398,0.0596206337744861,-1.3816611489409922,-0.6228493968333086,-0.649330880857743,-15.418047932603091,26.82274979062007,-23.276375736586303,-5.837126244882208,0.3517745142220859,0.665634428466367,4834.118435329861,12.023222222222223,0.4,179.51235682297408,10.761440676278298,54.4230213003776,1525.0,1133.0,1200.0,1528.0,1475.0,1021.7000000000002,135.0,293.35,1637165786.4711163,1637165787.415872,c9be887d-f355-4f90-a720-cebc8d313c4a
-0.1260592338881058,0.0510783641001153,0.0751706106714488,1.2741946640119997,0.0579677331474756,-1.3698305973742018,-0.6186560570731268,-0.6523633003547985,-15.30688954274666,26.740039514118767,-23.137990378379083,-5.782850718201412,0.3533230205044484,0.662454006875561,4829.275119357639,12.026,0.39,179.50787014759933,10.76996494208995,54.47596133772447,1525.0,1133.0,1200.0,1528.0,1475.0,1021.7000000000002,135.0,293.35,1637165787.524505,1637165788.6162806,c9be887d-f355-4f90-a720-cebc8d313c4a
-0.1272234414784262,0.0506948604735087,0.0741844583247483,1.3020671609907837,0.0540916069672637,-1.3959225671939997,-0.6358452440145533,-0.6717165448201449,-15.541078679950177,27.59080882898113,-23.33079495242065,-5.898914252862938,0.351771214684539,0.6929645099317909,4834.419921875,12.014,0.4333333333333333,179.4993430358755,10.74414455029758,54.6013677848904,1525.0,1033.0,1200.0,1528.0,1475.0,1021.7000000000002,135.0,293.35,1637165789.8434668,1637165790.875018,ba9fd1c9-b7fc-4706-a3cd-4cbf4f524dda
-0.1309489056650566,0.0568309187178389,0.0836076906301361,1.3012179742261207,0.0590223681046975,-1.4018805759588877,-0.6278327544854275,-0.6499800991232675,-15.20862556711542,27.72747150252321,-23.37051088620456,-5.908850951883341,0.3734883971625322,0.662851059921033,4828.97265625,12.010888888888887,0.4477777777777778,179.5001823902335,10.774709551969648,54.645399737739744,1525.0,1033.0,1200.0,1528.0,1475.0,1021.7000000000002,135.0,293.35,1637165791.0071323,1637165792.0971591,ba9fd1c9-b7fc-4706-a3cd-4cbf4f524dda
-0.1213065277849835,0.0541053035748833,0.0812792757172786,1.309148281676458,0.0607755276396692,-1.4057977956228287,-0.6316403989595777,-0.6642382210420019,-15.510082290872512,27.62208069021926,-23.289705469285337,-5.936495750907286,0.3635573563928282,0.6687444948009622,4826.25341796875,12.011,0.4499999999999999,179.48073304711696,10.773347877867614,54.69446781673712,1525.0,1033.0,1200.0,1528.0,1475.0,1021.7000000000002,135.0,293.35,1637165792.206072,1637165793.2410843,ba9fd1c9-b7fc-4706-a3cd-4cbf4f524dda
-0.0928039876596266,0.0255205856286092,-0.0061047685199028,0.2488155750473416,-0.1073771266395382,-0.354915058367399,-0.3923751529478794,-0.4291367245951771,-14.6988448443237,22.67456822921677,-16.046988260585383,-1.2187570335593512,0.3113395881105778,0.676283063482407,4824.44287109375,12.043,0.31,179.4749364932413,11.052652811458437,54.70789938373995,1525.0,1435.0,1200.0,1528.0,1475.0,1021.7000000000002,135.0,293.35,1637165794.2364624,1637165795.3742158,4ba89652-a3ea-4dd5-a774-b0bb390526ba
-0.0803538152405221,0.0339713623398173,0.0006065452983786,0.2473500433666864,-0.1024052756150914,-0.3634343194382625,-0.3892112473171745,-0.4241648727861971,-14.782633173354435,22.69678425631304,-16.23449147474581,-1.234185684939512,0.3458962848548187,0.6565357608011605,4834.419921875,12.042333333333334,0.3,179.4718416586374,11.06883210664612,54.68418952040111,1525.0,1435.0,1200.0,1528.0,1475.0,1021.7000000000002,135.0,293.35,1637165795.4832733,1637165796.433735,4ba89652-a3ea-4dd5-a774-b0bb390526ba
-0.0856132940159949,0.0293419255238075,-0.0075976934295393,0.247432222690196,-0.1091987690450536,-0.3573256530529733,-0.3962238866650742,-0.4262056605128661,-14.862225409241242,22.711842879375883,-16.05862167119533,-1.2209647932731962,0.3270077191317724,0.6865832951271597,4837.14794921875,12.04377777777778,0.3088888888888889,179.45032656275188,11.066099936114377,54.68778523554417,1525.0,1435.0,1200.0,1528.0,1475.0,1021.7000000000002,135.0,293.35,1637165796.5427427,1637165797.627086,4ba89652-a3ea-4dd5-a774-b0bb390526ba
-0.0431539606234118,0.0557214974742987,0.1433109884827401,0.2207102382339541,0.0257534272239592,-0.3675295911197991,-0.2394119628935953,-0.2528619857393464,-13.95103566854748,22.585388023939505,-16.151346153806617,-1.1764963053229525,0.4331744997405038,0.077317579766284,4845.35107421875,12.042333333333334,0.3,179.3935813511274,11.052508808303436,54.58400278783554,1525.0,1435.0,1200.0,1439.0,1475.0,1021.7000000000002,135.0,293.35,1637165799.7661464,1637165800.811362,ee0db20d-905a-470a-bd2b-f2057c97e03f
-0.0287040908500757,0.0497908876112086,0.1451463272719231,0.2320372915991027,0.0288488494923904,-0.3714742006589484,-0.2373026926433817,-0.2731739846607018,-13.776529835674912,22.61800119833927,-16.041615973363115,-1.2104985091894318,0.4074457628437664,0.0672417106019447,4845.35107421875,12.041000000000002,0.3,179.38182280101626,11.049115911833232,54.57773077690271,1525.0,1435.0,1200.0,1439.0,1475.0,1021.7000000000002,135.0,293.35,1637165800.919711,1637165802.0408523,ee0db20d-905a-470a-bd2b-f2057c97e03f
-0.0427430638766435,0.0587210438026487,0.1486663427250449,0.2284077037689934,0.0293556221556947,-0.3762269074420484,-0.2351797258249224,-0.2579297133082838,-13.628765732097149,22.61997992545929,-15.927655639898632,-1.2127100779195028,0.4395534762076607,0.0600426261188038,4845.046929253473,12.043555555555557,0.3,179.3648323260009,11.04467220973197,54.59441768795495,1525.0,1435.0,1200.0,1439.0,1475.0,1021.7000000000002,135.0,293.35,1637165802.1494522,1637165803.2658043,ee0db20d-905a-470a-bd2b-f2057c97e03f
0.023616763946792,0.0940992543784042,0.3251464914679041,0.2150672563292267,0.1865373259978793,-0.4069756873806223,-0.0603842318217499,-0.096392486487018,-12.641242884760445,22.741031073177883,-15.771709326981272,-1.2416019626316397,0.5767041313930076,-0.6384532829679639,4840.79052734375,12.039666666666667,0.31,179.3130109218581,11.037508005338797,54.48095610328252,1525.0,1435.0,1200.0,1351.0,1475.0,1021.7000000000002,135.0,293.35,1637165804.2716153,1637165805.410103,c3ad9fd7-c51f-4ad7-b492-ed881c2cc0f3
0.0306841882156987,0.0939211991135428,0.3282830031586121,0.2145330905185226,0.1894546928465027,-0.4047294514053393,-0.0552754152661399,-0.0790115526171124,-12.50566665114512,22.676011752059853,-15.515465863980891,-1.2355151745558466,0.5730691639682693,-0.6535194416514892,4842.917914496527,12.04011111111111,0.31,179.30547494647388,11.039584193119005,54.44620865424494,1525.0,1435.0,1200.0,1351.0,1475.0,1021.7000000000002,135.0,293.35,1637165805.5186183,1637165806.6381595,c3ad9fd7-c51f-4ad7-b492-ed881c2cc0f3
0.0140017796877913,0.0950169237998809,0.3282966997222347,0.2133962762306872,0.1881672163991064,-0.4076605154941836,-0.0559465466592809,-0.0689582785018999,-12.414682284893862,22.724134813919616,-15.93167589918543,-1.2392381438983016,0.5803653423963848,-0.6512495095007037,4846.2646484375,12.038333333333334,0.31,179.28712450490377,11.020907515152295,54.39666018527595,1525.0,1435.0,1200.0,1351.0,1475.0,1021.7000000000002,135.0,293.35,1637165806.7459202,1637165807.86748,c3ad9fd7-c51f-4ad7-b492-ed881c2cc0f3
0.0855252087507829,0.1247247588521824,0.5090364721711217,0.2095201503212385,0.3517041166972743,-0.4411075188623921,0.1235468549235097,0.1000572567152673,-11.38705803490834,22.825104534294365,-15.675750109778456,-1.2954273855845089,0.6941831346688007,-1.371322415367085,4848.091796875,12.03788888888889,0.3177777777777777,179.24309103423462,10.994137442474075,54.2831929087792,1525.0,1435.0,1200.0,1262.0,1475.0,1021.7000000000002,135.0,293.35,1637165808.7776134,1637165809.8231103,adebaddd-5c11-4e98-8d1e-531513de0bac
0.094332095851028,0.1346410670730388,0.5165284890282832,0.202329457371929,0.3531970414708825,-0.4432030926002834,0.1290117816694159,0.1016460576286829,-11.140570839615789,23.02281965010467,-15.4876299360076,-1.2820781853839402,0.729327074682503,-1.3898557867725103,4848.091796875,12.04011111111111,0.3111111111111111,179.25782754682388,11.021331176608316,54.25185524195728,1525.0,1435.0,1200.0,1262.0,1475.0,1021.7000000000002,135.0,293.35,1637165809.930938,1637165811.1440742,adebaddd-5c11-4e98-8d1e-531513de0bac
0.0846075393105974,0.1213964951948995,0.5000378339946422,0.2119855307968321,0.343513575256453,-0.4390256413970982,0.1158493891372918,0.0965646344321888,-11.2842647951104,22.8063933793013,-15.585318587325771,-1.296816375079163,0.6792967606921799,-1.3371149089760916,4841.094401041667,12.038555555555554,0.3155555555555555,179.2689425413332,11.012540343691551,54.23525029317506,1525.0,1435.0,1200.0,1262.0,1475.0,1021.7000000000002,135.0,293.35,1637165811.25259,1637165812.4855874,adebaddd-5c11-4e98-8d1e-531513de0bac
0.1425494598048163,0.1439695189710108,0.6463680170348747,0.2242554552608972,0.4745540193761113,-0.4787922389229251,0.2564303133529326,0.241414503014895,-10.252687007380514,23.164641265487138,-15.393362871312725,-1.403644169350704,0.7627287101226345,-1.9115341260125485,4822.934733072917,12.03188888888889,0.3377777777777778,179.25987812139468,11.010838583087097,54.23103682536707,1525.0,1435.0,1200.0,1173.0,1475.0,1021.7000000000002,135.0,293.35,1637165814.190422,1637165815.2370074,adc716da-6122-4896-8369-1326067b11a0
0.1348602119516882,0.1510632404017554,0.6493303084381239,0.219600816972261,0.4757812309161801,-0.481183658750847,0.2553899228388477,0.2286268483307717,-10.517993741500046,23.292689453913805,-15.347304952341666,-1.397648142932642,0.7915670947978888,-1.9151178667190485,4817.21240234375,12.036333333333332,0.3400000000000001,179.26411587431969,11.005144861503984,54.233420940842365,1525.0,1435.0,1200.0,1173.0,1475.0,1021.7000000000002,135.0,293.35,1637165815.3454282,1637165816.377044,adc716da-6122-4896-8369-1326067b11a0
0.128546098585465,0.1520356960358387,0.6524394269343918,0.2232577979918997,0.477575479928344,-0.4872786286153236,0.2584853448983703,0.2233536736085925,-10.240373546296468,23.293521798737714,-15.577049237967174,-1.419330151820675,0.7950325479988823,-1.926187488159621,4807.905164930556,12.036111111111111,0.3400000000000001,179.25918295991914,11.015425624297192,54.20802781532807,1525.0,1435.0,1200.0,1173.0,1475.0,1021.7000000000002,135.0,293.35,1637165816.4849255,1637165817.6053057,adc716da-6122-4896-8369-1326067b11a0
-0.1515622277928453,-9.799886902017257e-06,-0.1991029866949382,0.2751677523269593,-0.284336680837346,-0.3413280698856247,-0.5987823439423307,-0.6099861333844304,-16.136176061546163,23.206644971602287,-15.75865003743032,-1.2544296867945552,0.2077321114141394,1.470591070016373,4820.82470703125,12.043666666666669,0.3,179.33827047922867,11.025382047968565,54.33571630458669,1525.0,1435.0,1200.0,1617.0,1475.0,1021.7000000000002,135.0,293.35,1637165819.1897233,1637165820.1624248,edfe8f86-5d24-4d5a-8298-42c3dacde89d
-0.1554109610478627,0.0064960655695606,-0.1989660211129726,0.272031240577209,-0.2848023639106354,-0.3445056719843167,-0.6007135593326588,-0.6333524705236647,-16.278413340636835,23.176909898587137,-15.720567598539525,-1.2547508064155672,0.2331966095394884,1.4745144422208585,4818.11474609375,12.042222222222222,0.3,179.3376329949061,11.028572600084605,54.2872416931372,1525.0,1435.0,1200.0,1617.0,1475.0,1021.7000000000002,135.0,293.35,1637165820.2946606,1637165821.2917776,edfe8f86-5d24-4d5a-8298-42c3dacde89d
-0.1598486463659387,-0.0157334494652207,-0.2209353033177084,0.2851662394846964,-0.2998137942384186,-0.3351646174752636,-0.6184916981666161,-0.6443371144260551,-16.34064198157718,23.14912511803864,-15.921820952603914,-1.2647310666480145,0.149036149087521,1.5473288151955378,4814.206108940973,12.040444444444445,0.3,179.3211889350243,10.998561602645216,54.22431022739947,1525.0,1435.0,1200.0,1617.0,1475.0,1021.7000000000002,135.0,293.35,1637165821.4001458,1637165822.520544,edfe8f86-5d24-4d5a-8298-42c3dacde89d
-0.2288793083308725,-0.045728913670524,-0.4127693328283255,0.3411851604671545,-0.4716371548144498,-0.3575584946544923,-0.8312267336279575,-0.8462381703686025,-17.691468374911853,23.658592762785663,-17.505810469038725,-1.4485252598278553,0.0410848549811971,2.3392125919659663,4897.666178385417,12.036777777777775,0.31,179.35725688730147,10.985562993744772,54.19554336789015,1525.0,1435.0,1200.0,1706.0,1475.0,1021.7000000000002,135.0,293.35,1637165824.8647244,1637165826.0020974,783d53a1-73c2-406c-9abd-0c09cde348e2
-0.2341250908836157,-0.0375246747833311,-0.4075783361037839,0.3392539458144978,-0.4692813462561269,-0.3631603880593819,-0.8277067163953277,-0.8493609871664857,-17.548465381060172,23.67721198270011,-17.379726446627163,-1.4562831265534886,0.0702932905392535,2.3251622159186853,4923.27783203125,12.037,0.31,179.35960647237593,10.987361610226207,54.19486679970736,1525.0,1435.0,1200.0,1706.0,1475.0,1021.7000000000002,135.0,293.35,1637165826.1106665,1637165827.230986,783d53a1-73c2-406c-9abd-0c09cde348e2
-0.2198154727448683,-0.0366672702807285,-0.4062377166913193,0.3298000338783455,-0.4682075357745848,-0.3525647286170831,-0.8245636285679017,-0.849454123582809,-17.71942809309285,23.661577437864885,-16.973485234571722,-1.4112057463914534,0.0723673070375062,2.317877827068367,4934.615234375,12.037666666666668,0.3155555555555555,179.36377592340926,10.968177695849889,54.16172482457969,1525.0,1435.0,1200.0,1706.0,1475.0,1021.7000000000002,135.0,293.35,1637165827.339317,1637165828.4593277,783d53a1-73c2-406c-9abd-0c09cde348e2
-0.3042695595597873,-0.0730628628390126,-0.5916738278201913,0.4088762871742987,-0.6334341008845097,-0.3796773450374405,-1.0336674645182913,-1.0581635029332277,-18.86584999767442,24.478442055420373,-17.068515691978945,-1.654918683332035,-0.0766597348998447,3.088429990198936,4882.163194444444,12.03588888888889,0.33,179.39249307431965,10.961966397709672,54.20993647374613,1525.0,1435.0,1200.0,1795.0,1475.0,1021.7000000000002,135.0,293.35,1637165829.3705256,1637165830.3923528,5b4dd44e-192a-4eb1-89fd-b0ab49c37e00
-0.2888976356563923,-0.0640959994907419,-0.5824012546830463,0.4043947735703321,-0.6248058138290675,-0.3842941819453466,-1.0264438948447925,-1.0558778223945635,-19.055227755677983,24.38364525290751,-16.996872110530816,-1.655434750360569,-0.0411851573275391,3.054806803322253,4870.12841796875,12.035999999999998,0.3344444444444445,179.3982926638349,10.963143751567852,54.17647347972747,1525.0,1435.0,1200.0,1795.0,1475.0,1021.7000000000002,135.0,293.35,1637165830.5005105,1637165831.5284512,5b4dd44e-192a-4eb1-89fd-b0ab49c37e00
-0.285843302697163,-0.0672325115054591,-0.5772376506166585,0.4052028704551544,-0.6202722515221745,-0.3796784409022839,-1.0174726430707663,-1.0389077733367929,-18.736081399685123,24.333159482072592,-16.618712837496442,-1.6467420648639346,-0.0583324451791263,3.029225050357834,4867.36328125,12.036888888888887,0.3211111111111111,179.39053356893777,10.961873715837182,54.1603694114844,1525.0,1435.0,1200.0,1795.0,1475.0,1021.7000000000002,135.0,293.35,1637165831.637207,1637165832.757018,5b4dd44e-192a-4eb1-89fd-b0ab49c37e00
-0.3258235631456598,-0.0856543836441794,-0.7004656314368874,0.4581948512044775,-0.7331730265818847,-0.3991686475040648,-1.161875563491151,-1.1747229466252378,-19.666730163705704,25.214221402258687,-16.054862445384845,-1.8107499356308685,-0.1401576564566821,3.5545907024410144,4766.911946614583,12.02811111111111,0.3777777777777777,179.39815454223168,10.961860719505014,54.109802864874126,1525.0,1435.0,1200.0,1883.0,1475.0,1021.7000000000002,135.0,293.35,1637165834.695217,1637165835.7338092,3cded17b-3ca1-4110-a029-aecd42583f72
-0.3225911749057336,-0.0756421988666509,-0.6813178351440143,0.4546474428427482,-0.7158194797014718,-0.4037843886341972,-1.144152203028615,-1.1664776123332397,-19.726096535501966,25.136971846012543,-15.63784912957906,-1.8126421115173628,-0.1042323541166407,3.48137842145414,4740.836263020833,12.027333333333331,0.3766666666666667,179.40660728078453,10.969672843231953,54.06373741292688,1525.0,1435.0,1200.0,1883.0,1475.0,1021.7000000000002,135.0,293.35,1637165835.842313,1637165836.791608,3cded17b-3ca1-4110-a029-aecd42583f72
-0.3387257234994956,-0.0863118184779187,-0.7139430509296859,0.4821090404049451,-0.743842650524197,-0.4237950648531319,-1.1843653309715585,-1.210334029754912,-19.82860108505219,25.36827785975328,-16.655899882786468,-1.919860452598277,-0.1399469069496919,3.6186209532124174,4732.111870659723,12.027888888888889,0.37,179.4084954486351,10.956172974337424,54.04269777409856,1525.0,1435.0,1200.0,1883.0,1475.0,1021.7000000000002,135.0,293.35,1637165836.9054277,1637165837.973369,3cded17b-3ca1-4110-a029-aecd42583f72
-0.1009643976325939,0.0088535173231615,-0.0301455165955881,0.2338671517295634,-0.0969671936986667,-0.34054681810984,-0.3820309621070902,-0.4132196763785093,-15.27392685029902,19.34928608388084,-18.29109260088568,-1.17663766929858,0.2730476987125272,0.675796312110445,7479.4296875,11.829,7.889999999999999,178.22074073016802,10.83414083034896,46.672489183732594,1525.0,1435.0,1350.0,1528.0,1475.0,1021.7000000000002,135.0,293.35,1637165841.1910248,1637165842.1784656,622f74d6-f797-4087-bf2d-43b2f53f89d5
-0.1015697855795616,0.0090710186756612,-0.0390449928010789,0.2292431937868272,-0.105240463426168,-0.3343154307261103,-0.3906356897393021,-0.4161934750675978,-15.449708884754122,19.34454390102032,-18.04679886726968,-1.152728506944425,0.27294748228715,0.7116564158137243,7477.980577256944,11.826333333333332,7.91888888888889,177.94155295329423,10.768173060933949,43.64842141088963,1525.0,1435.0,1350.0,1528.0,1475.0,1021.7000000000002,135.0,293.35,1637165842.2875526,1637165843.298338,622f74d6-f797-4087-bf2d-43b2f53f89d5
-0.0896674755298357,0.0093038601738158,-0.0357304255268274,0.2217511765794545,-0.1027613861925631,-0.3269329844766259,-0.3846228993476906,-0.4174672547210547,-15.40411821102891,19.29585736874684,-17.909463041531698,-1.119351873510896,0.2734126238081104,0.6954088183165972,7462.067057291667,11.826,7.96,177.77325405650546,10.716463785730026,40.8574664765994,1525.0,1435.0,1350.0,1528.0,1475.0,1021.7000000000002,135.0,293.35,1637165843.4061103,1637165844.5273235,622f74d6-f797-4087-bf2d-43b2f53f89d5
0.0638298601290215,0.3173668467147381,-0.034470342072721,0.076060886896613,-0.172230336245713,-0.483854488245693,-0.4538179279148859,-0.4830600887215895,-15.3794815990927,18.678400826130083,-16.633598253182758,-1.1471485143882345,1.4353607986741097,0.9248977507784876,7459.90087890625,11.815,8.07,177.77655986806374,10.725453737633838,36.29331664550829,1610.0,1435.0,1350.0,1528.0,1542.0,1021.7000000000002,135.0,293.35,1637165846.1690142,1637165847.189202,cfe15af1-221a-4e5e-91f7-35ae06990ebe
0.0622273627437472,0.3070259456562665,-0.0368398467843325,0.0823613037230775,-0.1690116447089335,-0.4796496437702855,-0.4547492941469189,-0.4908808251183898,-15.718752871502902,18.56494766405018,-16.660990442500577,-1.1529570913865868,1.398292333215446,0.923644400366865,7472.90869140625,11.815444444444443,8.066666666666668,177.8871072386903,10.755147985050469,34.86181220722108,1610.0,1435.0,1350.0,1528.0,1542.0,1021.7000000000002,135.0,293.35,1637165847.2970877,1637165848.325379,cfe15af1-221a-4e5e-91f7-35ae06990ebe
0.0684045106488182,0.3108335886957196,-0.0345936111170977,0.0794439368856954,-0.1687377135148829,-0.4804577408121335,-0.4512840640152977,-0.4754584969228035,-15.474350201213872,18.51507868074798,-16.606146850043604,-1.148279100022769,1.4108581541650047,0.9159795616710604,7475.082356770833,11.817666666666668,8.063333333333334,178.00981993513858,10.79091057095344,33.53438125859211,1610.0,1435.0,1350.0,1528.0,1542.0,1021.7000000000002,135.0,293.35,1637165848.432824,1637165849.5509548,cfe15af1-221a-4e5e-91f7-35ae06990ebe
0.2667991554489106,0.6903378008583889,-0.0365248259488912,-0.1080482581046282,-0.259710265224412,-0.6692100726017305,-0.5439960929701468,-0.5772787412076806,-15.825573736686655,18.088596594894785,-15.479341315692984,-1.1524148766679427,2.849683351924416,1.2203168757606264,7472.90869140625,11.81,8.05777777777778,178.19960053577694,10.867392278230827,31.998818129389846,1695.0,1435.0,1350.0,1528.0,1609.0,1021.7000000000002,135.0,293.35,1637165850.1691048,1637165851.2861035,aa9cd55f-e481-4ef2-81c6-118771a3eb8b
0.2666621898427287,0.6838456327181963,-0.0477833974707791,-0.1031859795757944,-0.2677638427083884,-0.6678404163014342,-0.5551040052135486,-0.5790182052917937,-15.98657105067958,18.06048534910457,-15.63725240650138,-1.1611583536075625,2.82655997491078,1.261381420280786,7467.12744140625,11.807666666666666,8.146666666666667,178.35553223670848,10.934355642581112,31.1850614231205,1695.0,1435.0,1350.0,1528.0,1609.0,1021.7000000000002,135.0,293.35,1637165851.3943417,1637165852.4232209,aa9cd55f-e481-4ef2-81c6-118771a3eb8b
0.2657070038162225,0.6948261031213414,-0.036884509525492,-0.1164770017934459,-0.2612984707354183,-0.666021155564615,-0.5422804497659017,-0.5661481999903941,-15.730430735441589,17.960532752206518,-15.497933878429151,-1.127057705311317,2.8670213857728823,1.2210897004441497,7467.122667100694,11.807666666666668,8.094444444444443,178.5249209281248,10.976712301809036,30.465776478356183,1695.0,1435.0,1350.0,1528.0,1609.0,1021.7000000000002,135.0,293.35,1637165852.5310662,1637165853.6509087,aa9cd55f-e481-4ef2-81c6-118771a3eb8b
0.4310208812538106,0.988224227657766,-0.0374151022725535,-0.2749819301145323,-0.3343565203654473,-0.79782081157805,-0.6113283957383855,-0.6246003664552567,-15.985868908781178,17.84962141622418,-14.3817975362468,-1.0663931732900729,3.978838209281165,1.4551827395401815,7472.90869140625,11.794777777777776,8.22888888888889,178.81393962394398,11.125770935160809,29.06979243884762,1779.0,1435.0,1350.0,1528.0,1677.0,1021.7000000000002,135.0,293.35,1637165855.7896726,1637165856.9235532,47ba9d7e-4340-47fd-94f5-bd51da15bc42
0.4182282965719488,0.9792255892921314,-0.0459754517128491,-0.2644766684847248,-0.3407802074982238,-0.7970401073550267,-0.6206283622773973,-0.6334483469039011,-16.0226429175512,17.994182739856136,-14.219450959619756,-1.0877966889799395,3.942075596661834,1.487989105879488,7472.90869140625,11.797999999999998,8.193333333333333,178.94151237944166,11.169158478634715,28.70585529529734,1779.0,1435.0,1350.0,1528.0,1677.0,1021.7000000000002,135.0,293.35,1637165857.0322227,1637165858.1573498,47ba9d7e-4340-47fd-94f5-bd51da15bc42
0.4311304537141971,0.9805541553900736,-0.0475368594782087,-0.2577927469287218,-0.3418074495818699,-0.8020119605303023,-0.6231211367429071,-0.6504868716912381,-15.94597351007198,17.961019314826725,-13.882048964593848,-1.114251611155359,3.9426030135404617,1.495828262382073,7477.256022135417,11.797666666666666,8.18,179.04312738045368,11.18919711529467,28.36805747542817,1779.0,1435.0,1350.0,1528.0,1677.0,1021.7000000000002,135.0,293.35,1637165858.265843,1637165859.3857784,47ba9d7e-4340-47fd-94f5-bd51da15bc42
0.5385251600623698,1.2011920072182372,-0.0547001598131927,-0.3705565311764307,-0.4087562403851408,-0.8917929473342449,-0.6865773154891041,-0.7126692701738762,-16.06748513130871,18.55718152360861,-10.953993265599342,-1.0576330763433712,4.758477481093749,1.7166359721430833,7479.4296875,11.781555555555554,8.302222222222222,179.1570959169445,11.239586551305226,27.963339169618514,1864.0,1435.0,1350.0,1528.0,1744.0,1021.7000000000002,135.0,293.35,1637165860.2956798,1637165861.320154,65631ddb-6446-4573-ae95-c9c1865d4271
0.5433600448103965,1.2144776687978924,-0.045112568442762,-0.3726384085033694,-0.4014011868770692,-0.9017640471421728,-0.6790715984474001,-0.6973839053803031,-15.979400973767936,18.418747761610405,-10.72656273023334,-1.0757029668168367,4.806529418603663,1.6848911373598343,7483.784505208333,11.783,8.283333333333333,179.2589932324422,11.268994784550362,27.74901807874727,1864.0,1435.0,1350.0,1528.0,1744.0,1021.7000000000002,135.0,293.35,1637165861.428295,1637165862.6583626,65631ddb-6446-4573-ae95-c9c1865d4271
0.5499891785313601,1.2172443735926592,-0.0367850605950436,-0.3795551718766068,-0.3947446581371617,-0.901270970922618,-0.671785026684481,-0.6896453470939945,-16.095604147205215,18.49146777523424,-11.116434665673887,-1.0582163526697526,4.822564880842784,1.6537120045272526,7485.9619140625,11.781444444444444,8.30777777777778,179.33915385036127,11.29229464681152,27.55999581883428,1864.0,1435.0,1350.0,1528.0,1744.0,1021.7000000000002,135.0,293.35,1637165862.766606,1637165863.778993,65631ddb-6446-4573-ae95-c9c1865d4271
-0.312537899243169,-0.4030173810982944,-0.0310051126400221,0.4103116863818104,-0.0085838456621497,-0.0971047072088939,-0.280597519792465,-0.3036488322602251,-14.966765543120331,20.347304586019337,-17.58277616669792,-1.0207656722040124,-1.3019320555785756,0.3646819906403511,7485.9619140625,11.821222222222223,8.04,179.94721068231172,11.276008155599364,27.20254185289867,1440.0,1435.0,1350.0,1528.0,1408.0,1021.7000000000002,135.0,293.35,1637165865.7133255,1637165866.759711,cdbbe839-c103-4867-a396-fd2e915837b0
-0.3073058130858858,-0.3980592258911756,-0.0275672763272399,0.4087365822411657,-0.0060499822884772,-0.1018848065074419,-0.2773651315301618,-0.3126611688959445,-14.871099928076005,20.2529633361,-17.75146505256744,-1.028387097135841,-1.2821077018272782,0.3523962221477099,7479.4296875,11.821222222222222,8.068888888888889,-179.9342090377717,11.308853871271786,27.09357984506946,1440.0,1435.0,1350.0,1528.0,1408.0,1021.7000000000002,135.0,293.35,1637165866.8682072,1637165868.0114906,cdbbe839-c103-4867-a396-fd2e915837b0
-0.3219748295612167,-0.3981551018187052,-0.0267454828510064,0.4105308313135055,-0.0032558843014641,-0.0998303225224743,-0.2770090210471006,-0.2913356240507019,-15.110335915474346,20.20352920725617,-17.23178869099993,-1.0281421544859464,-1.2855495713323044,0.3475534133017663,7480.155490451389,11.821222222222222,8.084444444444443,-179.86487806423662,11.300403883767355,27.040530714423355,1440.0,1435.0,1350.0,1528.0,1408.0,1021.7000000000002,135.0,293.35,1637165868.1205704,1637165869.222626,cdbbe839-c103-4867-a396-fd2e915837b0
-0.4843064748395618,-0.7290229672897096,-0.0202670104052389,0.5549199391650051,0.066911585893727,0.0876481753513982,-0.1931723762177521,-0.2229760915092144,-14.38055979856146,21.62204914281014,-17.438704713720973,-0.9224988971954456,-2.5471791491908937,0.0846536898780812,7485.9619140625,11.805777777777775,8.17111111111111,-179.77187820849772,11.320469082274084,26.97375859536983,1355.0,1435.0,1350.0,1528.0,1341.0,1021.7000000000002,135.0,293.35,1637165870.1680424,1637165871.264089,6a8d3096-d4bc-49a7-90d0-447cfa4c4940
-0.4817452176877336,-0.7295160435817373,-0.0198013274089551,0.5599054860242947,0.0724176024057573,0.0862511264296128,-0.1922684032683605,-0.208485130730333,-14.715271868951753,21.3367946523818,-17.043099856547798,-0.9388576473150732,-2.550754854629256,0.0756574730551496,7492.50537109375,11.810666666666666,8.16,-179.75910879038943,11.32849398536642,26.933836139671104,1355.0,1435.0,1350.0,1528.0,1341.0,1021.7000000000002,135.0,293.35,1637165871.372619,1637165872.4927294,6a8d3096-d4bc-49a7-90d0-447cfa4c4940
-0.4879223672557681,-0.729968030205697,-0.0264441585365379,0.5566594019525596,0.0652953919581659,0.0907846872747311,-0.198322282774882,-0.2231815404728785,-14.714932981511764,21.376720532309065,-16.935934206929335,-0.921396602141892,-2.553423064811985,0.1030843716813544,7485.9619140625,11.808,8.18,-179.74803933047457,11.284802688201925,26.92400294399601,1355.0,1435.0,1350.0,1528.0,1341.0,1021.7000000000002,135.0,293.35,1637165872.6006925,1637165873.722082,6a8d3096-d4bc-49a7-90d0-447cfa4c4940
-0.6345303739640797,-1.0179520228811283,-0.0138022346015847,0.6919676911830513,0.1321209003843167,0.2589510278046226,-0.1203203753426524,-0.1402214769423791,-14.084179979356689,22.889566108817395,-15.104226707515764,-0.8374589215387189,-3.6700690812924406,-0.1474808509390871,7485.9619140625,11.796,8.26,-179.65816770137553,11.317544053762028,26.92874309528,1271.0,1435.0,1350.0,1528.0,1273.0,1021.7000000000002,135.0,293.35,1637165874.7242277,1637165875.6604698,258ddfe8-46c4-4fd5-8154-182b7ec66ce0
-0.6492130900685137,-1.0309637620175665,-0.0159525943839512,0.7079926631784538,0.1348465154613974,0.2563212887063226,-0.1239362671368981,-0.1432210233497001,-14.322450672375137,22.98419129703979,-15.214724680873596,-0.8791340522720942,-3.718312985596984,-0.1449090259866147,7494.6904296875,11.794666666666666,8.256666666666668,-179.66929180280374,11.294656943626958,26.957280194814743,1271.0,1435.0,1350.0,1528.0,1273.0,1021.7000000000002,135.0,293.35,1637165875.769226,1637165876.8868544,258ddfe8-46c4-4fd5-8154-182b7ec66ce0
-0.6386667361924401,-1.0242661404792164,-0.0078305349862526,0.7128138513313305,0.1407908217485566,0.2444463730671948,-0.11912877469356,-0.1507267384120189,-14.176527255069084,23.04040989172196,-15.290439783077773,-0.9158555036568484,-3.693632324510643,-0.1700966212955066,7504.168131510417,11.794555555555554,8.234444444444444,-179.66266044802958,11.279426285824002,27.023256976284912,1271.0,1435.0,1350.0,1528.0,1273.0,1021.7000000000002,135.0,293.35,1637165876.9953167,1637165878.0542748,258ddfe8-46c4-4fd5-8154-182b7ec66ce0
-0.7772808950433802,-1.2665179057497973,0.009366316470233,0.8356566302168729,0.2039144231017131,0.3842093349642031,-0.0527612749096461,-0.0835423744842266,-14.048638424501483,24.62684252508947,-12.784116285895015,-0.8670558389053735,-4.63934986160224,-0.3992697373837806,7512.20556640625,11.77822222222222,8.305555555555555,-179.60990710252003,11.25861906315494,27.068997994246576,1186.0,1435.0,1350.0,1528.0,1206.0,1021.7000000000002,135.0,293.35,1637165878.6971676,1637165879.7599597,45c60825-2e9e-402d-aa94-6370bc51e331
-0.7726525519702014,-1.2769316824354682,0.0008065150570162,0.8421652342910536,0.1973400752488457,0.386773330536808,-0.058717634538999,-0.094639874422816,-13.868803962234235,24.63064429494701,-13.07487071924028,-0.8763328570990739,-4.678447660366556,-0.3716555806554699,7505.62744140625,11.78,8.321111111111112,-179.58292026619944,11.25732502689844,27.08404243453092,1186.0,1435.0,1350.0,1528.0,1206.0,1021.7000000000002,135.0,293.35,1637165879.891322,1637165880.8983314,45c60825-2e9e-402d-aa94-6370bc51e331
-0.7678269783404456,-1.2658867677362275,0.0019504516331129,0.8341708276945445,0.1974058187138351,0.3823816662777847,-0.0594276641628509,-0.0712351947552832,-14.025270129439148,24.49470934392746,-13.203021414578869,-0.8691114482876039,-4.633724792870182,-0.3712615416777635,7505.62744140625,11.779666666666667,8.278888888888888,-179.58952885367637,11.23497522497808,27.14168259066413,1186.0,1435.0,1350.0,1528.0,1206.0,1021.7000000000002,135.0,293.35,1637165881.011298,1637165882.1192389,45c60825-2e9e-402d-aa94-6370bc51e331
-0.1013643371995987,0.0051127131930433,-0.0506596748757309,0.2298321457444332,-0.1123489777414513,-0.3262892461207392,-0.3965663007538612,-0.4286847382499026,-15.426713742184154,18.960617329911745,-17.443486372544832,-1.1390368123658956,0.2517762000671969,0.7461652652368621,7505.62744140625,11.821999999999996,8.07,-179.98471904559383,11.239310213235052,27.35518424856245,1525.0,1435.0,1350.0,1528.0,1475.0,1021.7000000000002,135.0,293.35,1637165883.6900015,1637165884.6684122,01705126-f911-428f-8f1b-c0de470fa03d
-0.1018163236665619,0.0065097621704884,-0.0490845705850157,0.2231071358282405,-0.1115682738526439,-0.3233444856323782,-0.3936626298370926,-0.4104546149059339,-15.412370209228172,18.91186703715402,-17.692702115942485,-1.117526815787789,0.2600502750796428,0.7386092886194179,7499.060546875,11.825,8.096666666666668,-179.98157260511618,11.22876468574777,27.37170192270527,1525.0,1435.0,1350.0,1528.0,1475.0,1021.7000000000002,135.0,293.35,1637165884.7760055,1637165885.8981822,01705126-f911-428f-8f1b-c0de470fa03d
-0.1061444364499659,0.0039074160194478,-0.0503309574554938,0.2220251077787855,-0.1132118609954556,-0.3201942765392962,-0.3945939959675273,-0.4320130024388577,-15.408233238290466,18.99735838000352,-17.75839425816572,-1.1075108037173482,0.2508984985441824,0.7434237245481867,7499.060546875,11.824666666666666,8.042222222222222,179.9740411831914,11.22490344700073,27.427241605941227,1525.0,1435.0,1350.0,1528.0,1475.0,1021.7000000000002,135.0,293.35,1637165886.0069044,1637165887.1254623,01705126-f911-428f-8f1b-c0de470fa03d
-0.0915165110342769,0.0009763524190647,-0.0691637262598922,-0.1678474373831101,-0.1708332871371298,0.0629532803585642,-0.3050869701067322,-0.3185096003727468,-15.325367599026578,18.13040938854968,-14.455281486884608,0.6268132498666253,0.2568363753102727,0.72143780698753,7499.060546875,11.821555555555555,8.108888888888888,179.93621407774805,11.307442583434533,27.544218081851543,1525.0,1535.0,1350.0,1528.0,1475.0,1021.7000000000002,135.0,293.35,1637165888.6740353,1637165889.796295,fa76c33c-ea76-4a63-9976-b3735d2793fb
-0.0830657339859737,-0.0005987518572928,-0.0675338357293235,-0.171381149628084,-0.1713674529914881,0.0691715179429848,-0.3017997955592897,-0.3149895841754226,-15.14229351081176,18.247998966705136,-14.236879159916615,0.6497452916663833,0.2482377251370295,0.7154296365312532,7499.060546875,11.821,8.13111111111111,179.91126567343971,11.330407007516454,27.52983503155184,1525.0,1535.0,1350.0,1528.0,1475.0,1021.7000000000002,135.0,293.35,1637165889.9298213,1637165890.9242551,fa76c33c-ea76-4a63-9976-b3735d2793fb
-0.0891880959706567,0.0060851688581281,-0.0651780275851344,-0.1767638975796644,-0.1687924997839752,0.065761074951434,-0.3006766776510934,-0.3158113777962918,-15.337482421207312,18.112893288064743,-14.479116261002623,0.6533085360223142,0.277644717904987,0.7074510049259208,7504.897786458333,11.823555555555556,8.104444444444445,179.87694169613067,11.318309129812809,27.52027694071831,1525.0,1535.0,1350.0,1528.0,1475.0,1021.7000000000002,135.0,293.35,1637165891.0325022,1637165892.1474316,fa76c33c-ea76-4a63-9976-b3735d2793fb
-0.0848462866623814,-0.0143911866150416,-0.1034873038135015,-0.6089862835074316,-0.2521497639384394,0.5044070357875571,-0.2200724200583718,-0.2494378458105682,-15.273716116020095,17.808491769266407,-11.389948498331728,2.610591455455293,0.223797457878971,0.7567022011177272,7500.519856770833,11.817888888888888,8.112222222222222,179.7956578915481,11.452526900463006,27.56980150402521,1525.0,1636.0,1350.0,1528.0,1475.0,1021.7000000000002,135.0,293.35,1637165893.251565,1637165894.193221,da55151e-bb66-44fe-a06c-e50c22549dd1
-0.067232511529151,-0.016116953040418,-0.1126092123513986,-0.6132733078866573,-0.2625591497788287,0.5070915610244454,-0.228865611598018,-0.260751204982912,-15.191449468221784,17.903517970135997,-11.880158303194074,2.62643341745811,0.2210383942320984,0.7949146834255627,7518.794921875,11.820222222222222,8.114444444444445,179.78683632278006,11.46486582692611,27.55378395151162,1525.0,1636.0,1350.0,1528.0,1475.0,1021.7000000000002,135.0,293.35,1637165894.3017452,1637165895.3176348,da55151e-bb66-44fe-a06c-e50c22549dd1
