raw_voltage_G-,raw_voltage_G0,raw_voltage_G1,raw_voltage_G2,raw_voltage_G3,raw_voltage_G4,raw_voltage_G5,raw_voltage_G6,load_x,load_y,load_z,load_l,load_m,load_n,rpm,voltage,current,roll,pitch,yaw,aileron1_pwm,elevator_pwm,throttle_pwm,rudder_pwm,aileron2_pwm,pbaro,pdiff,Tt,sample_start_time,sample_end_time,uid
0.0007161177112715,0.1400512075641385,0.0253425304650352,0.0541874829786093,-0.1101849213301356,-0.0125010615527271,-0.2813508306109756,-0.3178932548642398,-13.84013083338492,21.31162409905996,23.64149366415489,-0.010984198783022,0.4089966341382007,0.5484549736320304,5007.32421875,12.041,0.3077777777777777,179.19614942079883,-1.3552759816176472,92.69702260602314,1525.0,1435.0,1200.0,1528.0,1475.0,1021.7000000000002,135.0,293.35,1637160253.8010466,1637160255.0217106,23dddf6b-237b-4867-9c59-850766742b96
-0.0007055851437215,0.1259426568709916,0.0206478980009232,0.0651430862351449,-0.1079726530484713,-0.0105802560958264,-0.2821928951425611,-0.3169975004932837,-13.946662931528374,21.060854301800045,23.36594898381229,-0.0333747428585601,0.3576264078532861,0.5510687178537931,5021.0126953125,12.040888888888889,0.31,179.20986140501256,-1.3672468367754789,91.98451245000554,1525.0,1435.0,1200.0,1528.0,1475.0,1021.7000000000002,135.0,293.35,1637160255.1308498,1637160256.251049,23dddf6b-237b-4867-9c59-850766742b96
-0.0191532063487684,0.1218402637106726,0.0214105223692947,0.0720593004246959,-0.107591340884724,-0.0112639883171619,-0.2831133040265007,-0.2927118542204441,-13.923305525280655,21.27200421122024,23.59928012541833,-0.049025801463541,0.3392070065487587,0.5506433016506971,5021.33935546875,12.039,0.3033333333333333,179.2406473443315,-1.386941805826884,91.46258506239886,1525.0,1435.0,1200.0,1528.0,1475.0,1021.7000000000002,135.0,293.35,1637160256.3591735,1637160257.4486248,23dddf6b-237b-4867-9c59-850766742b96
0.1802232126227883,0.4776576592474253,0.0451751474188616,-0.1064868502870156,-0.1684500857435872,-0.1959527779891305,-0.3369725634528062,-0.3654477147396571,-13.521091637565936,20.43968133178495,23.4256597899317,-0.0654492610715244,1.695905884211523,0.7196918565183994,4980.817762586806,12.033,0.3400000000000001,179.177434702473,-1.3697461879770767,90.52545958206596,1610.0,1435.0,1200.0,1528.0,1542.0,1021.7000000000002,135.0,293.35,1637160259.3051636,1637160260.5561244,0662eaad-4b03-444b-9b69-f3394f2f8ce1
0.1857840151778724,0.4779315903978709,0.0433945947945986,-0.1175947600174296,-0.1705730525275489,-0.1829273494792986,-0.3359316248388607,-0.3505458559168579,-13.645958680555006,20.404832178665327,23.859381839833265,-0.0114360570938566,1.6952271561035162,0.7240028858912138,4966.383843315973,12.030888888888889,0.3400000000000001,179.18381865261722,-1.3635318067653577,90.13536015780986,1610.0,1435.0,1200.0,1528.0,1542.0,1021.7000000000002,135.0,293.35,1637160260.664921,1637160261.7844374,0662eaad-4b03-444b-9b69-f3394f2f8ce1
0.1778811011787351,0.470206732038565,0.0372722330984535,-0.1128968400963871,-0.1748600756912656,-0.1807085068013758,-0.3412869801275566,-0.3768569497725693,-13.662162539355336,20.45304770467683,23.66922328314112,-0.0170710728509337,1.667088576123498,0.7446194651614197,4963.1884765625,12.031555555555554,0.3477777777777777,179.17509422431738,-1.358485755498697,89.82861029090532,1610.0,1435.0,1200.0,1528.0,1542.0,1021.7000000000002,135.0,293.35,1637160261.8928611,1637160262.8999176,0662eaad-4b03-444b-9b69-f3394f2f8ce1
0.4205841044567746,0.9179471908260194,0.0718834366348831,-0.3231253404972634,-0.2498350452267992,-0.4179740261866548,-0.4107285451396041,-0.4483393041830583,-13.114100183558106,19.926280007023006,24.65460495258095,-0.0773500281674418,3.3618439172279486,0.9527517972064766,4983.076117621527,12.02422222222222,0.3699999999999999,179.05119459277336,-1.330065077486993,89.25885564200046,1695.0,1435.0,1200.0,1528.0,1609.0,1021.7000000000002,135.0,293.35,1637160264.8350115,1637160265.884074,0dcd14dc-fa2f-48a7-b175-6d3387ab2ae1
0.4263092654988429,0.9140299753892488,0.0679251311993622,-0.3144965072453418,-0.2513553634510632,-0.4209187869579603,-0.415056658562754,-0.4293010832553692,-13.14935436413852,19.88851105943857,24.7885689488317,-0.1038756960734351,3.3449002085391206,0.9661619092556878,5026.2529296875,12.02533333333333,0.3633333333333333,179.03208068783604,-1.328919170958116,88.97910551288497,1695.0,1435.0,1200.0,1528.0,1609.0,1021.7000000000002,135.0,293.35,1637160265.9928565,1637160267.109431,0dcd14dc-fa2f-48a7-b175-6d3387ab2ae1
0.4256244376052391,0.9348624393632796,0.0790056470316735,-0.3229609817930965,-0.2468765882348539,-0.4346838312827978,-0.4093041027584512,-0.4233978655375118,-13.003780060422685,19.9495070535127,24.6888298585321,-0.1147003429028451,3.424633898440245,0.9391498884773436,5039.05126953125,12.023222222222222,0.3677777777777777,179.0325041595646,-1.331812431975753,88.79673263185649,1695.0,1435.0,1200.0,1528.0,1609.0,1021.7000000000002,135.0,293.35,1637160267.2184515,1637160268.2261074,0dcd14dc-fa2f-48a7-b175-6d3387ab2ae1
0.6473443076337381,1.304505148228061,0.0964139728179809,-0.5131651310624634,-0.3265905704023579,-0.6216829974818263,-0.4825533147269951,-0.5099464395621927,-12.733249188971412,20.160048888897023,24.47546088631101,-0.1034937856459645,4.835520497958353,1.171145938559454,5059.542317708333,12.008777777777778,0.42,178.92946089010613,-1.3142155523701748,88.57171508529002,1779.0,1435.0,1200.0,1528.0,1677.0,1021.7000000000002,135.0,293.35,1637160268.775093,1637160269.9762442,b5e919cb-763a-433a-a1ea-94b738981e35
0.637019294908686,1.2926789916351953,0.0953982360544568,-0.5148459731935351,-0.326056952359239,-0.6110681611415358,-0.4790683615449286,-0.4950703295538728,-12.663794412688276,20.172732376444472,24.12634260182083,-0.0758364492803717,4.793910633658956,1.1649471230784456,5054.569390190973,12.007888888888887,0.42,178.92598508272852,-1.294279581991181,88.2912773837981,1779.0,1435.0,1200.0,1528.0,1677.0,1021.7000000000002,135.0,293.35,1637160270.0848742,1637160271.2065856,b5e919cb-763a-433a-a1ea-94b738981e35
0.6448789273244185,1.295684564428198,0.1021254376718853,-0.5153839741389658,-0.3212763048040979,-0.615656509691391,-0.474814757160674,-0.5066044786353049,-12.672565265365051,20.30135444037084,23.86322673090798,-0.0837922190815497,4.808072315758757,1.1431384987431008,5031.821343315973,12.008777777777777,0.4255555555555556,178.9075450897893,-1.2872241981640018,88.064759472344,1779.0,1435.0,1200.0,1528.0,1677.0,1021.7000000000002,135.0,293.35,1637160271.315242,1637160272.4399335,b5e919cb-763a-433a-a1ea-94b738981e35
0.7695723847304148,1.5000783183318542,0.134832818909029,-0.6293804663636734,-0.354175444022473,-0.7220103268511364,-0.500276666089002,-0.5234923395398435,-12.337529661478715,21.43444327210572,22.304912259816764,-0.056575053631404,5.602241263634732,1.200920413841305,5018.3994140625,11.989666666666668,0.48,178.8292468367839,-1.2464440319738792,87.62066284923948,1864.0,1435.0,1200.0,1528.0,1744.0,1021.7000000000002,135.0,293.35,1637160274.3686092,1637160275.5068238,ac5dbf7a-813f-42ff-be33-9c810756054e
0.7586315747678145,1.5010989860290562,0.1238783115942109,-0.626478438707535,-0.3622553192813394,-0.724515154677579,-0.5136231441673786,-0.5462056229694039,-12.67911114234432,21.365260549964816,22.379939002541818,-0.0699140652727362,5.606769125319395,1.2459045188394935,5013.181966145833,11.991,0.49,178.832479792991,-1.24836178545287,87.35321540863902,1864.0,1435.0,1200.0,1528.0,1744.0,1021.7000000000002,135.0,293.35,1637160275.615424,1637160276.7358258,ac5dbf7a-813f-42ff-be33-9c810756054e
0.7684930960077306,1.512919664886702,0.1321751386992235,-0.6312777144826045,-0.3582712637002809,-0.7308659771271704,-0.5059048574363925,-0.533819547338407,-12.355501973351956,21.3182998185091,22.555764160805595,-0.0730664785772848,5.64837116960609,1.2200611967057455,5005.69970703125,11.991333333333335,0.4833333333333333,178.80767254592558,-1.2366032590576737,87.11519925317214,1864.0,1435.0,1200.0,1528.0,1744.0,1021.7000000000002,135.0,293.35,1637160276.8442976,1637160277.964735,ac5dbf7a-813f-42ff-be33-9c810756054e
-0.2613812457468497,-0.3345208791579723,0.0012913732650029,0.2818790656429049,-0.024403371222279,0.2347766032195853,-0.2011848637494922,-0.2173331085183017,-14.269090680439511,22.51830955505638,22.70114371454639,0.037501157214113,-1.3891048161070776,0.2927141612936408,5006.9990234375,12.031444444444444,0.3366666666666666,179.2698198411866,-1.2241029100855907,86.69219880768406,1487.111111111111,1435.0,1200.0,1528.0,1445.3333333333333,1021.7000000000002,135.0,293.35,1637160279.775217,1637160280.7305171,41d96a70-ed57-40ba-a1b5-0fc37eaabeb8
-0.2583953956195471,-0.330932380250657,-0.0007905036909783,0.2814544723422467,-0.0268139656167486,0.2318866294753065,-0.2066087014964595,-0.2231404503270679,-14.492807359158562,22.61112255697069,22.70574862241372,0.0323645045964033,-1.3741812942687293,0.3068001327907395,5013.5078125,12.037333333333333,0.32,179.3171636768735,-1.2227644420255817,86.75185367989496,1440.0,1435.0,1200.0,1528.0,1408.0,1021.7000000000002,135.0,293.35,1637160280.841575,1637160281.947292,41d96a70-ed57-40ba-a1b5-0fc37eaabeb8
-0.2540809790891066,-0.3297133862851371,0.0026062429099593,0.2775646499278307,-0.0265674275438529,0.2320098985330299,-0.202047747027238,-0.2271535424144256,-14.175776092922185,22.684383124369926,22.41211016821121,0.0421835592362927,-1.368555186441591,0.2952312531647048,5015.790907118056,12.036777777777775,0.32,179.31115614604352,-1.225258563863596,86.80184611116002,1440.0,1435.0,1200.0,1528.0,1408.0,1021.7000000000002,135.0,293.35,1637160282.0556517,1637160283.0840912,41d96a70-ed57-40ba-a1b5-0fc37eaabeb8
-0.4587897799579383,-0.6867142812333324,-0.0080085902333237,0.451319179399981,0.0439287605607313,0.4173517169178422,-0.1348113352688955,-0.1637247736178813,-14.385889599058038,23.70999403074116,21.98560981290388,0.0728203223785791,-2.724306835334035,0.0751087008932895,5024.2822265625,12.017,0.3899999999999999,179.4097947023972,-1.2025629124687014,86.8462719382515,1355.0,1435.0,1200.0,1528.0,1341.0,1021.7000000000002,135.0,293.35,1637160284.8136785,1637160285.8341906,3dda9829-f779-4c3b-90ac-b2fd524bc097
-0.435779556369133,-0.6700729562177364,-0.0111998884272398,0.444717438727672,0.0391623581641696,0.4089968168813661,-0.1434538643260796,-0.1766406292294615,-14.71214369186937,23.64707438105471,22.20846811657105,0.0682329455510542,-2.6609483527256583,0.1003236292960229,5024.2822265625,12.020111111111111,0.3844444444444444,179.40647978392002,-1.2027947831614627,86.71353176519175,1355.0,1435.0,1200.0,1528.0,1341.0,1021.7000000000002,135.0,293.35,1637160285.942807,1637160287.1796455,3dda9829-f779-4c3b-90ac-b2fd524bc097
-0.4211242355031368,-0.6455013212102025,-0.0101041636910355,0.4227481606055743,0.0334098035544016,0.3981628399115613,-0.1440976026305973,-0.16713521650757,-14.46429673889187,23.430390954519865,21.21865284708376,0.0920299783919489,-2.5590005974000167,0.1092285201431361,4989.282769097223,12.018444444444444,0.3822222222222222,179.40349119670316,-1.1936615988705226,86.57961300504522,1355.0,1435.0,1200.0,1528.0,1341.0,1021.7000000000002,135.0,293.35,1637160287.2883265,1637160288.4170678,3dda9829-f779-4c3b-90ac-b2fd524bc097
-0.6533083625397476,-1.0399213173972284,-0.0271700761216388,0.6144999633318254,0.1033992176145267,0.6092267887820348,-0.0805592634912575,-0.1061170441683196,-15.021215048252472,25.06413612030933,21.54758258361481,0.1435263861268491,-4.061951885282535,-0.0999415532474946,4845.382432725694,12.011111111111113,0.42,179.52936854746687,-1.1927155939545413,86.41327892600772,1271.0,1435.0,1200.0,1528.0,1273.0,1021.7000000000002,135.0,293.35,1637160289.3194993,1637160290.5490153,ac516faa-e172-405e-97b1-b4ba5880d384
-0.6472133917420041,-1.05919238837324,-0.0330322033629853,0.619334848039297,0.1004955472271379,0.6240738568559144,-0.0800114011190333,-0.0929683467226162,-14.831339109148502,25.11447143809501,21.58475093137567,0.166126702819854,-4.13686948725125,-0.0909008236961087,4820.82470703125,12.008666666666668,0.4266666666666666,179.5407066614891,-1.1821494691780414,86.21780118869167,1271.0,1435.0,1200.0,1528.0,1273.0,1021.7000000000002,135.0,293.35,1637160290.657156,1637160291.6862776,ac516faa-e172-405e-97b1-b4ba5880d384
-0.6556915645436722,-1.0723273971440337,-0.0247046955352263,0.6361131306864842,0.1109597178070681,0.6214715109766362,-0.0713140860301627,-0.103692752707447,-14.68158804188818,25.27104142797806,21.64441692847932,0.1239686568596488,-4.189257666427941,-0.1302054406214145,4859.398274739583,12.009222222222222,0.4277777777777778,179.53641882051016,-1.1876489809725672,86.01833537981025,1271.0,1435.0,1200.0,1528.0,1273.0,1021.7000000000002,135.0,293.35,1637160291.793814,1637160292.920059,ac516faa-e172-405e-97b1-b4ba5880d384
-0.7037928008882999,-1.1478771219972468,-0.0098307803960859,0.6542309366230868,0.1387363380303491,0.6681948506758321,-0.0430443880062117,-0.0761133610900621,-15.15326345232215,25.895886591186912,20.296818209950143,0.1925234597958405,-4.4586100982616905,-0.2400326486718299,4917.62841796875,11.958666666666668,0.6066666666666667,179.58629589746923,-1.202691903437089,85.63807977596792,1186.0,1435.0,1200.0,1528.0,1206.0,1021.7000000000002,135.0,293.35,1637160294.8488452,1637160295.9941647,42c843a5-7040-4cd4-b9b6-efcc1c1219d6
-0.6975471675720446,-1.1411449840716363,-0.009817631702577,0.65603230783217,0.1379868623609169,0.65996376762783,-0.045319112543547,-0.0707881384264014,-15.123965116751895,25.84543928521245,20.29197822144433,0.1696438749901815,-4.433746767004333,-0.2349262846349471,4915.74853515625,11.963,0.6000000000000001,179.59064900470025,-1.2241561286428737,85.1136806187916,1186.0,1435.0,1200.0,1528.0,1206.0,1021.7000000000002,135.0,293.35,1637160296.109719,1637160297.1031446,42c843a5-7040-4cd4-b9b6-efcc1c1219d6
-0.7047395071917544,-1.139172678500043,-0.0125920066883237,0.6489846073324321,0.1354491640471949,0.6641319039318827,-0.0471336326798481,-0.0757846433241914,-15.24656531906098,25.76043765314627,20.220709383654423,0.1941334135102281,-4.424159633326659,-0.2250790943949691,4911.679578993056,11.968777777777778,0.5888888888888889,179.59137300475226,-1.2246441195715427,84.70717356232929,1186.0,1435.0,1200.0,1528.0,1206.0,1021.7000000000002,135.0,293.35,1637160297.2116172,1637160298.339188,42c843a5-7040-4cd4-b9b6-efcc1c1219d6
-0.0079948937531948,0.1169998999790477,0.0138922073398132,0.06837711761645,-0.1115545772928467,-0.0020779802464168,-0.2856241574720566,-0.3226596582936922,-13.988287875461344,20.988606084889444,23.713989555289583,-0.0223449799446774,0.3204678901435889,0.569479269635564,4933.677571614583,12.037666666666668,0.3,179.25337881694446,-1.2168143511892464,84.16797034958192,1525.0,1435.0,1200.0,1528.0,1475.0,1021.7000000000002,135.0,293.35,1637160300.3782797,1637160301.5169022,0603c3e5-1922-4e82-8f76-3086cd7ce96f
-0.0193904307608012,0.1249712969254023,0.0214253146655748,0.0635148393659822,-0.1074730025755563,-0.0050090438169479,-0.2806523060250898,-0.2965951032192465,-13.977497777937907,21.111820338723508,23.817698214232,-0.0167494988339805,0.3504482373687299,0.547597860939945,4969.263075086806,12.037333333333336,0.3,179.2243110496567,-1.2130575929921643,84.68730833658327,1525.0,1435.0,1200.0,1528.0,1475.0,1021.7000000000002,135.0,293.35,1637160301.6255176,1637160302.9460962,0603c3e5-1922-4e82-8f76-3086cd7ce96f
-0.007994893805766,0.1191365630790933,0.0186038235675696,0.0707055325894011,-0.1080208649540398,-0.0070498310991146,-0.2829122385071875,-0.3193998766196457,-13.957514274661678,21.07375685607093,23.637056726209817,-0.0379674174858534,0.3289591793164751,0.5545395978609681,4979.849012586806,12.039444444444444,0.3,179.20977033582363,-1.198658996897314,85.06343622943717,1525.0,1435.0,1200.0,1528.0,1475.0,1021.7000000000002,135.0,293.35,1637160303.055431,1637160304.1743133,0603c3e5-1922-4e82-8f76-3086cd7ce96f
-0.0085016664237613,0.1124526426129077,-0.0056801751967322,-0.2890756907783658,-0.1687788031835896,0.3499920469952622,-0.2073894054241435,-0.2386997423627166,-13.846897461584469,20.43336974778885,26.567924275214505,1.5710001430191214,0.3198777227884811,0.5633780107523066,4986.28662109375,12.03725,0.3087499999999999,179.2210919435554,-1.1088750885937009,85.4449425168075,1525.0,1535.0,1200.0,1528.0,1475.0,1021.7000000000002,135.0,293.35,1637160304.7745893,1637160305.8167858,c0aefe7f-d32a-44af-9f3a-2aabf268464f
0.0093997359101771,0.1165890032457913,-0.0078168383942342,-0.2958965779086977,-0.1714907220404718,0.3525943929385226,-0.2093206203775226,-0.2419595237212176,-13.93514583449146,20.37562107066208,26.60661624309907,1.591706743283752,0.3363766291689012,0.5731911404301836,4989.18896484375,12.038555555555556,0.3,179.20099430165007,-1.096837299657147,85.64004155807955,1525.0,1535.0,1200.0,1528.0,1475.0,1021.7000000000002,135.0,293.35,1637160305.9253385,1637160307.0461853,c0aefe7f-d32a-44af-9f3a-2aabf268464f
0.0014009455695827,0.116397251387236,-0.0042968227624454,-0.2938420938304706,-0.1683816029617524,0.3489648051674461,-0.2068963292576444,-0.2282218737118015,-13.914676177268746,20.428086183928126,26.3551715345892,1.579409455218779,0.3377122010519457,0.5603395186545771,4989.18896484375,12.037666666666668,0.3,179.19060937847203,-1.0960071945136445,85.81263436712652,1525.0,1535.0,1200.0,1528.0,1475.0,1021.7000000000002,135.0,293.35,1637160307.1546504,1637160308.1660948,c0aefe7f-d32a-44af-9f3a-2aabf268464f
0.0292460495630077,0.1189037215943092,-0.0219927768489701,-0.6912204505302794,-0.2306872541216747,0.7326464662503653,-0.1174988840429429,-0.1365644956874839,-13.54160203635876,19.81881670292439,29.50845315822664,3.3337519781244542,0.3643186249587652,0.5438181010040067,4997.91650390625,12.03,0.33,179.19095544138997,-0.990307100047739,86.08252701544984,1525.0,1636.0,1200.0,1528.0,1475.0,1021.7000000000002,135.0,293.35,1637160309.7934558,1637160310.8273275,8d2d79d3-fc52-482d-9aa7-263c9233dcbf
0.0288899390613819,0.1212595296331392,-0.0228556600646352,-0.6939734598883357,-0.2319884273202424,0.7310850587208818,-0.1204299477611154,-0.1462479632604796,-13.70911376405336,19.87819169796248,29.239979811818184,3.3366769223951507,0.3770046758922632,0.5506805037601799,5007.974609375,12.031555555555554,0.3244444444444444,179.1884191644782,-0.9851324016937428,86.07906714518029,1525.0,1636.0,1200.0,1528.0,1475.0,1021.7000000000002,135.0,293.35,1637160310.936002,1637160311.9794905,8d2d79d3-fc52-482d-9aa7-263c9233dcbf
0.0153095271425504,0.1180797366543509,-0.0304610853342506,-0.6934447725105867,-0.2390914634362815,0.7344511246340221,-0.1285372152449739,-0.1508505546391975,-13.805109774168509,19.97650439711805,29.28359459349,3.343279990611428,0.36482582955473,0.5818390624450043,5011.228841145833,12.030444444444443,0.32,179.17038746506933,-0.987674643163097,86.09078623197621,1525.0,1636.0,1200.0,1528.0,1475.0,1021.7000000000002,135.0,293.35,1637160312.0873826,1637160313.1874454,8d2d79d3-fc52-482d-9aa7-263c9233dcbf
0.0378474884479887,0.1053989150979643,-0.0457152170278782,-1.0392912752226189,-0.2941023284743543,1.0812512480200027,-0.0522758688098211,-0.0823261206074348,-13.742383022866298,20.01729146253052,31.77725992718936,4.902671058804266,0.3363345494601442,0.5679564283468823,5039.05126953125,12.015555555555554,0.3877777777777778,179.20731450336206,-0.875649277704182,86.09491849642407,1525.0,1737.0,1200.0,1528.0,1475.0,1021.7000000000002,135.0,293.35,1637160314.773985,1637160315.8531084,b79e7da3-93e9-4f6e-a66a-3d446fdd4ba3
0.0385432735855554,0.1039974832170667,-0.0454900455981262,-1.0389006491695914,-0.2949997271094161,1.0829572912544658,-0.052051245241715,-0.075705751165579,-13.655005404103854,20.12719720097737,31.875600002149177,4.906423059172301,0.3295563491036921,0.5685405177487485,5042.015625,12.018,0.3766666666666667,179.20447466248717,-0.877065231651572,85.93384745759701,1525.0,1737.0,1200.0,1528.0,1475.0,1021.7000000000002,135.0,293.35,1637160315.9607852,1637160317.0061748,b79e7da3-93e9-4f6e-a66a-3d446fdd4ba3
0.0389979994165685,0.0955784827143227,-0.0517280064656427,-1.0246085548420414,-0.2943077768851048,1.078744777942349,-0.058247568588043,-0.0802305462805779,-13.943994539754677,19.91465826227724,31.931173277564508,4.862861349898352,0.2973741073348016,0.5839934565893047,5039.710015190973,12.01677777777778,0.3777777777777778,179.20580882610503,-0.8817300136953445,85.83336626798723,1525.0,1737.0,1200.0,1528.0,1475.0,1021.7000000000002,135.0,293.35,1637160317.114865,1637160318.198372,b79e7da3-93e9-4f6e-a66a-3d446fdd4ba3
0.0398745791424082,0.0952908549696664,-0.0560287261714121,-1.147507863713541,-0.3210297668632493,1.1984800890475105,-0.0422499877424144,-0.065630014757289,-14.181005402758553,20.918211831929728,32.857987535428386,5.415620276638765,0.3046344140245277,0.6030921506488504,5015.462890625,12.00288888888889,0.4388888888888889,179.22404543118896,-0.8447546897597421,85.58925303032123,1525.0,1837.0,1200.0,1528.0,1475.0,1021.7000000000002,135.0,293.35,1637160320.3397262,1637160321.372799,08bec462-13cb-4432-8ee4-dc6d500a10e1
0.0294378013915903,0.0970166212810787,-0.0457836998723457,-1.1355781514558634,-0.3145923832163542,1.1839891302872712,-0.0349908113606878,-0.067670801915928,-13.678551401614172,21.14180292031884,32.66215865032333,5.358360701923481,0.3084709365891286,0.5703204139733616,5012.2060546875,11.99911111111111,0.4344444444444444,179.2213573722956,-0.862499764311765,85.40322675699667,1525.0,1837.0,1200.0,1528.0,1475.0,1021.7000000000002,135.0,293.35,1637160321.4810345,1637160322.6011837,08bec462-13cb-4432-8ee4-dc6d500a10e1
0.0396554341915125,0.0984273668192101,-0.0496187364570124,-1.157273517484286,-0.3169755848396147,1.20309582934626,-0.0325802170420719,-0.059041969473856,-13.95282101054662,20.82701069335897,32.73452795947312,5.447831157069381,0.317484599975593,0.5753817622050931,5003.75146484375,11.999000000000002,0.43,179.25253642694682,-0.8342889841793988,85.24753638941579,1525.0,1837.0,1200.0,1528.0,1475.0,1021.7000000000002,135.0,293.35,1637160322.7087374,1637160323.8302689,08bec462-13cb-4432-8ee4-dc6d500a10e1
-0.026457855232251,0.1183695558143271,0.0494210805977812,0.5403741953221337,-0.0348401491551097,-0.4613099472735906,-0.3844859336770334,-0.4103039525032235,-13.96761017969556,22.627183167469937,20.14646612123914,-2.1069371439726967,0.3012446382459891,0.5559343082687335,4993.064453125,12.040333333333336,0.29,179.22486050042994,-1.339497853321996,85.10024108323474,1525.0,1334.0,1200.0,1528.0,1475.0,1021.7000000000002,135.0,293.35,1637160324.8536465,1637160325.9914875,d9293260-e2df-49ae-8222-ee594cb617d7
-0.0286094059574076,0.1294036222877046,0.0598441616717703,0.532425428069676,-0.0274660409069969,-0.4634025436901161,-0.375677853836086,-0.4002602060516828,-14.000158218520452,22.61710029544415,20.419562611508603,-2.0932297074865924,0.3420782760373405,0.5207738532207584,4995.00390625,12.04,0.2899999999999999,179.20621711963545,-1.3391213747179012,85.48769950101178,1525.0,1334.0,1200.0,1528.0,1475.0,1021.7000000000002,135.0,293.35,1637160326.1005342,1637160327.2188122,d9293260-e2df-49ae-8222-ee594cb617d7
-0.0314707957485232,0.1194926735854174,0.0535026550502406,0.5447297005468695,-0.0291149875025953,-0.4639259906093149,-0.3812946349003179,-0.3988399305312,-14.10706717418224,22.55343120164156,20.53057230249213,-2.1229353412168392,0.3027609750209014,0.5386776446749152,5001.80517578125,12.039,0.2899999999999999,179.19894220925946,-1.3347894339585262,85.831401450236,1525.0,1334.0,1200.0,1528.0,1475.0,1021.7000000000002,135.0,293.35,1637160327.3263826,1637160328.541001,d9293260-e2df-49ae-8222-ee594cb617d7
-0.0540427250966134,0.1240810206314303,0.0871824924158149,0.9325477211135516,0.0354505907470051,-0.8489637859628303,-0.4660215644364342,-0.4962909673665293,-14.427095941721651,24.334634754006373,16.98661841526688,-3.850230293382982,0.3080617559384484,0.5234630997333791,4989.516276041667,12.02722222222222,0.3222222222222222,179.19106472441672,-1.4499864558625768,86.39576024969652,1525.0,1234.0,1200.0,1528.0,1475.0,1021.7000000000002,135.0,293.35,1637160330.3824055,1637160331.525233,4e253e12-d5f8-432f-8477-7994d0c41397
-0.0610142736683241,0.1167944516049546,0.0799233164391708,0.9419161664550706,0.0319442717411626,-0.8489911791488365,-0.4723630725975833,-0.4896618314420141,-14.486187036274837,24.255482386464347,17.14296223848019,-3.872315758887566,0.2781502612084862,0.5465749840718054,4966.704047309027,12.028111111111112,0.3400000000000001,179.177805050508,-1.4645863409524982,86.5467438580294,1525.0,1234.0,1200.0,1528.0,1475.0,1021.7000000000002,135.0,293.35,1637160331.63824,1637160332.7508075,4e253e12-d5f8-432f-8477-7994d0c41397
-0.0475916457821775,0.1307238513948427,0.0838131390697216,0.9351637636049378,0.0294241049621558,-0.8557435860067102,-0.4709386301481244,-0.4848954274319996,-14.13881026131387,24.37028820971592,17.256513242688424,-3.87110984203296,0.3280088386850809,0.5446594006518012,4954.58154296875,12.029,0.33,179.19254156309722,-1.471639803788973,86.6596650988475,1525.0,1234.0,1200.0,1528.0,1475.0,1021.7000000000002,135.0,293.35,1637160332.8600442,1637160333.8785226,4e253e12-d5f8-432f-8477-7994d0c41397
-0.0306846132205696,0.14285187974357,0.1094541920790165,1.1837157468221289,0.0696925350759952,-1.1080102453607927,-0.528625810631252,-0.5570664488263435,-14.460580619821434,25.95805499328493,15.481065354874367,-4.987301823921253,0.3625598444931595,0.5372610550662631,4956.810438368056,12.026555555555554,0.3322222222222222,179.19963281727553,-1.5720568180796777,86.90986024051442,1525.0,1133.0,1200.0,1528.0,1475.0,1021.7000000000002,135.0,293.35,1637160335.9032297,1637160336.9479694,fe6d62ab-36cb-49e8-a1a1-12e349ca3c95
-0.051892365323498,0.1368325163463676,0.112603304791256,1.200904379709655,0.0756636867343505,-1.119827096687078,-0.528847694897713,-0.5584596635165371,-14.534448467179956,26.03549643745176,15.223731583626366,-5.052037241424158,0.3408717948948719,0.5241274396750245,4948.8603515625,12.021444444444446,0.3588888888888888,179.1965774459868,-1.5726833574983858,87.0200577536735,1525.0,1133.0,1200.0,1528.0,1475.0,1021.7000000000002,135.0,293.35,1637160337.0557537,1637160338.2001867,fe6d62ab-36cb-49e8-a1a1-12e349ca3c95
-0.0493689113273317,0.1404193709743769,0.1126756225880388,1.2066207753178892,0.0750177570220828,-1.1291007698462263,-0.5313870375844411,-0.556119742520817,-14.44582876266802,26.06430312159494,15.143052324004724,-5.085544899126436,0.353713772750916,0.528944616877985,4947.274739583333,12.02222222222222,0.35,179.19891337068293,-1.5756403788062436,87.10390970938403,1525.0,1133.0,1200.0,1528.0,1475.0,1021.7000000000002,135.0,293.35,1637160338.309199,1637160339.406345,fe6d62ab-36cb-49e8-a1a1-12e349ca3c95
-0.0663833248916181,0.1327235488667481,0.1175614587033645,1.3262415873295808,0.086744202342719,-1.2320293940991365,-0.5694716999138771,-0.583702430018681,-15.095777251028997,27.46054466562872,14.956878729797728,-5.577532214464889,0.3167055213005333,0.5593647880319375,4966.06396484375,12.01477777777778,0.38,179.22814506251078,-1.606269223774304,87.16983924871242,1525.0,1033.0,1200.0,1528.0,1475.0,1021.7000000000002,135.0,293.35,1637160340.3150055,1637160341.339775,7bf2424d-ddfc-457d-a863-72b12434319c
-0.0776008069144795,0.1348328188283433,0.1191639561751154,1.3151336781874592,0.0844705737801468,-1.225934421140895,-0.5637876259336526,-0.585140568217016,-14.668239392549928,27.438229571078505,14.689250254227517,-5.538674860482431,0.3254313753616817,0.5522727680133439,4958.723090277777,12.012999999999998,0.3899999999999999,179.21721220637932,-1.639518311920678,87.16953644365923,1525.0,1033.0,1200.0,1528.0,1475.0,1021.7000000000002,135.0,293.35,1637160341.4476554,1637160342.6801336,7bf2424d-ddfc-457d-a863-72b12434319c
-0.0664244146291992,0.135065660377333,0.1286145814166786,1.341910451182141,0.095838717318231,-1.253149506453079,-0.5616920519342955,-0.5777170311858851,-14.622921848270956,27.5255712418328,14.401385261431654,-5.659206129642603,0.3258390730864783,0.5207758440932585,4965.424967447917,12.01511111111111,0.3822222222222222,179.23259379239022,-1.632043274630432,87.16287852703827,1525.0,1033.0,1200.0,1528.0,1475.0,1021.7000000000002,135.0,293.35,1637160342.7881458,1637160343.9111545,7bf2424d-ddfc-457d-a863-72b12434319c
-0.0272922495165475,0.1128597043107585,0.0196880431538563,0.0923477385456273,-0.105434954538746,-0.0211386594460972,-0.2884779728216348,-0.299522879801595,-14.069912055546896,21.3965716371092,23.57248273783313,-0.1163193167839651,0.3041945738147739,0.5565920962653889,4967.98876953125,12.038888888888888,0.29,179.244495017564,-1.3290350351566926,87.19150688548943,1525.0,1435.0,1200.0,1528.0,1475.0,1021.7000000000002,135.0,293.35,1637160345.8445778,1637160346.871413,9ce2b2d2-a230-4a10-9613-eee856715dad
-0.0228282670589041,0.1064124603841091,0.0150427182899072,0.0980575598159434,-0.108335885815858,-0.0216914525704081,-0.2935544660107153,-0.3108395262115703,-14.130327016917317,21.462320503308472,23.30556759640592,-0.1303098827730521,0.2818103786280934,0.5729274559091776,4999.863661024306,12.038555555555554,0.28,179.23982923945096,-1.3035351642206845,87.26972697077433,1525.0,1435.0,1200.0,1528.0,1475.0,1021.7000000000002,135.0,293.35,1637160346.9796867,1637160348.0980456,9ce2b2d2-a230-4a10-9613-eee856715dad
-0.0138022347625571,0.1181641074392294,0.0257397306535295,0.0955921792865163,-0.1017615373353642,-0.0287862701515806,-0.2859117852527081,-0.3148937089933588,-14.007357358943802,21.540892730520792,23.67992127480224,-0.1395165122187296,0.3226809709992806,0.5404922761286174,5012.5302734375,12.04,0.29,179.2433156715673,-1.2887128355220128,87.35417163512282,1525.0,1435.0,1200.0,1528.0,1475.0,1021.7000000000002,135.0,293.35,1637160348.2067811,1637160349.3315885,9ce2b2d2-a230-4a10-9613-eee856715dad
0.0351492663371193,0.1358874538708986,0.1677730413917785,0.0798000473921229,0.0271915658836487,-0.0404283452796605,-0.1372493228518818,-0.1628071044947759,-13.024970678161532,21.409447721273967,23.54195844707373,-0.1233811669091299,0.3943702402151439,-0.0378647903065762,5021.33935546875,12.039555555555555,0.28,179.23297021170447,-1.286266240416973,87.43197052540889,1525.0,1435.0,1200.0,1439.0,1475.0,1021.7000000000002,135.0,293.35,1637160351.3743355,1637160352.5130537,62f7af05-6d75-4f7f-958f-8e7312447c2d
0.0201926242699673,0.1311484447108238,0.164869371065204,0.0808683789683854,0.025712337536641,-0.0349360251057437,-0.1383450476103908,-0.1656422917713224,-13.05008793676744,21.391719101801574,23.787289876586588,-0.1136847291219311,0.3742835697185043,-0.030560250917846,5024.2822265625,12.034333333333333,0.28,179.23357582181086,-1.2888197706712057,87.46753456150725,1525.0,1435.0,1200.0,1439.0,1475.0,1021.7000000000002,135.0,293.35,1637160352.621009,1637160353.628003,62f7af05-6d75-4f7f-958f-8e7312447c2d
0.0343274728749821,0.142324836250916,0.1719641881778522,0.0747460173199922,0.0301500225603544,-0.0412775319244774,-0.1330307825184273,-0.1627249242890687,-13.012477231258194,21.32366255171116,23.68956082729119,-0.1142189206557971,0.4180042170935132,-0.0526268775858737,5026.902018229167,12.039888888888887,0.28,179.2469629925841,-1.278307101611335,87.4771985202729,1525.0,1435.0,1200.0,1439.0,1475.0,1021.7000000000002,135.0,293.35,1637160353.7361195,1637160354.85859,62f7af05-6d75-4f7f-958f-8e7312447c2d
0.1019068405181817,0.1737907611351246,0.3455258735084308,0.0577272215588057,0.1842834203955766,-0.0669092726051719,0.0432899531066856,0.0201613960071555,-11.742060017645276,21.330476386589872,23.5411630571358,-0.1241234076350051,0.5414424904363234,-0.7458544855121684,4986.28662109375,12.039666666666667,0.2833333333333334,179.21205617246588,-1.285890580012622,87.4714118322261,1525.0,1435.0,1200.0,1351.0,1475.0,1021.7000000000002,135.0,293.35,1637160356.9041064,1637160358.1365728,177046e3-ac78-4ddd-be11-3c810f3de6cc
0.0913615862693446,0.1607341061548554,0.3366636528596556,0.0699292116631756,0.1797076742695867,-0.0615577530789882,0.0363737388378687,0.0013324625718343,-11.78239049374456,21.35058904805156,24.01949768155172,-0.1398745310724823,0.4864542747802388,-0.7185294344197903,4983.709364149306,12.035666666666666,0.28,179.21901841195984,-1.2791118899946328,87.50937705927265,1525.0,1435.0,1200.0,1351.0,1475.0,1021.7000000000002,135.0,293.35,1637160358.2457192,1637160359.369794,177046e3-ac78-4ddd-be11-3c810f3de6cc
0.0912038018680365,0.1649285401203375,0.3379127788908027,0.0616192356289165,0.179221172492212,-0.0608608722030125,0.0384906789348726,0.0257495915247315,-11.711715038306304,21.2921912983982,23.6285128421071,-0.1199149533387677,0.5062523510715468,-0.7226269621083603,4983.711100260417,12.03788888888889,0.28,179.23066767904425,-1.2757490653295247,87.53010212994418,1525.0,1435.0,1200.0,1351.0,1475.0,1021.7000000000002,135.0,293.35,1637160359.4867566,1637160360.5018055,177046e3-ac78-4ddd-be11-3c810f3de6cc
0.1520083028784844,0.201083070582349,0.5176926964134961,0.054502503793759,0.3384732420500513,-0.0976525695593643,0.2137386902259855,0.1930157974187109,-10.666644818775644,21.576571173767856,23.86038623692927,-0.1751371545157471,0.6446801169543535,-1.4288562159384206,4991.771864149306,12.035,0.2911111111111111,179.20938480959046,-1.2714204803748983,87.4892469739688,1525.0,1435.0,1200.0,1262.0,1475.0,1021.7000000000002,135.0,293.35,1637160362.3217134,1637160363.373603,1a347206-eb3f-4137-81a1-e42ab42dfb22
0.1424754983429429,0.1935225705477126,0.5117894801986089,0.0596524098288735,0.3339122883568677,-0.0962007342717239,0.2095064538046738,0.1820996403977246,-10.533373634714172,21.593695228006577,23.648009396199445,-0.1836388051618016,0.616254669302772,-1.4096545292506892,4989.18896484375,12.033,0.3,179.2249743369161,-1.2731604236340897,87.46328011256422,1525.0,1435.0,1200.0,1262.0,1475.0,1021.7000000000002,135.0,293.35,1637160363.4881563,1637160364.5968826,1a347206-eb3f-4137-81a1-e42ab42dfb22
0.1515152267616276,0.2001654011949324,0.5186925450956922,0.0567350428817367,0.3385554213951,-0.0988304736544667,0.2134099728342847,0.1950017985167702,-10.641943224596394,21.7117580512756,23.858192104541377,-0.1818620831717065,0.6408737179509136,-1.4299957938602257,4988.866482204861,12.033444444444443,0.2988888888888888,179.21045639038027,-1.271080014417521,87.45891789841431,1525.0,1435.0,1200.0,1262.0,1475.0,1021.7000000000002,135.0,293.35,1637160364.7063897,1637160365.831609,1a347206-eb3f-4137-81a1-e42ab42dfb22
0.188208305966316,0.2153274908944685,0.6429888024252666,0.0820736761373714,0.4531134283933362,-0.146097300448816,0.3298444107054247,0.3001913630327803,-9.84407006738292,21.98060576793864,23.487282201786893,-0.3369208511531072,0.7001455391453985,-1.919253970156338,4988.221516927083,12.030666666666669,0.3133333333333333,179.2097156943103,-1.279460099204663,87.36444651636424,1525.0,1435.0,1200.0,1173.0,1475.0,1021.7000000000002,135.0,293.35,1637160367.8508956,1637160368.989583,60e2b396-e8c6-4fec-842d-74508e25dcbb
0.1907969554484001,0.2144509111848507,0.6459335622375084,0.0812518825698055,0.4561266710498113,-0.1430018779971119,0.3341588263486372,0.3068615866510593,-9.808603919276484,21.953622082463585,23.725585792082217,-0.3280876676552507,0.6947821377139931,-1.933256244610454,4977.599609375,12.029111111111112,0.31,179.20887937559192,-1.2885233214884797,87.3203470205331,1525.0,1435.0,1200.0,1173.0,1475.0,1021.7000000000002,135.0,293.35,1637160369.097922,1637160370.3382063,60e2b396-e8c6-4fec-842d-74508e25dcbb
0.1856196565463234,0.2106706611405318,0.6376060554274764,0.081019041102672,0.4480183090673176,-0.1420157256703919,0.3261326435975762,0.3000133078553466,-9.77328225024417,22.00433033353228,23.24527151359352,-0.3254837063651226,0.6841125251372325,-1.9005664834191311,4974.71044921875,12.031666666666666,0.3133333333333333,179.2024711403306,-1.2901134867625903,87.27714759185258,1525.0,1435.0,1200.0,1173.0,1475.0,1021.7000000000002,135.0,293.35,1637160370.451501,1637160371.447879,60e2b396-e8c6-4fec-842d-74508e25dcbb
-0.0880649781376473,0.0939075025263824,-0.1709702527537759,0.1223963439850327,-0.2800496573903715,-0.0220612596792767,-0.4946747720875066,-0.5263823142707421,-15.409322712458748,21.766017260465983,23.20996925586505,-0.1939512371515062,0.2300251812524019,1.3442628335067033,4982.422037760417,12.039333333333332,0.28,179.25225411246117,-1.2897889460553091,87.39217708439449,1525.0,1435.0,1200.0,1617.0,1475.0,1021.7000000000002,135.0,293.35,1637160373.3810768,1637160374.421945,6427d4b0-26cd-4bd7-bf68-59b0156445a9
-0.0832848789765348,0.079964406069829,-0.1798319269313043,0.1321209003889598,-0.2858022128124029,-0.0158156287996133,-0.501892860299184,-0.5288476959775109,-15.422428363619952,21.882972161939367,23.36535238840061,-0.2015004594722305,0.1746885935543728,1.37301461731344,4989.18896484375,12.038666666666664,0.2744444444444445,179.25373854024076,-1.293569538766682,87.3765101482583,1525.0,1435.0,1200.0,1617.0,1475.0,1021.7000000000002,135.0,293.35,1637160374.5303202,1637160375.541632,6427d4b0-26cd-4bd7-bf68-59b0156445a9
-0.0785869590881006,0.0889630449684812,-0.1743669995864921,0.1202185912062329,-0.2827067901636008,-0.0149938353392963,-0.4954828692419486,-0.530313227924199,-15.380380700677652,21.75181249040284,23.22468640704129,-0.1734037000662558,0.2111977284605533,1.3530920947777332,4992.0947265625,12.038777777777776,0.2711111111111111,179.24466501338333,-1.310546163676226,87.37791185485796,1525.0,1435.0,1200.0,1617.0,1475.0,1021.7000000000002,135.0,293.35,1637160375.6498566,1637160376.7676232,6427d4b0-26cd-4bd7-bf68-59b0156445a9
-0.139963433240942,0.0555839840154561,-0.3723666685332986,0.1765651359519257,-0.4596740298851813,-0.0241760083976689,-0.7113664524930934,-0.7366251086784831,-16.736058817889585,22.26197291123911,23.053735969330805,-0.328328079790707,0.0776353045339802,2.166452074186885,4991.771864149306,12.034222222222224,0.29,179.24306826693737,-1.300155204792815,87.4518911515782,1525.0,1435.0,1200.0,1706.0,1475.0,1021.7000000000002,135.0,293.35,1637160378.8183987,1637160379.843047,47259aeb-2269-4f5e-8dd2-426bc2d71448
-0.1486547221129344,0.055978444887944,-0.3685929919907035,0.1715160367758411,-0.4573598587470328,-0.0205469681265012,-0.7060412284285187,-0.732509565100901,-16.628749050812324,22.272961177436617,22.997986169948504,-0.3084777344338406,0.0797104390532293,2.150569531676862,4989.513346354167,12.033444444444443,0.29,179.229863234542,-1.3002373805062666,87.41457023904334,1525.0,1435.0,1200.0,1706.0,1475.0,1021.7000000000002,135.0,293.35,1637160379.9510467,1637160381.069912,47259aeb-2269-4f5e-8dd2-426bc2d71448
-0.1395952697211909,0.0523231073563256,-0.3749964083005468,0.1734225976430893,-0.4605812901378784,-0.0156425042993132,-0.7135622857302386,-0.7390050238901873,-17.046378821997383,22.290226871998897,23.383799344282544,-0.3021105979109847,0.0648967412229848,2.174213613500275,4991.449001736111,12.03322222222222,0.2899999999999999,179.22143022764675,-1.3060837852764515,87.40371555063237,1525.0,1435.0,1200.0,1706.0,1475.0,1021.7000000000002,135.0,293.35,1637160381.1788063,1637160382.205291,47259aeb-2269-4f5e-8dd2-426bc2d71448
-0.2042255003439747,0.0309170297248328,-0.5412978703056585,0.2376117906749383,-0.6126706590265782,-0.0474957698123634,-0.9049827401589766,-0.9318143151762251,-18.059703012187573,23.116622951990752,22.89511543392269,-0.5218746353817914,-0.0223174863418824,2.876829594754984,5005.05126953125,12.026,0.32,179.24096760431263,-1.3179428079445918,87.39744771370403,1525.0,1435.0,1200.0,1795.0,1475.0,1021.7000000000002,135.0,293.35,1637160382.7726982,1637160383.8484943,8c3e918c-85f3-4e76-8b7e-4e5ce741f5b6
-0.1979250826676584,0.0295884636022396,-0.5424346849266809,0.2401319573476696,-0.6131363421561126,-0.0474820731568032,-0.9044348774720864,-0.9399500751316616,-17.9180952309535,23.02585466812956,23.03988981281438,-0.528092695812532,-0.0299697076093962,2.8784352503758908,5021.33935546875,12.02988888888889,0.3144444444444444,179.237746790664,-1.3144579292219718,87.31359499908359,1525.0,1435.0,1200.0,1795.0,1475.0,1021.7000000000002,135.0,293.35,1637160383.9562418,1637160385.0760229,8c3e918c-85f3-4e76-8b7e-4e5ce741f5b6
-0.1981853173221276,0.031711430190228,-0.5340797819026616,0.2373241629771113,-0.6068770128626242,-0.0481395080462122,-0.8949979434810175,-0.9096258770658376,-17.705540293451076,23.02574467063136,22.94201044256901,-0.522729662196037,-0.0217688473380201,2.845327881720801,5023.628255208333,12.030666666666669,0.3077777777777777,179.2443781454382,-1.317011708493518,87.23854943394294,1525.0,1435.0,1200.0,1795.0,1475.0,1021.7000000000002,135.0,293.35,1637160385.1848252,1637160386.474261,8c3e918c-85f3-4e76-8b7e-4e5ce741f5b6
-0.2419184335751426,0.0099065086748516,-0.6649915314020456,0.3027389230577672,-0.7225581893725082,-0.0810112501041253,-1.050782696175955,-1.07858672982264,-18.94632513443054,23.79464565480933,22.688640332529832,-0.746242889491391,-0.1088630012205393,3.3995357722219723,5021.666341145833,12.021888888888888,0.3400000000000001,179.24209230879595,-1.3244951175086843,87.22148079120707,1525.0,1435.0,1200.0,1883.0,1475.0,1021.7000000000002,135.0,293.35,1637160387.3163688,1637160388.355867,6cb29513-8e36-45e3-b101-4cbce38f7f68
-0.2423156338435698,0.0087696942824553,-0.6580336771326801,0.3051358206782077,-0.7171343500778855,-0.0832026994940452,-1.0431947977237248,-1.0771211976318738,-18.69618794167853,23.85394269391524,22.586542037577363,-0.7557250031060984,-0.1138452742185874,3.37175048640589,5022.647298177083,12.022,0.33,179.2668631281859,-1.326531687820112,87.09259891611848,1525.0,1435.0,1200.0,1883.0,1475.0,1021.7000000000002,135.0,293.35,1637160388.4641006,1637160389.6854467,6cb29513-8e36-45e3-b101-4cbce38f7f68
-0.2417403783292627,0.0117418475365477,-0.6517332577163003,0.2940005192387908,-0.7126281802758689,-0.078449993459055,-1.0356890781489332,-1.0620549722614905,-18.735122904212744,23.83998154102504,22.272224553618383,-0.7197750604093304,-0.0978663622684484,3.3461353897800805,5012.8603515625,12.024444444444445,0.3299999999999999,179.26187253663232,-1.3294715862231752,87.0044985827442,1525.0,1435.0,1200.0,1883.0,1475.0,1021.7000000000002,135.0,293.35,1637160389.795309,1637160390.91197,6cb29513-8e36-45e3-b101-4cbce38f7f68
-0.0249649302113359,0.0979753804985233,-0.048369610169969,0.1059171928239761,-0.1388983886509017,-0.0171151583084151,-0.3260701010779793,-0.3626629301831421,-14.083151389740072,18.23347972341842,23.4789564613276,-0.162266245016291,0.2432531091653466,0.7479387530736595,7520.261935763889,11.81722222222222,7.812222222222222,179.6167221134919,-1.5576767678456984,72.8597042540337,1525.0,1435.0,1350.0,1528.0,1475.0,1021.7000000000002,135.0,293.35,1637160394.293759,1637160395.4194546,f26976fe-f280-4e29-aa7b-e5e0ddbbd71d
-0.0317496577195489,0.1040237806792831,-0.0450429899023831,0.1042604571773929,-0.1376098163080374,-0.0199684254589768,-0.3231247926364518,-0.3396395583230893,-13.928768675964251,18.21270033211161,23.722375233042,-0.1647963184915623,0.2631027071113429,0.738632772835607,7525.396484375,11.819,7.826666666666666,179.74847646258144,-1.606821283300344,66.53142015153071,1525.0,1435.0,1350.0,1528.0,1475.0,1021.7000000000002,135.0,293.35,1637160395.5283363,1637160396.649193,f26976fe-f280-4e29-aa7b-e5e0ddbbd71d
-0.0273316956621375,0.097751852666917,-0.0464893465424902,0.1057594085179606,-0.1371627605989943,-0.0127234936388174,-0.3215995436309228,-0.3571667738429185,-13.921310924609127,18.158706609981515,24.075603543824386,-0.1522671454463037,0.2361185660371431,0.7376035923219902,7531.274522569444,11.820777777777778,7.819999999999999,179.8085730203587,-1.6159992551338105,61.69940358211511,1525.0,1435.0,1350.0,1528.0,1475.0,1021.7000000000002,135.0,293.35,1637160396.757331,1637160397.7647142,f26976fe-f280-4e29-aa7b-e5e0ddbbd71d
0.1608425828890544,0.4650431299325687,-0.034744273239358,-0.071656500072506,-0.2115120699793119,-0.2112929250314818,-0.3963060660483271,-0.4257262815442162,-13.87236407184852,17.50228118415799,23.548332575706453,-0.2020984572319796,1.6405880607299494,0.9716730345765692,7538.63330078125,11.807666666666668,7.866666666666668,179.74334471378504,-1.5192982787804488,51.42945411672829,1610.0,1435.0,1350.0,1528.0,1542.0,1021.7000000000002,135.0,293.35,1637160399.8104331,1637160400.945007,947ca337-b3fc-4de1-8f66-b563ac830695
0.1594592305008967,0.4640432812413495,-0.0345662179629873,-0.0673557804700842,-0.2099780552854087,-0.211566856280568,-0.3944981199815694,-0.4147005490258013,-13.772118879198146,17.375654617588406,23.94150473063591,-0.2131328091183129,1.632123464131095,0.9673601479322612,7542.320095486111,11.80788888888889,7.865555555555555,179.69801957845286,-1.475875090256812,48.90077541092691,1610.0,1435.0,1350.0,1528.0,1542.0,1021.7000000000002,135.0,293.35,1637160401.0578024,1637160402.0653746,947ca337-b3fc-4de1-8f66-b563ac830695
0.16815654493718,0.4577839545105759,-0.0363467706491368,-0.0742588463201017,-0.2132926228069419,-0.1995549731782028,-0.3942241887520045,-0.4111120496077494,-13.748733101513023,17.576854587256694,23.865282257341885,-0.1693241378641657,1.609897672157094,0.97292014537779,7545.26953125,11.808,7.899999999999999,179.64566845519442,-1.435246966923526,46.5613381002744,1610.0,1435.0,1350.0,1528.0,1542.0,1021.7000000000002,135.0,293.35,1637160402.1733177,1637160403.4061596,947ca337-b3fc-4de1-8f66-b563ac830695
0.4115169834441919,0.8868286122371405,-0.009926108451319,-0.2844599499373992,-0.2899933603444227,-0.420864000733796,-0.4621865271809214,-0.4759789662214692,-13.148752630884053,16.71327346150361,24.49660515612068,-0.1964794418693101,3.2367746207174606,1.1898747615397771,7532.00927734375,11.797333333333334,7.989999999999999,179.39132131742204,-1.357127603212955,42.163535249689225,1695.0,1435.0,1350.0,1528.0,1609.0,1021.7000000000002,135.0,293.35,1637160405.3399365,1637160406.477852,2cb15ef4-6b97-4e6b-95ad-77e7e5acc034
0.4069149400908351,0.9000047004992976,-0.0087892940352372,-0.2817206378590153,-0.2891989597793148,-0.4320814846469501,-0.4645697289059471,-0.4895933481362719,-13.218880077139822,16.554273257081913,25.092966422525265,-0.228803505651749,3.2811358761460663,1.193111983920243,7525.396484375,11.801,8.01,179.28569016517807,-1.332694344578429,40.8522869164788,1695.0,1435.0,1350.0,1528.0,1609.0,1021.7000000000002,135.0,293.35,1637160406.5860431,1637160407.9118044,2cb15ef4-6b97-4e6b-95ad-77e7e5acc034
0.403778428443414,0.8949917604718376,-0.0113368539958437,-0.2855830680115767,-0.2926915827625591,-0.4254660454115262,-0.4661996197804494,-0.5018106817390624,-13.20623843983222,16.710606850120584,24.811677717993195,-0.2043540070277267,3.2650545809127074,1.2025697977262526,7536.42529296875,11.796666666666669,7.983333333333334,179.19794955510008,-1.296235114954018,39.792987186277216,1695.0,1435.0,1350.0,1528.0,1609.0,1021.7000000000002,135.0,293.35,1637160408.019798,1637160409.1386373,2cb15ef4-6b97-4e6b-95ad-77e7e5acc034
0.602446992924335,1.263757886156357,0.0073178591324783,-0.4762802896913569,-0.3732547535377971,-0.6102737605403348,-0.5400377864285882,-0.5770869899734208,-12.95125535584838,17.17471902432847,24.72268349701953,-0.1853557061790892,4.671805196147557,1.4348121429654637,7538.63330078125,11.783555555555555,8.00111111111111,178.92245766947715,-1.231187085057396,37.82870674325159,1779.0,1435.0,1350.0,1528.0,1677.0,1021.7000000000002,135.0,293.35,1637160411.4848473,1637160412.510244,b686d896-fbaa-4cb0-8c5e-e660c5487e68
0.6186226270574268,1.277961217427955,0.0122212271798315,-0.4824711354273401,-0.3718850974374597,-0.6214090662677847,-0.5375587085649755,-0.5618153222906404,-12.799614312233748,17.075354774205774,24.3367240649756,-0.1968129282971162,4.72849518250266,1.4239999008398374,7538.63330078125,11.78788888888889,8.01,178.858525581026,-1.2066334680546826,37.32114134619465,1779.0,1435.0,1350.0,1528.0,1677.0,1021.7000000000002,135.0,293.35,1637160412.618489,1637160413.851326,b686d896-fbaa-4cb0-8c5e-e660c5487e68
0.6066107463351386,1.2656754043510263,0.0073315557058107,-0.479581160812519,-0.3720768492786733,-0.6135746321366132,-0.5386407369997271,-0.5623083984411735,-12.945337997231077,16.947256305288775,24.096944733716764,-0.1869312124424493,4.684904499038815,1.4306180454022135,7545.26953125,11.783666666666669,8.126666666666665,178.8172165969258,-1.1880677925199554,36.84082802447111,1779.0,1435.0,1350.0,1528.0,1677.0,1021.7000000000002,135.0,293.35,1637160413.9601338,1637160415.0758245,b686d896-fbaa-4cb0-8c5e-e660c5487e68
0.7495063804129365,1.5206510988408468,0.0501404237834571,-0.6338285627375169,-0.4116549806335643,-0.7396361613204999,-0.5635882041257066,-0.5804974339417457,-12.381100563101208,18.157815408680552,21.55285409929643,-0.112228934233527,5.68149859548903,1.487500732271707,7551.91748046875,11.767444444444443,8.148888888888889,178.6087516343579,-1.088091906471115,36.04613058162572,1864.0,1435.0,1350.0,1528.0,1744.0,1021.7000000000002,135.0,293.35,1637160416.7843752,1637160417.953963,f599aaad-32cb-4027-bcfa-a67efee51b7c
0.7342900531510264,1.5081318956272556,0.0414633799147639,-0.6144375160683055,-0.4132624092784174,-0.742075793715983,-0.5730875923643252,-0.5880305434596372,-12.680228455720334,18.103633498456222,21.93266131210593,-0.1623338316038445,5.630356453678982,1.5140469110677224,7545.26953125,11.766,8.186666666666666,178.5643796898699,-1.0682345306994454,35.756946443446644,1864.0,1435.0,1350.0,1528.0,1744.0,1021.7000000000002,135.0,293.35,1637160418.0711858,1637160419.1825078,f599aaad-32cb-4027-bcfa-a67efee51b7c
0.7407685247520086,1.515117141307914,0.0508729157192084,-0.6249564772062187,-0.4063593422007217,-0.7345563796830145,-0.5607469891281761,-0.5888249430920609,-12.551564226422508,17.99770179856858,22.68147443283794,-0.1217580756331438,5.6508978335193945,1.4761906349455158,7545.26953125,11.768999999999998,8.16888888888889,178.53273162889568,-1.053903845183374,35.5106710714534,1864.0,1435.0,1350.0,1528.0,1744.0,1021.7000000000002,135.0,293.35,1637160419.2947528,1637160420.6104918,f599aaad-32cb-4027-bcfa-a67efee51b7c
-0.2742834056046,-0.3414924285329019,-0.0609457907407804,0.3006707428623066,-0.0530565726931087,0.2215457282539315,-0.2350153670958209,-0.2720508666974179,-14.026189060750028,19.195415102978348,21.97838266717025,-0.0597396111215021,-1.4168812660766177,0.4645798540882825,7544.532172309027,11.812222222222225,7.956666666666667,179.0075299523194,-1.0695107325731144,35.217918918342896,1440.0,1435.0,1350.0,1528.0,1408.0,1021.7000000000002,135.0,293.35,1637160421.3153331,1637160422.4545736,b8212439-44e0-457a-8616-22af8578f858
-0.2654765172968422,-0.3368903840843486,-0.0535085591614322,0.3068068007199466,-0.0469205142389312,0.2161355878585146,-0.2293175980907656,-0.2595048176213985,-13.901045371914122,19.24013255218071,22.702474228521524,-0.0848931817669298,-1.4072073837354149,0.4396732261223812,7538.63330078125,11.808777777777776,7.985555555555556,179.02051034738204,-1.064678350019396,35.05845828634014,1440.0,1435.0,1350.0,1528.0,1408.0,1021.7000000000002,135.0,293.35,1637160422.5631073,1637160423.682063,b8212439-44e0-457a-8616-22af8578f858
-0.2649971376368744,-0.3392598891319796,-0.0592474174119862,0.3038894339071317,-0.0525361034519722,0.2155740289821236,-0.2371109407841143,-0.2667913878403636,-14.1088110845859,19.365942463068624,21.858702532373183,-0.0792650485547833,-1.4071481154768752,0.4645413306327213,7548.962836371527,11.814222222222222,7.905555555555556,179.03633513677903,-1.0377113046462063,34.98512596031631,1440.0,1435.0,1350.0,1528.0,1408.0,1021.7000000000002,135.0,293.35,1637160423.790047,1637160425.0046384,b8212439-44e0-457a-8616-22af8578f858
-0.462364582708122,-0.691316326439976,-0.0719030380925773,0.4782603077783183,0.0140017798105022,0.3972588671070109,-0.1756270830872721,-0.1994590983889175,-14.392663358386166,20.56184784471748,21.64993682958084,-0.0572114553013036,-2.745965286027602,0.2615716822535089,7545.26953125,11.795555555555556,8.026666666666666,179.1022798543056,-1.0338199585201668,34.915328257187944,1355.0,1435.0,1350.0,1528.0,1341.0,1021.7000000000002,135.0,293.35,1637160425.8205278,1637160426.861083,245a9d2a-13e6-44bb-809a-b9d61d59aff6
-0.455817626150313,-0.6849200311043003,-0.0647534342103327,0.4675495999098761,0.0189462375241564,0.3966973082634255,-0.1663545121295476,-0.179037527249703,-14.2201419696544,20.39719177436216,21.12356893177171,-0.0350452058474543,-2.716761996491317,0.2320151603537036,7551.91748046875,11.797,8.01,179.0876875345988,-1.0205620633065449,34.89552298532463,1355.0,1435.0,1350.0,1528.0,1341.0,1021.7000000000002,135.0,293.35,1637160426.9700897,1637160427.9818888,245a9d2a-13e6-44bb-809a-b9d61d59aff6
-0.4513662434509218,-0.689946670054059,-0.0645068961266031,0.4776576592510178,0.0204528589806169,0.3955057077400363,-0.1673543609674515,-0.1922136174026703,-14.244977861699342,20.520330191877424,21.57268574653716,-0.0596365312539609,-2.740646478294017,0.2310965382399503,7551.91748046875,11.79288888888889,8.085555555555555,179.1137925176066,-1.005224897241216,34.808743155189894,1355.0,1435.0,1350.0,1528.0,1341.0,1021.7000000000002,135.0,293.35,1637160428.0904148,1637160429.21122,245a9d2a-13e6-44bb-809a-b9d61d59aff6
-0.689864490919489,-1.1210186977768088,-0.0796963802786252,0.6828731771548661,0.0984547600260461,0.6264296647032385,-0.0943516987111225,-0.1144445523141365,-14.758315877033192,22.39245401033084,21.42292782130853,0.0077364297236929,-4.378665695845171,-0.0100791434082037,7551.91748046875,11.785999999999998,8.0,179.234586689808,-0.9967924713863716,34.80215657610027,1271.0,1435.0,1350.0,1528.0,1273.0,1021.7000000000002,135.0,293.35,1637160430.7712424,1637160431.8785355,8a29d4f0-d5a8-46db-99e1-675e417b61b1
-0.68844004834146,-1.1204023522473223,-0.0829698579277998,0.6900775662745341,0.0957839311354872,0.6194170273825389,-0.1003644882545321,-0.1215941557613163,-14.797992502829954,22.44328471650809,21.418815034582654,-0.024119901691805,-4.377130425921163,0.0066650008335464,7554.141276041667,11.784,8.076666666666666,179.2393541618487,-1.0082187375375684,34.80184580249304,1271.0,1435.0,1350.0,1528.0,1273.0,1021.7000000000002,135.0,293.35,1637160431.9866247,1637160433.1018207,8a29d4f0-d5a8-46db-99e1-675e417b61b1
-0.6961649102716021,-1.1119104795915673,-0.075696984979765,0.6805721555377214,0.1014269132013355,0.6243614845554987,-0.0913110625326577,-0.1009534407892119,-14.786797847144562,22.296037863378206,22.12438246044341,0.0079369615238072,-4.349984516093477,-0.0218172450143526,7551.178819444444,11.784333333333333,8.122222222222222,179.2580066495621,-1.0058520532742243,34.80373966216791,1271.0,1435.0,1350.0,1528.0,1273.0,1021.7000000000002,135.0,293.35,1637160433.2102785,1637160434.332124,8a29d4f0-d5a8-46db-99e1-675e417b61b1
-0.8119282736314831,-1.344437151870289,-0.0718071621789179,0.797184644243235,0.1517206751941337,0.753122819384382,-0.0406885798755934,-0.063671406230472,-14.794692214745922,23.642961671150672,23.498207825145496,0.0435692988254783,-5.248309273683772,-0.1934309985415031,7557.097222222223,11.759777777777778,8.202222222222224,179.34737436248236,-1.0353711822296348,34.78745269663706,1186.0,1435.0,1350.0,1528.0,1206.0,1021.7000000000002,135.0,293.35,1637160436.357776,1637160437.404237,250535cb-643b-42cc-81a1-91e1035870cc
-0.8053533747301888,-1.3494073638830426,-0.0865797231181063,0.7954347720929968,0.1376712936385054,0.7573824487070611,-0.0538526167377287,-0.0715507629249296,-14.736153946412587,23.648055289992566,23.07470308025931,0.0563486863917302,-5.264332366689762,-0.1365910313041695,7563.0244140625,11.762333333333332,8.17,179.3427176912882,-1.034796462128067,34.836792465381414,1186.0,1435.0,1350.0,1528.0,1206.0,1021.7000000000002,135.0,293.35,1637160437.5121355,1637160438.6332197,250535cb-643b-42cc-81a1-91e1035870cc
-0.8364106099287717,-1.3515900496631472,-0.0808205938955446,0.801982822231921,0.1457708903110271,0.7530433793640304,-0.0486983276402197,-0.0654497673887548,-14.852564483275636,23.572862070993978,23.05457153450801,0.0315539154519977,-5.271958797153193,-0.163097544347373,7565.248046875,11.761222222222225,8.213333333333333,179.36769493417304,-1.0573544425225034,34.85018418961409,1186.0,1435.0,1350.0,1528.0,1206.0,1021.7000000000002,135.0,293.35,1637160438.7421029,1637160440.0688972,250535cb-643b-42cc-81a1-91e1035870cc
-0.0189110511620542,0.1176162451791732,-0.0495091638731059,0.0981945253968391,-0.1417691875258293,-0.029813512034211,-0.3291792203572684,-0.3424374923075483,-14.040593953207235,17.881694613729024,23.386330718113385,-0.1757628066091989,0.3183106397974022,0.7601812791588752,7553.397406684027,11.815555555555555,7.90888888888889,179.00762102150833,-1.0748599209160636,34.966673824818564,1525.0,1435.0,1350.0,1528.0,1475.0,1021.7000000000002,135.0,293.35,1637160440.8635623,1637160441.9040082,d780c216-88d4-4111-badd-dd09c9a58a5a
-0.0358947843247326,0.1114938836135656,-0.0512349303254278,0.1003859746973728,-0.1425635879742177,-0.0277864213282176,-0.3303845177068431,-0.3609004565473182,-14.060199668535336,17.950537628859916,23.09675132995164,-0.1758366284746979,0.2976753096335614,0.7641597945959315,7567.479817708333,11.813,7.963333333333334,179.01419014567006,-1.0849191294480691,34.98835891652345,1525.0,1435.0,1350.0,1528.0,1475.0,1021.7000000000002,135.0,293.35,1637160442.0230377,1637160443.1446483,d780c216-88d4-4111-badd-dd09c9a58a5a
-0.0281562284986611,0.117054686289319,-0.0484134391643083,0.0982767047413877,-0.1405501937288797,-0.0287725735350263,-0.3276041158542455,-0.3580926612197757,-14.030323624397434,17.872751449320088,23.477127525725123,-0.1735941374645052,0.3153862252551189,0.7548564444401444,7571.93115234375,11.813666666666668,7.992222222222223,178.98667207241397,-1.093389726099681,35.05257028382064,1525.0,1435.0,1350.0,1528.0,1475.0,1021.7000000000002,135.0,293.35,1637160443.2580097,1637160444.2537644,d780c216-88d4-4111-badd-dd09c9a58a5a
-0.0068443828473661,0.1095078826526243,-0.0768064062688065,-0.3508471797199595,-0.212566705101764,0.414078239720611,-0.2302352676022832,-0.265996988224924,-13.933665279295036,16.85805031013673,26.86343637440469,1.827112313608654,0.3098638211296842,0.7534247962851656,7574.162760416667,11.809,8.006666666666668,179.0109571894629,-0.9566669954293489,35.22918000300948,1525.0,1535.0,1350.0,1528.0,1475.0,1021.7000000000002,135.0,293.35,1637160445.4817712,1637160446.5087495,e2408caf-5099-4659-acb7-febfeacbd04b
0.0041950436312021,0.1097681172598807,-0.0746560464887585,-0.3536001885508901,-0.2115531596944991,0.4158177025149194,-0.2280849076664548,-0.2627372063693545,-13.915431782899423,16.924344611399984,26.8022807672334,1.8377772084096329,0.3117292274903516,0.745958117244693,7578.6259765625,11.812,7.963333333333334,178.98777097396044,-0.9695461708830544,35.28173034011869,1525.0,1535.0,1350.0,1528.0,1475.0,1021.7000000000002,135.0,293.35,1637160446.6172397,1637160447.6433134,e2408caf-5099-4659-acb7-febfeacbd04b
-0.0073785486112389,0.1058235084383315,-0.0801072770758252,-0.350162351844649,-0.2177166117320908,0.4180639379157995,-0.2348784015046362,-0.2616414815297856,-13.908834171148373,17.149344978120737,26.97219648236612,1.8363204082864808,0.2946168567627673,0.7711608426714104,7593.547037760417,11.808777777777776,7.989999999999999,178.9940471588978,-0.9652500886168222,35.294411345222734,1525.0,1535.0,1350.0,1528.0,1475.0,1021.7000000000002,135.0,293.35,1637160447.751251,1637160448.8732812,e2408caf-5099-4659-acb7-febfeacbd04b
0.0216033698380703,0.1100009587556524,-0.0965568447502092,-0.8130787848926168,-0.2848160604564201,0.8639553613502597,-0.1274425862636575,-0.1411665394510682,-13.686622616604003,16.378723149813407,30.69924135469618,3.877302375214562,0.3316184089278138,0.7341845007263061,7598.7822265625,11.807111111111112,7.930000000000001,178.99122401404085,-0.8445869825280901,35.464440936056164,1525.0,1636.0,1350.0,1528.0,1475.0,1021.7000000000002,135.0,293.35,1637160450.8070157,1637160451.833352,6d827380-9af9-4df1-8006-20c79f2d7957
0.0085642458900464,0.0967152971169451,-0.1030353173177652,-0.8099970576703065,-0.2887469733039272,0.8749400003859646,-0.1307982433114607,-0.1659984020477077,-13.726474741573933,16.461587932672447,30.77495556453614,3.895253448948125,0.2806113887150922,0.7516115218730839,7598.7822265625,11.807111111111109,7.971111111111112,179.01436469494885,-0.8564151685522435,35.50035141452742,1525.0,1636.0,1350.0,1528.0,1475.0,1021.7000000000002,135.0,293.35,1637160451.94057,1637160453.0592487,6d827380-9af9-4df1-8006-20c79f2d7957
