raw_voltage_G-,raw_voltage_G0,raw_voltage_G1,raw_voltage_G2,raw_voltage_G3,raw_voltage_G4,raw_voltage_G5,raw_voltage_G6,load_x,load_y,load_z,load_l,load_m,load_n,rpm,voltage,current,roll,pitch,yaw,aileron1_pwm,elevator_pwm,throttle_pwm,rudder_pwm,aileron2_pwm,pbaro,pdiff,Tt,sample_start_time,sample_end_time,uid
-0.0526034906408062,0.080448168517383,0.0207925336423047,0.1348574727281074,-0.1107075820588384,-0.141120518489464,-0.3263067776160573,-0.3492118107360263,-14.140940164587692,23.218415969904527,7.413047727084745,-0.472305558342272,0.321222050776466,0.5889903026223441,4980.49169921875,12.043,0.31,179.3657399822506,3.652401823755653,79.17221972647286,1525.0,1435.0,1200.0,1528.0,1475.0,1021.7000000000002,135.0,293.35,1637161011.283456,1637161012.286606,0f6fda1f-9f83-4eed-a28d-86df80745cf4
-0.0344429490759938,0.0940581646984953,0.0327249755875154,0.1275325533361202,-0.1028709586194236,-0.1488503089575255,-0.316646867249332,-0.334589362471839,-14.036759834789962,23.18992873584292,7.334032964704641,-0.4727070491465159,0.3738885787717128,0.5498533417511793,4989.18896484375,12.041444444444444,0.31,179.3465092051875,3.626138513168353,78.35721499286016,1525.0,1435.0,1200.0,1528.0,1475.0,1021.7000000000002,135.0,293.35,1637161012.395686,1637161013.4432704,0f6fda1f-9f83-4eed-a28d-86df80745cf4
-0.0356893359442081,0.0851280086080821,0.0226990946354545,0.1329426938892884,-0.1070894989057951,-0.14212529814046,-0.325837259519872,-0.3605717392773662,-14.471240179947465,23.09338997644238,7.683664787961692,-0.4711011655397811,0.3390681022642368,0.5815464762655295,4989.18896484375,12.041,0.32,179.33680730092644,3.6271920224159584,77.68539682718779,1525.0,1435.0,1200.0,1528.0,1475.0,1021.7000000000002,135.0,293.35,1637161013.5525894,1637161014.7384615,0f6fda1f-9f83-4eed-a28d-86df80745cf4
0.1424207120475394,0.4314180814259749,0.0391760546978601,-0.0322651960931124,-0.1736136888018331,-0.325535935257096,-0.3879785568098302,-0.4180835998401477,-14.042077342379208,22.476455494563496,8.047719922583154,-0.513576061364572,1.65297701335826,0.7796902534865054,4986.28662109375,12.032222222222224,0.3511111111111111,179.24636648939656,3.61369262784012,77.02872802109452,1610.0,1435.0,1200.0,1528.0,1542.0,1021.7000000000002,135.0,293.35,1637161015.2801116,1637161016.283755,0cc0a15d-3e82-4ffa-bf16-75fb8dfe1394
0.1373392890008206,0.4240904232079541,0.0255890685255128,-0.035648246149764,-0.1842285226200461,-0.3142773623285566,-0.4005656965986842,-0.4135911273525192,-14.407650460703282,22.50952160153165,8.085446538709773,-0.4812805609881776,1.627302650657102,0.8294576784805718,4986.28662109375,12.033375,0.36,179.25709387067053,3.607209877112263,76.52772501287387,1610.0,1435.0,1200.0,1528.0,1542.0,1021.7000000000002,135.0,293.35,1637161016.3918388,1637161017.6051018,0cc0a15d-3e82-4ffa-bf16-75fb8dfe1394
0.1368462129414027,0.4235425608923793,0.0277805178982957,-0.0348812388772369,-0.1820781627514187,-0.3124420232065388,-0.3979359568562179,-0.4190560554237382,-14.392113030165625,22.524298324734733,8.388566156184723,-0.4786232730133244,1.6224960640363426,0.8201701931586859,4983.065483940973,12.03422222222222,0.3588888888888888,179.25352604546657,3.618705702099694,76.1168765174204,1610.0,1435.0,1200.0,1528.0,1542.0,1021.7000000000002,135.0,293.35,1637161017.7186224,1637161018.8409464,0cc0a15d-3e82-4ffa-bf16-75fb8dfe1394
0.3870823248334283,0.8488069689143053,0.0440657261550922,-0.2427128339427802,-0.2692978574533944,-0.5323814080872901,-0.4772938348836726,-0.5028927101091852,-13.789395351665611,21.84365027088076,8.913175087323616,-0.5073534632969138,3.235190039221598,1.0808322588501311,4986.931586371527,12.025777777777778,0.3822222222222222,179.14867505260776,3.616914484989859,75.37889658598783,1695.0,1435.0,1200.0,1528.0,1609.0,1021.7000000000002,135.0,293.35,1637161020.878844,1637161022.0188043,ec73d7c8-2bf8-4bd3-a323-f74ef97b2147
0.3710162628371019,0.8488343620118647,0.0455860441739715,-0.2428497995183258,-0.2665037591415833,-0.5335456158334735,-0.4760200546344856,-0.489360506751995,-13.925943805903184,21.77238583658628,8.746005183290311,-0.5101527344896909,3.237852893876877,1.0728407353213432,4989.18896484375,12.02777777777778,0.3811111111111112,179.15097606744817,3.6305759542628766,75.08438565916607,1695.0,1435.0,1200.0,1528.0,1609.0,1021.7000000000002,135.0,293.35,1637161022.1268644,1637161023.2514868,ec73d7c8-2bf8-4bd3-a323-f74ef97b2147
0.3695918208218244,0.8482591066011054,0.0454490785728515,-0.2378916447454207,-0.2656408758450513,-0.5360520867957045,-0.4774718902093913,-0.512151586209316,-14.007444503329689,21.791291684546024,8.952575325732221,-0.526859079546448,3.233822535039891,1.074119722644988,4983.711100260417,12.02588888888889,0.3899999999999999,179.15433044924055,3.6304242197131895,74.85619890482474,1695.0,1435.0,1200.0,1528.0,1609.0,1021.7000000000002,135.0,293.35,1637161023.3592007,1637161024.477456,ec73d7c8-2bf8-4bd3-a323-f74ef97b2147
0.5782040865489716,1.2196138782795922,0.0567898291188527,-0.4244935894458875,-0.3481215640189317,-0.72703696556059,-0.5545972323009537,-0.5685814239792862,-13.693513649338158,21.638822254697303,8.848411574426107,-0.5354039574533487,4.649021036676753,1.324245788464832,4983.38720703125,12.017,0.4244444444444444,179.0522039429507,3.640332594901024,74.51467882158539,1779.0,1435.0,1200.0,1528.0,1677.0,1021.7000000000002,135.0,293.35,1637161025.3838842,1637161026.624378,f307c732-da22-4b7c-917e-0855c911cfd8
0.5848880064942957,1.2261745297572813,0.0721436712071124,-0.4275205296654052,-0.3347811137539407,-0.7311459348114449,-0.5394899238572409,-0.5597745338585461,-13.598794116767232,21.582585753687784,8.899300282475105,-0.5373618128431485,4.673851120770185,1.2645654409971232,4980.170355902777,12.018666666666668,0.4211111111111111,179.0402723613806,3.659662836593938,74.3372631400745,1779.0,1435.0,1200.0,1528.0,1677.0,1021.7000000000002,135.0,293.35,1637161026.73676,1637161027.85562,f307c732-da22-4b7c-917e-0855c911cfd8
0.5858330689443991,1.2268319645867969,0.0678840415260094,-0.4308624906353535,-0.3400679862322313,-0.7298310647718521,-0.5434345338384964,-0.5597471417826864,-13.53199650409043,21.60902754354051,8.708167993539861,-0.5269021378120197,4.677680002224902,1.2830055134937637,4977.922254774306,12.017444444444443,0.42,179.05788666034016,3.663757724728837,74.1466978265915,1779.0,1435.0,1200.0,1528.0,1677.0,1021.7000000000002,135.0,293.35,1637161027.9636831,1637161029.086874,f307c732-da22-4b7c-917e-0855c911cfd8
0.6826814253611735,1.4107767502209916,0.0909490458948477,-0.5104806053637789,-0.3689677299967102,-0.8355822416665829,-0.5776759405816061,-0.6001656980562894,-13.740697826542316,22.48798132518805,8.82150870290627,-0.5780520058644926,5.379337185486873,1.360892743921995,4980.49169921875,12.000999999999998,0.49,178.9697119537949,3.67185975204055,73.96096980486071,1864.0,1435.0,1200.0,1528.0,1744.0,1021.7000000000002,135.0,293.35,1637161029.7825296,1637161030.825015,d8ea399e-34f4-4668-a0bd-d5d3284f96f9
0.6986472282375031,1.4274531328158988,0.0872460444606545,-0.521091606050846,-0.3787043413185047,-0.8404867078421243,-0.584823354909208,-0.6134086302127019,-13.582788814366152,22.5848309776021,9.01422153235227,-0.5645693281634336,5.44013144252221,1.3916456450801151,4973.427897135417,12.003,0.4855555555555554,178.97756515352066,3.69388156258514,73.71126643681401,1864.0,1435.0,1200.0,1528.0,1744.0,1021.7000000000002,135.0,293.35,1637161030.9393313,1637161032.0450726,d8ea399e-34f4-4668-a0bd-d5d3284f96f9
0.7043669105495792,1.4363810982745635,0.0906515567531203,-0.512360869303897,-0.3765348060203259,-0.8565675718078438,-0.5856517231346835,-0.6119359758627417,-13.446231729225376,22.563419429031,9.124055094235556,-0.6202857002077128,5.470817359211271,1.386644023862448,4968.94287109375,12.005000000000004,0.48,178.95094259395574,3.701627423990757,73.50357252671246,1864.0,1435.0,1200.0,1528.0,1744.0,1021.7000000000002,135.0,293.35,1637161032.157688,1637161033.275966,d8ea399e-34f4-4668-a0bd-d5d3284f96f9
-0.2852817436566488,-0.363242567359801,0.0161521395446401,0.3391580699291457,-0.0159252012477434,0.0998244158692982,-0.2286601632078984,-0.2450960368497693,-14.20471299585106,24.34822029331964,6.952642191943361,-0.3845691569106773,-1.3637848312645324,0.2741377183177048,4973.107259114583,12.039555555555555,0.32,179.50801282266198,3.70917611111596,73.26186503345414,1440.0,1435.0,1200.0,1528.0,1408.0,1021.7000000000002,135.0,293.35,1637161034.2929173,1637161035.5323431,cf1382c9-8c82-48cc-87da-41359eba9e63
-0.284322984441043,-0.3647628856578985,0.0142209247681332,0.3397470218658435,-0.0170209259593238,0.09937242933496,-0.2302489641548276,-0.2446166565205629,-14.223538889771037,24.30923306836222,6.740865332538841,-0.3873112098375124,-1.367672333723191,0.2800500557337317,4983.065483940973,12.04011111111111,0.3111111111111111,179.5211844630214,3.7272140715315327,73.3307550803328,1440.0,1435.0,1200.0,1528.0,1408.0,1021.7000000000002,135.0,293.35,1637161035.6409185,1637161036.7633753,cf1382c9-8c82-48cc-87da-41359eba9e63
-0.2805153406117525,-0.3666119214052243,0.0141113522996861,0.3436094511716934,-0.0177468435796225,0.0986602084195565,-0.2308516127889555,-0.2543823043118706,-14.12307718779178,24.413179653377195,6.88306042914098,-0.3968675044689789,-1.3770593879267985,0.2820844643053332,4984.353678385417,12.041,0.32,179.52517025785704,3.7398660957634657,73.45796280016484,1440.0,1435.0,1200.0,1528.0,1408.0,1021.7000000000002,135.0,293.35,1637161036.8772142,1637161037.9841857,cf1382c9-8c82-48cc-87da-41359eba9e63
-0.4730342044221971,-0.7120940141246391,0.0127279998320911,0.5102417692117162,0.05583106998136,0.2787288573106566,-0.1576024104679577,-0.1880224715160885,-14.136745365107643,25.641943233389927,6.434270952796253,-0.3601125709401243,-2.689335800259665,0.0379739261414599,4991.449001736111,12.025444444444446,0.38,179.64986674480426,3.766773625998732,73.61911959581147,1355.0,1435.0,1200.0,1528.0,1341.0,1021.7000000000002,135.0,293.35,1637161039.7848363,1637161040.854224,3993b487-51f7-4df8-b113-b1507d99c2c1
-0.4777869114215161,-0.7249550878985594,-0.0019410146648626,0.5175694273965132,0.0459558512330065,0.2851388463762563,-0.1717646532347184,-0.2071565645797767,-14.432359574950192,25.6959613926651,6.403252141629097,-0.3627639465380616,-2.737036655481525,0.0898192375225787,4989.18896484375,12.02422222222222,0.38,179.65419708473803,3.7687703179660974,73.58378323268545,1355.0,1435.0,1200.0,1528.0,1341.0,1021.7000000000002,135.0,293.35,1637161040.962124,1637161042.1986656,3993b487-51f7-4df8-b113-b1507d99c2c1
-0.4624741552542007,-0.7162303765314917,0.0087149080869269,0.5108033280686658,0.0525301993567509,0.2815366516561424,-0.1607389226302236,-0.1793525483281988,-14.13610912221001,25.667728436478324,6.30301678649433,-0.3551193156960712,-2.704013986211196,0.0517150053797402,4984.998860677083,12.025666666666666,0.3744444444444444,179.65038583918118,3.7623688180302426,73.53495193357931,1355.0,1435.0,1200.0,1528.0,1341.0,1021.7000000000002,135.0,293.35,1637161042.3119943,1637161043.421726,3993b487-51f7-4df8-b113-b1507d99c2c1
-0.6764007687479907,-1.097255151554715,0.0059208101076961,0.7051985654935248,0.1316552173960878,0.4792053702244093,-0.0846819278550212,-0.0963924866966588,-14.175756932574773,27.28581565781265,7.039893101267897,-0.3387544675354714,-4.1634227561711645,-0.2045885035104916,4976.637641059027,12.017888888888889,0.42,179.75200084019318,3.7756913391656974,73.43942642566734,1280.3333333333333,1435.0,1200.0,1528.0,1280.5555555555557,1021.7000000000002,135.0,293.35,1637161045.353732,1637161046.379341,9f61cb81-b4d9-4d44-81c2-0f17c9233431
-0.6679773821828876,-1.0843940738863609,0.0107146057172534,0.6964738585122046,0.1346821567890674,0.4748772581125817,-0.083969706754294,-0.1097603290282506,-14.50427374769697,27.27120374629673,7.097025320256781,-0.3288139368666621,-4.111989244158631,-0.214923296655253,4969.583279079861,12.017,0.42,179.763572698467,3.749170995279008,73.37907032070166,1271.0,1435.0,1200.0,1528.0,1273.0,1021.7000000000002,135.0,293.35,1637161046.487218,1637161047.725526,9f61cb81-b4d9-4d44-81c2-0f17c9233431
-0.6759487823153539,-1.0928722497098866,0.0084683700647532,0.7005280394619632,0.1334494665336909,0.480396970725911,-0.0822165471676657,-0.0952967621268867,-14.235437527571731,27.24317188574761,7.228407166092161,-0.3256970503606005,-4.147496780062714,-0.2132840889867264,4970.865397135417,12.016333333333334,0.42,179.77071555851902,3.7553904042688666,73.30785573277548,1271.0,1435.0,1200.0,1528.0,1273.0,1021.7000000000002,135.0,293.35,1637161047.8332045,1637161048.9511375,9f61cb81-b4d9-4d44-81c2-0f17c9233431
-0.7869183462200017,-1.301347738018149,0.0133306484321136,0.8304535820109633,0.1810723992998721,0.5844223235653386,-0.0415651596518382,-0.0652602078170807,-14.259625418612089,28.694405256951537,10.141904629253087,-0.3747036217609477,-4.970721432536728,-0.3632446330743826,4974.71044921875,11.996,0.5,179.8191006185994,3.7509302907408486,73.20229971261239,1186.0,1435.0,1200.0,1528.0,1206.0,1021.7000000000002,135.0,293.35,1637161050.7704804,1637161051.8218746,4db43700-bccf-4783-9dfe-1a1b27b0684e
-0.791287550361992,-1.2983207958722272,0.0183435889538827,0.8230711375954591,0.1851265805159384,0.5882984492740894,-0.0346073076595942,-0.0590145762661992,-14.222033161389897,28.600240001590297,10.195141337875958,-0.3496876765128334,-4.958881329846482,-0.3850647105289568,4977.599609375,11.998111111111111,0.5044444444444444,179.79996698200446,3.750964916005391,73.03306356208752,1186.0,1435.0,1200.0,1528.0,1206.0,1021.7000000000002,135.0,293.35,1637161051.929882,1637161053.048558,4db43700-bccf-4783-9dfe-1a1b27b0684e
-0.7834257217911956,-1.306949635689435,0.0061262585017194,0.8309603546215136,0.1766484110356856,0.5904214156514321,-0.0481532045696009,-0.0757654685951128,-14.518294523721709,28.683956406869694,10.229125841951396,-0.362910316764539,-4.991193489465652,-0.3387456264455799,4976.957573784723,11.99877777777778,0.5,179.7888352914771,3.739588002714134,72.89233282660877,1186.0,1435.0,1200.0,1528.0,1206.0,1021.7000000000002,135.0,293.35,1637161053.157614,1637161054.273299,4db43700-bccf-4783-9dfe-1a1b27b0684e
-0.035524977287724,0.101550182178715,0.0129471447957162,0.1234783721042679,-0.1215941553470022,-0.1502473579282592,-0.3373697637251311,-0.3724192655204238,-14.17779701809386,23.0013210111458,7.495275812742083,-0.4689815639513532,0.4007994834611554,0.6328965457846868,4974.71044921875,12.042666666666667,0.3,179.3840312288479,3.7216843693522375,72.80163019116071,1525.0,1435.0,1200.0,1528.0,1475.0,1021.7000000000002,135.0,293.35,1637161055.388459,1637161056.6348135,aa6acdca-b75d-41dc-acc6-d8b2118d1983
-0.034990811490096,0.1016460580648497,0.0176724575138498,0.1231633512699884,-0.1170195045442819,-0.1494666540994536,-0.3336169060606624,-0.345861632358887,-14.29608630405797,23.06887932275345,7.610766693174569,-0.4658746010487609,0.4013121972351982,0.6149425937870427,4983.38720703125,12.041333333333334,0.3,179.40680763300017,3.729545679927576,73.09052518466494,1525.0,1435.0,1200.0,1528.0,1475.0,1021.7000000000002,135.0,293.35,1637161056.74393,1637161057.860047,aa6acdca-b75d-41dc-acc6-d8b2118d1983
-0.0435237677327128,0.0914010323990105,0.0121527443897446,0.1313128034563846,-0.1203066787577721,-0.1475628322563809,-0.3365205769557624,-0.355709459990411,-14.114551472380583,23.05582944806132,7.48801378708306,-0.4802691682414116,0.3613367053715202,0.6298690105691911,4978.884982638889,12.042777777777776,0.31,179.40611398934445,3.7280926994772647,73.3433696808199,1525.0,1435.0,1200.0,1528.0,1475.0,1021.7000000000002,135.0,293.35,1637161057.9683444,1637161059.0886362,aa6acdca-b75d-41dc-acc6-d8b2118d1983
-0.0053514578997844,0.0935103024092491,-0.0031189186850539,-0.230317447037978,-0.1721070672199518,0.2008228360086372,-0.256327214785969,-0.290417955399637,-14.34021026480744,22.37829435340734,10.22612895400536,1.1134201824038634,0.3901218537497349,0.608128257882467,5016.796820746527,12.03788888888889,0.3011111111111111,179.42716311454666,3.825216092200076,73.65967574128321,1525.0,1535.0,1200.0,1528.0,1475.0,1021.7000000000002,135.0,293.35,1637161059.791167,1637161060.81999,ce34af87-d225-4934-be75-75a47fd2eab6
-0.0172948572879774,0.0867168094275948,-0.011117709072845,-0.2277424936961295,-0.1802839134085632,0.2045346032359543,-0.2611210109061787,-0.2924450455645011,-13.995769453231995,22.39706401344945,10.093356348860944,1.1158309130903912,0.3625572233107274,0.6362404663697919,5066.531141493056,12.041,0.3044444444444444,179.42552690478544,3.837178883940138,73.76245415118382,1525.0,1535.0,1200.0,1528.0,1475.0,1021.7000000000002,135.0,293.35,1637161060.928516,1637161062.0467196,ce34af87-d225-4934-be75-75a47fd2eab6
-0.0271289866592376,0.0907299010307943,-0.005146009391123,-0.229646315551717,-0.1738054406131615,0.2036169338352325,-0.257847532986496,-0.2844599512911959,-14.346372447664516,22.42044597412456,10.309721627913614,1.118373700961791,0.3787859702376864,0.6151350074049656,5089.92041015625,12.039222222222223,0.3188888888888889,179.42481352947215,3.840754298243163,73.88843167805535,1525.0,1535.0,1200.0,1528.0,1475.0,1021.7000000000002,135.0,293.35,1637161062.155752,1637161063.3875809,ce34af87-d225-4934-be75-75a47fd2eab6
-0.0097891429735588,0.0864017885579103,-0.0311968644836048,-0.6301748667016109,-0.2450275526289299,0.5962424524964847,-0.175791441770151,-0.1978839936804305,-13.981584372819874,22.00420538515189,13.307461688960831,2.900754961263941,0.3810572352213079,0.6314403040276014,5051.264268663194,12.034333333333333,0.3377777777777778,179.40697914663934,3.935217948898555,74.016811154785,1525.0,1636.0,1200.0,1528.0,1475.0,1021.7000000000002,135.0,293.35,1637161064.297191,1637161065.4387684,29067e4f-779b-4198-8517-47449d69fd64
0.0004010967432433,0.100235312533303,-0.0266359103671116,-0.6378586387607538,-0.2432880894672961,0.5901885741782847,-0.1740519786955781,-0.1985414290090633,-14.04570850839206,21.94653129779499,13.393125682778184,2.904309949037601,0.4338701767524753,0.6220835192900659,5017.098090277777,12.036555555555555,0.3211111111111111,179.38987635295763,3.92724152117658,73.99525355994463,1525.0,1636.0,1200.0,1528.0,1475.0,1021.7000000000002,135.0,293.35,1637161065.5472736,1637161066.7666366,29067e4f-779b-4198-8517-47449d69fd64
0.0012776765959342,0.084470573828251,-0.033881390022041,-0.6299968113496767,-0.24780795432343,0.5967629216703384,-0.1758325314315314,-0.1928162662116744,-13.72101074886156,21.91065805788646,13.12511046984885,2.9008711660443667,0.3733922104863901,0.6386764310521192,5009.6005859375,12.036333333333332,0.3299999999999999,179.3658583721962,3.91228098786892,73.98863890118842,1525.0,1636.0,1200.0,1528.0,1475.0,1021.7000000000002,135.0,293.35,1637161066.8754508,1637161067.9894,29067e4f-779b-4198-8517-47449d69fd64
0.0040936891209531,0.0887581444721049,-0.0453848560184078,-0.9704484929680256,-0.300035678496767,0.9236345493472456,-0.1023844568085565,-0.1377544521580936,-13.767401740048056,21.82888943256265,15.86103753544936,4.4026688612929545,0.4067393425720735,0.6223121466885533,4982.423122829861,12.024555555555557,0.3788888888888889,179.36594337010592,4.020539865668577,73.93505075478032,1525.0,1737.0,1200.0,1528.0,1475.0,1021.7000000000002,135.0,293.35,1637161069.8276474,1637161070.8565943,04fa29a5-1bbb-40e3-98df-e1cc1ee558fc
0.0085779424279696,0.0755130245418261,-0.0524539241018546,-0.961549559695428,-0.3021285129729686,0.9279867674721706,-0.1079249890186841,-0.1352359290788537,-13.965081549298745,21.81076289673346,15.752531258503833,4.391786104424369,0.3578788095631789,0.6408786426575268,4957.130154079861,12.027888888888889,0.36,179.363457181248,4.02152023497382,73.81691883853541,1525.0,1737.0,1200.0,1528.0,1475.0,1021.7000000000002,135.0,293.35,1637161070.9649649,1637161072.0122364,04fa29a5-1bbb-40e3-98df-e1cc1ee558fc
0.0106598193696189,0.0842788220057455,-0.0462904725465461,-0.9629329128917372,-0.2982523863701233,0.9217685303756916,-0.1032544622691645,-0.1251278680612913,-13.844473304920148,21.77474277197525,15.949842167103151,4.3810936818813735,0.3887139219765702,0.6219738704872367,4951.71923828125,12.034777777777776,0.3522222222222222,179.3428133139366,4.009491607799259,73.71321835309683,1525.0,1737.0,1200.0,1528.0,1475.0,1021.7000000000002,135.0,293.35,1637161072.124195,1637161073.21676,04fa29a5-1bbb-40e3-98df-e1cc1ee558fc
0.0088655701660058,0.077499025523672,-0.0464548312412263,-0.9607003730332124,-0.3043062661431688,0.9257131389809476,-0.1106095146681157,-0.1319487548926583,-13.943396027743692,22.66604680990316,15.819421376925376,4.390751474346331,0.3648714530000496,0.6394958253021125,4951.71923828125,12.009888888888888,0.4377777777777777,179.3312702942393,4.0097234547760845,73.58913202971549,1525.0,1837.0,1200.0,1528.0,1475.0,1021.7000000000002,135.0,293.35,1637161073.7829883,1637161074.860885,b34e7dfd-42e1-401c-ad41-dda1cf29a0b2
0.0042498298249108,0.0797041714357635,-0.0380314474991346,-0.9460587437667028,-0.2953213224687785,0.9097566496866686,-0.1056376636616717,-0.1301545065650992,-13.82202612703015,22.65959176299804,15.82589295175451,4.322305947062142,0.3709568973504393,0.6091890072791699,4950.448621961806,12.014444444444443,0.4255555555555556,179.32596854962355,4.002907020848151,73.44318378862074,1525.0,1837.0,1200.0,1528.0,1475.0,1021.7000000000002,135.0,293.35,1637161074.9688416,1637161076.0873272,b34e7dfd-42e1-401c-ad41-dda1cf29a0b2
0.0072630727553823,0.0860182848935656,-0.041400800990234,-0.9672199386204549,-0.3013888987585676,0.9218644063414798,-0.1081852236933826,-0.1442482655183405,-14.067952802517018,22.691302375813773,15.63476356432028,4.397136345807675,0.4004655800240124,0.6257971447369411,4943.15283203125,12.014555555555557,0.4211111111111111,179.28474000997352,3.992030750936683,73.27113284124795,1525.0,1837.0,1200.0,1528.0,1475.0,1021.7000000000002,135.0,293.35,1637161076.1954231,1637161077.3188703,b34e7dfd-42e1-401c-ad41-dda1cf29a0b2
-0.069177422966345,0.0927022054012078,0.0429973945842896,0.5976395013374741,-0.0446331888653455,-0.598508412801002,-0.4374231435375877,-0.4673364350566696,-14.424574819998762,24.424253890976463,4.325527788035916,-2.535575746490129,0.341003994083026,0.6274254802487683,4951.090386284723,12.042444444444444,0.2944444444444444,179.2809044792996,3.496431631862192,73.17653775688288,1525.0,1334.0,1200.0,1528.0,1475.0,1021.7000000000002,135.0,293.35,1637161078.3161972,1637161079.581649,dcbc9ac9-4401-4f17-95a0-542ef61f6f9f
-0.0606581631405681,0.092551543285126,0.0504346259019098,0.593393568583091,-0.0391819583929184,-0.5952897206664808,-0.4268357014483616,-0.4529413488700215,-14.118863722003963,24.38900242350049,4.274511366950106,-2.5184827383649333,0.3397209769677285,0.5948895266346685,4974.71044921875,12.040333333333333,0.2911111111111111,179.2921530419527,3.5007571100293826,73.41939727538123,1525.0,1334.0,1200.0,1528.0,1475.0,1021.7000000000002,135.0,293.35,1637161079.71879,1637161080.6824567,dcbc9ac9-4401-4f17-95a0-542ef61f6f9f
-0.0511938407815562,0.0964139727200189,0.0492430252796849,0.6006253508212339,-0.0385656132367972,-0.6062606674344595,-0.4338620375351378,-0.4558313232868209,-14.503920789879174,24.432246455480747,4.169536028681754,-2.5594322749893976,0.3568979738113406,0.6057740075564148,4984.676486545139,12.04388888888889,0.2899999999999999,179.29579429169027,3.491728643447749,73.73331732309447,1525.0,1334.0,1200.0,1528.0,1475.0,1021.7000000000002,135.0,293.35,1637161080.7909508,1637161081.9197872,dcbc9ac9-4401-4f17-95a0-542ef61f6f9f
-0.0819616722028282,0.1070651311487588,0.0837976559845849,1.00680747892979,0.0273725986605352,-1.008959333495548,-0.5221143456860536,-0.5481401974171473,-14.650018007068356,26.183411933960667,1.3521770815363925,-4.367790680141516,0.3750610792986278,0.5945702141435083,4986.28662109375,12.0356,0.322,179.32008153368693,3.3710218715801985,74.0826824098325,1525.0,1234.0,1200.0,1528.0,1475.0,1021.7000000000002,135.0,293.35,1637161082.8218925,1637161083.8754325,fc0ffabd-1d38-438f-8b6a-fed52bde52d1
-0.0733000873289294,0.1121787114431999,0.0914010324276708,1.0041807173590616,0.033738520934317,-1.0116516019312691,-0.5153839740691202,-0.5461875441266771,-14.659930870645782,26.161132321909623,1.3933473885190193,-4.367682760204146,0.3947504301004566,0.5666087345053836,4981.456868489583,12.032333333333334,0.3366666666666666,179.3353410869846,3.3625537817028754,74.31393121386974,1525.0,1234.0,1200.0,1528.0,1475.0,1021.7000000000002,135.0,293.35,1637161083.983476,1637161085.1006105,fc0ffabd-1d38-438f-8b6a-fed52bde52d1
-0.0696294093953966,0.0995915743003036,0.0733078787020957,1.00982369911066,0.0190010237717362,-1.0054059672150524,-0.5299982060764216,-0.5550218264523994,-14.556760793848808,26.11993115990855,1.1408153303944395,-4.3675395369825845,0.3472065056701887,0.6304115691936207,4974.71044921875,12.028555555555556,0.3477777777777777,179.32856553932797,3.364555027129689,74.490759499112,1525.0,1234.0,1200.0,1528.0,1475.0,1021.7000000000002,135.0,293.35,1637161085.2085826,1637161086.330861,fc0ffabd-1d38-438f-8b6a-fed52bde52d1
-0.074299936116093,0.1137675122026504,0.1066316053342996,1.2363099831960973,0.0641722741333222,-1.236741014340942,-0.5764843396347853,-0.6079590421358292,-15.091907653110072,27.782610622454342,-0.1896166202801588,-5.3860778993725695,0.3902095496851152,0.5904171852042018,4974.389811197917,12.024777777777777,0.36,179.33738407245633,3.256482319416785,74.87147500235844,1525.0,1133.0,1200.0,1528.0,1475.0,1021.7000000000002,135.0,293.35,1637161088.3509247,1637161089.396514,fce05c1f-0756-47fa-97f3-3d686465383e
-0.0933381534684052,0.114726819127568,0.1014466362210542,1.258071622977516,0.0589631989984246,-1.2587338709352112,-0.586111927518838,-0.6095560611309334,-14.696441813192502,27.841916076872177,-0.3934833363006476,-5.4842861763140105,0.3898083722158283,0.6185590182754026,4964.152180989583,12.029,0.3633333333333333,179.33837369097606,3.25170500526325,74.9860332118476,1525.0,1133.0,1200.0,1528.0,1475.0,1021.7000000000002,135.0,293.35,1637161089.505962,1637161090.6319835,fce05c1f-0756-47fa-97f3-3d686465383e
-0.0893935443303552,0.1135828825945899,0.1113476042680265,1.239794935524674,0.06774652801575,-1.2393395273023518,-0.5698732828627103,-0.5949347061724486,-14.727357939864996,27.734414914177528,-0.0863544031353251,-5.399663007867306,0.3858907523164954,0.5701363375593903,4963.1884765625,12.028333333333334,0.3566666666666667,179.32794171538376,3.241273598853348,75.12846086988014,1525.0,1133.0,1200.0,1528.0,1475.0,1021.7000000000002,135.0,293.35,1637161090.7412798,1637161091.9477756,fce05c1f-0756-47fa-97f3-3d686465383e
-0.0485536919417194,0.1172908148699782,0.1166859748651532,1.255178909897899,0.0667735245065212,-1.2604037571107516,-0.578288450900712,-0.6077678372315882,-14.761324345214682,28.57049263280588,-0.5719218921911852,-5.475985846541551,0.4028002380620538,0.5756980258476726,4979.849012586806,12.02111111111111,0.3822222222222222,179.31669315273064,3.214983394396192,75.35534457590981,1525.0,1033.0,1200.0,1528.0,1475.0,1021.7000000000002,135.0,293.35,1637161093.8818038,1637161094.9298184,2b1aa71c-ca4c-46bf-bbcf-b87935d4729b
-0.0563321575264608,0.1177742822879801,0.1125021609593304,1.2437198211929157,0.0630049059084255,-1.249172232197599,-0.5807502922218298,-0.616201211790236,-15.022477898261752,28.525375633082994,-0.4317126547606044,-5.425514733704571,0.4063641069831761,0.5900308209117293,4977.599609375,12.021999999999998,0.3866666666666666,179.32317424334306,3.211995210350246,75.3948632915376,1525.0,1033.0,1200.0,1528.0,1475.0,1021.7000000000002,135.0,293.35,1637161095.0379722,1637161096.1144445,2b1aa71c-ca4c-46bf-bbcf-b87935d4729b
-0.0683693259535403,0.1152604370834579,0.1098229034307613,1.2552797166435712,0.0620903972350822,-1.2565873447129827,-0.5850994776122235,-0.6018914640705034,-14.99022982300859,28.528954683764457,-0.3500622770488727,-5.468334208330947,0.3943906893746964,0.6010542773409783,4971.504503038194,12.021,0.3811111111111111,179.3093696721206,3.203080129652021,75.4032424158294,1525.0,1033.0,1200.0,1528.0,1475.0,1021.7000000000002,135.0,293.35,1637161096.2232418,1637161097.3875268,2b1aa71c-ca4c-46bf-bbcf-b87935d4729b
-0.0372644402246931,0.0931541918758815,0.0210555075789058,0.127738001748918,-0.1126092123614699,-0.1456179208555667,-0.329192916924845,-0.3503814977727186,-14.289559804067457,23.18272463451937,7.602564440580636,-0.4666201488223307,0.3691422000972754,0.5969841944999393,4964.14697265625,12.040666666666668,0.29,179.3250548220946,3.5060928395794364,75.41396733064613,1525.0,1435.0,1200.0,1528.0,1475.0,1021.7000000000002,135.0,293.35,1637161098.2930355,1637161099.440942,e19aa284-4030-423d-b2a2-7332cd46d5c8
-0.0305257331800625,0.0891547968171782,0.023712639989703,0.1366544611906787,-0.110691694008838,-0.1498227646032938,-0.3293983653307276,-0.3425744574790168,-14.252845965043354,23.44293631034176,7.621044572175127,-0.4943036333756458,0.3527934505888491,0.5905822128739917,4982.10107421875,12.043333333333331,0.29,179.32920605929013,3.5564265431436377,75.45008081751773,1525.0,1435.0,1200.0,1528.0,1475.0,1021.7000000000002,135.0,293.35,1637161099.5496771,1637161100.664956,e19aa284-4030-423d-b2a2-7332cd46d5c8
-0.0489886947840761,0.0846623256625675,0.0140976557361094,0.1467625211289671,-0.117046897612117,-0.1559040370978284,-0.3403419174264102,-0.3660503641811763,-14.34304945178905,23.390103893181788,7.376093367335526,-0.5316838186643326,0.3368984335471175,0.6270839570628413,5046.041558159723,12.04077777777778,0.2877777777777777,179.31487935805106,3.531410619569446,75.50270211270329,1525.0,1435.0,1200.0,1528.0,1475.0,1021.7000000000002,135.0,293.35,1637161100.772578,1637161101.897817,e19aa284-4030-423d-b2a2-7332cd46d5c8
0.0166452155427229,0.1193967977356778,0.1855511737953253,0.1306279755466932,0.0355327701032318,-0.1846120263440529,-0.1677241680799882,-0.1990071113939229,-13.195649384014333,23.35757710076524,7.340099847348834,-0.5509054709162647,0.4722270113137765,-0.0553895854702241,5139.783637152777,12.041666666666666,0.29,179.28878044632253,3.5299333540020847,75.46796984186389,1525.0,1435.0,1200.0,1439.0,1475.0,1021.7000000000002,135.0,293.35,1637161102.8006096,1637161103.9405985,a193e88f-6da8-4eb4-9b2a-cff7884eace7
0.0143304970796377,0.1129183256368386,0.1807436819164732,0.1253274074841788,0.0311224782230416,-0.1724220881569599,-0.1675872024945563,-0.1898715062238641,-13.053931082079126,23.310750614443943,7.458493515973807,-0.512015858696071,0.4462234845497608,-0.0435695400413855,5166.62255859375,12.04,0.29,179.29051227873208,3.534772092426281,75.49276949983029,1525.0,1435.0,1200.0,1439.0,1475.0,1021.7000000000002,135.0,293.35,1637161104.0484912,1637161105.2598355,a193e88f-6da8-4eb4-9b2a-cff7884eace7
0.0173300434853425,0.1220128403458768,0.1820174618136921,0.1229305097756573,0.0314238025184336,-0.1792703680371201,-0.1705730524970309,-0.2016231544232266,-13.293180314140873,23.33047546895405,7.432429806911565,-0.5219284464941262,0.482633988157996,-0.0405977903935766,5144.950629340277,12.041444444444446,0.29,179.28671621137337,3.535948568794881,75.49804316477945,1525.0,1435.0,1200.0,1439.0,1475.0,1021.7000000000002,135.0,293.35,1637161105.368782,1637161106.4923885,a193e88f-6da8-4eb4-9b2a-cff7884eace7
0.0578444640296201,0.1455024377682605,0.3481567082795472,0.1073164332571703,0.1785659291730578,-0.1949118393914116,0.0027706015954098,-0.0128023862081097,-11.753859083926832,23.34700633423532,7.7352255487379535,-0.5126500570725826,0.5696107014585493,-0.7100790913274331,5076.523600260417,12.040666666666665,0.29,179.2872732512457,3.568431691542928,75.40232792939054,1525.0,1435.0,1200.0,1351.0,1475.0,1021.7000000000002,135.0,293.35,1637161108.3299458,1637161109.4697864,4a34515a-adf0-4ab5-9c64-9e02c5b7fba9
0.0630787408760463,0.1378816727487629,0.3507722029293927,0.1077054155365346,0.1835076473529797,-0.1883769367529736,0.0070258485115279,-0.0139857687010458,-11.937441640028425,23.353448159984133,7.681025902280157,-0.4987708197176691,0.5429259471691065,-0.7275598362634882,5058.8798828125,12.038333333333334,0.2966666666666666,179.2784137369823,3.5559815373464634,75.37310686230138,1525.0,1435.0,1200.0,1351.0,1475.0,1021.7000000000002,135.0,293.35,1637161109.5784605,1637161110.5868578,4a34515a-adf0-4ab5-9c64-9e02c5b7fba9
0.0755305561124292,0.1432463406829199,0.3441321117927751,0.1059434902421365,0.1752108203051873,-0.1920059772651551,0.0003857568090777,-0.0211781057065799,-11.719289807877974,23.291578116105235,7.630209133652425,-0.5035903511302272,0.5617480113812074,-0.6970140514746467,5031.1748046875,12.041000000000002,0.2977777777777777,179.26166004185814,3.550077740014503,75.33075589489778,1525.0,1435.0,1200.0,1351.0,1475.0,1021.7000000000002,135.0,293.35,1637161110.695114,1637161111.7216232,4a34515a-adf0-4ab5-9c64-9e02c5b7fba9
0.1314651091122604,0.1757630655097819,0.5317639915346062,0.1012231083327418,0.34294872920078,-0.2288486280084274,0.1855456951704109,0.1682946062018125,-10.5416733190695,23.511858346381963,7.730359116987319,-0.564320855746997,0.6869627692074295,-1.4401028334808583,5015.462890625,12.038,0.3,179.21913680190545,3.5414291789895165,75.26179982285714,1525.0,1435.0,1200.0,1262.0,1475.0,1021.7000000000002,135.0,293.35,1637161112.2585728,1637161113.258879,513bfa10-e098-43b8-9cfd-d01178fd8b7b
0.1320798106210454,0.1853183322869129,0.5339505099470389,0.1002764022902846,0.3439792582097585,-0.2371520305351139,0.1832090623871423,0.1365037983496715,-10.741547867367853,23.536874304492244,7.75716124016602,-0.5806658045408848,0.7242335431908954,-1.4401244039166372,5022.647298177083,12.037555555555556,0.3,179.24646514768455,3.569572997180489,75.21118053200827,1525.0,1435.0,1200.0,1262.0,1475.0,1021.7000000000002,135.0,293.35,1637161113.3680675,1637161114.5940254,513bfa10-e098-43b8-9cfd-d01178fd8b7b
0.1218895712623627,0.1687865866232389,0.5138850534696858,0.100796871421664,0.3297074451598867,-0.2196615233420072,0.1689098557093638,0.1576375878641547,-10.934418230077478,23.4214778021394,7.879038237600395,-0.5443781116089741,0.6611762611117274,-1.3748866298133902,5014.487847222223,12.038000000000002,0.3,179.24661389402652,3.562739345484021,75.18572972934099,1525.0,1435.0,1200.0,1262.0,1475.0,1021.7000000000002,135.0,293.35,1637161114.7019703,1637161115.7168684,513bfa10-e098-43b8-9cfd-d01178fd8b7b
0.1703479942011898,0.2002064908419851,0.6748196014887181,0.1031937692232459,0.4723433950059608,-0.2608607764409149,0.323639870096658,0.290987276275252,-9.900053950451358,23.746814975230308,7.918363295124702,-0.6316680417795696,0.781263292254926,-2.00436790195408,4992.0947265625,12.036,0.33,179.2329884255422,3.547395135786111,75.11333200086858,1525.0,1435.0,1200.0,1173.0,1475.0,1021.7000000000002,135.0,293.35,1637161117.278899,1637161118.2657306,80930beb-3172-4bcf-a339-c1a8aeda7413
0.1660061852768031,0.2017268087825557,0.6693957648160126,0.103659452172742,0.4661936407310971,-0.2627098120374935,0.3178736193296351,0.2915488348249967,-9.79384262622789,23.755342139451283,7.884500913046023,-0.6370390153309843,0.7861127594260369,-1.9801774571271136,4984.675835503473,12.032444444444444,0.33,179.242330606507,3.5458855216839305,75.06713487805231,1525.0,1435.0,1200.0,1173.0,1475.0,1021.7000000000002,135.0,293.35,1637161118.3738,1637161119.5985277,80930beb-3172-4bcf-a339-c1a8aeda7413
0.1764840522423671,0.2039456511883644,0.6776136991690748,0.0974960008853644,0.4724255743464963,-0.2596006928083954,0.3275159959324983,0.3126141408183962,-9.685189282954148,23.75810463844552,7.896867405113639,-0.6156649974152513,0.7948360147749906,-2.013289484477301,4985.321126302083,12.034666666666666,0.33,179.22928646301207,3.531124202227064,75.01452193087572,1525.0,1435.0,1200.0,1173.0,1475.0,1021.7000000000002,135.0,293.35,1637161119.7069943,1637161120.941738,80930beb-3172-4bcf-a339-c1a8aeda7413
-0.0978169283246926,0.0598304650350263,-0.1846120262838684,0.1534738346550665,-0.2998959735721425,-0.1251415643433127,-0.5438317341615679,-0.5573502423167762,-15.599664256248376,23.569270491841127,7.624825825305213,-0.4869951109396389,0.2370329576767672,1.4331730081576453,4984.031521267361,12.041666666666666,0.2877777777777777,179.26206529974888,3.534649149021221,75.12347786742569,1525.0,1435.0,1200.0,1617.0,1475.0,1021.7000000000002,135.0,293.35,1637161121.8526103,1637161122.8722718,33762fc1-d268-448b-b21c-609720e4e4f2
-0.11143130837157,0.0545572900039401,-0.1845435435058157,0.1576512849052376,-0.2982386897468268,-0.1231144735029349,-0.5427907953896897,-0.5737450280699491,-15.616430419259023,23.571401405302723,7.729612755576649,-0.4918374713919144,0.2159353321496312,1.428874069824895,4990.803276909723,12.04322222222222,0.29,179.2719569314869,3.527275627789108,75.1141531413888,1525.0,1435.0,1200.0,1617.0,1475.0,1021.7000000000002,135.0,293.35,1637161122.980607,1637161124.1017523,33762fc1-d268-448b-b21c-609720e4e4f2
-0.1172556333234488,0.0548345083571185,-0.1830780116171087,0.1574074860818544,-0.2968273961793174,-0.1243822271505524,-0.5430367856835099,-0.5631542979508647,-15.757712839626898,23.645028316874573,7.560756427312948,-0.4936733119478195,0.2195957735631739,1.424968622236788,4986.28662109375,12.04188888888889,0.29,179.28079064281346,3.5255400245459514,75.12747504590996,1525.0,1435.0,1200.0,1617.0,1475.0,1021.7000000000002,135.0,293.35,1637161124.2107418,1637161125.3313062,33762fc1-d268-448b-b21c-609720e4e4f2
-0.1792254434047417,0.0181759430153689,-0.3831748988714547,0.2042036944137021,-0.4754393204284856,-0.1215947032320811,-0.7566900273596407,-0.7839078419660798,-17.12574171471244,24.05734066240367,7.386164735718143,-0.6009168369185232,0.0748941411569294,2.2397977568656606,4990.157552083333,12.035333333333334,0.31,179.28636407717616,3.527389369411536,75.13246791419323,1525.0,1435.0,1200.0,1706.0,1475.0,1021.7000000000002,135.0,293.35,1637161127.3789356,1637161128.419759,baecdae0-48cc-4e7d-bdc8-5070556ddcfb
-0.1707237148195825,0.0230962947558893,-0.3764871419905891,0.2021377056046811,-0.4705003402219075,-0.1249498124311408,-0.750019800435571,-0.773523105699054,-16.981974356165463,24.01563599459768,7.375287755497498,-0.6036686753523425,0.0931049323960908,2.2151371201885497,4995.00390625,12.037777777777778,0.31,179.3040330176491,3.5377238962285227,75.08465203654367,1525.0,1435.0,1200.0,1706.0,1475.0,1021.7000000000002,135.0,293.35,1637161128.5274324,1637161129.7487383,baecdae0-48cc-4e7d-bdc8-5070556ddcfb
-0.1644989023151682,0.0290630636122793,-0.3732344826594784,0.1994964613325961,-0.468720335054353,-0.1274064273534221,-0.7489980367579063,-0.7851175227952243,-17.07416836816463,24.06419293508136,7.527692990757283,-0.6027692804234216,0.115317924624752,2.207653555283033,4989.18896484375,12.03588888888889,0.3044444444444444,179.31011188601042,3.545958851353769,75.05670062573027,1525.0,1435.0,1200.0,1706.0,1475.0,1021.7000000000002,135.0,293.35,1637161129.8573282,1637161131.0716286,baecdae0-48cc-4e7d-bdc8-5070556ddcfb
-0.2431374275453295,-0.0099124119891689,-0.5686499057696773,0.268250990643577,-0.6433646572581803,-0.1454261690275272,-0.9665898961058788,-0.9938871569428538,-18.424409444743542,24.875920761907995,6.9451148268764085,-0.8034773040576156,-0.0369834393986036,3.0154903430875866,5000.83203125,12.035555555555554,0.32,179.31804704800612,3.5092704902270464,75.07067215713249,1525.0,1435.0,1200.0,1795.0,1475.0,1021.7000000000002,135.0,293.35,1637161131.8824627,1637161133.115077,4a3e8901-fa21-40cb-80b4-b2ac0314a1e2
-0.2393571768513716,0.0016474837198796,-0.5568434686125255,0.2672237487803348,-0.6345166772343418,-0.1547809192057328,-0.9570296924464164,-0.972561600562555,-18.28193989619282,24.8312047543524,7.172873602364017,-0.8217819952679077,0.0042203954117203,2.9755628679337653,5000.508083767361,12.036555555555555,0.3111111111111111,179.32520508625632,3.51226631080394,75.02620079544653,1525.0,1435.0,1200.0,1795.0,1475.0,1021.7000000000002,135.0,293.35,1637161133.2237008,1637161134.3367715,4a3e8901-fa21-40cb-80b4-b2ac0314a1e2
-0.2338785528092519,0.004071774602608,-0.5565969306038551,0.2617588222198979,-0.635680885222683,-0.1533838701038731,-0.9572351410630912,-0.9825327018132743,-18.31451184453903,24.87931469490306,6.993630829625521,-0.8060288696614494,0.0158214151330821,2.977055110686177,4996.622016059027,12.035555555555554,0.3144444444444444,179.33786825697752,3.5069869303145382,75.00863051326162,1525.0,1435.0,1200.0,1795.0,1475.0,1021.7000000000002,135.0,293.35,1637161134.4465787,1637161135.4913197,4a3e8901-fa21-40cb-80b4-b2ac0314a1e2
-0.2831133041332482,-0.0238209936290739,-0.692734742944161,0.3449999256615901,-0.7563350127436463,-0.1959637351837481,-1.1205672592415816,-1.145405166235938,-19.26428397014366,25.837370121425963,6.792710494090532,-1.0904208549813144,-0.0991533438068765,3.5555254079117287,4992.0947265625,12.018999999999998,0.39,179.3478676539224,3.496688831173125,74.99575788340589,1525.0,1435.0,1200.0,1883.0,1475.0,1021.7000000000002,135.0,293.35,1637161136.2763731,1637161137.412377,dd84e4af-f8f0-4a8d-adbe-b66593c1fd4f
-0.2784849624806292,-0.0344188430773266,-0.7055810241247126,0.3455127248193223,-0.765631144978366,-0.1858392381321356,-1.1303630452141964,-1.1595400250514396,-19.40908194118729,25.794955805732894,6.737084373641762,-1.069829090921712,-0.1382621069280414,3.598204929990084,4982.42333984375,12.022333333333332,0.3733333333333333,179.34335972907016,3.465508567009259,74.87193945522198,1525.0,1435.0,1200.0,1883.0,1475.0,1021.7000000000002,135.0,293.35,1637161137.520705,1637161138.6469204,dd84e4af-f8f0-4a8d-adbe-b66593c1fd4f
-0.2822958935966591,-0.0195821825326734,-0.6838380027968736,0.3337616262260583,-0.7483077301652507,-0.1910904991631917,-1.1086917863749723,-1.145371198630535,-19.2514282754354,25.65583789145973,6.686911661164117,-1.0548899873695932,-0.0804639196580544,3.5159052123676737,4985.642740885417,12.02111111111111,0.3711111111111111,179.336687393161,3.472727365483924,74.75667621842848,1525.0,1435.0,1200.0,1883.0,1475.0,1021.7000000000002,135.0,293.35,1637161138.7561686,1637161139.87162,dd84e4af-f8f0-4a8d-adbe-b66593c1fd4f
-0.064844927283222,0.0749125675141989,-0.0320257802093566,0.1127019200027129,-0.1343752368061136,-0.1139027154600851,-0.3437419517410897,-0.3712358809731479,-14.321365214141649,20.032428358691075,7.379795868223142,-0.3850124400673202,0.3013572869717477,0.7183180966358654,7505.62744140625,11.824777777777776,7.85222222222222,178.78784981913435,3.25287033514258,62.74230592539426,1525.0,1435.0,1350.0,1528.0,1475.0,1021.7000000000002,135.0,293.35,1637161143.8081076,1637161144.99413,3666bca1-d830-4b78-8a2c-6ed4ef1e8f74
-0.0588091276383008,0.0800054958281537,-0.0298272085586089,0.1102201036005332,-0.1336882173788547,-0.1197725129925498,-0.3428483881003107,-0.3724877467831229,-14.258275932175172,20.01044771589858,6.941966737828708,-0.392678562220339,0.324337372392963,0.7131433177211903,7505.62744140625,11.824111111111112,7.88,178.65698035899726,3.158718122140593,56.56487413981009,1525.0,1435.0,1350.0,1528.0,1475.0,1021.7000000000002,135.0,293.35,1637161145.102892,1637161146.3376443,3666bca1-d830-4b78-8a2c-6ed4ef1e8f74
-0.0579813075845084,0.0719278134951956,-0.0439779454706357,0.1114133477754322,-0.1444865849449976,-0.1110362995262557,-0.3545896280051844,-0.3665417959896925,-14.402499615525286,19.952310170220347,7.116627295968633,-0.376873560260105,0.2924689389745012,0.7630595277173715,7505.62744140625,11.824999999999998,7.888888888888889,178.61349330346172,3.13695230139427,52.26944330286993,1525.0,1435.0,1350.0,1528.0,1475.0,1021.7000000000002,135.0,293.35,1637161146.445472,1637161147.5687516,3666bca1-d830-4b78-8a2c-6ed4ef1e8f74
0.1368599094655913,0.4180776345090733,-0.0218147215698564,-0.0540701181053997,-0.2043076794324012,-0.288883938897362,-0.4108929039265761,-0.4325471689742086,-14.187615618714878,19.33965118691525,8.260888592425424,-0.4058980380209303,1.6008479665693354,0.9369397647801492,7518.794921875,11.81688888888889,7.927777777777777,178.60882297188925,3.186319509474979,45.08907336975027,1610.0,1435.0,1350.0,1528.0,1542.0,1021.7000000000002,135.0,293.35,1637161149.291113,1637161150.3191707,c1bd2588-2a55-4823-b5e2-c2ed2b031af5
0.1175477622892612,0.3976697638547719,-0.0323884651071797,-0.0482901701541489,-0.2098273931287191,-0.2768035725823303,-0.4155908245039179,-0.4480516764052014,-14.15767563382092,19.29489211902733,7.834058246823262,-0.3926661717004953,1.5264944091171293,0.962578454448098,7518.794921875,11.813111111111107,7.984444444444445,178.64007184625194,3.258964073394896,42.85906176088061,1610.0,1435.0,1350.0,1528.0,1542.0,1021.7000000000002,135.0,293.35,1637161150.427235,1637161151.530205,c1bd2588-2a55-4823-b5e2-c2ed2b031af5
0.1234509789232383,0.4002310201089087,-0.0325802169291783,-0.046810941918443,-0.2090466891920278,-0.2800359609444331,-0.4172481084003214,-0.4369848545465213,-14.305295201913198,19.240331140613865,7.919218538547677,-0.4036985285987852,1.5361955127789866,0.9644982577401894,7518.794921875,11.814666666666666,7.979999999999999,178.73192878366976,3.321663739587667,40.632231502344375,1610.0,1435.0,1350.0,1528.0,1542.0,1021.7000000000002,135.0,293.35,1637161151.639492,1637161152.8867848,c1bd2588-2a55-4823-b5e2-c2ed2b031af5
0.3589632921541977,0.8328778726417646,-0.0275124901070395,-0.2511636117318072,-0.3047993423073218,-0.508124796310709,-0.5139458351055795,-0.5383394131144114,-14.26516473154679,18.51721550933435,8.662461297566809,-0.4596776442447475,3.177482072336069,1.2776175756576236,7526.867241753473,11.806111111111113,8.057777777777778,178.79152749654747,3.4964824788260125,37.3098058883571,1695.0,1435.0,1350.0,1528.0,1609.0,1021.7000000000002,135.0,293.35,1637161154.8228798,1637161155.8489008,e6674e6d-8bb2-47c2-b896-cb1fa6e85dbb
0.3490195913557966,0.83024813362965,-0.0245129436888021,-0.251903225936971,-0.3023065682595077,-0.5064812087575374,-0.5096862042334197,-0.5359836047385783,-14.155907281669414,18.54395013625305,8.460160541318748,-0.4539665611520908,3.1689203122891763,1.2635242314862225,7532.00927734375,11.807,8.027777777777779,178.86543469682644,3.567496216501916,36.20484975864857,1695.0,1435.0,1350.0,1528.0,1609.0,1021.7000000000002,135.0,293.35,1637161155.956557,1637161157.1902585,e6674e6d-8bb2-47c2-b896-cb1fa6e85dbb
0.3538544761976407,0.8360006877231504,-0.0309229332855208,-0.2574229396963292,-0.3085795930167642,-0.5070016780800896,-0.5166029681727992,-0.5397638568856007,-14.28005241286381,18.42271281755572,8.415727139291821,-0.4438774492694855,3.192039548146436,1.2912017707151175,7534.953287760417,11.806666666666665,8.068888888888889,178.96134724879138,3.641916961629122,35.31849155659657,1695.0,1435.0,1350.0,1528.0,1609.0,1021.7000000000002,135.0,293.35,1637161157.2987869,1637161158.5110006,e6674e6d-8bb2-47c2-b896-cb1fa6e85dbb
0.5688301627454386,1.212077483917475,-0.009712442132298,-0.4505356839211691,-0.3844897687574559,-0.6952198472811761,-0.5843500016724366,-0.6186023680041007,-13.917123904761691,18.395552009203097,8.582482877939608,-0.4301284093118779,4.62362999958566,1.5064515274853056,7532.00927734375,11.792444444444444,8.144444444444444,178.98880005579542,3.776925136948271,33.92703441468791,1779.0,1435.0,1350.0,1528.0,1677.0,1021.7000000000002,135.0,293.35,1637161160.3517537,1637161161.3926036,6cfe18ec-637d-4503-be88-69cdbc5d81bc
0.5717256149536848,1.2088757764374067,-0.0055979958419244,-0.4378751302897183,-0.3792538473144891,-0.7048074421113061,-0.5815109780975206,-0.6145881786913451,-13.765893064249312,18.407890676517063,8.456783105735944,-0.4798893672358349,4.610367607183961,1.4893164142259094,7535.689290364583,11.792555555555555,8.123333333333335,179.02057864927372,3.804150270979941,33.5108975504058,1779.0,1435.0,1350.0,1528.0,1677.0,1021.7000000000002,135.0,293.35,1637161161.527776,1637161162.518687,6cfe18ec-637d-4503-be88-69cdbc5d81bc
0.5674659856460793,1.2085744521425124,-0.0117340542166271,-0.4426278370740665,-0.3839928575302153,-0.6988494367467059,-0.5868663342305908,-0.6239155380278288,-13.98409096030458,18.341551241841056,8.597272775483027,-0.4566127388364335,4.609731694021988,1.5117547782588592,7538.63330078125,11.795666666666667,8.106666666666667,179.07351716880078,3.8539776393400462,33.17028891796569,1779.0,1435.0,1350.0,1528.0,1677.0,1021.7000000000002,135.0,293.35,1637161162.6273816,1637161163.6562338,6cfe18ec-637d-4503-be88-69cdbc5d81bc
0.7303355831197783,1.5352855990040333,0.0009642994433781,-0.6038495246937473,-0.4634345578527695,-0.8582111593402775,-0.663741856487205,-0.6886323484341415,-13.952769876196337,19.47817982368319,10.083802779593665,-0.4426233109476483,5.842374497526215,1.7518728610576366,7545.26953125,11.779444444444444,8.203333333333333,179.09535707812685,3.896550398164212,32.35829060595266,1864.0,1435.0,1350.0,1528.0,1744.0,1021.7000000000002,135.0,293.35,1637161165.8812811,1637161167.0447433,e6abb5a2-2d9e-428d-b19f-41498455799c
0.7268906250308589,1.5292897928967528,0.0052507744411814,-0.60087791854698,-0.4582671190635302,-0.8531620574870344,-0.6574173314321696,-0.6803355180289526,-13.899464672291264,19.50718129661478,10.395446279821572,-0.437498317972501,5.816653572778312,1.7297523919722202,7544.532172309027,11.779555555555554,8.19222222222222,179.1191640819339,3.903974813792016,32.12205029967,1864.0,1435.0,1350.0,1528.0,1744.0,1021.7000000000002,135.0,293.35,1637161167.153719,1637161168.243819,e6abb5a2-2d9e-428d-b19f-41498455799c
0.7511105212024703,1.526186700309042,0.0059871014426374,-0.604848825700101,-0.4564131525076574,-0.8497959894102795,-0.6529204757205985,-0.6798095697565375,-13.79568234777689,19.32484193210849,9.943980171405222,-0.4221687303378629,5.808814366371255,1.7189213313548946,7543.057454427083,11.779333333333334,8.193333333333333,179.15351689781943,3.9247827953709833,31.946849496724944,1864.0,1435.0,1350.0,1528.0,1744.0,1021.7000000000002,135.0,293.35,1637161168.3524876,1637161169.4736593,e6abb5a2-2d9e-428d-b19f-41498455799c
-0.296211598944337,-0.3844996302389384,-0.0407159729716062,0.3180653711279254,-0.0407296695320289,0.1393800762598998,-0.243863344980327,-0.2582584304656066,-14.243418332454516,21.109477800495416,6.615667879918565,-0.2724772122612148,-1.4413142989186778,0.405155739838471,7545.26953125,11.817444444444444,8.004444444444443,179.70772451835353,3.939032514686269,31.625548291248656,1440.0,1435.0,1350.0,1528.0,1408.0,1021.7000000000002,135.0,293.35,1637161171.4102173,1637161172.4360578,dfdd9adc-b8f2-4108-a80f-cfc7c32e9713
-0.3047308596805483,-0.3892523369705389,-0.0412364422325444,0.3263243954246725,-0.0399215725568829,0.134736943025817,-0.2442742418001935,-0.2770912009923349,-14.12343551966076,21.1022682491421,6.37075912869178,-0.3015936404010669,-1.4588684074659974,0.4045883504502363,7545.26953125,11.820555555555554,8.006666666666668,179.74306543493898,3.945171099770948,31.56725414450241,1440.0,1435.0,1350.0,1528.0,1408.0,1021.7000000000002,135.0,293.35,1637161172.5443294,1637161173.6629283,dfdd9adc-b8f2-4108-a80f-cfc7c32e9713
-0.2984441383267396,-0.3856090516989847,-0.040962511046983,0.3273379406403734,-0.0393874067746395,0.1311347481632551,-0.2446029592477754,-0.2565600570277938,-14.130153675057905,21.01426045204438,6.499635968379356,-0.3125271753274461,-1.4464074712130648,0.4046183386270608,7545.26953125,11.816555555555558,8.024444444444445,179.75423507096167,3.9498303797178895,31.488256176562043,1440.0,1435.0,1350.0,1528.0,1408.0,1021.7000000000002,135.0,293.35,1637161173.771714,1637161175.0068376,dfdd9adc-b8f2-4108-a80f-cfc7c32e9713
-0.4971949396807782,-0.7390899420344724,-0.0479888458134555,0.4922855825216669,0.0307526711538434,0.3208046826632115,-0.1753257587431544,-0.2061704123726689,-14.357419377315544,22.2856648469193,6.044673199344138,-0.2505034697281336,-2.787267325457352,0.1773793390849442,7545.26953125,11.803333333333336,8.055555555555555,179.86029728403324,3.93088371955149,31.488595029835867,1355.0,1435.0,1350.0,1528.0,1341.0,1021.7000000000002,135.0,293.35,1637161175.8028505,1637161176.851503,9af3f15b-4022-4b42-9cc9-26e3c0f5162b
-0.4903329621053661,-0.7329401846581751,-0.0445510095262456,0.4921212238405596,0.033491982887526,0.3147371076202379,-0.173271274787562,-0.1882416152330392,-14.34251126364567,22.21184054780392,6.039161784961457,-0.2640789511786958,-2.764021740163469,0.16681263205685,7551.91748046875,11.805,8.047777777777778,179.8654138546315,3.935667745314521,31.464932977821224,1355.0,1435.0,1350.0,1528.0,1341.0,1021.7000000000002,135.0,293.35,1637161176.963905,1637161178.0808828,9af3f15b-4022-4b42-9cc9-26e3c0f5162b
-0.4914697768503108,-0.7385968657370245,-0.0434552847847262,0.4931895553117627,0.0354642873414623,0.3197089580459623,-0.1701484591614096,-0.2035543693305538,-14.306392042704374,22.224854207512845,6.113727864339055,-0.2551455368167326,-2.7862161043510034,0.1576364596977255,7551.91748046875,11.802888888888887,8.08111111111111,179.85314531706237,3.918704259032756,31.430676922948933,1355.0,1435.0,1350.0,1528.0,1341.0,1021.7000000000002,135.0,293.35,1637161178.1896064,1637161179.3119397,9af3f15b-4022-4b42-9cc9-26e3c0f5162b
-0.6964388416234195,-1.1148415452667215,-0.0407159729909731,0.684503067472801,0.1179586591181065,0.5159943232804801,-0.0888867715621923,-0.1226761845109624,-14.235825767262464,23.86152095178583,6.95682300327875,-0.2344665475121132,-4.228687562789527,-0.1174386175527322,7551.91748046875,11.795,8.119999999999997,179.97881776215095,3.900652733102581,31.484047262213508,1271.0,1435.0,1350.0,1528.0,1273.0,1021.7000000000002,135.0,293.35,1637161180.3105648,1637161181.3575687,d6043cc8-3fc7-45e0-93aa-5854c749c84c
-0.6759350855739431,-1.1016106600404214,-0.0275398832058358,0.6804077968483041,0.1274914637188651,0.5023251590720355,-0.0798196493073831,-0.0994605158737696,-14.188719864241982,23.85857211292516,6.406237190364915,-0.2553725789984832,-4.173177815421579,-0.1604701223639778,7548.962836371527,11.793,8.11111111111111,179.97061091040823,3.883957568905086,31.514693182654486,1271.0,1435.0,1350.0,1528.0,1273.0,1021.7000000000002,135.0,293.35,1637161181.4676104,1637161182.582696,d6043cc8-3fc7-45e0-93aa-5854c749c84c
-0.6918094029864496,-1.1142799859910395,-0.0448660303597015,0.6822842251929949,0.1127265738441336,0.5172270134592635,-0.093872319142706,-0.121703729110733,-14.24666082838089,23.95833353429147,6.883585932932637,-0.2262733548752049,-4.225843850527766,-0.0976590973920915,7539.370659722223,11.790444444444445,8.14,179.95705677945529,3.870148064768181,31.52156587077933,1271.0,1435.0,1350.0,1528.0,1273.0,1021.7000000000002,135.0,293.35,1637161182.6914036,1637161183.7849016,d6043cc8-3fc7-45e0-93aa-5854c749c84c
-0.702547509226607,-1.1545615952489536,-0.0177605401297521,0.6938578160813172,0.1425987674516738,0.5360597797510143,-0.0624250191386474,-0.087585599243402,-14.320527120762408,24.61041445046675,5.6837327730784,-0.204616850238479,-4.365462854864854,-0.226852296725705,7538.63330078125,11.744999999999996,8.413333333333334,179.95611876680928,3.868600932057435,31.55739324861568,1186.0,1435.0,1350.0,1528.0,1206.0,1021.7000000000002,135.0,293.35,1637161184.8156884,1637161185.9569893,c2e877c7-8be0-4023-9d48-bee50cccab7e
-0.7033556062676852,-1.147398289511674,-0.0167606913487463,0.687543703184839,0.1434479540479053,0.5366213386061812,-0.0603842318725942,-0.0873253644159971,-14.351277966478008,24.407272897705568,5.94894766250989,-0.1903819272905204,-4.339891706665797,-0.2310301412711984,7538.63330078125,11.7475,8.4,179.9429797595759,3.831880198679959,31.5719432590951,1186.0,1435.0,1350.0,1528.0,1206.0,1021.7000000000002,135.0,293.35,1637161186.0655954,1637161187.0905206,c2e877c7-8be0-4023-9d48-bee50cccab7e
-0.7025962689223446,-1.147982311243579,-0.0122501405760302,0.6808175978472158,0.1469674216437594,0.5427957466462692,-0.0537342784420817,-0.0800316723270626,-14.312286031248629,24.40193752473539,5.907711038644088,-0.1611324815938368,-4.340878657502893,-0.2515986220370213,7538.63330078125,11.750999999999998,8.315555555555555,179.94602526503584,3.839071320658924,31.61567790898808,1186.0,1435.0,1350.0,1528.0,1206.0,1021.7000000000002,135.0,293.35,1637161187.1983654,1637161188.3215494,c2e877c7-8be0-4023-9d48-bee50cccab7e
-0.0624935020153868,0.0689934627950628,-0.0456467342309159,0.1246973657839646,-0.1411528423539868,-0.1143212823083746,-0.3549972376908676,-0.3883483650316092,-14.46072541962661,19.685650913991083,7.974864875438364,-0.4159641575340918,0.2725230480702678,0.7624145523180798,7551.91748046875,11.823333333333332,7.973333333333334,179.5851848533642,3.81899782157508,31.677440653467823,1525.0,1435.0,1350.0,1528.0,1475.0,1021.7000000000002,135.0,293.35,1637161189.321192,1637161190.4575355,8b2e1ee7-a788-4001-97ab-fa7e41f624f5
-0.0622332673993589,0.0685414763714136,-0.0432361398547921,0.1249712969747222,-0.1395914345577724,-0.1198272991849799,-0.3544356786835131,-0.3811850630636346,-14.460596681460409,19.77694444713606,7.175868516994655,-0.4283569067528865,0.2780290378804559,0.7549858315981016,7558.5771484375,11.819333333333333,7.973333333333334,179.56314762746214,3.7987772362647343,31.771880540756733,1525.0,1435.0,1350.0,1528.0,1475.0,1021.7000000000002,135.0,293.35,1637161190.5666726,1637161191.513405,8b2e1ee7-a788-4001-97ab-fa7e41f624f5
-0.0566313747357394,0.0756499902245387,-0.0376205506353016,0.1234372823951309,-0.1357563978856407,-0.124073232641337,-0.3505321587762864,-0.3633384440594413,-14.439796512956288,19.77807763862904,7.398001182774955,-0.4341047146778853,0.3031191997372245,0.7377239861860421,7558.5771484375,11.820777777777778,7.978888888888889,179.55337286784996,3.8044336289667577,31.85596510235399,1525.0,1435.0,1350.0,1528.0,1475.0,1021.7000000000002,135.0,293.35,1637161191.623008,1637161192.7116482,8b2e1ee7-a788-4001-97ab-fa7e41f624f5
-0.0377301232107523,0.0639942189366047,-0.0686980432335699,-0.2909658161241513,-0.2070195983214999,0.289083455014424,-0.2632987640732513,-0.2750230207984736,-14.195096819250828,18.85669704034554,10.484742635259154,1.4220652140659782,0.2793494528323375,0.7528062958937963,7570.446017795139,11.816222222222224,7.995555555555557,179.57472859265485,3.877308095156863,32.04529491050711,1525.0,1535.0,1350.0,1528.0,1475.0,1021.7000000000002,135.0,293.35,1637161194.277501,1637161195.376949,02f4ee67-23fb-437f-89a3-2e367d3f76b1
-0.0299745836724177,0.0678780150552726,-0.0588885675727009,-0.2893720843552899,-0.1992772069312799,0.2811498608882904,-0.2561321758528844,-0.2804967135827167,-14.12990774845465,18.95585141848116,10.170528295632904,1.4017707800347228,0.2966668587021827,0.7187314247699134,7565.248046875,11.818,7.989999999999999,179.5540437442084,3.88260794249784,32.120890685330906,1525.0,1535.0,1350.0,1528.0,1475.0,1021.7000000000002,135.0,293.35,1637161195.48542,1637161196.6116364,02f4ee67-23fb-437f-89a3-2e367d3f76b1
-0.0338813901554709,0.0652132126411792,-0.0606307698955807,-0.2887469734738275,-0.2004589461162856,0.2880562131663294,-0.2563546079610952,-0.2703935830085101,-14.138725857533672,18.97711311413472,10.854784994524673,1.416039010727259,0.2804830417305657,0.723665736227523,7558.5771484375,11.815666666666669,8.03111111111111,179.53487064429828,3.875673023760553,32.18642483259736,1525.0,1535.0,1350.0,1528.0,1475.0,1021.7000000000002,135.0,293.35,1637161196.7245443,1637161197.8338673,02f4ee67-23fb-437f-89a3-2e367d3f76b1
-0.0192671617300547,0.0679662208997524,-0.0804086013379395,-0.7384462037308918,-0.269421126490991,0.7182239914475685,-0.1576024104716877,-0.1927888730768702,-14.01669717346025,18.312709238679485,13.831835802256595,3.392241499708544,0.317661804970899,0.704898990866516,7557.097222222223,11.812,8.084444444444443,179.52632380091686,3.9969881876136415,32.22985952334929,1525.0,1636.0,1350.0,1528.0,1475.0,1021.7000000000002,135.0,293.35,1637161199.877487,1637161200.9018764,65f0ec0c-d76d-4dab-9268-9fb69490f8c3
-0.0255675788570271,0.0513112056948506,-0.096173341108062,-0.729611919660019,-0.2788717532091703,0.7286470715271717,-0.168915768831612,-0.182626025709311,-14.130918720699052,18.197124676705567,14.047749666003154,3.394161290791021,0.2520011145589326,0.7537022623912145,7545.26953125,11.809888888888889,8.118888888888888,179.4992458954073,4.006631608379923,32.229069118680336,1525.0,1636.0,1350.0,1528.0,1475.0,1021.7000000000002,135.0,293.35,1637161201.0104344,1637161202.24582,65f0ec0c-d76d-4dab-9268-9fb69490f8c3
