raw_voltage_G-,raw_voltage_G0,raw_voltage_G1,raw_voltage_G2,raw_voltage_G3,raw_voltage_G4,raw_voltage_G5,raw_voltage_G6,load_x,load_y,load_z,load_l,load_m,load_n,rpm,voltage,current,roll,pitch,yaw,aileron1_pwm,elevator_pwm,throttle_pwm,rudder_pwm,aileron2_pwm,pbaro,pdiff,Tt,sample_start_time,sample_end_time,uid
-0.0647397378026282,0.0580362158802995,0.0173985263954158,0.175538989843803,-0.1080345615129745,-0.2144979201804114,-0.3484365849118008,-0.3737615267893841,-14.394152338966297,23.6268441242632,-0.9112961393671084,-0.7278778014661228,0.3075172244344988,0.6070434816462297,4933.038465711806,12.045,0.2922222222222222,178.83187418288463,5.960090802462396,73.43379759088133,1525.0,1435.0,1200.0,1528.0,1475.0,1021.7000000000002,135.0,293.35,1637162621.2544591,1637162622.346399,f0d040dc-dede-4e31-8819-0c45e0d4c4cc
-0.0674790495925995,0.0560091252174743,0.0174122229494956,0.1712108774504364,-0.1091165896991702,-0.2071291708280976,-0.3450672309558664,-0.3563942875162834,-14.184927361113743,23.612869298715623,-0.7007450406353092,-0.7015091538364722,0.2971009645116189,0.6038671189988161,4937.45751953125,12.04411111111111,0.3,178.8671209946415,5.95873866216608,72.34044519366275,1525.0,1435.0,1200.0,1528.0,1475.0,1021.7000000000002,135.0,293.35,1637162622.4552348,1637162623.4871874,f0d040dc-dede-4e31-8819-0c45e0d4c4cc
-0.0597432329798124,0.0542428169901385,0.0129296131752752,0.1731201776853961,-0.1116542882460371,-0.2088100127096277,-0.3498955426051087,-0.3724718591944985,-14.314383706567542,23.54495982435416,-0.969959592521334,-0.710374607056331,0.293258135740208,0.6196689871492203,4937.45751953125,12.044777777777776,0.2922222222222222,178.93272723834923,5.986296578192312,71.38386581675384,1525.0,1435.0,1200.0,1528.0,1475.0,1021.7000000000002,135.0,293.35,1637162623.6216986,1637162624.594694,f0d040dc-dede-4e31-8819-0c45e0d4c4cc
0.1253137108170244,0.3858770277929504,0.0235756743439448,0.0170150226855055,-0.1787909884216327,-0.3794045096172144,-0.4156319141620397,-0.4373820551979193,-14.186491658650722,22.98580871005253,0.330245805247127,-0.744493175718557,1.5445444885723678,0.8311062112436698,4937.45751953125,12.037,0.3400000000000001,178.9722254634095,6.02668272784469,69.8121421482657,1610.0,1435.0,1200.0,1528.0,1542.0,1021.7000000000002,135.0,293.35,1637162626.2312438,1637162627.2407243,ee91fbf7-c309-447a-bd10-6f18a300e3a0
0.1142742848324382,0.3891915947089945,0.0211102938039678,0.020548734860709,-0.1792977611134397,-0.385567962136023,-0.4201106897643638,-0.4355878049059081,-14.380741807601348,22.86633130494725,0.3540530107032427,-0.7673232406051737,1.557546588045185,0.8419126779453808,4937.45751953125,12.036333333333332,0.3333333333333333,179.03556408431274,6.049334338748998,69.1688453347475,1610.0,1435.0,1200.0,1528.0,1542.0,1021.7000000000002,135.0,293.35,1637162627.3492076,1637162628.605897,ee91fbf7-c309-447a-bd10-6f18a300e3a0
0.1286282779625737,0.3958481216681626,0.0295747670755056,0.0127827860879299,-0.1725179640316372,-0.3834039054795914,-0.4118379666232907,-0.4292462969924953,-14.468327460024744,22.837384612721834,0.6373636438485496,-0.7447115824810225,1.5821138120684617,0.8104493074134522,4937.45751953125,12.036,0.3388888888888889,179.10461274336214,6.073021482222471,68.65962513463666,1610.0,1435.0,1200.0,1528.0,1542.0,1021.7000000000002,135.0,293.35,1637162628.714557,1637162629.830921,ee91fbf7-c309-447a-bd10-6f18a300e3a0
0.3329809223590904,0.7954725745721275,0.0353547148463788,-0.184228522670979,-0.2616688733401009,-0.58666088586202,-0.4979345538770654,-0.5262042591707184,-14.346512306539251,22.20567278619818,1.3140432738395538,-0.7607786181155545,3.0987009212719223,1.0945065970888892,4940.3037109375,12.029,0.38,179.0812352825629,6.108089191241131,68.04983039899736,1695.0,1435.0,1200.0,1528.0,1609.0,1021.7000000000002,135.0,293.35,1637162630.7416756,1637162631.8782012,5f7f3504-546e-4fc7-92fc-49af4a7736b3
0.3402264013601763,0.800663569795946,0.031122478205184,-0.1886799046077012,-0.268366491356822,-0.5877292177086652,-0.5024407228072169,-0.5295599178430831,-14.180245535984144,22.22478822174677,1.2677839207779316,-0.7531457735146937,3.1176835929538904,1.116446088887062,4937.45751953125,12.031,0.37,179.12070922250612,6.107947607111462,67.63689765234591,1695.0,1435.0,1200.0,1528.0,1609.0,1021.7000000000002,135.0,293.35,1637162631.986992,1637162633.1117249,5f7f3504-546e-4fc7-92fc-49af4a7736b3
0.3554399897056419,0.7983932284558621,0.0349799770139976,-0.1854316284918633,-0.2636795283917708,-0.5892544670582864,-0.497805258323623,-0.5263773833464825,-14.122606153582025,22.178096211441343,1.192934972275758,-0.764000893991887,3.109267680208771,1.0979118403430217,4940.3037109375,12.03,0.37,179.17882502542403,6.109438580489033,67.38320393600412,1695.0,1435.0,1200.0,1528.0,1609.0,1021.7000000000002,135.0,293.35,1637162633.2458775,1637162634.2256553,5f7f3504-546e-4fc7-92fc-49af4a7736b3
0.5409083610395794,1.16237596123443,0.0468735206686696,-0.3581611433306581,-0.3394653375789052,-0.784398177857017,-0.5753201316813545,-0.6117529899695432,-14.157459032769871,21.890121590160376,1.2906767742948322,-0.8141981645932962,4.4958204285210295,1.3380464188929413,4946.639431423611,12.020555555555555,0.4222222222222222,179.21763416028807,6.178827326040839,66.82511980366108,1779.0,1435.0,1200.0,1528.0,1677.0,1021.7000000000002,135.0,293.35,1637162636.2705338,1637162637.4080038,3cfe336c-602b-4903-8aa1-58639b110ee4
0.5451405972421676,1.1638962791781082,0.0470926656201738,-0.3639821817090856,-0.3402597380717306,-0.7811931816484736,-0.5739915650925597,-0.5975633512475335,-14.122546128602506,21.869547343621736,1.2021291064080522,-0.7939872917094645,4.502790474062024,1.3369789966774015,4948.8603515625,12.020777777777775,0.4177777777777777,179.22480434109673,6.196441103249833,66.61747370488371,1779.0,1435.0,1200.0,1528.0,1677.0,1021.7000000000002,135.0,293.35,1637162637.51678,1637162638.638589,3cfe336c-602b-4903-8aa1-58639b110ee4
0.5338135443439137,1.1632799341187294,0.0455860441549492,-0.3649135479725592,-0.3421772565914609,-0.7800015806031486,-0.5748955382773037,-0.5903452622614479,-14.056353315609767,21.88085399692708,1.1540120705072587,-0.789183087828231,4.500456120080027,1.342822523131893,4946.0048828125,12.018999999999998,0.42,179.27352028589692,6.21336844644724,66.47543536763386,1779.0,1435.0,1200.0,1528.0,1677.0,1021.7000000000002,135.0,293.35,1637162638.7477496,1637162639.8693688,3cfe336c-602b-4903-8aa1-58639b110ee4
0.6816065195425262,1.3968429659803303,0.0646960305773965,-0.4593716097471121,-0.3861990995685998,-0.8988669494358317,-0.620995429963819,-0.6521841485348319,-13.996333400557916,22.644433416435817,4.309004773247451,-0.8366686512038561,5.360926297992637,1.4739806318489042,4946.0048828125,12.007222222222222,0.48,179.23926005702012,6.210328253356677,66.26067372956112,1864.0,1435.0,1200.0,1528.0,1744.0,1021.7000000000002,135.0,293.35,1637162640.7760782,1637162641.91384,708328bd-0866-4118-a45f-e11b0c8b66d3
0.6613706779901232,1.3978554156418832,0.0540455866095373,-0.4636975319253886,-0.398059225936795,-0.8940939701075262,-0.6322244204070915,-0.657693454448033,-14.035327142703602,22.75615892069207,4.476785751828677,-0.8159674711138263,5.363371876376447,1.520888063229331,4960.639756944444,12.004888888888887,0.4777777777777777,179.22087925905373,6.231720832723979,66.0812446600649,1864.0,1435.0,1200.0,1528.0,1744.0,1021.7000000000002,135.0,293.35,1637162642.0222552,1637162643.142929,708328bd-0866-4118-a45f-e11b0c8b66d3
0.6793394653871947,1.415063772790348,0.066774620293554,-0.4678432073114376,-0.3885401158136048,-0.9098313246768344,-0.6233128884356217,-0.6474051439459325,-13.972503327565136,22.6146514743496,4.178725020081824,-0.8422999179014704,5.43142570586275,1.4796109807381093,4967.344129774306,12.008222222222225,0.4722222222222222,179.236965113459,6.230880909183544,65.9872969258512,1864.0,1435.0,1200.0,1528.0,1744.0,1021.7000000000002,135.0,293.35,1637162643.251258,1637162644.3720858,708328bd-0866-4118-a45f-e11b0c8b66d3
-0.300471229298282,-0.3766515008676581,0.0153988287811407,0.3939306036286817,-0.0111314056587999,0.0059618996982203,-0.2532591853005275,-0.287185565904772,-14.293652413744462,24.71351755868797,-1.1850217542257802,-0.7180020508218613,-1.348108314833636,0.2908271955928179,4974.71044921875,12.041222222222222,0.29,179.76192889960672,6.215339525205219,65.8565314363715,1440.0,1435.0,1200.0,1528.0,1408.0,1021.7000000000002,135.0,293.35,1637162645.2826383,1637162646.3077374,d185b2a8-c3dd-44d4-a09a-797a32119a2d
-0.3075249580829981,-0.3852118517082046,0.008495763177041,0.4021348415884913,-0.0170209259570857,0.0058112375759864,-0.2591760993541056,-0.2772007735320964,-14.101114799578772,24.798725605121053,-1.3761332694410464,-0.736559777410306,-1.381330042272457,0.3155492597818279,4977.599609375,12.042555555555555,0.29,179.79308974042016,6.230556285470493,66.03920332790365,1440.0,1435.0,1200.0,1528.0,1408.0,1021.7000000000002,135.0,293.35,1637162646.4169102,1637162647.536415,d185b2a8-c3dd-44d4-a09a-797a32119a2d
-0.3029092171215173,-0.3755968656301727,0.0114679164273132,0.3965192530121971,-0.0164045808317054,0.003263677587347,-0.2567928978492122,-0.2808988448393204,-14.015121964809614,24.72528221405064,-1.113240611461258,-0.7298707713704471,-1.34732807349185,0.3088404748518747,4977.599609375,12.043222222222225,0.2899999999999999,179.81326460140858,6.232866691820986,66.20147572111472,1440.0,1435.0,1200.0,1528.0,1408.0,1021.7000000000002,135.0,293.35,1637162647.64415,1637162648.67475,d185b2a8-c3dd-44d4-a09a-797a32119a2d
-0.474157322425026,-0.7211611396167132,0.016864360552733,0.5515779791964543,0.0633778737309122,0.1966179926624596,-0.1733534541624427,-0.2027188793209746,-14.136468006438276,25.910760325346768,-1.1336789040973947,-0.637089260948342,-2.6610930380863964,0.0329639787899383,4946.0048828125,12.03,0.37,179.91040658742412,6.232194582233911,66.46118986975492,1355.0,1435.0,1200.0,1528.0,1341.0,1021.7000000000002,135.0,293.35,1637162650.2498977,1637162651.221551,d0eda93c-71b7-4cac-ba2a-6f18e5828e83
-0.4882784778335705,-0.714504609461979,0.0158645117955013,0.5423738926903536,0.0605837758178363,0.1986176901618178,-0.1753120621736887,-0.2012807400963829,-14.255288508986274,25.91752618696529,-1.1379119486645344,-0.6118989295846567,-2.6341785534773643,0.0415540828948528,4940.3037109375,12.029333333333334,0.37,179.90770638597223,6.2328021844788255,66.44949203243641,1355.0,1435.0,1200.0,1528.0,1341.0,1021.7000000000002,135.0,293.35,1637162651.330136,1637162652.4529982,d0eda93c-71b7-4cac-ba2a-6f18e5828e83
-0.4634329143845276,-0.7138471743909612,0.0149057526837212,0.5386073394224667,0.0564474151236416,0.201617236319065,-0.1754764209259949,-0.195911688859751,-13.991263850345115,26.055541630782667,-1.1203940668151071,-0.5956592505123083,-2.633331430654794,0.0489280880840893,4938.722493489583,12.02777777777778,0.37,179.8911393826854,6.214912021767793,66.42877151522433,1355.0,1435.0,1200.0,1528.0,1341.0,1021.7000000000002,135.0,293.35,1637162652.5616236,1637162653.5879276,d0eda93c-71b7-4cac-ba2a-6f18e5828e83
-0.6647449931024884,-1.0595211061257614,0.0190284168565787,0.7177446119499665,0.1336549148958184,0.382877481636925,-0.098077162837331,-0.1240732336620878,-13.768038586388128,27.535648889725632,0.2422424853579509,-0.5820864059079464,-3.965244965496982,-0.210836381688758,4937.45751953125,12.022,0.4055555555555555,179.94298203630564,6.209790755414492,66.4626113080122,1280.3333333333333,1435.0,1200.0,1528.0,1280.5555555555557,1021.7000000000002,135.0,293.35,1637162655.2313204,1637162656.251836,2ae535c0-658d-44d8-8ded-d152bff5472e
-0.6611427968489353,-1.0567954890236229,0.0211650800348329,0.7176213429275657,0.1357778814421141,0.3806586393947839,-0.0979538938069687,-0.1337977902908639,-13.92923377248174,27.566870491286963,0.2994825763399535,-0.5865530297965299,-3.95423750217916,-0.2165320451911347,4946.0048828125,12.018666666666666,0.4099999999999999,179.93301451357684,6.193803037546654,66.38425993131325,1271.0,1435.0,1200.0,1528.0,1273.0,1021.7000000000002,135.0,293.35,1637162656.360215,1637162657.486015,2ae535c0-658d-44d8-8ded-d152bff5472e
-0.655349150501895,-1.0484542793201903,0.0201241415743026,0.7074584974391153,0.1323948315620788,0.3813982534946558,-0.0985017561757962,-0.1324418310102918,-13.861619781316898,27.47559153429637,0.2307681923145761,-0.5625999779775294,-3.921638709908562,-0.2088172464268688,4944.103515625,12.020666666666664,0.4099999999999999,179.92476364505947,6.194104324780041,66.34301849019481,1271.0,1435.0,1200.0,1528.0,1273.0,1021.7000000000002,135.0,293.35,1637162657.5994618,1637162658.536445,2ae535c0-658d-44d8-8ded-d152bff5472e
-0.7712193433505448,-1.2682140894095992,0.030049215898528,0.8392725213699186,0.1858744125821092,0.4961178792506112,-0.048290717997753,-0.0755479666389987,-13.713492005870927,28.990010619263536,3.394426255730874,-0.5910374659959338,-4.790533691511441,-0.3881682553351419,4940.3037109375,12.004555555555555,0.49,179.9384710758138,6.198932367317726,66.31672833316952,1186.0,1435.0,1200.0,1528.0,1206.0,1021.7000000000002,135.0,293.35,1637162660.847243,1637162661.9913552,21ff4f99-8fac-4d21-aa8e-5e24ed3c9dc2
-0.7759660248724733,-1.2687531863004469,0.031061665507443,0.8450973932952501,0.1876231891108267,0.4908189551581754,-0.05030246859833,-0.0725369151050703,-13.867744412990596,29.08549929869532,3.3244243378408,-0.6154897261368777,-4.791494809847763,-0.3893258802802139,4940.3037109375,12.00177777777778,0.48,179.8975476179467,6.185383074415451,66.18614877661722,1186.0,1435.0,1200.0,1528.0,1206.0,1021.7000000000002,135.0,293.35,1637162662.1063936,1637162663.2153463,21ff4f99-8fac-4d21-aa8e-5e24ed3c9dc2
-0.7656064913702137,-1.2712426749589527,0.0289721185120336,0.8533268328261854,0.1873454229102687,0.4847798690955751,-0.0538372765642006,-0.0866405365197236,-13.906950034022366,29.075313923230063,3.1752002062272475,-0.6478390461043416,-4.800377707475668,-0.3815292332737531,4939.35498046875,12.005666666666666,0.4833333333333333,179.88885051040356,6.164756994055004,66.12091667549404,1186.0,1435.0,1200.0,1528.0,1206.0,1021.7000000000002,135.0,293.35,1637162663.3234727,1637162664.4432194,21ff4f99-8fac-4d21-aa8e-5e24ed3c9dc2
-0.0418527875070056,0.0783071225041761,0.0152618632398384,0.1626094389062179,-0.113951475174963,-0.2183329569745817,-0.3509567521556363,-0.3702962973896206,-14.250140670897787,23.37147393155742,-0.3414519402668072,-0.7089656852028133,0.3789277754403954,0.6249518689805613,4932.091362847223,12.041999999999998,0.2899999999999999,179.499429551605,6.15781016991854,66.05904350962273,1525.0,1435.0,1200.0,1528.0,1475.0,1021.7000000000002,135.0,293.35,1637162666.265096,1637162667.3119898,6dc0053a-f536-4b2a-bb6d-1a241a8cf02b
-0.0513171098263801,0.0849636499529947,0.018124444023511,0.1552269940965797,-0.1113217357503,-0.2170865699832952,-0.3495597029317521,-0.3765008391315677,-14.540763613759244,23.31992031684817,-0.1849999861852923,-0.6898324710018366,0.4056536635437919,0.6162582468615484,4937.45751953125,12.041444444444444,0.29,179.5164443117374,6.15225158173088,66.33389715201322,1525.0,1435.0,1200.0,1528.0,1475.0,1021.7000000000002,135.0,293.35,1637162667.4204776,1637162668.5827982,6dc0053a-f536-4b2a-bb6d-1a241a8cf02b
-0.049591343411497,0.0711027327263477,0.0074137350532309,0.1651980883965461,-0.1191150780769447,-0.2122927740695253,-0.3592842612263376,-0.3766788952960083,-14.555999250050656,23.46451481015633,-0.2092690310746599,-0.7011388426050028,0.3520855218608636,0.6536246619592968,4936.826226128473,12.041222222222222,0.29,179.54033175999464,6.164849011881323,66.57709817997005,1525.0,1435.0,1200.0,1528.0,1475.0,1021.7000000000002,135.0,293.35,1637162668.691777,1637162669.7690308,6dc0053a-f536-4b2a-bb6d-1a241a8cf02b
-0.0376068542494631,0.0772113978317684,-0.0058445339033676,-0.201938174573485,-0.1723536052890321,0.1374625580857526,-0.2736396670732834,-0.2995261677096256,-14.27611074529513,22.71024988452803,2.586795500364397,0.907903860208934,0.3925833353607563,0.6242392507777286,4931.77587890625,12.04377777777778,0.2899999999999999,179.56475803428646,6.257005813576412,66.94278347249289,1525.0,1535.0,1200.0,1528.0,1475.0,1021.7000000000002,135.0,293.35,1637162670.77133,1637162671.9072225,2278f553-54ee-4dff-b6e2-a207994b2b9d
-0.0324980376973538,0.0769100735239892,-0.0052829750139007,-0.1966239093140637,-0.1726001433803118,0.1320935072118414,-0.2753106474705538,-0.2991974500698375,-14.215278720330948,22.84074701488092,2.471136682199955,0.88475643331989,0.3914312262571877,0.6260246900248204,4934.615234375,12.041444444444444,0.2822222222222222,179.53734620841746,6.26357797337778,67.04389076277658,1525.0,1535.0,1200.0,1528.0,1475.0,1021.7000000000002,135.0,293.35,1637162672.0164416,1637162673.2512195,2278f553-54ee-4dff-b6e2-a207994b2b9d
-0.0563437470219458,0.067760772448816,-0.0059951960607575,-0.1970485027029902,-0.1696416864680009,0.1425439811667842,-0.272393280090146,-0.29318465951868,-14.40941121701952,22.73687224551968,2.637443710368642,0.90840254902432,0.3570211954596154,0.61784293366924,4936.194281684027,12.044555555555554,0.29,179.5293093524941,6.264105747786771,67.14615463175976,1525.0,1535.0,1200.0,1528.0,1475.0,1021.7000000000002,135.0,293.35,1637162673.3594806,1637162674.4838536,2278f553-54ee-4dff-b6e2-a207994b2b9d
-0.0201574380933045,0.0711438223930874,-0.0282384077581173,-0.5824423443540326,-0.2366589543354288,0.5118305698615158,-0.1938024179571107,-0.2186479789592399,-14.102420992011917,22.33829986267937,5.374235260271174,2.6044339500485303,0.3893141441451745,0.6288146296814362,4939.987467447917,12.03811111111111,0.32,179.5088749443172,6.368643548012979,67.23122843242179,1525.0,1636.0,1200.0,1528.0,1475.0,1021.7000000000002,135.0,293.35,1637162675.2753613,1637162676.429406,1020a143-50d0-40c0-8134-2a5a1ef4b26f
-0.0313338301852384,0.065665199010536,-0.0297450291958664,-0.5788949346944627,-0.2370150648615984,0.5149944746113347,-0.1939393835697283,-0.2080331443360809,-14.062734340730756,22.35721036282324,5.518410500576013,2.6036348793187742,0.3666753084932376,0.6311398949027045,4944.7373046875,12.03711111111111,0.3144444444444444,179.50125548884313,6.380758311462073,67.19968130646532,1525.0,1636.0,1200.0,1528.0,1475.0,1021.7000000000002,135.0,293.35,1637162676.5371563,1637162677.5601203,1020a143-50d0-40c0-8134-2a5a1ef4b26f
-0.0125284547563031,0.0719656158972598,-0.0219927768799632,-0.5795934593249269,-0.230221571079152,0.5073928852781266,-0.1885840286505427,-0.2183603505940192,-14.121925706179958,22.32988091874905,5.275186567696796,2.588265067028559,0.3934573232569392,0.6040778562238611,4943.4697265625,12.04,0.3188888888888889,179.50244090611906,6.356429319934096,67.20725143279543,1525.0,1636.0,1200.0,1528.0,1475.0,1021.7000000000002,135.0,293.35,1637162677.672238,1637162678.7793305,1020a143-50d0-40c0-8134-2a5a1ef4b26f
0.0067699966683923,0.0618712522915657,-0.0497009157208299,-0.9425524216165938,-0.2978003998153044,0.870009239740598,-0.1187726640749767,-0.1418239742116175,-14.019655567425644,22.112427917184053,8.06735336539197,4.219534291482575,0.3730543565332232,0.6341903937056671,4945.68798828125,12.030888888888889,0.36,179.51093614362674,6.46426723989428,67.20386821242654,1525.0,1737.0,1200.0,1528.0,1475.0,1021.7000000000002,135.0,293.35,1637162679.7812445,1637162680.7216642,671a37b1-62e4-459e-9e49-0dd76181200f
-0.0114601231724312,0.0607207413682215,-0.0484545288955121,-0.9375805679421207,-0.2963211713231335,0.867037086770563,-0.1204847340067598,-0.1395914349403766,-14.174666263058738,22.26707708946733,8.132557330843332,4.202659798375457,0.3687279629852131,0.6327387639545187,4940.936848958333,12.031222222222222,0.36,179.48418153373788,6.474209860891703,67.08892219997448,1525.0,1737.0,1200.0,1528.0,1475.0,1021.7000000000002,135.0,293.35,1637162680.8311856,1637162681.8515377,671a37b1-62e4-459e-9e49-0dd76181200f
-0.0122271304666598,0.056570684112223,-0.0564122296982816,-0.9339372814436704,-0.3038405830555526,0.8671466592386906,-0.1257989990943061,-0.1603828126335363,-13.864041651008918,22.194962520913027,7.995189697849521,4.193947827374463,0.3512274209214559,0.6609769446811794,4943.15283203125,12.029666666666666,0.3533333333333333,179.45867608955726,6.47134042253039,67.00224785831693,1525.0,1737.0,1200.0,1528.0,1475.0,1021.7000000000002,135.0,293.35,1637162681.9594405,1637162683.081954,671a37b1-62e4-459e-9e49-0dd76181200f
-0.0036256914688708,0.0599126444239531,-0.0434826779164298,-0.9430728913329468,-0.2998959735831148,0.8712830195837032,-0.1207860583459513,-0.1443030522522825,-14.024667478030878,23.06052259435098,7.912383770523449,4.230138132006229,0.3675917140326607,0.6305823959360927,4948.8603515625,12.017,0.4222222222222222,179.4189653697228,6.502920561067851,66.78182095778264,1525.0,1837.0,1200.0,1528.0,1475.0,1021.7000000000002,135.0,293.35,1637162684.7493718,1637162685.8363702,487aa4bb-4dfb-45f8-9897-70f42d0b46b8
0.0068549153750077,0.070218482888734,-0.0331960142548736,-0.950225787521068,-0.2941976565880069,0.8679498255538317,-0.1109837046921239,-0.1406340167977868,-13.76862780199724,23.077441153863983,8.013408620040982,4.239552531442717,0.4050703887684102,0.5963416522177355,4943.471028645833,12.017888888888889,0.42,179.39077793792805,6.46430015761153,66.64124883447461,1525.0,1837.0,1200.0,1528.0,1475.0,1021.7000000000002,135.0,293.35,1637162685.9442885,1637162686.9720156,487aa4bb-4dfb-45f8-9897-70f42d0b46b8
-0.0159252013454772,0.0542285725834068,-0.0446742786331109,-0.950551216793149,-0.3010190916266155,0.8843084457352433,-0.1179508705296948,-0.1535756226106288,-14.00890948088607,23.06693534400092,7.999482620391629,4.276282267156829,0.3462348121594958,0.6290775922568995,4932.091362847223,12.018333333333334,0.4177777777777777,179.3587731892972,6.443413533993369,66.4994093316206,1525.0,1837.0,1200.0,1528.0,1475.0,1021.7000000000002,135.0,293.35,1637162687.0807855,1637162688.2008698,487aa4bb-4dfb-45f8-9897-70f42d0b46b8
-0.06706705706676,0.0763589240300229,0.0462878558377287,0.6244491425235117,-0.0390340355253727,-0.6622034586069213,-0.4480637283622151,-0.4604366551456085,-14.339989509796288,24.722199058202136,-3.5237723872363693,-2.7382526894671098,0.3455890376843676,0.6175875508554126,4929.570149739583,12.041777777777778,0.2899999999999999,179.33517109116528,5.935684591851302,66.37563567912125,1525.0,1334.0,1200.0,1528.0,1475.0,1021.7000000000002,135.0,293.35,1637162688.7542777,1637162689.8383996,0119e53a-e5ba-42ad-8b0f-110c8b6f2c32
-0.0706698000353214,0.0837879373579442,0.0469452906436483,0.6237785590811358,-0.0388893998778315,-0.6705134375938738,-0.4507986578114791,-0.4690490530547417,-14.483207566513547,24.69201033545778,-3.764822324143205,-2.755691555767376,0.3767261652286811,0.6208536388020608,4937.45751953125,12.043666666666669,0.2899999999999999,179.37698854490372,5.9684655155903465,66.65864001392129,1525.0,1334.0,1200.0,1528.0,1475.0,1021.7000000000002,135.0,293.35,1637162689.946695,1637162690.961826,0119e53a-e5ba-42ad-8b0f-110c8b6f2c32
-0.0835314170067159,0.084977346481708,0.0467365550982665,0.6126372315432957,-0.0394284964266245,-0.6599101059613849,-0.4469148607626541,-0.4694867951641036,-14.463306202017376,24.54340476658761,-3.534562382755837,-2.707681143825481,0.3803615104955788,0.6167886376076658,4934.615234375,12.041,0.3,179.404760094069,5.96510757640777,66.94718287322829,1525.0,1334.0,1200.0,1528.0,1475.0,1021.7000000000002,135.0,293.35,1637162691.0757568,1637162692.3038335,0119e53a-e5ba-42ad-8b0f-110c8b6f2c32
-0.0888182888565726,0.0939211991288815,0.090086162803844,1.038819311860299,0.036792853518873,-1.082339588646445,-0.5325457667002874,-0.5478585242241139,-14.659604085077824,26.43579738467003,-6.733781140887378,-4.6042043180896615,0.3939584306802606,0.5751951273575794,4940.3037109375,12.033,0.34,179.4010292929623,5.811974735216085,67.25492615320212,1525.0,1234.0,1200.0,1528.0,1475.0,1021.7000000000002,135.0,293.35,1637162693.411218,1637162694.437073,0fc1bffa-167c-4660-a812-52d422f824f9
-0.091667173209299,0.0918530188089058,0.0828954695954349,1.0415860165288715,0.0310813885366732,-1.081627366894552,-0.5394488341917375,-0.5683211892008272,-14.69640291314616,26.396487709658704,-6.612101491542904,-4.609462632854559,0.3845863475983111,0.6025405789855958,4937.45751953125,12.029444444444444,0.3477777777777777,179.42716766800606,5.828127278829517,67.45890292257536,1525.0,1234.0,1200.0,1528.0,1475.0,1021.7000000000002,135.0,293.35,1637162694.5453036,1637162695.665264,0fc1bffa-167c-4660-a812-52d422f824f9
-0.0883663024477902,0.0899628937654778,0.0833474560642488,1.0372168145819722,0.032985210192732,-1.0759706842960828,-0.5377093707608286,-0.5530632180379565,-14.895348105697432,26.3300275489494,-6.6328720661404,-4.587416984050615,0.379654872432968,0.5964466118285271,4937.45751953125,12.033333333333331,0.3388888888888889,179.4145591387982,5.808774459566848,67.581661912528,1525.0,1234.0,1200.0,1528.0,1475.0,1021.7000000000002,135.0,293.35,1637162695.7739422,1637162696.8026044,0fc1bffa-167c-4660-a812-52d422f824f9
-0.089853748792048,0.0891263079464854,0.0970155256312448,1.2091453248372137,0.0556891736332204,-1.2393789741166497,-0.5797874026551965,-0.6138951321703727,-14.994871856529066,27.68849737187413,-7.597535590375376,-5.332963657787418,0.3654928020146268,0.6062206060643677,4917.631510416667,12.026333333333334,0.36,179.3950915818439,5.744970864049474,67.86117829739189,1525.0,1133.0,1200.0,1528.0,1475.0,1021.7000000000002,135.0,293.35,1637162698.8292992,1637162699.87129,a85c9d0d-f1de-44a3-8bf4-19fce3a6352a
-0.0861326675370473,0.0986065178359555,0.1070348320279254,1.2142075728411574,0.0636704322579889,-1.2529878860934438,-0.5750670193216117,-0.6007332826872994,-15.022676932296122,27.772138042206844,-7.4931512370688065,-5.373907889551186,0.4003343126293516,0.5762565508178266,4895.163899739583,12.028666666666666,0.37,179.39392589622554,5.7482361213595645,67.96958022970915,1525.0,1133.0,1200.0,1528.0,1475.0,1021.7000000000002,135.0,293.35,1637162699.9800198,1637162701.1044714,a85c9d0d-f1de-44a3-8bf4-19fce3a6352a
-0.0977955617366278,0.0930446193448285,0.0957138047349437,1.2124850937958174,0.0525729326497154,-1.2460585170592453,-0.5847576113920735,-0.6102134956339333,-14.976415139389166,27.847115475452185,-7.5902719159763485,-5.354510053093272,0.3795028130546443,0.6197773977092663,4883.69482421875,12.027888888888889,0.3788888888888888,179.37142118182024,5.726724440568608,68.05389815610306,1525.0,1133.0,1200.0,1528.0,1475.0,1021.7000000000002,135.0,293.35,1637162701.2134535,1637162702.332158,a85c9d0d-f1de-44a3-8bf4-19fce3a6352a
-0.0969403486115775,0.0885658447564734,0.0987423877139049,1.2313244356996549,0.0519960335877739,-1.259436231401993,-0.5918107934045073,-0.6198065691518074,-14.982495437976956,28.59674836492336,-7.674142390376319,-5.421964723011659,0.3613762451028385,0.6256701371189551,4881.22216796875,12.01988888888889,0.4099999999999999,179.37339282976066,5.702341234414094,68.26765423854796,1525.0,1033.0,1200.0,1528.0,1475.0,1021.7000000000002,135.0,293.35,1637162704.266207,1637162705.4030428,4e1717dd-cc2d-4e0f-9ae5-4a88b57b05aa
-0.1042132216435628,0.0961126484544839,0.1071931642350378,1.230132835107234,0.0587347403956526,-1.2677363530669368,-0.5854829813418471,-0.6108627130773311,-14.946646586257424,28.56268429431877,-7.901607547752047,-5.4377514821013735,0.3921255039822601,0.5965839270136944,4882.1494140625,12.019333333333334,0.4066666666666667,179.34422943982452,5.696290398287502,68.26744477941341,1525.0,1033.0,1200.0,1528.0,1475.0,1021.7000000000002,135.0,293.35,1637162705.5115268,1637162706.632333,4e1717dd-cc2d-4e0f-9ae5-4a88b57b05aa
-0.093310760341986,0.0918530187766946,0.1081930130249216,1.2282153169257417,0.0601317893916486,-1.2610935159860934,-0.5814698884220911,-0.5969196123579535,-14.8588630474808,28.529338246874417,-7.782450551126744,-5.418606775862787,0.3747708141801619,0.5873153093840121,4889.576171875,12.02,0.4022222222222222,179.33693631561076,5.679587407831581,68.2583811183848,1525.0,1033.0,1200.0,1528.0,1475.0,1021.7000000000002,135.0,293.35,1637162706.7403097,1637162707.8613417,4e1717dd-cc2d-4e0f-9ae5-4a88b57b05aa
-0.0600692110878053,0.0669252823756691,0.0188777547378655,0.1671293031385493,-0.1077332371985471,-0.2099917518879714,-0.3453959483941062,-0.3784457515896891,-14.388301897160336,23.4570501126394,-0.1144856079444565,-0.6997036149694101,0.3348794167017018,0.6024869474660758,4896.404568142361,12.043555555555557,0.29,179.34475005202123,5.975854879066786,68.29500155707478,1525.0,1435.0,1200.0,1528.0,1475.0,1021.7000000000002,135.0,293.35,1637162708.771508,1637162709.9093714,3121b65b-d7c1-460c-aca1-26062ccb63bb
-0.0300403271211619,0.0822100937982805,0.0319689255543807,0.1679264428425088,-0.0993471078286477,-0.2294797654059161,-0.3401786544120236,-0.3784545161774554,-14.39457021979404,23.628850554839765,-0.5827527296909685,-0.743580996304088,0.397136037042968,0.5669128242620334,4927.720811631944,12.044,0.28,179.33322676398154,5.996940431944522,68.29638732656639,1525.0,1435.0,1200.0,1528.0,1475.0,1021.7000000000002,135.0,293.35,1637162710.0184782,1637162711.0289438,3121b65b-d7c1-460c-aca1-26062ccb63bb
-0.0656848003373325,0.0681305795633741,0.0203706796281386,0.1868660433774921,-0.106117043217201,-0.2334676558567888,-0.3530660225329189,-0.3751722736341434,-14.483520157997528,23.73109046500112,-0.7264548964528502,-0.7952328537845856,0.3431670896314664,0.6084478694395333,5003.75146484375,12.042,0.28,179.332531602506,5.982789370917249,68.32754589065007,1525.0,1435.0,1200.0,1528.0,1475.0,1021.7000000000002,135.0,293.35,1637162711.1422002,1637162712.2561576,3121b65b-d7c1-460c-aca1-26062ccb63bb
-0.0003248207860955,0.0944690615115404,0.1671019100545462,0.1615548039811869,0.0225758256040249,-0.2453151804035859,-0.1988838417191738,-0.2204285316935992,-13.15449735388234,23.62319095821654,-0.9024911045325325,-0.757527976725679,0.4465226213883055,0.0173205832582384,5062.5302734375,12.044444444444444,0.28,179.33250883520876,5.979292361494071,68.38453774799456,1525.0,1435.0,1200.0,1439.0,1475.0,1021.7000000000002,135.0,293.35,1637162714.3020642,1637162715.3263357,da74a222-dc2b-42a3-bfe3-83e90d618348
-0.0056253890930303,0.0978247182859783,0.1663212062284972,0.1617739489103001,0.0224799496876568,-0.2464656914298371,-0.2025682163057232,-0.237508141502143,-13.46085542545569,23.664892923572847,-0.5861967897595809,-0.7604738860688824,0.4583976264486964,0.0243838220624727,5050.599717881944,12.042555555555555,0.2899999999999999,179.3259260506687,5.957354884812983,68.38549397447838,1525.0,1435.0,1200.0,1439.0,1475.0,1021.7000000000002,135.0,293.35,1637162715.4348576,1637162716.5565689,da74a222-dc2b-42a3-bfe3-83e90d618348
0.0008119935431047,0.0942088268663076,0.1602399343896703,0.1627737976552175,0.0175491885196875,-0.2439044347099831,-0.2060608390993344,-0.2344264159097103,-13.324642775010611,23.563877749905004,-0.6312113445383822,-0.7578848721687136,0.4437603822504026,0.0440063603779089,5044.9833984375,12.041,0.29,179.32219221392242,5.96069845213918,68.40660305356326,1525.0,1435.0,1200.0,1439.0,1475.0,1021.7000000000002,135.0,293.35,1637162716.6643505,1637162717.7852175,da74a222-dc2b-42a3-bfe3-83e90d618348
0.047129372299401,0.1308602691386047,0.3509562846484437,0.1351598927028807,0.1862557247321332,-0.2618518596690506,-0.0113560291823734,-0.036062430255959,-12.116313686636085,23.59736946084501,-0.2153844375517234,-0.7255319794325508,0.5844786854155438,-0.7173531205444627,5006.03125,12.041,0.29,179.3132704690466,5.983735541844772,68.36555058101185,1525.0,1435.0,1200.0,1351.0,1475.0,1021.7000000000002,135.0,293.35,1637162719.8311636,1637162721.0621138,850ae649-c2bc-404b-981e-f124736aa416
0.0649118882182398,0.1262724699655147,0.3472390389155643,0.1346410671172185,0.1834145107327222,-0.2564915736024857,-0.0113094608832022,-0.0374972828357739,-11.933553477519476,23.49361490371739,-0.174213064436373,-0.7130906932412725,0.5654396818518607,-0.7088137858726911,4983.065483940973,12.039444444444444,0.2899999999999999,179.2896850669326,5.976440093469421,68.35911502499388,1525.0,1435.0,1200.0,1351.0,1475.0,1021.7000000000002,135.0,293.35,1637162721.1706812,1637162722.29045,850ae649-c2bc-404b-981e-f124736aa416
0.0546531658807738,0.1337781838928096,0.347978653015955,0.1276695189031743,0.1817024409701142,-0.2576420846420359,-0.0132406756968976,-0.0293752224695158,-12.06059968976732,23.585701265304625,-0.2099018215266065,-0.6993723017944435,0.5957129790456491,-0.7040703332848222,4980.49169921875,12.041555555555554,0.29,179.29174474842233,5.971852245917551,68.32850818841312,1525.0,1435.0,1200.0,1351.0,1475.0,1021.7000000000002,135.0,293.35,1637162722.3993466,1637162723.5172718,850ae649-c2bc-404b-981e-f124736aa416
0.115657637186924,0.1556789804797014,0.5246231544110959,0.1362709575368228,0.3424178506409469,-0.2971155718123612,0.1613082659497644,0.1435986157985972,-10.87083369583489,23.79264886173137,-0.3014932716904654,-0.7967253410880751,0.6803879912587267,-1.4089336003597186,4977.599609375,12.041,0.2922222222222222,179.30173352062852,5.976681331956357,68.27637714902797,1525.0,1435.0,1200.0,1262.0,1475.0,1021.7000000000002,135.0,293.35,1637162724.336627,1637162725.3643544,004b8f40-8970-4468-bf0a-d49075e85599
0.1250090993604458,0.1713714011326204,0.5379307295089311,0.1280201508362825,0.3526130202765658,-0.3030072843740223,0.1712267654825223,0.1554614788742797,-11.021215300627146,23.748414837819432,0.0572218166166541,-0.7910021287350868,0.7389879208973592,-1.4528359439821492,4980.49169921875,12.041,0.29,179.28674656776968,5.96024832370013,68.27215229757137,1525.0,1435.0,1200.0,1262.0,1475.0,1021.7000000000002,135.0,293.35,1637162725.4719508,1637162726.629424,004b8f40-8970-4468-bf0a-d49075e85599
0.121136260531719,0.1664170820686252,0.5325808542146763,0.1262587734237732,0.3459241693968337,-0.297512772100606,0.1696631664278059,0.133600128287591,-10.637926130426044,23.76769328333579,-0.1111442654799345,-0.7746544795637349,0.7190636466650367,-1.4347990379123026,4961.912651909723,12.039444444444444,0.2977777777777777,179.2823160517281,5.967670510030079,68.27988786626136,1525.0,1435.0,1200.0,1262.0,1475.0,1021.7000000000002,135.0,293.35,1637162726.738142,1637162727.9223073,004b8f40-8970-4468-bf0a-d49075e85599
0.1719915811973466,0.1924679356180693,0.6723542211836535,0.1435575265381997,0.4724255743422087,-0.3460396867772719,0.2986710454360743,0.2665252237789441,-9.985522854043728,24.135517931504808,-0.0896022107211037,-0.9129927134028374,0.8186989870037312,-1.9776652457478,4928.93994140625,12.03677777777778,0.32,179.29888760847436,5.991615161121636,68.18040084863077,1525.0,1435.0,1200.0,1173.0,1475.0,1021.7000000000002,135.0,293.35,1637162729.7542942,1637162730.803582,a0ee09d1-b5c7-44d5-ba70-9dc53a6d4a6f
0.1730051265072965,0.194029343225495,0.6783259201462292,0.1361202954028267,0.4757264446785156,-0.3403967037620961,0.3067794075779037,0.293808767128895,-9.799167513697078,24.173555790786786,0.0092091094061979,-0.8828765398624445,0.8236553766419895,-2.0014680173985027,4927.366048177083,12.037,0.32,179.27713117923813,5.996731352264929,68.12683167497036,1525.0,1435.0,1200.0,1173.0,1475.0,1021.7000000000002,135.0,293.35,1637162730.913191,1637162732.0280387,a0ee09d1-b5c7-44d5-ba70-9dc53a6d4a6f
0.1541997521416074,0.1774975976063023,0.662013320454938,0.1431603262916707,0.4646870194218738,-0.3306447525338385,0.293219815458096,0.281194237451063,-9.985390686886117,24.18746970739044,-0.0997250449858859,-0.877674314478546,0.762034127503556,-1.9471182802676343,4918.883843315973,12.034444444444444,0.3277777777777778,179.26380623907733,6.001580739143769,68.08752924866629,1525.0,1435.0,1200.0,1173.0,1475.0,1021.7000000000002,135.0,293.35,1637162732.1375449,1637162733.0961342,a0ee09d1-b5c7-44d5-ba70-9dc53a6d4a6f
-0.1215119762410722,0.0485171076534797,-0.1754216347713622,0.1770182180918688,-0.2892400495611851,-0.1923642792944247,-0.550666318908414,-0.5747311812169696,-15.662027652819908,23.87679026914072,-0.4146272205628665,-0.6899806093373136,0.2639848709396058,1.4031914897766828,4923.906521267361,12.043555555555557,0.2822222222222222,179.34492915475948,6.0174397269185,68.14213964672018,1525.0,1435.0,1200.0,1617.0,1475.0,1021.7000000000002,135.0,293.35,1637162734.7285244,1637162735.8078794,0832ec1e-678d-4593-8ec3-2ca4c3309e00
-0.1191013816816499,0.0452025404767247,-0.1768323803385723,0.1781550324440009,-0.2885689180248276,-0.1900769537310129,-0.5513511470044418,-0.5868663350384952,-15.803327730556664,23.81712165649789,-0.4089362640565364,-0.6879410738869952,0.2522724653313086,1.404718041031655,4927.998969184027,12.040888888888889,0.2899999999999999,179.33772709973468,6.008813387724251,68.10686020183724,1525.0,1435.0,1200.0,1617.0,1475.0,1021.7000000000002,135.0,293.35,1637162735.9171374,1637162737.0360425,0832ec1e-678d-4593-8ec3-2ca4c3309e00
-0.1178549947407151,0.0374502882526026,-0.1842422192421237,0.1863592707372959,-0.2930887830127553,-0.1889264427614094,-0.5595416914609626,-0.5771691688782169,-15.972788123773917,23.89335596576892,-0.3113536633161744,-0.7037958145351908,0.2220527643096689,1.4317580249031332,4931.77587890625,12.041,0.2899999999999999,179.3194586204346,5.993041484861438,68.08066870309997,1525.0,1435.0,1200.0,1617.0,1475.0,1021.7000000000002,135.0,293.35,1637162737.1449194,1637162738.2618637,0832ec1e-678d-4593-8ec3-2ca4c3309e00
-0.2036820207472895,-0.0043740714164884,-0.3920634193072255,0.2452407734626611,-0.4788448336309173,-0.1928869399453512,-0.7838815432791297,-0.8115595624464963,-17.282136140482102,24.501802001288507,-0.6562057621014317,-0.8525465344960472,0.0570956350449552,2.2812635684373026,4934.299750434027,12.044222222222222,0.3,179.36421153769635,5.995027599521965,68.09352311911795,1525.0,1435.0,1200.0,1706.0,1475.0,1021.7000000000002,135.0,293.35,1637162740.227967,1637162741.2648728,667dc65a-b74f-4579-bc1a-cd03909b6194
-0.1855433925213296,0.0018529320891636,-0.3843626646830116,0.2389540533554286,-0.4728287557613163,-0.1923779757941652,-0.7751940861380926,-0.8051347781148896,-17.20312762608516,24.40503513204132,-0.4757247963163029,-0.8374110162996065,0.07955245857226,2.2512512542371206,4933.037814670139,12.04,0.2955555555555555,179.36929775189824,5.984121779555963,68.04082669185148,1525.0,1435.0,1200.0,1706.0,1475.0,1021.7000000000002,135.0,293.35,1637162741.3733814,1637162742.4751585,667dc65a-b74f-4579-bc1a-cd03909b6194
-0.202459191862043,-0.0095020631155133,-0.3950481739581737,0.2474103082094828,-0.4799230269944531,-0.1899416318967864,-0.7851964135428098,-0.8009354101990246,-17.302219694924435,24.447279393514577,-0.6835563227975279,-0.8513465000931112,0.037789843810582,2.288041042791589,4945.371419270833,12.041111111111112,0.2911111111111111,179.3843742561262,5.97834661745337,68.00267021950815,1525.0,1435.0,1200.0,1706.0,1475.0,1021.7000000000002,135.0,293.35,1637162742.5836744,1637162743.70416,667dc65a-b74f-4579-bc1a-cd03909b6194
-0.2598472310633199,-0.0352373494740344,-0.5715261839068626,0.3131757000513493,-0.6384065012826429,-0.2184151363225456,-0.9869019049183786,-1.0122816464748488,-18.658598036787552,25.19614806335143,-1.1644829968031576,-1.0682633923615434,-0.0641427653541273,3.027174322077036,4960.31591796875,12.038777777777778,0.31,179.41003755356766,5.973094344277238,68.01636930225348,1525.0,1435.0,1200.0,1795.0,1475.0,1021.7000000000002,135.0,293.35,1637162745.8412104,1637162746.86631,8f23f93a-e131-416d-a0e3-d59bb1986888
-0.2712427692216341,-0.0371548677088135,-0.5754844905528982,0.3155589010703496,-0.6415156211895562,-0.216908514684732,-0.9912437167047412,-1.0081863718261144,-18.733495509045124,25.233067922422062,-0.9375611584186312,-1.070207609849846,-0.0733594536606756,3.043027877597444,4951.72265625,12.037333333333333,0.31,179.3997770916145,5.96277762812715,67.9769704943911,1525.0,1435.0,1200.0,1795.0,1475.0,1021.7000000000002,135.0,293.35,1637162746.974529,1637162748.09607,8f23f93a-e131-416d-a0e3-d59bb1986888
-0.2637781438675652,-0.0310872920664432,-0.5725397296135416,0.3094091466742233,-0.6418580353697605,-0.2175248599197485,-0.9882852582831704,-1.017869845064917,-18.5403443186422,25.265409666821323,-0.9637361711196876,-1.057266198961991,-0.0507930470817898,3.036033150083973,4948.8603515625,12.037444444444445,0.31,179.3898945667954,5.964868567218689,67.95917861051313,1525.0,1435.0,1200.0,1795.0,1475.0,1021.7000000000002,135.0,293.35,1637162748.204416,1637162749.2488794,8f23f93a-e131-416d-a0e3-d59bb1986888
-0.3029913965085387,-0.0643699306485801,-0.7143813405612861,0.390903664427621,-0.7660036916062269,-0.2547658070545127,-1.1546437750626408,-1.1803385402160478,-19.54528081497051,26.11281228761356,-1.4169120777255613,-1.3268065746431985,-0.1835053471667944,3.630326450621576,4954.58154296875,12.026333333333334,0.3666666666666666,179.43166041466014,5.9522434842884815,67.8936945513006,1525.0,1435.0,1200.0,1883.0,1475.0,1021.7000000000002,135.0,293.35,1637162751.2595322,1637162752.3974464,ba1bebaf-e76d-41e1-9d36-c89d6c36a6f9
-0.296636192341541,-0.0620141224994427,-0.701246335530619,0.381946115814586,-0.7561010753312475,-0.2505472664924251,-1.139276224341886,-1.1650120788129337,-19.33939786546796,26.140325145099343,-1.5532687773301432,-1.296202593871404,-0.1729822753645173,3.577201034145701,4949.495659722223,12.02811111111111,0.3522222222222221,179.4123613357053,5.937528600631597,67.78490481602044,1525.0,1435.0,1200.0,1883.0,1475.0,1021.7000000000002,135.0,293.35,1637162752.5058117,1637162753.626191,ba1bebaf-e76d-41e1-9d36-c89d6c36a6f9
-0.3197696833291121,-0.0581653893415273,-0.7024790264373051,0.3843704064859358,-0.7560736823265591,-0.2544233930938182,-1.1430016913262273,-1.1741750840733591,-19.575943529968768,26.09705370678306,-1.268327201736858,-1.3108032547915605,-0.1597757659008745,3.584889464285362,4936.825900607639,12.03022222222222,0.3400000000000001,179.43058124477128,5.957227435380345,67.75222994994101,1525.0,1435.0,1200.0,1883.0,1475.0,1021.7000000000002,135.0,293.35,1637162753.735234,1637162754.859787,ba1bebaf-e76d-41e1-9d36-c89d6c36a6f9
-0.0773542687647451,0.0401348138562845,-0.029840905120997,0.167759344765439,-0.1210873826226598,-0.1930354107079566,-0.3602019308278341,-0.3834312989767927,-14.707016836378791,20.389699119816147,-1.5582634135929248,-0.6861719556847431,0.246232728417383,0.7039288029699348,7485.9619140625,11.83111111111111,7.860000000000001,178.52778201847713,5.745913951905497,57.17940409381898,1525.0,1435.0,1350.0,1528.0,1475.0,1021.7000000000002,135.0,293.35,1637162759.248834,1637162760.2958517,1afd3e63-bf52-4c38-b31c-83db6de769f6
-0.0742462455431129,0.0370706197583922,-0.0360887274695692,0.1700433828086868,-0.126038962804855,-0.1924267356258067,-0.3659632522704152,-0.3999657873761689,-14.718911629351494,20.36539546742745,-1.645383422568753,-0.6904484983946098,0.2349187636320625,0.7269204380573049,7488.14306640625,11.831,7.860000000000001,178.34662111657136,5.662701235496671,52.93385223111265,1525.0,1435.0,1350.0,1528.0,1475.0,1021.7000000000002,135.0,293.35,1637162760.4324296,1637162761.4080353,1afd3e63-bf52-4c38-b31c-83db6de769f6
-0.0675475324028502,0.0508181295830191,-0.0225543357477916,0.1612534796530447,-0.116375766175538,-0.1982264069056148,-0.353833029979451,-0.3711180905200273,-14.625934086614803,20.29211524953079,-1.6064291578743226,-0.683412115171843,0.2874159517320571,0.6797755152180377,7492.50537109375,11.829888888888888,7.875555555555555,178.26180079181847,5.614393347067548,49.33573855329129,1525.0,1435.0,1350.0,1528.0,1475.0,1021.7000000000002,135.0,293.35,1637162761.5160208,1637162762.5452163,1afd3e63-bf52-4c38-b31c-83db6de769f6
0.102563727475875,0.36764690974724,-0.038401254489056,-0.007227886379478,-0.2055129767107283,-0.3438619336181845,-0.4390804275138409,-0.4535439973524358,-14.784144091022512,19.61933936556285,-0.614501111718857,-0.6357924088596355,1.4877724882465355,0.9825824045996928,7499.060546875,11.82222222222222,7.928888888888888,178.22006985380955,5.614130716807588,42.50034743531566,1610.0,1435.0,1350.0,1528.0,1542.0,1021.7000000000002,135.0,293.35,1637162764.2484972,1637162765.3000996,6ade0293-709e-476a-abe3-c9fdae88d935
0.1102748897844343,0.3857263657045557,-0.0227871772694582,-0.0164182774643551,-0.194021562941006,-0.3551752930623275,-0.4262604458991748,-0.4472024890689287,-14.723970006865889,19.487070384272325,-0.7967092044379528,-0.6405818726640257,1.5588895885512215,0.9293404676007212,7499.060546875,11.821333333333332,7.940000000000001,178.29601852174042,5.656165313643399,40.58944302337892,1610.0,1435.0,1350.0,1528.0,1542.0,1021.7000000000002,135.0,293.35,1637162765.4084215,1637162766.4351196,6ade0293-709e-476a-abe3-c9fdae88d935
0.0989478360587571,0.3674825510529612,-0.0248690542254394,-0.0103507018094286,-0.191419216562751,-0.340218648431682,-0.4203024416467731,-0.4441344596066572,-14.554274122964156,19.34416520988169,-0.4019103118416496,-0.6215619046760971,1.4848825811778046,0.9187307266379984,7499.060546875,11.823,7.989999999999999,178.42922542439348,5.7264455411775,38.54083820322518,1610.0,1435.0,1350.0,1528.0,1542.0,1021.7000000000002,135.0,293.35,1637162766.5440366,1637162767.7633998,6ade0293-709e-476a-abe3-c9fdae88d935
0.312833286037271,0.7527667088851082,-0.0251429854119171,-0.214717065132009,-0.2820356586604942,-0.5155894226197811,-0.5052622146827267,-0.5293544690320058,-14.778008382445774,18.63683406501256,1.261971712705845,-0.5591930178235539,2.9419015274636577,1.2107997266483734,7440.47412109375,11.807,8.155555555555557,178.53961645957904,5.84042289999601,36.06475688694729,1695.0,1435.0,1350.0,1528.0,1609.0,1021.7000000000002,135.0,293.35,1637162768.7789176,1637162769.9140863,546fa389-aae7-49cc-8168-bbf0c5216630
0.3098885261719588,0.7516435911884954,-0.0246362127225292,-0.2141828993089195,-0.2827615763546078,-0.5180274107659533,-0.5053170008810227,-0.5359425148239814,-14.660012262794345,18.72966439068588,0.8291322719786081,-0.565245433466278,2.9406581845479365,1.2104783923296702,7440.47412109375,11.810333333333332,8.152222222222223,178.6376691374839,5.881018366487328,35.00826170830991,1695.0,1435.0,1350.0,1528.0,1609.0,1021.7000000000002,135.0,293.35,1637162770.022622,1637162771.0351124,546fa389-aae7-49cc-8168-bbf0c5216630
0.3090119464589617,0.7661345488011763,-0.0292108634148052,-0.2091288685671097,-0.289089387310983,-0.5358055486449621,-0.5162742507099009,-0.549721256806429,-14.67099327469166,18.708268502553704,0.92233126469371,-0.6169562322587822,2.9933471559246154,1.24286391365393,7441.911892361111,11.81088888888889,8.116666666666667,178.7606747731566,5.958347301813011,34.0283902479664,1695.0,1435.0,1350.0,1528.0,1609.0,1021.7000000000002,135.0,293.35,1637162771.143115,1637162772.2629883,546fa389-aae7-49cc-8168-bbf0c5216630
0.5162819509781853,1.1298740287778986,-0.0222941011537443,-0.3978126878884058,-0.3735149881983408,-0.7162988592446586,-0.5957006173258054,-0.623436159185072,-14.585568563294755,18.561063955367405,0.9515502384738876,-0.597508102291259,4.380394781545888,1.504032031323255,7479.4296875,11.79977777777778,8.16,178.9301469446628,6.097349714840541,32.361993327392724,1779.0,1435.0,1350.0,1528.0,1677.0,1021.7000000000002,135.0,293.35,1637162774.3087833,1637162775.335925,ff87bf8e-e804-4d1b-a135-1fe53de27b25
0.514871205560904,1.138448074123021,-0.0215955766936937,-0.3948268376982669,-0.3739395816513706,-0.730365230860918,-0.6006039869638048,-0.6218884470111613,-14.707803918494127,18.609970840869824,0.5211793391756737,-0.6356236062441266,4.416909672870687,1.5109906167753,7490.32421875,11.800333333333334,8.136666666666668,179.02202209591837,6.123107069678698,31.87252679327145,1779.0,1435.0,1350.0,1528.0,1677.0,1021.7000000000002,135.0,293.35,1637162775.448878,1637162776.562915,ff87bf8e-e804-4d1b-a135-1fe53de27b25
0.5215277324348112,1.1408997580254034,-0.0244307643186736,-0.3914437869692722,-0.3768432525518601,-0.7336797994228711,-0.6035761409900334,-0.6386530401347044,-14.583723336235508,18.550663950222177,0.8118565180294306,-0.6511287492945497,4.422053234216324,1.5238893130059612,7499.790201822917,11.798222222222222,8.194444444444445,179.1014298752089,6.159176871798711,31.457733958436027,1779.0,1435.0,1350.0,1528.0,1677.0,1021.7000000000002,135.0,293.35,1637162776.6713502,1637162777.7932255,ff87bf8e-e804-4d1b-a135-1fe53de27b25
0.652370944145228,1.383780831397062,-0.0207874797366705,-0.5196846948745886,-0.4420388849051722,-0.8309117127419047,-0.6630192259772004,-0.6801810206884115,-14.690822547330994,19.43683497603112,3.806382136011686,-0.5738623923730756,5.323257741025008,1.7244053334935794,7512.20556640625,11.788,8.177777777777777,179.24795109328403,6.255064711759791,30.713852743560583,1864.0,1435.0,1350.0,1528.0,1744.0,1021.7000000000002,135.0,293.35,1637162779.8385284,1637162780.8645313,82d6e5fd-b1d2-4248-a5a4-009f6dd1a898
0.6564936078793073,1.3794801117981184,-0.0219516871721145,-0.5183150385198568,-0.4420799745536661,-0.8296927184420401,-0.6633479434051165,-0.6914943826491933,-14.70718966650112,19.431152989937416,3.554479158570459,-0.5743567884993453,5.309233344973367,1.725643486436243,7512.20556640625,11.784333333333333,8.276666666666666,179.31420392823313,6.284792161484885,30.48067995112515,1864.0,1435.0,1350.0,1528.0,1744.0,1021.7000000000002,135.0,293.35,1637162780.9733398,1637162782.0920415,82d6e5fd-b1d2-4248-a5a4-009f6dd1a898
0.638084339205247,1.3852458153258038,-0.0167601434848349,-0.5190930033081048,-0.4385572188666092,-0.8322424710389547,-0.6591135137605655,-0.6869098684684828,-14.639537260949602,19.434176974808704,3.928944453309888,-0.5779592280653932,5.327485486753863,1.709004844343493,7518.794921875,11.788222222222222,8.278888888888888,179.34240653822604,6.279208102383446,30.25615759327353,1864.0,1435.0,1350.0,1528.0,1744.0,1021.7000000000002,135.0,293.35,1637162782.200677,1637162783.3217175,82d6e5fd-b1d2-4248-a5a4-009f6dd1a898
-0.3049363080621927,-0.393607843454788,-0.0281699249216212,0.3780562934217044,-0.022266708010256,0.0332043550757804,-0.2590665268823987,-0.2888428500607419,-14.49624414207407,21.465364793788023,-1.9016598330167869,-0.6448941074657776,-1.4047821150884563,0.3716410676191446,7537.161295572917,11.825,8.051111111111112,179.94850082915502,6.326934049208911,29.8296373236332,1440.0,1435.0,1350.0,1528.0,1408.0,1021.7000000000002,135.0,293.35,1637162785.2560184,1637162786.3946023,6ec6db6c-cf14-4214-bca6-d79befd342af
-0.3065388057142188,-0.3939365609359817,-0.0302381053598922,0.3810147498179435,-0.0233624327682382,0.0293693185697503,-0.2610936178326096,-0.2849667240013662,-14.456001606045811,21.38358049302573,-2.1202175923732,-0.6608452212533157,-1.404859508296428,0.3785784046329922,7538.63330078125,11.825,8.01,179.967839371425,6.327499484522075,29.790910530494177,1440.0,1435.0,1350.0,1528.0,1408.0,1021.7000000000002,135.0,293.35,1637162786.502885,1637162787.5446577,6ec6db6c-cf14-4214-bca6-d79befd342af
-0.3126200785515018,-0.3925942979222293,-0.0284164629832479,0.3848086963393979,-0.0222119217748669,0.0262328067812746,-0.2602170379449845,-0.2769953250883631,-14.366181520039971,21.42670672299155,-1.8732472803890143,-0.675990419609108,-1.403000724254792,0.3738693280344493,7545.26953125,11.826,7.98,179.99239617822093,6.339942097051331,29.79611968810117,1440.0,1435.0,1350.0,1528.0,1408.0,1021.7000000000002,135.0,293.35,1637162787.6575365,1637162788.7614105,6ec6db6c-cf14-4214-bca6-d79befd342af
-0.4965692807916902,-0.7492084159664906,-0.0325517280703819,0.5443735900488936,0.0485099855059364,0.2206132665634469,-0.183696000370776,-0.2013021069332809,-14.164823257351465,22.68333930591205,-2.7624547153666508,-0.5910468045276454,-2.7539513235372883,0.1308503576874287,7545.26953125,11.810222222222222,8.116666666666667,-179.87143808147948,6.3402160160961705,29.75242089670135,1355.0,1435.0,1350.0,1528.0,1341.0,1021.7000000000002,135.0,293.35,1637162789.7465851,1637162790.8990276,f14a0091-0e95-4d15-9f78-cd27aa15f178
-0.4884839263311997,-0.7336797991516241,-0.0212805557695264,0.5444557694041798,0.0564474151657561,0.2052331276642016,-0.1778596223021724,-0.2030065067280869,-14.15547596263966,22.689304908982447,-2.709412757321679,-0.6251794704955304,-2.695541321194463,0.0983242684006659,7545.26953125,11.813333333333333,8.06,-179.8860455793844,6.324974022076463,29.760401213836595,1355.0,1435.0,1350.0,1528.0,1341.0,1021.7000000000002,135.0,293.35,1637162791.0072277,1637162792.1272094,f14a0091-0e95-4d15-9f78-cd27aa15f178
-0.4896070443875547,-0.7310774519565406,-0.0314434025259654,0.5344983722348904,0.0477090107511942,0.2148070217335513,-0.1856118752016811,-0.2158401838261887,-14.36676738090008,22.49773008975369,-2.3551530083171346,-0.5830301059639772,-2.6868468140565223,0.1357750199953451,7543.057454427083,11.812666666666663,8.11,-179.8923839949342,6.321763975462165,29.781626026682407,1355.0,1435.0,1350.0,1528.0,1341.0,1021.7000000000002,135.0,293.35,1637162792.2354927,1637162793.479852,f14a0091-0e95-4d15-9f78-cd27aa15f178
-0.6643340961040541,-1.0740257714228183,-0.0101726465060834,0.7095677672552098,0.1385171931123089,0.3957659423450811,-0.0915439040474685,-0.1198957829309827,-14.00966071184879,24.13080563294208,-1.060522615930191,-0.5590337855465936,-4.007291953913053,-0.1893924430834375,7530.539767795139,11.79977777777778,8.211111111111112,-179.8107252888571,6.318737585045549,29.76957871135137,1271.0,1435.0,1350.0,1528.0,1273.0,1021.7000000000002,135.0,293.35,1637162795.2470372,1637162796.3376317,cc385a98-263f-4dcf-8d92-86ee0007764e
-0.679687943986579,-1.0814904010901152,-0.0147472971849364,0.7206756751989097,0.1358874539113105,0.3952180800446483,-0.0965431482130849,-0.1284013458110555,-13.989462237218126,24.228692427200645,-0.7624017261270003,-0.5848428182406398,-4.039730020969624,-0.1728684341312722,7532.00927734375,11.8,8.198888888888888,-179.8273636296753,6.305820132073371,29.81314848806688,1271.0,1435.0,1350.0,1528.0,1273.0,1021.7000000000002,135.0,293.35,1637162796.4465046,1637162797.4530883,cc385a98-263f-4dcf-8d92-86ee0007764e
-0.6706619085994823,-1.0779155968062832,-0.0188014786523669,0.7112250506826028,0.1317647898399153,0.3970671153103893,-0.0999261984361713,-0.1249224206593078,-14.108573435095096,24.10743250916022,-1.264979837481583,-0.5605152848366902,-4.02012045036073,-0.1573028627240937,7533.481282552083,11.800666666666668,8.205555555555556,-179.8550926798857,6.298335762562853,29.847499406677645,1271.0,1435.0,1350.0,1528.0,1273.0,1021.7000000000002,135.0,293.35,1637162797.5617676,1637162798.6813104,cc385a98-263f-4dcf-8d92-86ee0007764e
-0.7853936443940178,-1.2949322638781071,0.0004777976440577,0.8487395818424405,0.1939477117491664,0.5019427511733612,-0.0429129010845443,-0.0749431268407925,-13.912645498314324,25.65559708153792,1.6892622879340968,-0.6232523212195418,-4.877317523073735,-0.3708377927331179,7538.63330078125,11.784,8.27,-179.8150161654757,6.278345743568863,29.866265730877203,1186.0,1435.0,1350.0,1528.0,1206.0,1021.7000000000002,135.0,293.35,1637162800.227286,1637162801.2481625,74b317a5-d671-4da6-bf8a-b7283429ec9a
-0.7858275514292815,-1.2909613539973166,-0.0108695274518429,0.8434932525037345,0.1833630116712858,0.504572490201929,-0.0525771931777314,-0.0702753393836365,-13.917886673083922,25.453116026161428,1.8509090001771404,-0.6073926761288269,-4.863896630128912,-0.3264515973172404,7538.63330078125,11.784444444444444,8.28,-179.83324973492,6.258804951808411,29.90502705441704,1186.0,1435.0,1350.0,1528.0,1206.0,1021.7000000000002,135.0,293.35,1637162801.3560455,1637162802.4853315,74b317a5-d671-4da6-bf8a-b7283429ec9a
-0.789167321973247,-1.3043598877507891,-0.0203760350578177,0.8521187964970335,0.1770779350901015,0.5096084403988261,-0.0620837009340903,-0.0980979826186819,-14.08774250074418,25.622081605249377,1.7553816948218657,-0.6149873336791639,-4.913762209485903,-0.2932658961295578,7538.63330078125,11.783444444444443,8.287777777777778,-179.8567789777008,6.27663074947289,29.96467737316847,1186.0,1435.0,1350.0,1528.0,1206.0,1021.7000000000002,135.0,293.35,1637162802.6148343,1637162803.6006072,74b317a5-d671-4da6-bf8a-b7283429ec9a
-0.0663285386098693,0.058981278486559,-0.0490023911963313,0.1723613882040765,-0.138098509542128,-0.2143061684694669,-0.3849242236406558,-0.3987166624635536,-14.89685587785939,19.98062588497125,-1.51756234701271,-0.7481062531137557,0.3161130471720506,0.7908303776908143,7545.26953125,11.821,8.08,179.77822876660605,6.2459971138860375,30.042211403896733,1525.0,1435.0,1350.0,1528.0,1475.0,1021.7000000000002,135.0,293.35,1637162804.2301755,1637162805.2371132,2c0a44b4-e2ef-4023-b0fd-222c27e1a6ad
-0.0752449986313273,0.0609672794903817,-0.0425787050117712,0.1765799282018461,-0.131633733453533,-0.2223049593751883,-0.3797469235596367,-0.4076331229956819,-14.838934184486908,19.934854898081152,-1.7807312464329306,-0.7755929560372339,0.325371320861535,0.7658629650539036,7545.26953125,11.821888888888887,8.075555555555555,179.76764349121234,6.254062334067222,30.10504117570682,1525.0,1435.0,1350.0,1528.0,1475.0,1021.7000000000002,135.0,293.35,1637162805.3448715,1637162806.5772357,2c0a44b4-e2ef-4023-b0fd-222c27e1a6ad
-0.0678488566994626,0.0533930825926647,-0.0559328501076842,0.1790042190283076,-0.1439469404851956,-0.2148129409785498,-0.3922107942388642,-0.405304707531836,-14.858977389949729,20.06678794556835,-1.5543596010899396,-0.7639903479472667,0.2939561859394786,0.817938954629196,7545.26953125,11.823,8.04,179.74405049999928,6.211669863778023,30.139640637312382,1525.0,1435.0,1350.0,1528.0,1475.0,1021.7000000000002,135.0,293.35,1637162806.685223,1637162807.812455,2c0a44b4-e2ef-4023-b0fd-222c27e1a6ad
-0.0542618700303723,0.0508181295763119,-0.0747108327063266,-0.261271673200239,-0.2065813083884129,0.2162862499578063,-0.2887469732890923,-0.3131953351430623,-14.75740559284074,19.064664196932352,2.0722990047774794,1.1909526614909811,0.3044366292863773,0.7829607038805401,7551.178819444444,11.823777777777776,8.092222222222222,179.73765896075597,6.332624165969963,30.28079029106023,1525.0,1535.0,1350.0,1528.0,1475.0,1021.7000000000002,135.0,293.35,1637162809.83335,1637162810.8793652,17420dcf-5470-4d38-9619-ef094889c7c4
-0.0437018229769696,0.0577896779058461,-0.0695335333308954,-0.2702429201594711,-0.2051020799017003,0.2165875742589064,-0.2832957422114198,-0.3091548495188534,-14.581237560611632,19.087475316023603,1.9516008535195148,1.212345163726822,0.3318401973883648,0.7668358203814849,7545.26953125,11.824666666666667,7.989999999999999,179.7126589505739,6.328854707889892,30.34066448823448,1525.0,1535.0,1350.0,1528.0,1475.0,1021.7000000000002,135.0,293.35,1637162810.9868948,1637162812.1071694,17420dcf-5470-4d38-9619-ef094889c7c4
-0.0486051911000297,0.0444629263776986,-0.0815317192179326,-0.2685856366910174,-0.2134021952721489,0.230749815018727,-0.2906644917867762,-0.3275904206152694,-14.645510312243948,19.056546973723684,2.251508647685185,1.239644180717647,0.2786884154850427,0.8037799874658645,7540.108018663194,11.820222222222222,8.105555555555556,179.68685146024998,6.314144567419931,30.38231270506349,1525.0,1535.0,1350.0,1528.0,1475.0,1021.7000000000002,135.0,293.35,1637162812.2159288,1637162813.3364346,17420dcf-5470-4d38-9619-ef094889c7c4
-0.0447427614562732,0.0421071182973969,-0.1029120482875607,-0.7041774001551268,-0.2816110652619045,0.6542473724910134,-0.1958979916591581,-0.23205691066797,-14.581529361024437,18.47046509060685,5.393215592441551,3.1694712438397894,0.2938203230827323,0.7915113928619985,7538.63330078125,11.818222222222223,8.126666666666669,179.6676464861237,6.43472695632519,30.47187394001024,1525.0,1636.0,1350.0,1528.0,1475.0,1021.7000000000002,135.0,293.35,1637162815.270373,1637162816.2956626,8893959a-10e2-45b2-8207-48514c01267d
-0.033936176337265,0.0449423059473995,-0.0971594933616837,-0.7081083139658672,-0.2786389116580226,0.6533570962706645,-0.1905152436052437,-0.2290984536703438,-14.437884226131535,18.563614457533685,5.188101382157631,3.177281400927301,0.3061054783552338,0.7720394804473023,7538.63330078125,11.817,8.100000000000001,179.6498348705881,6.428340966610574,30.4939236879258,1525.0,1636.0,1350.0,1528.0,1475.0,1021.7000000000002,135.0,293.35,1637162816.403344,1637162817.6362083,8893959a-10e2-45b2-8207-48514c01267d
