raw_voltage_G-,raw_voltage_G0,raw_voltage_G1,raw_voltage_G2,raw_voltage_G3,raw_voltage_G4,raw_voltage_G5,raw_voltage_G6,load_x,load_y,load_z,load_l,load_m,load_n,rpm,voltage,current,roll,pitch,yaw,aileron1_pwm,elevator_pwm,throttle_pwm,rudder_pwm,aileron2_pwm,pbaro,pdiff,Tt,sample_start_time,sample_end_time,uid
0.0337796105175965,0.1794835985150843,0.0023734014124724,-0.0340594453386008,-0.1142938891491171,0.139708793633124,-0.236987671758664,-0.2723932813780809,-13.671181925843504,17.320093233138987,39.33995515393812,0.5050985393469644,0.4259024996049876,0.5500925122332082,4943.15283203125,12.045,0.32,179.43815213001128,-6.358563184867293,103.09678323168065,1525.0,1435.0,1200.0,1528.0,1475.0,1021.7000000000002,135.0,293.35,1637163376.717045,1637163377.764972,9dbba653-496a-4d2d-8d12-9dbd2241f957
0.0471688183361092,0.1791554289527719,0.0065261980372193,-0.0294354869973621,-0.10997125500424,0.1381052005871398,-0.2324908171004562,-0.2550934289667579,-13.566904143656084,17.301852179783438,39.70432424340813,0.4912609672354802,0.42039786522883,0.5327368021081406,4941.569986979167,12.044555555555556,0.3244444444444444,179.4850633870507,-6.361191052718587,102.46183822169752,1525.0,1435.0,1200.0,1528.0,1475.0,1021.7000000000002,135.0,293.35,1637163377.8743713,1637163378.9949791,9dbba653-496a-4d2d-8d12-9dbd2241f957
0.0411993103027457,0.1863083194960596,0.0051587336012762,-0.0366146753848459,-0.1124826561420609,0.13706645364156,-0.2348707314011581,-0.2495972736272717,-13.663760379032372,17.239796210752182,39.60009302272013,0.504576417107129,0.4496310463617972,0.5420231954485467,4937.45751953125,12.047666666666666,0.32,179.52604148643118,-6.3518114480089976,101.91654779257982,1525.0,1435.0,1200.0,1528.0,1475.0,1021.7000000000002,135.0,293.35,1637163379.1033256,1637163380.223697,9dbba653-496a-4d2d-8d12-9dbd2241f957
0.2099036539016341,0.5012431310293506,0.0367928535146808,-0.1833793359788565,-0.1577804657369864,-0.038853241063477,-0.2776116696336811,-0.3063744477671723,-13.266657795580045,16.825622292795458,39.207116808414646,0.4392932983577116,1.6515686936441512,0.6581673793419617,4940.3037109375,12.037555555555556,0.36,179.4371807253293,-6.323216197002569,101.00967018444128,1610.0,1435.0,1200.0,1528.0,1542.0,1021.7000000000002,135.0,293.35,1637163381.338166,1637163382.5890322,fe36d7a4-11e7-4695-af40-3148b5b624c3
0.223682391225676,0.5019279588936899,0.0387788545336587,-0.1865569378179047,-0.1563834166586755,-0.0375520678894313,-0.2732972530795803,-0.2965951031283179,-13.090209777852388,16.722405893491096,39.09613954813522,0.44887088407847,1.6543873296635283,0.6474788354618537,4940.936848958333,12.039222222222222,0.36,179.4199732020803,-6.310692238817574,100.5331961879412,1610.0,1435.0,1200.0,1528.0,1542.0,1021.7000000000002,135.0,293.35,1637163382.698064,1637163383.8170564,fe36d7a4-11e7-4695-af40-3148b5b624c3
0.2158342635086346,0.512200376906775,0.0381762059372738,-0.1887483873805236,-0.1596431978715708,-0.0420856289103643,-0.2749134471971995,-0.3098944635973926,-12.899046509110514,16.666990892828704,39.586438951348605,0.4434037631080925,1.6874472947646424,0.6571130690471861,4952.365342881944,12.039555555555555,0.36,179.42115558371663,-6.3012937562240285,100.21665941886596,1610.0,1435.0,1200.0,1528.0,1542.0,1021.7000000000002,135.0,293.35,1637163383.9253843,1637163384.9356194,fe36d7a4-11e7-4695-af40-3148b5b624c3
0.4655208658039969,0.931865632568648,0.0850765095854635,-0.3969415865338551,-0.2201704874151168,-0.2588276589501651,-0.3251891382670066,-0.349790354164258,-12.27500951753937,16.434013600138133,39.96276501875047,0.427153331671204,3.282297325969921,0.7972218995488649,5004.4013671875,12.031777777777778,0.3911111111111112,179.26720919110383,-6.2696408097672895,99.71658408314384,1695.0,1435.0,1200.0,1528.0,1609.0,1021.7000000000002,135.0,293.35,1637163385.7516358,1637163386.8897364,cc6e3a19-a83a-4437-aee3-6e374dbe18ca
0.4629886462684843,0.9332051558905397,0.0894972107851774,-0.3924847255498133,-0.2144157407647355,-0.2655039103347363,-0.3209064976736053,-0.3349043835638416,-12.247880102930615,16.286026032053808,39.81892144834163,0.4013271376363063,3.288133223587874,0.7773382475852122,5019.380533854167,12.032,0.4033333333333333,179.23919479076807,-6.264366765363179,99.41486047655854,1695.0,1435.0,1200.0,1528.0,1609.0,1021.7000000000002,135.0,293.35,1637163386.998616,1637163388.1146142,cc6e3a19-a83a-4437-aee3-6e374dbe18ca
0.4505932618144537,0.9264664496151496,0.0804026959532133,-0.3840065542301381,-0.2204696202986114,-0.2657367518739182,-0.3299051381088217,-0.3451631076814561,-12.316232915389987,16.272689650625654,39.887843381576864,0.3811145591594752,3.261111294726765,0.81010665607474,5024.2822265625,12.032000000000002,0.3899999999999999,179.21497038651174,-6.267805054132242,99.186272258876,1695.0,1435.0,1200.0,1528.0,1609.0,1021.7000000000002,135.0,293.35,1637163388.2236106,1637163389.2340958,cc6e3a19-a83a-4437-aee3-6e374dbe18ca
0.6025976550557165,1.1858107723649614,0.1241495034363973,-0.5440782723541284,-0.255847835247924,-0.3948131409221253,-0.3519155114356911,-0.3664749566504695,-11.952177846890145,17.05377642337436,36.78273734334265,0.4591897584300251,4.2812487849735,0.8555311391907799,4967.665581597223,12.018888888888888,0.441111111111111,179.07344734908924,-6.218464004727415,98.63730187561548,1779.0,1435.0,1200.0,1528.0,1677.0,1021.7000000000002,135.0,293.35,1637163391.2813728,1637163392.307876,96846907-d3f2-4b9d-acc0-9008474482d0
0.5997898608149579,1.174127608206119,0.1183832524458555,-0.5422840226212166,-0.2587925956503852,-0.3854172999964758,-0.3532440778532533,-0.3729534300318042,-11.901857322824958,16.997111273452962,36.6991067407281,0.4756053176803269,4.237227454580315,0.8678362009131174,4942.205186631944,12.023555555555554,0.44,179.0767288755305,-6.215151410411829,98.35338533110628,1779.0,1435.0,1200.0,1528.0,1677.0,1021.7000000000002,135.0,293.35,1637163392.4158142,1637163393.6444328,96846907-d3f2-4b9d-acc0-9008474482d0
0.5983654188651212,1.1699912476128844,0.122848330446075,-0.5413937461931154,-0.253902923615185,-0.3809385244041081,-0.3479161156568874,-0.3750216112333611,-11.942807022114836,17.063081473599627,36.91318794949353,0.4843346471980593,4.220280591885853,0.847257551230104,4927.99560546875,12.023333333333332,0.44,179.06265261456102,-6.203774876575526,98.14447488842256,1779.0,1435.0,1200.0,1528.0,1677.0,1021.7000000000002,135.0,293.35,1637163393.7573743,1637163394.8779995,96846907-d3f2-4b9d-acc0-9008474482d0
0.7114031059392015,1.3870269160384965,0.1625135630501266,-0.6412827796658309,-0.281022113201863,-0.5205201851714966,-0.3758844932962247,-0.410550490476135,-11.587104566232412,18.20543357694952,34.25647729617794,0.4053046151664534,5.070157505837842,0.8913661545671047,4964.161078559027,12.009,0.51,178.9530083467247,-6.177606524590438,97.59420221576028,1864.0,1435.0,1200.0,1528.0,1744.0,1021.7000000000002,135.0,293.35,1637163396.811991,1637163398.0486991,b065e836-2584-4ae3-9d39-1758fcbd964d
0.7092664429994694,1.3804114779422407,0.156076180733101,-0.6384475909790857,-0.2853913159641983,-0.5182191626997095,-0.3814452971217847,-0.3987029647165274,-11.651041311195575,18.20665375112813,33.98755607486448,0.4036923271394712,5.047424413956418,0.9128093147256208,4982.744140625,12.00911111111111,0.5,178.95584515196,-6.176157101530317,97.35400722994818,1864.0,1435.0,1200.0,1528.0,1744.0,1021.7000000000002,135.0,293.35,1637163398.1848507,1637163399.1773994,b065e836-2584-4ae3-9d39-1758fcbd964d
0.7248120355053306,1.3927520777231344,0.1611302106559143,-0.641816945795885,-0.2840627496833817,-0.5235197323791144,-0.3792949370888551,-0.3952788245665787,-11.56992447979511,18.25955606149716,34.538230787670905,0.4001126439321422,5.088990560509953,0.903324269821954,4985.642306857639,12.008222222222225,0.5077777777777778,178.94347492046322,-6.179341724662705,97.1570033248076,1864.0,1435.0,1200.0,1528.0,1744.0,1021.7000000000002,135.0,293.35,1637163399.285561,1637163400.2946832,b065e836-2584-4ae3-9d39-1758fcbd964d
-0.2254277751808754,-0.2946364944124759,-0.0386067029205114,0.2092599157672016,-0.044235988687431,0.3684687031757179,-0.1809413482425703,-0.2016505477190464,-14.179291387990729,18.68416776766715,37.71676745638269,0.4767712999613461,-1.3668861736341604,0.3722938184969743,4970.864095052083,12.041333333333332,0.3499999999999999,179.3109618651071,-6.179364065073115,96.71159454647254,1440.0,1435.0,1200.0,1528.0,1408.0,1021.7000000000002,135.0,293.35,1637163402.3423946,1637163403.4771984,454ec180-8c93-4c9b-84c9-30a283a36f57
-0.2291258463468371,-0.2846106121103499,-0.0346483973463995,0.2050687689877315,-0.0416199458766632,0.3638529632842613,-0.1782157328527353,-0.1924601556029887,-14.19454963712365,18.56408773296995,37.93559560760041,0.4752815904109415,-1.330349574699345,0.3609780066947763,4974.71044921875,12.041666666666666,0.3433333333333334,179.28637773755452,-6.164814623776127,96.79464964677987,1440.0,1435.0,1200.0,1528.0,1408.0,1021.7000000000002,135.0,293.35,1637163403.586564,1637163404.5957098,454ec180-8c93-4c9b-84c9-30a283a36f57
-0.2322075724893597,-0.2880347522430447,-0.0388806340902799,0.2070821630132293,-0.045948058566958,0.3675921234926849,-0.1806537205175555,-0.2017875132941244,-14.021605420109106,18.58942214285497,38.226676204607855,0.4792329223969765,-1.3475118421832304,0.3762376543352029,4991.771864149306,12.04022222222222,0.3411111111111111,179.25441548787848,-6.148459735808531,96.86564187410312,1440.0,1435.0,1200.0,1528.0,1408.0,1021.7000000000002,135.0,293.35,1637163404.7043602,1637163405.9375322,454ec180-8c93-4c9b-84c9-30a283a36f57
-0.4135363404601366,-0.6282573479366552,-0.067533835709116,0.3676606062728214,0.0034417329807835,0.5423464995710838,-0.1417691875011583,-0.1713126672744326,-14.856706609629446,19.830935779402505,36.730099911375454,0.5158481871429882,-2.625944719100259,0.2496978129638548,4992.0947265625,12.025,0.42,179.30807648963776,-6.103534783157071,96.87641839479356,1355.0,1435.0,1200.0,1528.0,1341.0,1021.7000000000002,135.0,293.35,1637163407.7582178,1637163408.803735,6dc68f53-f650-490f-be17-b3fca4ba7e5a
-0.4206996421023204,-0.6274492507028129,-0.066136786669352,0.3656472123296049,0.004263526533793,0.5424834651523666,-0.1400160278812312,-0.1688061967373454,-14.816499119351208,19.821371076533246,36.61066872703199,0.520705050092993,-2.6218036311752577,0.2441217657276171,4972.476291232639,12.02588888888889,0.4144444444444444,179.33864538072308,-6.111335048916704,96.68126698873786,1355.0,1435.0,1200.0,1528.0,1341.0,1021.7000000000002,135.0,293.35,1637163408.9116583,1637163410.0322323,6dc68f53-f650-490f-be17-b3fca4ba7e5a
-0.411714697804084,-0.6240114133552971,-0.064246661511447,0.3695781243395019,0.0083040113672154,0.5366898214023441,-0.1381259026646027,-0.1514800488366735,-14.86941183590114,19.58898806006527,36.79800850671496,0.4973756332429164,-2.6105636320880774,0.2341239377801211,4966.703721788194,12.024666666666665,0.4099999999999999,179.33436057538378,-6.1257862588125045,96.535336202571,1355.0,1435.0,1200.0,1528.0,1341.0,1021.7000000000002,135.0,293.35,1637163410.1414242,1637163411.1480696,6dc68f53-f650-490f-be17-b3fca4ba7e5a
-0.6257645736800815,-1.0043513317477883,-0.0960774652168666,0.5428806653102525,0.058447112685334,0.7438091604322893,-0.0923793941558594,-0.1278534835445179,-15.418554934969904,21.26608806206362,35.98707496725007,0.5809994148803636,-4.049322300292179,0.0973651008762785,4937.45751953125,12.021777777777778,0.4322222222222222,179.41742781824962,-6.138147430822281,96.2176428547963,1271.0,1435.0,1200.0,1528.0,1273.0,1021.7000000000002,135.0,293.35,1637163412.7346494,1637163413.808288,b09187d8-b4e6-49a3-9c2f-fcd5b6a06ce0
-0.6286271553004195,-1.0139389291377432,-0.1005699366531908,0.5477018534806142,0.0558584631301674,0.7481920587742278,-0.0968581690542964,-0.1270864770101049,-15.55040037844787,21.41208083304912,35.87027630086393,0.580632075966257,-4.084189180692246,0.1119568066899271,4934.615234375,12.021888888888888,0.44,179.4545020850645,-6.159471471138539,96.06521504090892,1271.0,1435.0,1200.0,1528.0,1273.0,1021.7000000000002,135.0,293.35,1637163413.917279,1637163414.9477775,b09187d8-b4e6-49a3-9c2f-fcd5b6a06ce0
-0.6449129169535275,-1.014444058247512,-0.0953893500728419,0.5485548750674409,0.0621451834930608,0.7497562056015444,-0.091050280051173,-0.1159276150010998,-15.638685260843266,21.35094011126062,36.17726629562275,0.5820798600392884,-4.087957348411,0.0884058546415216,4930.201117621527,12.01988888888889,0.4477777777777778,179.45705050453478,-6.151787555754144,95.89534292388136,1271.0,1435.0,1200.0,1528.0,1273.0,1021.7000000000002,135.0,293.35,1637163415.0569046,1637163416.4713967,b09187d8-b4e6-49a3-9c2f-fcd5b6a06ce0
-0.7793578421893722,-1.2745024588660792,-0.1259359647166525,0.6520422267721968,0.0833611526272363,0.8920880903484506,-0.0707525271320016,-0.0958720172248313,-16.037647726284092,22.7889451693711,33.68120523669739,0.6758894763134441,-5.053041793363652,0.037298292086444,4930.83056640625,12.003,0.5266666666666667,179.51563076031627,-6.165765869913658,95.55139129329748,1186.0,1435.0,1200.0,1528.0,1206.0,1021.7000000000002,135.0,293.35,1637163417.2914765,1637163418.435948,2f249137-5e09-4ded-8dec-2623e3d52e99
-0.7887334147347471,-1.2738417364013273,-0.1271960482238516,0.6560586052222003,0.0824993651281565,0.8870285820286015,-0.0749036803106422,-0.0987554168473005,-16.17351537957303,22.86740348615877,33.55877247860218,0.6558295769067293,-5.049089980236274,0.0459153345605568,4921.079318576389,12.004333333333337,0.5222222222222223,179.53840412882892,-6.178683654908923,95.23674724553224,1186.0,1435.0,1200.0,1528.0,1206.0,1021.7000000000002,135.0,293.35,1637163418.549531,1637163419.6547425,2f249137-5e09-4ded-8dec-2623e3d52e99
-0.777202002930938,-1.2773918876302317,-0.1235801565196385,0.6607000945460914,0.08666750182985,0.8878832472301446,-0.0711168555842017,-0.0952710119936094,-16.15596871651278,22.926485920777967,33.82090100497767,0.6479023901977999,-5.065193871731784,0.0298865515287792,4911.367350260417,12.00422222222222,0.52,179.55570879254608,-6.18973267168815,94.99793423466218,1186.0,1435.0,1200.0,1528.0,1206.0,1021.7000000000002,135.0,293.35,1637163419.762665,1637163420.772518,2f249137-5e09-4ded-8dec-2623e3d52e99
0.0190010235973076,0.1534875311499726,-0.0015027247316892,-0.0122408269079553,-0.108226313315581,0.1406127664800396,-0.23649459559084,-0.258669327706557,-13.79747976760288,17.134770649701185,38.693901762999246,0.4563243386830078,0.3320860938775958,0.5425321220181257,4901.381673177083,12.041333333333334,0.32,179.18313411588042,-6.205934354718112,94.4853467512905,1525.0,1435.0,1200.0,1528.0,1475.0,1021.7000000000002,135.0,293.35,1637163422.8212135,1637163423.958585,90aee120-9bfd-4d0e-9a15-5c7a1095bbc9
0.023698943279332,0.153391655244834,-0.0034750292370498,-0.0126106340139427,-0.1111573770782627,0.1425302846553944,-0.2381655759240104,-0.2740642611179768,-13.705873380822652,17.193468645197232,38.88938745007071,0.461835634660245,0.3292670418037752,0.5518927685535168,4924.8515625,12.04388888888889,0.32,179.11549702925947,-6.1889396582663885,94.95809829469296,1525.0,1435.0,1200.0,1528.0,1475.0,1021.7000000000002,135.0,293.35,1637163424.0668025,1637163425.189029,90aee120-9bfd-4d0e-9a15-5c7a1095bbc9
0.0137842783419341,0.1561452112985058,-0.0061096992757214,-0.0103041334858508,-0.1122591282891611,0.1387494867143343,-0.2435883180337525,-0.2577231687765764,-13.990286857527144,17.171634899293796,39.0080797057016,0.4477366029846327,0.3401042194561519,0.5650364410679485,4935.562662760417,12.044333333333334,0.32,179.04006290224606,-6.185203165335437,95.33532736582303,1525.0,1435.0,1200.0,1528.0,1475.0,1021.7000000000002,135.0,293.35,1637163425.297223,1637163426.4178188,90aee120-9bfd-4d0e-9a15-5c7a1095bbc9
0.0437096155048047,0.1541586625616919,-0.0334841898324953,-0.370378475742781,-0.1755312071695465,0.5003802479427759,-0.168272030460377,-0.1912959482343464,-13.746396970026993,16.309120336991327,43.1957287891324,2.0663182299358795,0.3363950671748104,0.584328719924285,5016.145182291667,12.040444444444445,0.33,178.99177042917444,-6.0898315264072576,96.06342932589592,1525.0,1535.0,1200.0,1528.0,1475.0,1021.7000000000002,135.0,293.35,1637163428.2386425,1637163429.375909,54efdf76-899e-4a18-a017-f2bb05ba9c1d
0.0132484689874802,0.1448860926369092,-0.0379903577363966,-0.3689266403371294,-0.1787909883891711,0.5053794913593536,-0.1721618534392254,-0.195856902357434,-13.832294323125597,16.445224299338317,42.77163809263259,2.0748442439133075,0.3055218469779991,0.5986260174724584,5068.195421006944,12.041444444444444,0.32,178.9895802151806,-6.044073100949579,96.19400736462842,1525.0,1535.0,1200.0,1528.0,1475.0,1021.7000000000002,135.0,293.35,1637163429.4842997,1637163430.519534,54efdf76-899e-4a18-a017-f2bb05ba9c1d
0.0374776813523249,0.1615137142935373,-0.0274440073047837,-0.3803495722960244,-0.1721618534417195,0.502106014158865,-0.1617387714673633,-0.1904056724762496,-13.697185361615391,16.26896660035949,43.20890250860376,2.0927500565731,0.3651258067826997,0.5630761455089067,5099.00390625,12.043,0.33,178.9975244840952,-6.051265859328034,96.34508431887993,1525.0,1535.0,1200.0,1528.0,1475.0,1021.7000000000002,135.0,293.35,1637163430.6357572,1637163431.7408931,54efdf76-899e-4a18-a017-f2bb05ba9c1d
0.0720204021009953,0.1640886672087905,-0.0495502535796809,-0.7751119069518856,-0.239672197569736,0.8762548699193506,-0.0819974022073576,-0.1046241185505321,-13.490267501108358,15.880856782711168,45.30371620663546,3.82076411455062,0.4019483437172987,0.5717349994147286,5048.948404947917,12.037222222222224,0.3400000000000001,179.0306721510472,-5.942917382727391,96.59852759495216,1525.0,1636.0,1200.0,1528.0,1475.0,1021.7000000000002,135.0,293.35,1637163433.734367,1637163434.784356,80f6ebe4-ef87-4190-8d67-4eb3d34fe7ef
0.0475035622601238,0.1536655864525881,-0.0563163537624167,-0.7683595005268465,-0.2435620206627774,0.8784874087712776,-0.0882567298078858,-0.100323399112492,-13.586341966244683,15.945490016373869,45.00294826705589,3.810544402208807,0.3649419395137752,0.5934480585991567,5031.165364583333,12.037,0.35,179.04471198434112,-5.939531648469442,96.59276519202236,1525.0,1636.0,1200.0,1528.0,1475.0,1021.7000000000002,135.0,293.35,1637163434.8971374,1637163435.9363017,80f6ebe4-ef87-4190-8d67-4eb3d34fe7ef
0.0629258872254736,0.1551859044158396,-0.0464959209107893,-0.7632506818380885,-0.234152483824867,0.8724198338372733,-0.0787102279808781,-0.109609666432452,-13.430719408725643,15.909094740678157,45.095044658425785,3.785726248323669,0.368719290930152,0.5541358287450809,5024.2822265625,12.036333333333332,0.3488888888888888,179.06125318469108,-5.9357570203156245,96.61784185210512,1525.0,1636.0,1200.0,1528.0,1475.0,1021.7000000000002,135.0,293.35,1637163436.0503662,1637163437.158632,80f6ebe4-ef87-4190-8d67-4eb3d34fe7ef
0.0706781393591712,0.1457215826785126,-0.0637672819589831,-1.0561791433741354,-0.2878977865846077,1.164348265625459,-0.0252799509712973,-0.048290170334293,-13.672215725631428,16.41491955287479,47.06419077778565,5.105188760323684,0.3524585190523604,0.5734955253173077,4992.0947265625,12.027,0.42,179.07701422565583,-5.85935589978407,96.62728724481735,1525.0,1737.0,1200.0,1528.0,1475.0,1021.7000000000002,135.0,293.35,1637163437.7347076,1637163438.705178,a8518508-7e3e-4c39-bfcf-06c0d3e2c8ae
0.0753990691436209,0.1571971069853777,-0.0612947790782115,-1.0637122559748515,-0.2880309171228949,1.160219027259112,-0.0264507328308511,-0.0638324781136751,-13.847107869789744,16.456049426803744,47.09492389261576,5.11321529859911,0.3975490974784813,0.5732001524319884,4982.422037760417,12.023666666666664,0.4133333333333333,179.096211610683,-5.847517616700753,96.4766087182674,1525.0,1737.0,1200.0,1528.0,1475.0,1021.7000000000002,135.0,293.35,1637163438.8129146,1637163439.9339144,a8518508-7e3e-4c39-bfcf-06c0d3e2c8ae
0.0561099318176434,0.152542468653677,-0.0613210765085611,-1.0584922198598472,-0.2877416457878627,1.1562744184995617,-0.0255960675618112,-0.0556013935674335,-13.62932118132803,16.45618341736009,46.5714903667767,5.092601882208565,0.3825447482094166,0.570521689155088,4975.352484809027,12.022888888888888,0.4177777777777777,179.11345252596794,-5.846319724843194,96.3378625321975,1525.0,1737.0,1200.0,1528.0,1475.0,1021.7000000000002,135.0,293.35,1637163440.0429175,1637163441.159613,a8518508-7e3e-4c39-bfcf-06c0d3e2c8ae
0.0628711009907556,0.1508030057935991,-0.057795582195591,-1.1454670759326449,-0.3032790241619125,1.2436376424596858,-0.0074607279330063,-0.041482980798161,-13.543893234287433,17.390733344337242,47.43432246398218,5.491664010851455,0.3787166210662456,0.5609777188238684,4975.673502604167,12.013333333333334,0.4666666666666665,179.1456257525983,-5.7999994214625445,95.95671065575412,1525.0,1837.0,1200.0,1528.0,1475.0,1021.7000000000002,135.0,293.35,1637163443.3019917,1637163444.438707,482c6b20-e87e-4ea5-9dc3-4bebba9bc3b7
0.075252789892156,0.1591031200236598,-0.0511390544499134,-1.1493979908558565,-0.2997179183573922,1.2388438467933711,-0.003242187731751,-0.0281151392675236,-13.503524286220424,17.463707756027947,47.435169431254856,5.490594555443074,0.4104610734426088,0.5420168050891524,4973.749674479167,12.012999999999998,0.4633333333333333,179.16199088584966,-5.805726392785993,95.73849294196138,1525.0,1837.0,1200.0,1528.0,1475.0,1021.7000000000002,135.0,293.35,1637163444.547095,1637163445.5521157,482c6b20-e87e-4ea5-9dc3-4bebba9bc3b7
0.0604331135489913,0.1534875311853276,-0.0558780639352851,-1.143905667758214,-0.3017313127649893,1.2400080544868124,-0.0077072661720458,-0.031457099851101,-13.62847214189019,17.441362002331108,47.50290544593734,5.480385148505895,0.3887061792353956,0.5569622310755583,4960.31591796875,12.012888888888888,0.4522222222222222,179.17559965831595,-5.834293326966486,95.5339394010582,1525.0,1837.0,1200.0,1528.0,1475.0,1021.7000000000002,135.0,293.35,1637163445.6604862,1637163446.78366,482c6b20-e87e-4ea5-9dc3-4bebba9bc3b7
0.0120568683570463,0.1751691827292396,0.0343685626457842,0.4279665489869399,-0.0379766611780517,-0.3066620745828348,-0.3294942412315614,-0.3581200546158595,-13.429667548437063,18.469422606186143,35.51946675278543,-1.5314490951958184,0.3870348555829117,0.5320801773722935,4959.678439670139,12.045,0.3,179.1523345161831,-6.318988594497547,95.2977233798926,1525.0,1334.0,1200.0,1528.0,1475.0,1021.7000000000002,135.0,293.35,1637163447.808319,1637163448.7565029,2c9c5bc6-a73e-4677-9361-cb65b7bbd7b0
-0.0025332539472642,0.1745270880562214,0.0347038543740768,0.4314000019952664,-0.0366015266640886,-0.3062681615067923,-0.3303302793130677,-0.3535903274299767,-13.581389205831703,18.506988904695586,35.93366291488733,-1.5380535694373816,0.3816286098802334,0.5313555729826025,4961.592610677083,12.04288888888889,0.3,179.11799080721644,-6.286319609969899,95.64397147185738,1525.0,1334.0,1200.0,1528.0,1475.0,1021.7000000000002,135.0,293.35,1637163448.8648994,1637163449.9650104,2c9c5bc6-a73e-4677-9361-cb65b7bbd7b0
0.0060988652870194,0.1658555231757776,0.0344644385298258,0.4336917099943645,-0.0358536945399908,-0.3015395608991304,-0.3265768737833048,-0.3511622011680618,-13.339977395370852,18.46774310878336,35.71085141599389,-1.5327833875913246,0.3490730869790147,0.5241608089959201,4964.148057725694,12.046,0.3,179.0793152404962,-6.279591873637437,95.98634001637365,1525.0,1334.0,1200.0,1528.0,1475.0,1021.7000000000002,135.0,293.35,1637163450.0732791,1637163451.293,2c9c5bc6-a73e-4677-9361-cb65b7bbd7b0
-0.0181440439041814,0.173237968024148,0.0627889217377871,0.8456019744418309,0.0267121863091623,-0.7075330583598776,-0.4255893143466678,-0.4458328331075152,-13.974817943720486,20.35008006494308,32.655407850693166,-3.3611916321981674,0.3594478825572277,0.5402860527002328,4970.864095052083,12.037666666666668,0.3400000000000001,179.03891998392496,-6.389144360806771,96.45108657806878,1525.0,1234.0,1200.0,1528.0,1475.0,1021.7000000000002,135.0,293.35,1637163452.3146422,1637163453.451228,01a89ad6-474d-4ccd-8836-3213a629e760
-0.0039818020060846,0.1771551836483756,0.0670759445902637,0.8442186221588202,0.0297939120435001,-0.709094466541314,-0.4208913937365173,-0.4399022218854623,-13.84829697123331,20.29779398582476,32.83242262920152,-3.361621062041669,0.3721166688652342,0.5243775650493714,4962.233018663194,12.039666666666667,0.3344444444444444,179.03046269191265,-6.3987748326727525,96.63136334993202,1525.0,1234.0,1200.0,1528.0,1475.0,1021.7000000000002,135.0,293.35,1637163453.5596848,1637163454.6798775,01a89ad6-474d-4ccd-8836-3213a629e760
-0.0143670808564481,0.1765782846156066,0.067286323713421,0.8442295793980708,0.0306146098277859,-0.709814905812306,-0.4205697984784109,-0.4423440448401056,-13.885179173118878,20.26074500533634,32.65388332138113,-3.363546854576702,0.3718077387970508,0.5221829822293276,4957.766004774306,12.041,0.3388888888888889,179.04010691902073,-6.401213637093268,96.7896264221003,1525.0,1234.0,1200.0,1528.0,1475.0,1021.7000000000002,135.0,293.35,1637163454.7887084,1637163455.797501,01a89ad6-474d-4ccd-8836-3213a629e760
-0.0119805923405622,0.1788672534064332,0.0864154851474128,1.144611525342364,0.0692126076882376,-1.0003245412196693,-0.49722233277482,-0.5214241586708376,-14.163045306754318,22.214879934358223,30.75354260897644,-4.680484965836492,0.3634644841911573,0.5519069850218216,4954.58154296875,12.030888888888889,0.37,179.02423963066883,-6.5139632219766,97.1371122961247,1525.0,1133.0,1200.0,1528.0,1475.0,1021.7000000000002,135.0,293.35,1637163457.8433068,1637163458.8569212,f15a11b4-3ee9-47ef-b912-79b1fb129819
-0.017996121108404,0.1792211724515083,0.086443973976444,1.1212331443606085,0.0676413384924932,-0.9806781851466287,-0.489429536728398,-0.5051553815046024,-14.063921159410016,22.00663555959207,30.567585161642143,-4.584959885445156,0.3686151090483153,0.5426433470078361,4951.71923828125,12.034,0.3666666666666667,179.038318927278,-6.525329510529148,97.21180345033842,1525.0,1133.0,1200.0,1528.0,1475.0,1021.7000000000002,135.0,293.35,1637163458.9648836,1637163460.0969095,f15a11b4-3ee9-47ef-b912-79b1fb129819
-0.0236632092815102,0.1790765367744893,0.0888633340795369,1.121772240897852,0.0697714272792704,-0.981638040851258,-0.4868523916482762,-0.5165421558447341,-14.008460753271994,22.00874482596377,30.500514140088804,-4.588181202674408,0.3683615869516407,0.5327054767332995,4950.766276041667,12.031,0.3833333333333333,179.06527085374287,-6.5261016064965744,97.28792818536796,1525.0,1133.0,1200.0,1528.0,1475.0,1021.7000000000002,135.0,293.35,1637163460.2052844,1637163461.438485,f15a11b4-3ee9-47ef-b912-79b1fb129819
-0.0284986425589121,0.1862907878643755,0.0953867308145209,1.2510063918046332,0.0782523361996168,-1.110047750995246,-0.5321896564629793,-0.5679924720711608,-14.414873597245933,23.61395318463933,30.00201249821244,-5.157573648974679,0.3872433941944629,0.5771726173655704,4948.543077256944,12.023,0.4233333333333333,179.08312345041344,-6.5371206937663136,97.391781211698,1525.0,1044.111111111111,1200.0,1528.0,1475.0,1021.7000000000002,135.0,293.35,1637163463.213967,1637163464.1938083,20091345-023a-4d8d-9458-a22cde4ca233
-0.0351140804659351,0.1686633176074717,0.0962633104833483,1.269483049471828,0.0854019396391891,-1.1125679192178206,-0.5284094052815137,-0.5454205366548602,-14.359220113795203,23.498217060606027,29.62635550791298,-5.205671064644394,0.3218439357070523,0.5584431205715109,4945.05419921875,12.025333333333332,0.4099999999999999,179.1091844166466,-6.5607591247100805,97.31953374738733,1525.0,1033.0,1200.0,1528.0,1475.0,1021.7000000000002,135.0,293.35,1637163464.3028576,1637163465.421898,20091345-023a-4d8d-9458-a22cde4ca233
-0.0364015570095035,0.1869756157758718,0.0944005786224746,1.2768654935747188,0.0789645572424872,-1.1377285133329706,-0.5407910977347717,-0.5759912643183431,-14.324983385783009,23.706039279372703,29.509238416600088,-5.277579772563538,0.3902983746825419,0.5894330536014456,4943.15283203125,12.029555555555554,0.3922222222222222,179.13019104289393,-6.540331831313604,97.29108373276448,1525.0,1033.0,1200.0,1528.0,1475.0,1021.7000000000002,135.0,293.35,1637163465.5302017,1637163466.650938,20091345-023a-4d8d-9458-a22cde4ca233
0.0079889903862566,0.1533642621381776,3.128980566563811e-05,0.0242468057275755,-0.1041721317989799,0.1104118554157784,-0.2449864628986018,-0.2742560130733049,-13.781618300172932,17.344663530029493,39.13017604469652,0.3076970171723531,0.3232532080480202,0.547855045403464,4937.461100260417,12.047333333333333,0.3,179.14843523707694,-6.240009314713658,97.20621180213791,1525.0,1435.0,1200.0,1528.0,1475.0,1021.7000000000002,135.0,293.35,1637163468.214732,1637163469.4323723,4ba1f91a-631f-48f3-ba19-89fb43dab89a
0.0174659133482557,0.1506622051239453,0.0041988787501012,0.0283924801385805,-0.1003990035997775,0.108126173773622,-0.2427862474651524,-0.2614311016414375,-13.826520175955562,17.51519641104422,38.99435359990831,0.2945029073917584,0.3143971205358662,0.5333188320166458,4957.128851996527,12.044333333333334,0.3,179.1465880503614,-6.2157260475076255,97.30316406067652,1525.0,1435.0,1200.0,1528.0,1475.0,1021.7000000000002,135.0,293.35,1637163469.540097,1637163470.8571494,4ba1f91a-631f-48f3-ba19-89fb43dab89a
0.0207815762420194,0.1608699760264682,0.0011270145513031,0.0224388599862173,-0.1066649055978328,0.1006188162194513,-0.2481640648782503,-0.2728041786136196,-13.70555441263746,17.506922593824687,38.5368034188873,0.2908429294644779,0.3564196954110976,0.554322967470693,4966.06396484375,12.046333333333331,0.2999999999999999,179.13391729054112,-6.207660353007747,97.3975967383213,1525.0,1435.0,1200.0,1528.0,1475.0,1021.7000000000002,135.0,293.35,1637163470.9651136,1637163472.0819905,4ba1f91a-631f-48f3-ba19-89fb43dab89a
0.0567761324575974,0.1854005116218854,0.1444204096641326,0.0064686724755023,0.021288349033833,0.0850184361835586,-0.0993372463246604,-0.1168277532112809,-12.556285148082702,17.38392558296196,38.76527135665686,0.2987462471877026,0.4493131905546095,-0.0231717454358765,4977.920952690973,12.046444444444443,0.3,179.12678960868723,-6.208706225724407,97.48401684515972,1525.0,1435.0,1200.0,1439.0,1475.0,1021.7000000000002,135.0,293.35,1637163472.7313623,1637163473.7142837,b51e8f3c-b5bb-45d4-9d97-5f4a054b28be
0.0617375738153467,0.1798523098800218,0.1527002530676306,0.0112071339432808,0.0317848438152255,0.0873906801017796,-0.0914578896380647,-0.1146916376214968,-12.797924619252267,17.438997443755134,39.012676115556864,0.2940833494133821,0.4279640092577561,-0.0604456437255643,4981.456868489583,12.042666666666667,0.3,179.13622285884094,-6.203365634407756,97.52619250437468,1525.0,1435.0,1200.0,1439.0,1475.0,1021.7000000000002,135.0,293.35,1637163473.827576,1637163474.9823124,b51e8f3c-b5bb-45d4-9d97-5f4a054b28be
0.0620767005692295,0.1816202615751605,0.1483376253423096,0.0107830885045948,0.0280133594054524,0.0867989887910161,-0.0954885131092549,-0.1226350947330527,-12.801446019812692,17.345450307454357,39.08809503058183,0.2928831672763821,0.4337254459234712,-0.0432707479185956,4982.10107421875,12.042222222222222,0.3,179.13776799941317,-6.200861041984608,97.57076935453782,1525.0,1435.0,1200.0,1439.0,1475.0,1021.7000000000002,135.0,293.35,1637163475.0914118,1637163476.0796473,b51e8f3c-b5bb-45d4-9d97-5f4a054b28be
0.1288748159879565,0.2030416783442713,0.3166683222351545,-0.0054610302969829,0.1789357362192427,0.0708698912852786,0.0795809024755359,0.0502428738464094,-11.473658083755888,17.3326043006268,38.99625304778318,0.3026814321186384,0.5181560689319716,-0.7242934406034522,4977.278591579861,12.04377777777778,0.31,179.13908850265273,-6.201146392109933,97.5829620011162,1525.0,1435.0,1200.0,1351.0,1475.0,1021.7000000000002,135.0,293.35,1637163477.2893865,1637163478.3399093,a04135d9-e449-41e2-bcc0-c6ecac2e17f0
0.1209855984068873,0.2065441621646483,0.316020201157083,-0.0033484730718703,0.1776959238191192,0.0653140192821835,0.0770952510673199,0.0527964603174872,-11.451731192490888,17.341812276384402,38.95857598090705,0.2854650345525559,0.5311702182271707,-0.717781534241322,4977.599609375,12.042222222222222,0.3144444444444444,179.13965009598448,-6.211068048221154,97.59968230420436,1525.0,1435.0,1200.0,1351.0,1475.0,1021.7000000000002,135.0,293.35,1637163478.447993,1637163479.5653431,a04135d9-e449-41e2-bcc0-c6ecac2e17f0
0.1162191961088698,0.2065890868984011,0.3214347243395614,-0.0049131679258383,0.1809217371850059,0.0665965650143026,0.0821558554966077,0.0613781760913568,-11.351869423277748,17.48990769060507,38.980333248121134,0.2931817399039547,0.5309774930548964,-0.7367295643586234,4977.278591579861,12.041,0.3011111111111111,179.1407368549724,-6.232395598495733,97.6120555713408,1525.0,1435.0,1200.0,1351.0,1475.0,1021.7000000000002,135.0,293.35,1637163479.6730945,1637163480.7957594,a04135d9-e449-41e2-bcc0-c6ecac2e17f0
0.1766758040491685,0.2395019156521485,0.4971752535080275,-0.0108163847974043,0.33755557267404,0.0300678431718341,0.2549790260853295,0.2195871197779575,-10.253850379226488,17.677991028208165,38.93306569193826,0.2349557478271829,0.6589390485616256,-1.4311328607294904,4977.599609375,12.039666666666667,0.32,179.1322006363297,-6.229267419287737,97.58126735529213,1525.0,1435.0,1200.0,1262.0,1475.0,1021.7000000000002,135.0,293.35,1637163481.9093585,1637163483.056985,8a12a2c9-6415-4737-a114-5afc6f2e1e67
0.174128244264032,0.2378857218036522,0.4933402174574773,-0.0134735172521555,0.3346655990287493,0.0348068524402954,0.2510892036617179,0.2265586680286175,-10.45595178577061,17.7016230058783,39.00481236137801,0.2514741784099677,0.6537563039693964,-1.4166994561798292,4968.303493923611,12.041,0.32,179.133770062019,-6.231591628312179,97.55205311839217,1525.0,1435.0,1200.0,1262.0,1475.0,1021.7000000000002,135.0,293.35,1637163483.167986,1637163484.2677128,8a12a2c9-6415-4737-a114-5afc6f2e1e67
0.1722518157825624,0.2373652526035737,0.4952577354825326,-0.0164456705450332,0.3354463028131113,0.0343000798544964,0.2544859500173451,0.2307909043111088,-10.267233089543527,17.676177434303455,38.4912742888113,0.2569797754655877,0.6555070630317954,-1.4258837524166437,4943.15576171875,12.04,0.32,179.1470783061618,-6.223562788374699,97.54841793993388,1525.0,1435.0,1200.0,1262.0,1475.0,1021.7000000000002,135.0,293.35,1637163484.3762553,1637163485.4002154,8a12a2c9-6415-4737-a114-5afc6f2e1e67
0.2051098586123125,0.2518562108392103,0.6182117303463044,0.0124677652133465,0.448305936764262,-0.0138159312089705,0.3685919721847011,0.3424315468366989,-9.436614659374818,18.03562517203594,38.35858147074856,0.0925371175255837,0.7093949677195717,-1.9074120268449888,4926.10693359375,12.038888888888888,0.3400000000000001,179.16947525536025,-6.253465403992885,97.49132211193202,1525.0,1435.0,1200.0,1173.0,1475.0,1021.7000000000002,135.0,293.35,1637163486.3128974,1637163487.34228,320259d6-c2c0-4803-9263-d8245642502c
0.2154507598772778,0.2532121700801806,0.6258681058592389,0.0162480154099589,0.455482932866281,-0.018965837349578,0.3732898914520969,0.3414864844097764,-9.545700858941968,18.153499886853428,38.35693620914339,0.0735447411559706,0.7152892492530135,-1.9342424419161504,4924.220865885417,12.039,0.3400000000000001,179.17185367901118,-6.255013532772884,97.41200995528985,1525.0,1435.0,1200.0,1173.0,1475.0,1021.7000000000002,135.0,293.35,1637163487.4495993,1637163488.5715349,320259d6-c2c0-4803-9263-d8245642502c
0.2110541647473907,0.2527327905616798,0.6187321995188967,0.0215622802233054,0.4488127093741663,-0.0228830531849039,0.3638118735887685,0.3506631780720062,-9.600626719464652,18.23780456303061,38.36427161205547,0.0529316211379741,0.712709774442235,-1.902009726857086,4919.82421875,12.034111111111113,0.3400000000000001,179.17760318047252,-6.253932892496077,97.3539116072998,1525.0,1435.0,1200.0,1173.0,1475.0,1021.7000000000002,135.0,293.35,1637163488.679538,1637163489.7208855,320259d6-c2c0-4803-9263-d8245642502c
-0.0369083296719022,0.1317510932540465,-0.1854612130886096,0.0654460541133734,-0.2740231708654181,0.097317945613176,-0.4501472493372047,-0.4744038611186177,-15.07164220480125,17.915727606370822,38.148002336485824,0.1790812781965813,0.2432040769000146,1.3193745001872823,4915.435546875,12.044,0.2988888888888888,179.19067009126468,-6.243940373172216,97.42634652235768,1525.0,1435.0,1200.0,1617.0,1475.0,1021.7000000000002,135.0,293.35,1637163490.8212802,1637163491.844241,aa9d57a7-3e3e-4192-bfa5-dfb2315262d8
-0.0345766274611726,0.1409321701721191,-0.181828885352637,0.0620268452377207,-0.2726863865036836,0.0933733368196243,-0.4468803454550814,-0.4693251764128339,-14.910468817476872,17.828899282265716,38.44505398462347,0.1776638656057623,0.2745149659689377,1.3095993588326835,4927.998969184027,12.043666666666669,0.3,179.1719159096236,-6.248011592804367,97.45855693557355,1525.0,1435.0,1200.0,1617.0,1475.0,1021.7000000000002,135.0,293.35,1637163491.9527445,1637163492.9894392,aa9d57a7-3e3e-4192-bfa5-dfb2315262d8
-0.050769247417979,0.129080264384374,-0.184899654095066,0.0682401520371865,-0.27190020396442,0.0992628569398271,-0.4465724467175263,-0.4618715069615777,-14.93066963949532,17.754593251182815,38.43516670256239,0.1762254737174675,0.2293327989484012,1.3108987849568574,4942.52001953125,12.04377777777778,0.3,179.16826858860682,-6.252395673045999,97.4812316457982,1525.0,1435.0,1200.0,1617.0,1475.0,1021.7000000000002,135.0,293.35,1637163493.101363,1637163494.2125237,aa9d57a7-3e3e-4192-bfa5-dfb2315262d8
-0.1112466786988494,0.1018542457635278,-0.3794275197332487,0.1123206078357435,-0.4484844867871868,0.0913221402376834,-0.6602837481130992,-0.6858053773442998,-16.377491724664672,18.34900684007225,37.71360176103735,0.0523578500120285,0.1261049426283136,2.11567390374472,4943.15283203125,12.040777777777777,0.3244444444444444,179.18163602772245,-6.253821095580286,97.54148605683622,1525.0,1435.0,1200.0,1706.0,1475.0,1021.7000000000002,135.0,293.35,1637163495.324864,1637163496.5689063,842a8dfc-afb9-490f-b295-a4d9ffbb6340
-0.1105273354849143,0.0985780289954943,-0.3782813915130806,0.1085491235447735,-0.4455725977681075,0.0999339883130061,-0.6539247075666078,-0.6782361099219861,-16.29175669232965,18.11925906206124,38.01881355006396,0.0788432201622667,0.1110383544433585,2.101246820253445,4935.563856336806,12.039888888888887,0.3211111111111111,179.17141958254393,-6.257458171313318,97.49885277494693,1525.0,1435.0,1200.0,1706.0,1475.0,1021.7000000000002,135.0,293.35,1637163496.6791725,1637163497.786436,842a8dfc-afb9-490f-b295-a4d9ffbb6340
-0.1060660920755167,0.0962003064394127,-0.3760351554748766,0.1096119764524642,-0.4440007803550967,0.101630717959037,-0.6525260145223482,-0.6861998382270975,-16.321722607910143,18.27154637722169,38.08028026528592,0.0813745551095607,0.1018018847906218,2.0937774907402527,4932.092881944444,12.041444444444444,0.3155555555555555,179.17310284471938,-6.269241670587667,97.43007656455444,1525.0,1435.0,1200.0,1706.0,1475.0,1021.7000000000002,135.0,293.35,1637163497.8948624,1637163499.016227,842a8dfc-afb9-490f-b295-a4d9ffbb6340
-0.1677926510645565,0.0809094685662122,-0.5397912484267765,0.1611986933752975,-0.5943309611459865,0.0759239213400838,-0.8402116806848978,-0.8713028863945457,-17.50712326094126,18.979050103115192,37.69390007968345,-0.0968811680863545,0.0395457049656525,2.785912427053625,4936.194932725694,12.038555555555556,0.3377777777777778,179.2030600544191,-6.268149551798505,97.40421595053694,1525.0,1435.0,1200.0,1795.0,1475.0,1021.7000000000002,135.0,293.35,1637163499.7330196,1637163500.858926,aa113aab-10f5-4586-977d-46e866acaf81
-0.1660394913938721,0.0816079930771926,-0.5375587086374574,0.1594592305804834,-0.5922901732166963,0.0764854802467985,-0.8376093331892216,-0.861674200555536,-17.509305195857298,18.95617087450205,37.66224456155542,-0.0917421163454375,0.0428169100412819,2.776416900918561,4928.93994140625,12.039333333333332,0.3299999999999999,179.19432955484,-6.251086458591342,97.33410254088696,1525.0,1435.0,1200.0,1795.0,1475.0,1021.7000000000002,135.0,293.35,1637163500.9674854,1637163502.0956523,aa113aab-10f5-4586-977d-46e866acaf81
-0.1601636672870834,0.0742666377244323,-0.53873661310341,0.173333843986803,-0.591742310731208,0.0709657671553079,-0.8413758886113945,-0.8637697750210848,-17.548111043313458,19.134536027568043,37.65028081306529,-0.1343410658059537,0.0138831468235312,2.7817552113325736,4928.93994140625,12.03711111111111,0.33,179.17485289096672,-6.256082647105469,97.27768821398227,1525.0,1435.0,1200.0,1795.0,1475.0,1021.7000000000002,135.0,293.35,1637163502.204492,1637163503.3198884,aa113aab-10f5-4586-977d-46e866acaf81
-0.1892140705997426,0.0721436711432412,-0.654678019188092,0.2193953686380655,-0.6999040726798494,0.036409349839953,-0.9806151812765512,-1.0091040425614886,-18.357783218032715,19.757883444056848,37.48622373051172,-0.3179720466677322,9.47708611884294e-05,3.284456972803086,4944.737955729167,12.026555555555555,0.4000000000000001,179.18852541186527,-6.265899478785676,97.17173148938788,1525.0,1435.0,1200.0,1883.0,1475.0,1021.7000000000002,135.0,293.35,1637163505.2455804,1637163506.29821,656b090f-a345-4ff7-9b1b-df706e4b0a2c
-0.1927203899302143,0.0660076129009075,-0.6568146829103325,0.2221209837008534,-0.7008354386986562,0.0386692819597635,-0.9806836637036866,-1.006830412738301,-18.25544554435453,19.734306808441072,37.30095468020271,-0.3192826999796758,-0.0224728987018388,3.287836911816529,4944.103515625,12.024,0.4,179.18322366724954,-6.282402591344635,96.98361366035743,1525.0,1435.0,1200.0,1883.0,1475.0,1021.7000000000002,135.0,293.35,1637163506.4116352,1637163507.375799,656b090f-a345-4ff7-9b1b-df706e4b0a2c
-0.2032119548379428,0.0686236556391609,-0.6559244062632591,0.2239700189698282,-0.6995205686710625,0.0370256949937828,-0.9818889617390116,-1.0023653310865406,-18.43331747588521,19.76312998441473,37.6729074791692,-0.3269418725218829,-0.0148695505644193,3.287269694720972,4943.15283203125,12.02811111111111,0.3922222222222222,179.20869420157442,-6.285352901042996,96.8122396606224,1525.0,1435.0,1200.0,1883.0,1475.0,1021.7000000000002,135.0,293.35,1637163507.4856217,1637163508.635392,656b090f-a345-4ff7-9b1b-df706e4b0a2c
-0.004518707104787,0.1391965424060436,-0.0712614912759438,0.0648669635166898,-0.1420146299640225,0.0955560203523486,-0.2917388500143155,-0.3216258414558668,-13.392007357743037,14.447178050825665,39.94006827230279,0.1602523841090581,0.2506100878242471,0.7643890353011519,7538.63330078125,11.832,7.83,-179.32395288490846,-6.364589688444969,82.15858333727752,1525.0,1435.0,1350.0,1528.0,1475.0,1021.7000000000002,135.0,293.35,1637163512.2151306,1637163513.2619305,dd1d5b2c-9d30-471b-a861-136184caa11d
0.0044355551137815,0.1489923208396331,-0.071432424316699,0.0650641939478306,-0.142132968204888,0.083761639971086,-0.2934744781731913,-0.3140784887950927,-13.347995659246196,14.206763763343066,39.64916919701616,0.1316774697406222,0.2895777431162432,0.7681605624588685,7545.26953125,11.83311111111111,7.832222222222222,-178.89762765511443,-6.30088385001009,76.05620167029343,1525.0,1435.0,1350.0,1528.0,1475.0,1021.7000000000002,135.0,293.35,1637163513.3738854,1637163514.3282545,dd1d5b2c-9d30-471b-a861-136184caa11d
0.0112860260693696,0.153002673086204,-0.0734310262332904,0.0608040164016031,-0.1443813953983199,0.0818419303635826,-0.2953547419660022,-0.3122771167974643,-13.352922210081411,14.09668985000661,39.363780662165134,0.1360963599378034,0.307579214169302,0.7767115261551772,7548.224175347223,11.831111111111111,7.833333333333333,-178.65010311741298,-6.171756230406975,70.67470245342957,1525.0,1435.0,1350.0,1528.0,1475.0,1021.7000000000002,135.0,293.35,1637163514.436404,1637163515.395216,dd1d5b2c-9d30-471b-a861-136184caa11d
0.2036580234168347,0.503640028590358,-0.0466191899165791,-0.1027339931763225,-0.2003493736542588,-0.1067744780601269,-0.3500116894637111,-0.3706934983142753,-13.146852308595369,13.48787125561008,39.88152934354367,0.0786371692066287,1.6384596090596506,0.9363317575011448,7558.5771484375,11.822111111111113,7.926666666666667,-178.73272108561343,-6.004052461281536,59.97645648976326,1610.0,1435.0,1350.0,1528.0,1542.0,1021.7000000000002,135.0,293.35,1637163517.333503,1637163518.374656,900d7ad3-7f38-4c16-84a5-43c067f7d35e
0.2020829192926339,0.5022566762945936,-0.0485093150862978,-0.1005425437171197,-0.2032941340751952,-0.1062540088126652,-0.3523811945394819,-0.3685979237071977,-13.045125875151244,13.612855309503132,40.03116451658378,0.0756728380149182,1.6308374708840798,0.9463754669132416,7560.80078125,11.825,7.899999999999999,-178.89521735724736,-5.950992848192332,56.60933411784743,1610.0,1435.0,1350.0,1528.0,1542.0,1021.7000000000002,135.0,293.35,1637163518.4832108,1637163519.6078408,900d7ad3-7f38-4c16-84a5-43c067f7d35e
0.2003160632825612,0.5031195594111592,-0.049509163897014,-0.1046104217606916,-0.2039378723634848,-0.1048569598092009,-0.3510800212277423,-0.3867595636681574,-12.96447048663284,13.45196583079561,39.8202453959553,0.0868789664455782,1.6358070482245868,0.94665626704019,7565.248046875,11.81988888888889,7.935555555555556,-179.0525272385714,-5.941157423219382,53.503433469103584,1610.0,1435.0,1350.0,1528.0,1542.0,1021.7000000000002,135.0,293.35,1637163519.7201183,1637163520.8312843,900d7ad3-7f38-4c16-84a5-43c067f7d35e
0.4177763101942369,0.9012921768987892,-0.0247594817395343,-0.3061689984659357,-0.2768035725619355,-0.3079632478594357,-0.4160154178612552,-0.4496952639347097,-12.570601721401925,12.865124186475889,39.87375383936988,0.0826877027552557,3.1523097208167115,1.1516230174755475,7555.617296006944,11.811666666666667,8.03,-179.45866242917893,-5.98886325893229,49.48617346976082,1695.0,1435.0,1350.0,1528.0,1609.0,1021.7000000000002,135.0,293.35,1637163521.8335507,1637163522.9769647,871f5339-5271-41ff-bdb8-5f05c76a28e6
0.4223098707143527,0.9062503307028488,-0.0191575891425156,-0.3050047909468886,-0.2737766327429802,-0.3180028268623412,-0.4132350159136811,-0.4501472506453952,-12.423391161010288,12.953727023050256,39.3203238691158,0.0583534391682301,3.174982221721134,1.1358016842828431,7551.91748046875,11.813555555555556,8.017777777777777,-179.6861335314772,-5.987707866029565,47.7103079689945,1695.0,1435.0,1350.0,1528.0,1609.0,1021.7000000000002,135.0,293.35,1637163523.1131847,1637163524.1104968,871f5339-5271-41ff-bdb8-5f05c76a28e6
0.4278980661528898,0.904634136923386,-0.0210477142829294,-0.3161537912126751,-0.275995475554883,-0.3065935917387462,-0.4115777319758545,-0.4371903032771906,-12.454015645627132,12.895618153373448,39.25766417284248,0.1086361967216792,3.1709444875134225,1.1386613992796863,7551.91748046875,11.81088888888889,8.052222222222222,-179.8286340448609,-6.033916941676856,46.19068650131504,1695.0,1435.0,1350.0,1528.0,1609.0,1021.7000000000002,135.0,293.35,1637163524.2236888,1637163525.3380835,871f5339-5271-41ff-bdb8-5f05c76a28e6
0.5808612186637068,1.1885774770378852,0.0091395014690532,-0.4738970878055505,-0.3291655238143165,-0.4485036620794836,-0.4529550444950606,-0.4679801737757168,-11.907473657312268,13.6145915572414,37.93127537472787,0.1519085149528748,4.265139587633644,1.260035346786757,7558.5771484375,11.800000000000002,8.149999999999999,179.81079510856864,-6.031852754159566,44.20085545896925,1779.0,1435.0,1350.0,1528.0,1677.0,1021.7000000000002,135.0,293.35,1637163526.2477162,1637163527.392886,d0b31d49-3b60-4f4b-87b0-6d7c925df96f
0.5866000761594113,1.1870571590626502,0.0095640947629983,-0.4761981102012743,-0.327521936595285,-0.4466546262515176,-0.4513114571578469,-0.478060843541357,-11.988289404491544,13.522346787908702,37.69080015113953,0.1605847145770981,4.262449448359849,1.254315875274015,7551.91748046875,11.79977777777778,8.102222222222222,179.6611745024302,-6.03195558645207,43.11036225482823,1779.0,1435.0,1350.0,1528.0,1677.0,1021.7000000000002,135.0,293.35,1637163527.505941,1637163528.613655,d0b31d49-3b60-4f4b-87b0-6d7c925df96f
0.5760537270558242,1.1787570447760556,0.0032636777203077,-0.4712262581091866,-0.330302338402193,-0.4456958668299727,-0.4559956812319888,-0.481142570795908,-12.062264839907677,13.429707796780985,37.28127690180004,0.1504935433093251,4.234459022180183,1.271808352511537,7551.91748046875,11.799,8.113333333333335,179.43993860393417,-6.039208725600062,42.09714922605129,1779.0,1435.0,1350.0,1528.0,1677.0,1021.7000000000002,135.0,293.35,1637163528.7214248,1637163529.9355228,d0b31d49-3b60-4f4b-87b0-6d7c925df96f
0.6945837336160908,1.3859448877447402,0.0716232019895247,-0.5882085978495072,-0.3301242831266653,-0.5635273913624909,-0.4459287084117146,-0.4663913722189909,-11.546355001189374,14.521318916485606,34.36405073188996,0.1600288152586677,5.05249839363533,1.1838933728048733,7551.91748046875,11.78022222222222,8.275555555555554,179.05012908326285,-6.01661265741463,40.60381336193768,1864.0,1435.0,1350.0,1528.0,1744.0,1021.7000000000002,135.0,293.35,1637163531.7771914,1637163532.8028023,b56e8113-c681-4d75-882c-6235b4eea840
0.6891462003833736,1.3695227133551582,0.0591867268477805,-0.578264893087202,-0.3378354468622682,-0.5546383221544495,-0.4566394196459405,-0.4786908853470168,-11.726315391138344,14.622323041912631,34.5524490926166,0.157562938363777,4.988498224423182,1.224796829017899,7551.91748046875,11.783555555555555,8.207777777777778,178.93645045035677,-6.053342426563194,39.968871767049166,1864.0,1435.0,1350.0,1528.0,1744.0,1021.7000000000002,135.0,293.35,1637163532.9108734,1637163534.1436794,b56e8113-c681-4d75-882c-6235b4eea840
0.69195399462143,1.372768797852716,0.0640490051109308,-0.5921806006746341,-0.3352467968936982,-0.5479680961764267,-0.4514073330834947,-0.4717467283814157,-11.870464012026444,14.683710006774342,34.17031482854475,0.2044578291558664,5.007102714788253,1.2067995919355998,7551.91748046875,11.784444444444444,8.19222222222222,178.81834281922892,-6.070684229433989,39.50756003159659,1864.0,1435.0,1350.0,1528.0,1744.0,1021.7000000000002,135.0,293.35,1637163534.2521622,1637163535.2609508,b56e8113-c681-4d75-882c-6235b4eea840
-0.2539303168860915,-0.3001288150978725,-0.0947899885938827,0.2753595040849819,-0.0610279701146363,0.3169148602917881,-0.218675370890296,-0.2358508580574566,-13.92376647280935,15.311557066438445,37.95319793740295,0.1868297714360369,-1.403146927535566,0.5272856523209367,7551.91748046875,11.82,8.02,178.89063657704395,-6.070473205047756,38.679927416573406,1440.0,1435.0,1350.0,1528.0,1408.0,1021.7000000000002,135.0,293.35,1637163537.3069675,1637163538.3320148,74febe1f-f7a5-4705-9657-3a252e3ea12f
-0.2516977776312194,-0.3022106922909593,-0.1048706562828191,0.2767702495379363,-0.0719304312284722,0.3155178114082695,-0.2307968265918521,-0.2557656569345882,-13.922713458968715,15.491698257417887,37.56186682683296,0.1811384973387373,-1.4083040264556814,0.5722699556403313,7570.446017795139,11.821000000000002,7.993333333333333,178.77467210749566,-6.056585390894743,38.44398953588898,1440.0,1435.0,1350.0,1528.0,1408.0,1021.7000000000002,135.0,293.35,1637163538.4401858,1637163539.584727,74febe1f-f7a5-4705-9657-3a252e3ea12f
-0.2457260773271203,-0.3024983200790307,-0.0981867353034478,0.2800437268662553,-0.064657558272642,0.3164765704402753,-0.2217707934634529,-0.237275300198776,-13.759485035197606,15.367682770498163,38.147364970458405,0.1755949918688989,-1.41570876486605,0.541386712231647,7590.5595703125,11.820555555555554,8.076666666666666,178.69394382496557,-6.0072415904415015,38.28059167928468,1440.0,1435.0,1350.0,1528.0,1408.0,1021.7000000000002,135.0,293.35,1637163539.6944437,1637163540.6962574,74febe1f-f7a5-4705-9657-3a252e3ea12f
-0.4336154997700986,-0.6483502062091401,-0.1229364181698464,0.4443613282120307,-0.0109396538152255,0.4972711294186504,-0.1777363532986079,-0.2016916376669937,-14.570154457711531,16.713680143702103,37.24792700933573,0.2183432196653985,-2.720931383655987,0.3964665835812182,7598.7822265625,11.806333333333336,8.062222222222223,178.67715977344514,-5.994004067215717,37.89747460563509,1355.0,1435.0,1350.0,1528.0,1341.0,1021.7000000000002,135.0,293.35,1637163542.7220037,1637163543.7678993,bd6587f4-a03c-4eaa-8fb2-a707415bfbc4
-0.4334785339937057,-0.6350234500391361,-0.1240732325952855,0.4297334048629311,-0.0162950083529164,0.4932717346633518,-0.1790923127051681,-0.1948844469676494,-14.39318660657504,16.59448335341676,36.61207538134769,0.2414940038462116,-2.664838022440967,0.4080011162010268,7598.7822265625,11.803111111111113,8.188888888888888,178.64417906667282,-6.005257942238176,37.784210337538674,1355.0,1435.0,1350.0,1528.0,1341.0,1021.7000000000002,135.0,293.35,1637163543.8769386,1637163545.0029218,bd6587f4-a03c-4eaa-8fb2-a707415bfbc4
-0.42832862684805,-0.6306542463315362,-0.1224022523295012,0.42511766498574,-0.0165141532685327,0.48845054645804,-0.1792429748370605,-0.1960897441457917,-14.393222953835838,16.63697928597168,35.93681868671639,0.2413293847280493,-2.6417908634631924,0.4057547265263561,7598.7822265625,11.799333333333331,8.305555555555555,178.6052500240434,-5.995291036123702,37.59496514784028,1355.0,1435.0,1350.0,1528.0,1341.0,1021.7000000000002,135.0,293.35,1637163545.1118124,1637163546.3197775,bd6587f4-a03c-4eaa-8fb2-a707415bfbc4
-0.6458026457457012,-1.0252385967749171,-0.1550685469224077,0.6126235349824948,0.0385323164536717,0.6983091971843386,-0.1333731965131031,-0.162450993326245,-15.17373698863696,18.310038813112893,35.38886059905752,0.2989266019659278,-4.136469738591058,0.2618923977745235,7545.26953125,11.797000000000002,8.2,178.6959306511041,-5.97586953551438,37.487353240737,1271.0,1435.0,1350.0,1528.0,1273.0,1021.7000000000002,135.0,293.35,1637163547.2292078,1637163548.274703,00296e22-fad5-446e-a6fd-477e3500ccb8
-0.6614578177552324,-1.0383599085674726,-0.159876039363781,0.6135549008732423,0.0357656115992081,0.7132932308323676,-0.1343730453634676,-0.1560957895685794,-15.21867409442813,18.41884774344317,35.789542555258095,0.3310199703544291,-4.189333410918098,0.2725469929096569,7540.845377604167,11.799,8.193333333333335,178.72158484162674,-5.990228869879469,37.429705305777226,1271.0,1435.0,1350.0,1528.0,1273.0,1021.7000000000002,135.0,293.35,1637163548.3831522,1637163549.5959978,00296e22-fad5-446e-a6fd-477e3500ccb8
-0.6777841216098435,-1.057548800069121,-0.1603143292781056,0.6433038232442353,0.0442300848478474,0.7119646647761924,-0.1332088378042359,-0.1586433494132273,-15.340506743502829,18.321607871626185,36.82612288594391,0.2603656953672427,-4.2733204680322325,0.2593136254283332,7553.398654513889,11.797777777777776,8.18888888888889,178.74078222665386,-5.9781071339455965,37.421228282107336,1271.0,1435.0,1350.0,1528.0,1273.0,1021.7000000000002,135.0,293.35,1637163549.7046192,1637163550.9399474,00296e22-fad5-446e-a6fd-477e3500ccb8
-0.8423801210574934,-1.3647519072602126,-0.1798565807687593,0.7672571186704983,0.0855761600149127,0.8773248450046425,-0.0942980082276302,-0.1121539388616093,-15.944170913748907,20.100501892604445,33.82734612700581,0.3623813720491295,-5.411138237988819,0.1327697540089835,7598.7822265625,11.7795,8.309999999999999,178.832438811856,-5.911080282038343,37.45512840823288,1186.0,1435.0,1350.0,1528.0,1206.0,1021.7000000000002,135.0,293.35,1637163552.87242,1637163553.919835,610f996e-7322-4649-93d9-52807bee2f96
-0.8373354022092522,-1.3624344472164875,-0.181023527646995,0.7667508939051494,0.0830187386242654,0.8773642910810721,-0.0966664172467931,-0.1315652512439127,-15.925427213721322,20.195556611837706,34.07448064751145,0.3642327845221279,-5.404779403181959,0.1418144726738643,7598.7822265625,11.776444444444444,8.335555555555556,178.88846913034735,-5.881294704557497,37.44469491482073,1186.0,1435.0,1350.0,1528.0,1206.0,1021.7000000000002,135.0,293.35,1637163554.0284538,1637163555.124818,610f996e-7322-4649-93d9-52807bee2f96
-0.8260099862412238,-1.366500685580958,-0.1819735210301075,0.7727401244781863,0.0860232156932995,0.8764964771901461,-0.0948634021760699,-0.1281822008594541,-15.923430204449168,19.923762336495308,34.175230635106054,0.3469404589905469,-5.42173958468427,0.1362656463739119,7598.7822265625,11.78022222222222,8.295555555555556,178.90936950920758,-5.848585450372869,37.40935020368573,1186.0,1435.0,1350.0,1528.0,1206.0,1021.7000000000002,135.0,293.35,1637163555.2338765,1637163556.4638653,610f996e-7322-4649-93d9-52807bee2f96
-0.0078716247245628,0.1361065988706275,-0.0846134450506293,0.0797178680243363,-0.150110392356574,0.0817038690603809,-0.3088946139174912,-0.3298092633929069,-13.663295847865845,14.319499885217084,39.37040237181409,0.0938861486116356,0.2433128964192434,0.8168576414843521,7598.7822265625,11.823,8.043333333333333,178.59225293296282,-5.877436975768778,37.45676651526882,1525.0,1435.0,1350.0,1528.0,1475.0,1021.7000000000002,135.0,293.35,1637163557.2657182,1637163558.5204513,fa7ced9a-9045-4b94-ad5c-5f7330b15305
-0.0076935694857211,0.139845759264575,-0.0860241906472202,0.0723765126090434,-0.1511650274618198,0.0825393591214573,-0.3091274554455849,-0.3334525491978001,-13.736364998129403,14.143174128608656,39.04536329853079,0.1109961807965069,0.26154645374397,0.8204995093842374,7598.7822265625,11.821000000000002,7.96,178.6395679300732,-5.909758000103711,37.61993062762153,1525.0,1435.0,1350.0,1528.0,1475.0,1021.7000000000002,135.0,293.35,1637163558.6352568,1637163559.7445328,fa7ced9a-9045-4b94-ad5c-5f7330b15305
-0.0013109729864736,0.1432288091533442,-0.0825863542663599,0.0694043594120907,-0.1481243911808208,0.0818408346151808,-0.3040597280006307,-0.3197559875062254,-13.615684171511624,13.994044169802896,39.06210601585312,0.1153769497185736,0.273813755221621,0.8050090434496301,7598.7822265625,11.821,8.08,178.62334850752416,-5.90985860309836,37.73847539085627,1525.0,1435.0,1350.0,1528.0,1475.0,1021.7000000000002,135.0,293.35,1637163559.853875,1637163560.85908,fa7ced9a-9045-4b94-ad5c-5f7330b15305
0.0247261852585299,0.1433520781721171,-0.1076921475071703,-0.4050444722725108,-0.2205928893041444,0.5407029127035714,-0.2002124080114919,-0.2152923210611066,-13.629289420409512,12.945408056044435,42.51630548185579,2.2090837655565254,0.3005633495400319,0.791226873775123,7598.7822265625,11.821000000000002,8.06777777777778,178.64234402251583,-5.816405678144522,37.89482487169208,1525.0,1535.0,1350.0,1528.0,1475.0,1021.7000000000002,135.0,293.35,1637163562.7534895,1637163563.7880087,ce9c1ec6-d495-409f-99a1-e6cc83b15610
0.0226717013630106,0.1502962331860147,-0.1087193894842496,-0.4008122348274383,-0.2225104077708452,0.5306359430766437,-0.2030886856575058,-0.2309337930062944,-13.467076800325977,12.863720948520838,42.5915197933968,2.176416029669221,0.3242058432195365,0.8004644540193645,7598.7822265625,11.817,8.08,178.65836309284927,-5.794114976333232,37.97077278071308,1525.0,1535.0,1350.0,1528.0,1475.0,1021.7000000000002,135.0,293.35,1637163563.8992035,1637163564.9562168,ce9c1ec6-d495-409f-99a1-e6cc83b15610
0.0158617723855066,0.1500442165107173,-0.1071837312274162,-0.414350464169628,-0.2221164946737641,0.5451756604487236,-0.1969235900438722,-0.2264687139420108,-13.437910354296832,12.79397910946754,42.881290936548936,2.2393026557834776,0.3222489757690036,0.7893653946449308,7598.7822265625,11.819,8.118888888888888,178.69878718799703,-5.808409423901207,38.0714767103808,1525.0,1535.0,1350.0,1528.0,1475.0,1021.7000000000002,135.0,293.35,1637163565.0645835,1637163566.2999723,ce9c1ec6-d495-409f-99a1-e6cc83b15610
0.0388336406670157,0.1393115935044013,-0.1381395992168219,-0.8676595983198093,-0.3014984712034774,0.993483705824383,-0.1085824238705414,-0.1432210233713133,-13.613954500408076,12.492703472715885,46.00017296093316,4.266135001625321,0.3094430492336512,0.8130299144870481,7598.7822265625,11.811555555555556,8.103333333333332,178.6862575854196,-5.641646892788891,38.1896655448688,1525.0,1636.0,1350.0,1528.0,1475.0,1021.7000000000002,135.0,293.35,1637163567.3004024,1637163568.4439528,634be137-d470-47d0-8098-46f8acd4afe9
0.0300267534620888,0.1275736430705505,-0.1344552246983569,-0.8679335293757237,-0.2992659317951704,1.0032904410994556,-0.1032681588204181,-0.1172386500544769,-13.500962228985497,12.820428329138664,45.75368737251366,4.291163537679213,0.267076316996892,0.7955746985592471,7598.7822265625,11.816444444444445,8.068888888888889,178.73205779835408,-5.633157821424212,38.23945800337314,1525.0,1636.0,1350.0,1528.0,1475.0,1021.7000000000002,135.0,293.35,1637163568.557703,1637163569.6668284,634be137-d470-47d0-8098-46f8acd4afe9
