raw_voltage_G-,raw_voltage_G0,raw_voltage_G1,raw_voltage_G2,raw_voltage_G3,raw_voltage_G4,raw_voltage_G5,raw_voltage_G6,load_x,load_y,load_z,load_l,load_m,load_n,rpm,voltage,current,roll,pitch,yaw,aileron1_pwm,elevator_pwm,throttle_pwm,rudder_pwm,aileron2_pwm,pbaro,pdiff,Tt,sample_start_time,sample_end_time,uid
0.0214253145529913,0.1517480682844058,0.0143989800123136,0.0115774888850853,-0.1108149630837082,0.0699248287013995,-0.2573544568100249,-0.2809673278906726,-13.797067306371249,19.430649748502432,31.478324137721383,0.2586122806682382,0.3876250891060122,0.5429616273574341,4968.94287109375,12.041,0.32,179.33642177469332,-3.863967360183621,98.02639457805138,1525.0,1435.0,1200.0,1528.0,1475.0,1021.7000000000002,135.0,293.35,1637161747.3648872,1637161748.4629707,83b64b9e-da39-4f47-a968-2d2eef1af99b
-0.0044792609525678,0.1405640067038383,0.0157171368344158,0.0125614497045258,-0.1075387460773976,0.0780682545309528,-0.2514906854209069,-0.2698199705320616,-13.68607872836912,19.39016249474681,31.234647119089864,0.2745063371083005,0.347013942562564,0.5267596510687623,4964.466471354167,12.042333333333334,0.32,179.37767308164055,-3.859990624834988,97.40319445780106,1525.0,1435.0,1200.0,1528.0,1475.0,1021.7000000000002,135.0,293.35,1637161748.5752752,1637161749.685262,83b64b9e-da39-4f47-a968-2d2eef1af99b
0.0079988519122851,0.1478089381484957,0.0171634934401379,0.0113649183157094,-0.107854314800681,0.0729797091116275,-0.2518982950602321,-0.278208840030029,-13.637157904940675,19.385680207771312,31.367496504646816,0.2658588855163726,0.372902083951145,0.5268878427100934,4955.855197482639,12.042333333333334,0.32,179.40615041702006,-3.8461574521953352,96.68629628469674,1525.0,1435.0,1200.0,1528.0,1475.0,1021.7000000000002,135.0,293.35,1637161749.7928555,1637161751.0306883,83b64b9e-da39-4f47-a968-2d2eef1af99b
0.2086846602266395,0.4887381741696519,0.044531409171972,-0.1523840212404781,-0.1616291990022364,-0.1083221893259629,-0.3021285129616162,-0.3242895495268126,-13.355913407227344,18.74706877546848,31.564540367685,0.2251290892209005,1.6697421768924423,0.674896223641627,4957.447265625,12.035333333333334,0.3533333333333333,179.30363534885743,-3.835181101039778,95.64279743823003,1610.0,1435.0,1200.0,1528.0,1542.0,1021.7000000000002,135.0,293.35,1637161752.7678869,1637161753.9916332,59b09634-b46f-431e-ad1c-ad5dce829752
0.1938101982094094,0.4854373038359794,0.0389706063386085,-0.1480011221749664,-0.1650533389621013,-0.1097877211413019,-0.3082508755505329,-0.3209338914583608,-13.474101241274957,18.72225982907095,31.42619938804126,0.2114261996189202,1.6585319485990908,0.69522838896822,4951.71923828125,12.035222222222224,0.35,179.31618468309244,-3.810818527748381,95.23949601721822,1610.0,1435.0,1200.0,1528.0,1542.0,1021.7000000000002,135.0,293.35,1637161754.1049058,1637161755.2219,59b09634-b46f-431e-ad1c-ad5dce829752
0.2035758441061001,0.4904365472744558,0.0449012162292771,-0.1498227646132715,-0.1619031302205394,-0.1143897651419038,-0.3029229134734124,-0.3197148977604666,-13.25412876044057,18.753334613143604,31.271756482856443,0.2057813840389766,1.6776948426619025,0.6757799208389997,4951.71923828125,12.035555555555554,0.3522222222222222,179.30380686249657,-3.8073534874050696,94.94164209225268,1610.0,1435.0,1200.0,1528.0,1542.0,1021.7000000000002,135.0,293.35,1637161755.3586917,1637161756.328399,59b09634-b46f-431e-ad1c-ad5dce829752
0.4416631063660348,0.9126603196559312,0.0790193435944548,-0.3459301143209252,-0.229769584565651,-0.3406432418320148,-0.3672008735003593,-0.3865404190693479,-12.819666241985392,18.17721581430969,32.13615068869765,0.1379659270680165,3.2768527250271604,0.8643569052785742,4973.107259114583,12.029000000000002,0.38,179.1417416516903,-3.790072587054375,94.27037641299316,1695.0,1435.0,1200.0,1528.0,1609.0,1021.7000000000002,135.0,293.35,1637161758.2652686,1637161759.514866,04d8eadd-f005-429c-8a52-1ab858195ba0
0.438855312077037,0.9119891883338118,0.0772935772397593,-0.3465053698684572,-0.2339744285098967,-0.3392187995153519,-0.369063605814631,-0.3970182883332533,-12.616817792104529,18.347116922556264,32.15290664496538,0.1436096177957657,3.272715658742714,0.8750981063416772,4974.71044921875,12.03,0.3833333333333333,179.1321976006901,-3.782819163315168,94.04882708470528,1695.0,1435.0,1200.0,1528.0,1609.0,1021.7000000000002,135.0,293.35,1637161759.623702,1637161760.6383133,04d8eadd-f005-429c-8a52-1ab858195ba0
0.4276920699300477,0.9037668709508492,0.0737160361478244,-0.339928829213341,-0.2328326832691253,-0.3365627624248593,-0.3698026722454495,-0.3856600050413332,-12.71013918393628,18.14974520279912,32.23230407291153,0.1332221654803887,3.240793920656744,0.8786623521494487,4974.71044921875,12.029,0.38,179.12549490838458,-3.756909694472371,93.8616480272308,1695.0,1435.0,1200.0,1528.0,1609.0,1021.7000000000002,135.0,293.35,1637161760.7655132,1637161761.7712383,04d8eadd-f005-429c-8a52-1ab858195ba0
0.6152532739683724,1.2517870940756664,0.1098366000014924,-0.527724576778815,-0.2934585901393973,-0.5101655839524115,-0.4204257106994311,-0.4462300342777228,-12.375992744625298,18.709454748322862,31.38180769439488,0.1722762138695806,4.576675293035205,1.0233454283380994,4970.223687065973,12.015777777777778,0.441111111111111,178.97876423117492,-3.759641580412899,93.51909354978716,1779.0,1435.0,1200.0,1528.0,1677.0,1021.7000000000002,135.0,293.35,1637161762.7709627,1637161764.0269177,6aabeb11-07fc-4999-be9f-8ff92762b760
0.6374280001762569,1.2527047634954402,0.1100420483981465,-0.5274643420579822,-0.2947186736909944,-0.5159592297871519,-0.4215351321355199,-0.4526263274809355,-12.253123945827452,18.776387313221733,30.715543122438564,0.1590796689427651,4.585134681237222,1.0255933058069209,4971.82470703125,12.016666666666667,0.4222222222222222,178.97052550521607,-3.743389809329023,93.29037404069057,1779.0,1435.0,1200.0,1528.0,1677.0,1021.7000000000002,135.0,293.35,1637161764.161702,1637161765.1454055,6aabeb11-07fc-4999-be9f-8ff92762b760
0.6207045037587297,1.2468700296152797,0.1038238108707911,-0.5206571507380006,-0.2972388408788717,-0.5131514345951017,-0.4275342261463923,-0.4640766533895235,-12.472569963418408,18.73232942889272,31.14747079312065,0.1493905002753489,4.559742841369907,1.0458709353652027,4962.550130208333,12.018333333333333,0.43,178.95882311443813,-3.7448904113760486,93.07691089747009,1779.0,1435.0,1200.0,1528.0,1677.0,1021.7000000000002,135.0,293.35,1637161765.2529805,1637161766.367274,6aabeb11-07fc-4999-be9f-8ff92762b760
0.7152518385264277,1.4187344506987511,0.1604453827471192,-0.6458574318920036,-0.304128210853054,-0.5952623274797236,-0.4158236660652361,-0.4304105048912578,-11.838134419146266,19.89279405580607,27.27250105982465,0.2575114229698359,5.2532163141306745,0.9755996703708562,4966.06396484375,12.00177777777778,0.5,178.8778990331518,-3.719051283995329,92.6388772056188,1864.0,1435.0,1200.0,1528.0,1744.0,1021.7000000000002,135.0,293.35,1637161768.2986042,1637161769.3455985,9b239abc-4053-4390-b886-587606faa30e
0.7106224021651996,1.4089277141531813,0.1571719053942079,-0.6317362749959217,-0.3042514798674416,-0.5997137104331177,-0.4197956688221933,-0.4324923821479613,-11.842145264526252,19.951084399023305,27.093780504866984,0.2158476092234549,5.21610232408067,0.9845433643747104,4957.44873046875,11.999,0.51,178.89095987266467,-3.721274249694887,92.32733482264666,1864.0,1435.0,1200.0,1528.0,1744.0,1021.7000000000002,135.0,293.35,1637161769.4574728,1637161770.575262,9b239abc-4053-4390-b886-587606faa30e
0.7345037194274682,1.4115037630390586,0.1589721809823104,-0.6371420346952162,-0.3029546895103787,-0.5988793156192571,-0.4161386869511658,-0.4443294980275163,-11.751029757425918,19.817313338835657,26.88583423962312,0.2291322498168654,5.2277396268960095,0.9752059877451452,4957.447265625,12.00111111111111,0.4911111111111111,178.89289964638897,-3.724587721500056,92.069138493822,1864.0,1435.0,1200.0,1528.0,1744.0,1021.7000000000002,135.0,293.35,1637161770.6832693,1637161771.8093898,9b239abc-4053-4390-b886-587606faa30e
-0.2190002534179156,-0.3043221542192794,-0.0156819503595429,0.2417169230462156,-0.0352603596017354,0.2959815893463508,-0.1909672300651249,-0.2149636035603383,-14.111476658723056,20.69562967910153,30.341354403261903,0.2540021965185071,-1.3408338950731076,0.3310265790386928,4950.130967881944,12.037,0.3344444444444445,179.32660451612622,-3.70452238069772,91.59643476174377,1440.0,1435.0,1200.0,1528.0,1408.0,1021.7000000000002,135.0,293.35,1637161773.9424274,1637161775.1703055,6b2d89ef-e30c-4efb-bb91-29819a6050a8
-0.2313857788703659,-0.2957596124428357,-0.0128160823777229,0.2396799709359274,-0.0338266038051543,0.2894806551754178,-0.1910631059707503,-0.2164565293933296,-14.195787735294402,20.687509671885444,30.354429344125908,0.244037111078217,-1.3078059717849768,0.3262847862904171,4968.94287109375,12.04,0.33,179.28428314620908,-3.70878546224093,91.69998877757016,1440.0,1435.0,1200.0,1528.0,1408.0,1021.7000000000002,135.0,293.35,1637161775.2784722,1637161776.310501,6b2d89ef-e30c-4efb-bb91-29819a6050a8
-0.2383436313803073,-0.2997864011841742,-0.0150075317851466,0.2393101638890397,-0.034264893686327,0.2922610564193285,-0.190419367653194,-0.2055677636137851,-14.144664763620597,20.545421142773936,30.13599462365894,0.2500591106809137,-1.3214305370140274,0.3282478935446121,4975.994520399306,12.039666666666667,0.3344444444444445,179.27183398808182,-3.699332290702156,91.76100361633578,1440.0,1435.0,1200.0,1528.0,1408.0,1021.7000000000002,135.0,293.35,1637161776.4181087,1637161777.5387497,6b2d89ef-e30c-4efb-bb91-29819a6050a8
-0.4333141752664853,-0.6551573984646895,-0.0367028811911767,0.4126948874119795,0.0233017432149572,0.474740292539049,-0.1395640414209576,-0.1641493674412315,-14.557334712647853,21.88663538326738,29.37293058492003,0.2764822858216313,-2.6673040407322848,0.1636110960620125,4979.849012586806,12.022333333333332,0.4022222222222222,179.3457093141447,-3.676591413019945,91.8081744205637,1355.0,1435.0,1200.0,1528.0,1341.0,1021.7000000000002,135.0,293.35,1637161778.3340294,1637161779.3813944,0981592c-4c10-4585-a94a-4cd4cc0fe2c3
-0.4297804624681033,-0.6612112795657947,-0.0372096538663567,0.4183241725283851,0.0244659506939234,0.475740141222811,-0.1389613927999257,-0.1589035843773389,-14.52158663178082,21.88589882893488,29.40888786550074,0.2660244011443574,-2.6913067048529573,0.1612510013220312,4975.673502604167,12.02533333333333,0.4099999999999999,179.3540876795266,-3.657603724286656,91.65977262373713,1355.0,1435.0,1200.0,1528.0,1341.0,1021.7000000000002,135.0,293.35,1637161779.4893253,1637161780.5354388,0981592c-4c10-4585-a94a-4cd4cc0fe2c3
-0.4342181483944072,-0.6560613716332058,-0.0400311450415972,0.4145987088815294,0.0197406379168186,0.4745211476160324,-0.1454398654852422,-0.1667654097815106,-14.708220951058914,22.057414584081684,29.42836246303804,0.2725945576313128,-2.670560344408822,0.1811740461839759,4980.49169921875,12.025444444444446,0.4,179.36083742424637,-3.652295244345478,91.5523223644442,1355.0,1435.0,1200.0,1528.0,1341.0,1021.7000000000002,135.0,293.35,1637161780.6702712,1637161781.6079094,0981592c-4c10-4585-a94a-4cd4cc0fe2c3
-0.6611564934252577,-1.0754365181490932,-0.0607951285865761,0.6102951202531746,0.0915379980313562,0.7031714750116289,-0.07791582758302,-0.0981045568498646,-15.272693437647645,23.668574161761068,29.29939714068716,0.3543011798689508,-4.263717326445808,-0.034719245833997,4972.465983072917,12.017777777777775,0.4277777777777778,179.48324807455134,-3.652590697458951,91.31529582749708,1271.0,1435.0,1200.0,1528.0,1273.0,1021.7000000000002,135.0,293.35,1637161783.266139,1637161784.4104383,afe04108-c923-4010-aa1e-0761ba85b2ed
-0.6649778346211481,-1.0777786313878888,-0.0597131004207025,0.6154724188923298,0.093537695558509,0.6998706047159322,-0.0778199516378191,-0.0997481441623894,-15.30322093097425,23.69960222548568,29.186045624691207,0.3354310972027692,-4.271849292610137,-0.0394862928985955,4974.71044921875,12.018777777777778,0.4288888888888889,179.51540460516375,-3.6637937255175874,91.13538257347965,1271.0,1435.0,1200.0,1528.0,1273.0,1021.7000000000002,135.0,293.35,1637161784.5192506,1637161785.7371511,afe04108-c923-4010-aa1e-0761ba85b2ed
-0.657951497612899,-1.0751351936191602,-0.0557684914015158,0.6167051090503515,0.0969892282736592,0.6958986031053672,-0.0735055354986167,-0.0967622939405899,-15.157181353856055,23.61762632677059,29.182970342510533,0.3234508416906567,-4.262844263480986,-0.0552450502446751,4972.465983072917,12.017,0.4277777777777778,179.5124706594603,-3.6568534944109454,90.9907275148678,1271.0,1435.0,1200.0,1528.0,1273.0,1021.7000000000002,135.0,293.35,1637161785.8528454,1637161786.847023,afe04108-c923-4010-aa1e-0761ba85b2ed
-0.8041568424692089,-1.331748648082941,-0.0795057242075374,0.7304539213684865,0.1275467977865926,0.8425333977607213,-0.0478042162154169,-0.0776780556184667,-15.855451333637882,25.02562811372229,29.16920558853079,0.4041675250418726,-5.235722406133204,-0.1322408010534086,4971.82470703125,11.998,0.52,179.57768378783575,-3.656781777424661,90.76384229101828,1186.0,1435.0,1200.0,1528.0,1206.0,1021.7000000000002,135.0,293.35,1637161787.8692217,1637161788.8950984,b6bbd689-6f96-4451-b79b-b1550351976a
-0.8078253304360552,-1.321348019473987,-0.0763763343265529,0.7301252039917491,0.1283094221626359,0.8324351999354078,-0.0481592310191347,-0.0729313761091014,-15.808654564154422,25.02800447898884,29.14975422872825,0.3824090636393322,-5.19663364536159,-0.135779849183979,4967.984212239583,11.997333333333334,0.51,179.5982168543006,-3.6590551394852833,90.4248038431774,1186.0,1435.0,1200.0,1528.0,1206.0,1021.7000000000002,135.0,293.35,1637161789.0041647,1637161790.1250055,b6bbd689-6f96-4451-b79b-b1550351976a
-0.8035048860811932,-1.3332059631644375,-0.0776555929556357,0.7366732541104435,0.129956844184189,0.839000233837193,-0.0472081419713317,-0.059644618056833,-15.858089275840378,25.07627699742403,29.286841111760868,0.3826440486927989,-5.242859739248161,-0.138872507711043,4966.06396484375,11.99577777777778,0.5111111111111111,179.5752112593562,-3.660524910817305,90.16695054163108,1186.0,1435.0,1200.0,1528.0,1206.0,1021.7000000000002,135.0,293.35,1637161790.2334726,1637161791.2615817,b6bbd689-6f96-4451-b79b-b1550351976a
-0.0033380637372609,0.1292309265628387,0.0090299289845372,0.0404635311903927,-0.1064457606293112,0.068240152045191,-0.2619565010810837,-0.2873636218593523,-14.054026535821036,19.384849251090863,31.847054260553296,0.1890252240148627,0.2978251297894442,0.5487694136727145,4971.82470703125,12.044000000000002,0.3,179.21767514142306,-3.65802947274492,89.74400018419692,1525.0,1435.0,1200.0,1528.0,1475.0,1021.7000000000002,135.0,293.35,1637161792.7982628,1637161793.8111827,a6beac62-abde-49b6-933e-351cbcd39585
-0.0059951961530175,0.1235468548794396,0.0045785473787861,0.0369161225358475,-0.1101575282099004,0.0780057982475582,-0.2637644470472939,-0.290445347794928,-14.084077261967062,19.406722016308542,31.95494428516917,0.2188974394080862,0.2759178092004806,0.561870128168097,5003.113172743056,12.043666666666669,0.31,179.17274463924295,-3.652893265352809,90.16398548062138,1525.0,1435.0,1200.0,1528.0,1475.0,1021.7000000000002,135.0,293.35,1637161793.919159,1637161795.0405903,a6beac62-abde-49b6-933e-351cbcd39585
-0.0034476362362217,0.1235331583194771,0.0064686724965159,0.035916273715583,-0.1087056929238035,0.0765402664715478,-0.2617784457976228,-0.2874594978959178,-14.036663623876176,19.404843191215,31.62870435799108,0.2179131307408119,0.2786652077225653,0.5540519567082205,5024.2822265625,12.041000000000002,0.3,179.14474238146568,-3.6501649368024736,90.5018643141232,1525.0,1435.0,1200.0,1528.0,1475.0,1021.7000000000002,135.0,293.35,1637161795.1532433,1637161796.268532,a6beac62-abde-49b6-933e-351cbcd39585
0.0146866076606398,0.120917115647921,-0.0176646642083158,-0.3223309400064334,-0.16749132656327,0.4251450581358789,-0.1883374905718622,-0.2041296247337428,-14.140106099928763,18.61518661966912,34.12336436324035,1.8033017722319344,0.2900400718922284,0.5627647987952192,5020.364908854167,12.038,0.32,179.10627475606017,-3.5592164856921107,91.05764819053576,1525.0,1535.0,1200.0,1528.0,1475.0,1021.7000000000002,135.0,293.35,1637161798.4071,1637161799.4520538,740b33e2-e53d-4e81-bca4-afaaad5af916
0.0073041624278777,0.1138222984417489,-0.0224447632862872,-0.3176878059382744,-0.1718742256822741,0.4264051414198374,-0.1898304155845225,-0.2160730255124945,-13.78159608842008,18.58511254431628,33.8964993381183,1.795366494248385,0.2620282350069343,0.5765011965117717,4971.82470703125,12.041,0.31,179.10044177450897,-3.543241100110274,91.20502545898684,1525.0,1535.0,1200.0,1528.0,1475.0,1021.7000000000002,135.0,293.35,1637161799.5608914,1637161800.7789652,740b33e2-e53d-4e81-bca4-afaaad5af916
0.0110707161484622,0.1346684601297404,-0.0104054880173514,-0.3241662791927573,-0.1640260969579746,0.4119826664044921,-0.1839135017303597,-0.2027188792337776,-13.89893164276719,18.55715187932653,33.971879298121195,1.777938188772526,0.3419367876049482,0.5434778000866293,4949.179524739583,12.041444444444444,0.3188888888888889,179.0825633749015,-3.5417593996631385,91.33623870531213,1525.0,1535.0,1200.0,1528.0,1475.0,1021.7000000000002,135.0,293.35,1637161800.8872926,1637161802.00309,740b33e2-e53d-4e81-bca4-afaaad5af916
0.0445314090319429,0.1405853733331278,-0.0283068905435815,-0.7237634866822402,-0.2270850588084128,0.7922401870387764,-0.0961733410920311,-0.1223885568152805,-13.590573140192149,17.94138539740476,36.816412871259935,3.529456302858017,0.3847889673449218,0.5305372440305041,4937.45751953125,12.034,0.3400000000000001,179.08081181083435,-3.461917239314106,91.55133654047398,1525.0,1636.0,1200.0,1528.0,1475.0,1021.7000000000002,135.0,293.35,1637161803.764886,1637161804.7098415,996db5ec-6563-482e-b808-26c5e13c6676
0.0290132080878984,0.1287241538788788,-0.0361687153692704,-0.717983536605345,-0.2318514616995997,0.7978968652133623,-0.103802324646189,-0.1345100115861078,-13.800517622889837,18.07096944893158,36.66504019794962,3.5294672142908285,0.3419218947732873,0.556809806402922,4937.45751953125,12.036333333333332,0.3400000000000001,179.1078365926504,-3.4590608684327666,91.53448874052128,1525.0,1636.0,1200.0,1528.0,1475.0,1021.7000000000002,135.0,293.35,1637161804.8187397,1637161805.8736784,996db5ec-6563-482e-b808-26c5e13c6676
0.0284653457059688,0.1223826473858015,-0.0412638353405884,-0.7122446762891667,-0.2343990219089081,0.8033480950246444,-0.1078017199753902,-0.1203203767024769,-13.89887420983979,18.079439933787967,37.27295327086584,3.528621236259925,0.3124161790137457,0.5729873158091289,4938.407552083333,12.036666666666669,0.3400000000000001,179.09949465494407,-3.448127656562281,91.5658711830278,1525.0,1636.0,1200.0,1528.0,1475.0,1021.7000000000002,135.0,293.35,1637161805.9832213,1637161807.122342,996db5ec-6563-482e-b808-26c5e13c6676
0.0550974822323386,0.1107427643024517,-0.0529848027204814,-1.025462672782926,-0.2870579134598052,1.1139356181540023,-0.0392444146560377,-0.0516304871050501,-13.553412540941173,18.489318522880968,39.013374808290656,4.935680770929713,0.2887168794317283,0.56144993074865,4944.104654947917,12.021777777777778,0.4011111111111111,179.10787453814575,-3.3542103498926856,91.5680978246972,1525.0,1737.0,1200.0,1528.0,1475.0,1021.7000000000002,135.0,293.35,1637161807.7647,1637161808.9674149,a68021c9-5990-4179-83c0-27e64b7f11e7
0.0408881244580979,0.1293541955401091,-0.0454138927563186,-1.038674929717715,-0.2833231353931982,1.1106029717529875,-0.0349771147356703,-0.05055010288298,-13.732803536151897,18.431533148603865,39.44941947525293,4.957968605834751,0.3580317816530347,0.5426167236110145,4954.58154296875,12.021,0.3922222222222222,179.12134215336923,-3.365624924088116,91.35264557860842,1525.0,1737.0,1200.0,1528.0,1475.0,1021.7000000000002,135.0,293.35,1637161809.0767086,1637161810.309518,a68021c9-5990-4179-83c0-27e64b7f11e7
0.0542033708944937,0.1206174349434348,-0.0512623234410973,-1.0274875732715831,-0.2854011775018847,1.109728035577337,-0.0392312659845374,-0.0740753127428798,-13.690376427737728,18.341169555114178,39.5344893123533,4.9299112455682765,0.3224596621869953,0.5587038353697854,4961.911783854167,12.021,0.3988888888888888,179.1274695919646,-3.3575335689469816,91.22543482313674,1525.0,1737.0,1200.0,1528.0,1475.0,1021.7000000000002,135.0,293.35,1637161810.418367,1637161811.536453,a68021c9-5990-4179-83c0-27e64b7f11e7
0.048845825026562,0.1165890032287848,-0.0464685278583879,-1.1157592162850205,-0.2992248422159386,1.1991512202689034,-0.0207463900157325,-0.0386614901289743,-13.793656625484717,19.3618312884113,40.20788961754764,5.337036425755638,0.3133025953758591,0.5438764028855677,4967.664116753473,12.008555555555557,0.4544444444444444,179.13791522793528,-3.349216153517068,91.0391755644705,1525.0,1837.0,1200.0,1528.0,1475.0,1021.7000000000002,135.0,293.35,1637161812.3338706,1637161813.3797386,2f69d96f-dc84-4774-9fee-e7d98f36c4ca
0.0519286464112744,0.1225108471502569,-0.0415980315190035,-1.126812896905082,-0.2971955598644624,1.202137070496295,-0.0148930287156711,-0.0505522943877589,-13.716384603266071,19.34130222379525,40.05144256499214,5.368800811960058,0.3380221444485564,0.526600917964417,4961.2734375,12.007333333333332,0.4600000000000001,179.15568434451603,-3.3563134789746183,90.79823988258838,1525.0,1837.0,1200.0,1528.0,1475.0,1021.7000000000002,135.0,293.35,1637161813.4878628,1637161814.6093817,2f69d96f-dc84-4774-9fee-e7d98f36c4ca
0.0406415863247148,0.1165068238671876,-0.0504816196502446,-1.1139375735350645,-0.3060594259592866,1.194425907899924,-0.0261565309017976,-0.0558643683239964,-13.512594426236566,19.54482064601771,39.72347261775519,5.323386332252766,0.3148228708461868,0.5658027792292758,4951.719618055556,12.007888888888887,0.4422222222222222,179.1743929915626,-3.349337247079228,90.6101615168732,1525.0,1837.0,1200.0,1528.0,1475.0,1021.7000000000002,135.0,293.35,1637161814.7168543,1637161815.837061,2f69d96f-dc84-4774-9fee-e7d98f36c4ca
-0.0123640960549358,0.133791880462752,0.0438876709129509,0.483533482384253,-0.0341279280931943,-0.3679267913201084,-0.3517648492443893,-0.3693649315144429,-13.71007672819966,20.789169209467264,28.24960708051695,-1.779912621637509,0.2920633882286342,0.5296499701176671,4970.224555121527,12.043555555555557,0.3,179.17665909654724,-3.839553513041579,90.29782303740778,1525.0,1334.0,1200.0,1528.0,1475.0,1021.7000000000002,135.0,293.35,1637161817.8637407,1637161818.9082289,9941ac82-61f7-4a24-b3a7-e34039ee83c3
-0.0191028030374511,0.1311347481574075,0.045229933654823,0.4905461197609437,-0.0313886163027045,-0.3702825998564275,-0.3515457042657919,-0.3860610391942212,-13.782855230427296,20.826482717289355,28.46840529552392,-1.8007127954561344,0.2798957512027719,0.523759620660243,4982.744140625,12.043,0.3,179.15627022296485,-3.816178660995157,90.73878688041296,1525.0,1334.0,1200.0,1528.0,1475.0,1021.7000000000002,135.0,293.35,1637161819.016395,1637161820.2424257,9941ac82-61f7-4a24-b3a7-e34039ee83c3
-0.0184179751227728,0.1362983506353338,0.0409976969901513,0.4840128618870672,-0.0373329229731304,-0.370104544547265,-0.3547917892263097,-0.3879785578373498,-13.634166603632355,20.742604800260214,28.32922763705967,-1.7862893659282235,0.2999782065967245,0.5427563400004267,4997.91650390625,12.040444444444445,0.2955555555555555,179.13246018351816,-3.8206281497844654,91.08440280042458,1525.0,1334.0,1200.0,1528.0,1475.0,1021.7000000000002,135.0,293.35,1637161820.3500087,1637161821.4596417,9941ac82-61f7-4a24-b3a7-e34039ee83c3
-0.0370315987406534,0.1363257437444628,0.0724176023968487,0.9146463204855304,0.031492285301864,-0.7877538362730593,-0.4512566708231935,-0.4692539540626377,-14.09251172300864,22.5666952284803,25.064902092790533,-3.683301120954922,0.2812592302579649,0.5416364991604723,4997.592881944444,12.034,0.3299999999999999,179.12339424575984,-3.929212220479605,91.47547514718248,1525.0,1234.0,1200.0,1528.0,1475.0,1021.7000000000002,135.0,293.35,1637161822.2746518,1637161823.301339,314ea7c0-6033-46e8-9c69-3966c880a212
-0.0293889187614992,0.1461461759903205,0.0816901724897935,0.9008812802237202,0.0371900537104622,-0.7859184965325198,-0.4428332853967506,-0.4668296628857778,-14.169533003608358,22.586862657616592,24.96015146785156,-3.647586373119966,0.3218483063969443,0.5101009915400218,4993.065592447917,12.037666666666668,0.33,179.11889694564636,-3.950461603033685,91.61763718674732,1525.0,1234.0,1200.0,1528.0,1475.0,1021.7000000000002,135.0,293.35,1637161823.409969,1637161824.4355824,314ea7c0-6033-46e8-9c69-3966c880a212
-0.0445236165327561,0.1400101178662123,0.0727326232336054,0.9030316397127536,0.0307115814557974,-0.7795358972444267,-0.4509690430171766,-0.4875799537084265,-14.346739574494448,22.60343257668211,25.229062910706308,-3.638477021857293,0.2968728918297396,0.5422435572995766,4975.995171440973,12.033444444444443,0.3299999999999999,179.11925970458228,-3.966357729962027,91.77993538289525,1525.0,1234.0,1200.0,1528.0,1475.0,1021.7000000000002,135.0,293.35,1637161824.543151,1637161825.6670563,314ea7c0-6033-46e8-9c69-3966c880a212
-0.0543654159924427,0.1527396991011143,0.1008286474677993,1.1792714877440034,0.0741104969821252,-1.0603593363816897,-0.5136099954717861,-0.5403150053847628,-14.431319543975606,24.32912544147911,23.089979062895328,-4.880198940577609,0.3319732102083772,0.5342000439742339,4966.06396484375,12.029,0.36,179.11432071890243,-4.052311960980838,92.10248499516985,1525.0,1133.0,1200.0,1528.0,1475.0,1021.7000000000002,135.0,293.35,1637161827.2464626,1637161828.3322392,b1b4e9da-15d6-4e61-bd7c-6412c2b4c3d6
-0.0459633987976837,0.1532130521065015,0.0998819413935884,1.172697139724038,0.0727167352286366,-1.0536140505404856,-0.5147407835636117,-0.5408278047537368,-14.63443768606652,24.40381646244996,23.2462873936224,-4.849840596125954,0.3345515288126342,0.5390462541629794,4960.31591796875,12.030111111111111,0.3588888888888888,179.13115637629664,-4.069953580697072,92.1616010413462,1525.0,1133.0,1200.0,1528.0,1475.0,1021.7000000000002,135.0,293.35,1637161828.441022,1637161829.55487,b1b4e9da-15d6-4e61-bd7c-6412c2b4c3d6
-0.0497107773633078,0.1469937190275597,0.0955954664740204,1.1764050719579782,0.0704946055776194,-1.0516417450641498,-0.5149511628193499,-0.5323468933912937,-14.39849060169568,24.2277562918414,23.129377717200704,-4.855053177346952,0.3098601891553605,0.5475676900617557,4954.58154296875,12.030888888888889,0.35,179.14380436881967,-4.07043060300598,92.294044480632,1525.0,1133.0,1200.0,1528.0,1475.0,1021.7000000000002,135.0,293.35,1637161829.663679,1637161830.9944503,b1b4e9da-15d6-4e61-bd7c-6412c2b4c3d6
-0.0558369743530162,0.1525013789624338,0.113247042994837,1.2986019316207895,0.0900998593447712,-1.1755995266689712,-0.5443248107021362,-0.5769089352399263,-14.627642426998449,25.63079303654563,22.210873438798814,-5.399330974051803,0.3263775845638351,0.5383317076118049,4954.58154296875,12.016222222222222,0.4133333333333334,179.13744318597267,-4.108736343441789,92.37450410905475,1525.0,1033.0,1200.0,1528.0,1475.0,1021.7000000000002,135.0,293.35,1637161831.9007156,1637161833.037422,c6253094-93eb-4a1d-a9b7-2d9ee3ff1c33
-0.0532757178401403,0.147556921475948,0.1064124603426666,1.3005605400351996,0.0827722005147334,-1.1713535915902964,-0.5514470230855861,-0.5740737462638839,-14.598587507979682,25.822527086319223,22.325877261394865,-5.393244262349512,0.3059367722025141,0.5672917689465795,4951.71923828125,12.017444444444443,0.4077777777777778,179.1426417188409,-4.162156628464667,92.30810480449344,1525.0,1033.0,1200.0,1528.0,1475.0,1021.7000000000002,135.0,293.35,1637161833.1459856,1637161834.2703736,c6253094-93eb-4a1d-a9b7-2d9ee3ff1c33
-0.059644617804232,0.1503647158299584,0.1103296760290785,1.3150651955036332,0.0888123827794564,-1.1897754766470874,-0.5519674927763476,-0.5783881634292499,-14.654798064373011,25.74061418994573,22.011440373450785,-5.467786024197043,0.3181135067116155,0.5544840093626987,4948.8603515625,12.021777777777778,0.4,179.14274644840822,-4.154869148643349,92.31281839393066,1525.0,1033.0,1200.0,1528.0,1475.0,1021.7000000000002,135.0,293.35,1637161834.3784523,1637161835.385635,c6253094-93eb-4a1d-a9b7-2d9ee3ff1c33
0.0019214148071139,0.1268888150624643,0.0127690895504196,0.0574198708125088,-0.1033503381862375,0.0525849855770593,-0.2621893426214511,-0.2746121236053562,-13.79478158498013,19.57029923746488,31.5250594563286,0.1170913518581363,0.2882122470766116,0.5393042835641122,4939.35595703125,12.043333333333331,0.2899999999999999,179.18309617038506,-3.798300925433864,92.30863376469917,1525.0,1435.0,1200.0,1528.0,1475.0,1021.7000000000002,135.0,293.35,1637161837.3195603,1637161838.4593308,67dbadbe-ede2-420f-be58-c0910581a51f
-0.0123093098329053,0.1235194617132035,0.009714756896296,0.06199452132689,-0.1038571109239428,0.0511879366138672,-0.2667229040799192,-0.294116026293259,-14.047047911417456,19.57557142645725,31.42811227460224,0.1033731317542145,0.2774630665523015,0.5499298472061311,4962.550130208333,12.044222222222222,0.2977777777777777,179.2018822262422,-3.786183600663832,92.40279778823658,1525.0,1435.0,1200.0,1528.0,1475.0,1021.7000000000002,135.0,293.35,1637161838.567907,1637161839.6855357,67dbadbe-ede2-420f-be58-c0910581a51f
0.0064549757806936,0.1239577515913853,0.0158919049277078,0.0624054181243886,-0.0998714121201118,0.0487362526318942,-0.261545604261408,-0.2896920368829784,-13.910910493232183,19.716284213786988,31.23583520200221,0.0982152488192275,0.280190914190122,0.5285325758964332,4966.06396484375,12.041111111111112,0.29,179.1740788028608,-3.778816245574717,92.48153924462812,1525.0,1435.0,1200.0,1528.0,1475.0,1021.7000000000002,135.0,293.35,1637161839.7945497,1637161840.8241909,67dbadbe-ede2-420f-be58-c0910581a51f
0.0472981138902247,0.1530218481889335,0.1535697105905755,0.0420386354747056,0.0223155909867685,0.0321223269151975,-0.1192657402119318,-0.1544932921845944,-12.8703182287806,19.53291458577152,31.33072413718237,0.1130028007923392,0.3922254085533899,-0.0238617713862288,4974.71044921875,12.042,0.29,179.1497800254335,-3.7879703591779577,92.5820386480757,1525.0,1435.0,1200.0,1439.0,1475.0,1021.7000000000002,135.0,293.35,1637161841.8254652,1637161842.873843,7637b4fe-c1f1-4944-8c7e-503f5d99a1b0
0.0467365549491053,0.1535012277142612,0.1549119732809063,0.0434493810314432,0.0239317849098714,0.0294925877093894,-0.1191287746196629,-0.1517128904311105,-12.943771271217903,19.54913225178757,31.21429448867376,0.1040299399651261,0.3954868432129235,-0.0282396102976415,4968.94287109375,12.043666666666669,0.2955555555555555,179.17299356169266,-3.776613794158604,92.64557534446487,1525.0,1435.0,1200.0,1439.0,1475.0,1021.7000000000002,135.0,293.35,1637161842.9832428,1637161843.9885752,7637b4fe-c1f1-4944-8c7e-503f5d99a1b0
0.0389295165747034,0.1525424686357843,0.1586100439921448,0.0405731036920905,0.02734222802896,0.0343959556856131,-0.1154854898101295,-0.1385368004104449,-13.075128958998995,19.6314774384322,31.42912893946473,0.1222347786644327,0.3915065246416673,-0.0430767777979393,4966.06396484375,12.041111111111112,0.29,179.17082763281587,-3.7720023729677217,92.6898106851695,1525.0,1435.0,1200.0,1439.0,1475.0,1021.7000000000002,135.0,293.35,1637161844.0973675,1637161845.134465,7637b4fe-c1f1-4944-8c7e-503f5d99a1b0
0.112294310386436,0.1973269265100543,0.347458731705108,0.0252499417045719,0.1919096639101879,0.0007670689661874,0.0750177570835071,0.0611458823181367,-11.3700297596533,19.633188377937845,32.33154532448511,0.0916483790211407,0.5532677417974678,-0.7881320939283794,5039.3916015625,12.041222222222224,0.2988888888888888,179.16910946078465,-3.790831070075332,92.73473208043076,1525.0,1435.0,1200.0,1360.7777777777778,1475.0,1021.7000000000002,135.0,293.35,1637161846.7455704,1637161847.7864332,0590aeab-68ff-4171-87ca-139c4f4bb628
0.110900548564014,0.1922909760899557,0.3494573334035882,0.0323370890138548,0.19582797524115,-0.0025989973403269,0.0766350467050299,0.0509161967278421,-11.407958098828583,19.63540180961888,32.0935575648733,0.0681546719594637,0.5360117515617209,-0.7994062686826195,5075.858561197917,12.041,0.29,179.1609284119788,-3.772419109370832,92.77953736247616,1525.0,1435.0,1200.0,1351.0,1475.0,1021.7000000000002,135.0,293.35,1637161847.895467,1637161849.0164683,0590aeab-68ff-4171-87ca-139c4f4bb628
0.1125309868790055,0.1865712934322998,0.3472483525873678,0.032757847310938,0.1950784995808491,0.0031732803665565,0.0769769127948055,0.050850453040278,-11.388084284641568,19.59502919097833,32.16566507770137,0.0798204939247406,0.5135871883692683,-0.7964173399449763,5089.249565972223,12.041666666666666,0.29,179.18689527338336,-3.772219990383778,92.82017015784857,1525.0,1435.0,1200.0,1351.0,1475.0,1021.7000000000002,135.0,293.35,1637161849.125018,1637161850.2445488,0590aeab-68ff-4171-87ca-139c4f4bb628
0.1757444381289657,0.2252301023287432,0.5286362457051986,0.0201378380783679,0.3544982144412503,-0.0306900918240692,0.2531710804413595,0.2401593501624824,-10.425845173808986,19.95704383730478,32.451547683029105,0.0441543069254001,0.6622959218775325,-1.5061727541326544,5074.8525390625,12.035999999999998,0.31,179.18053257271654,-3.776852993075162,92.83388214206232,1525.0,1435.0,1200.0,1262.0,1475.0,1021.7000000000002,135.0,293.35,1637161852.2448225,1637161853.2026513,fdd65242-1ddc-48f1-bd35-ecaefe5cc405
0.1619520040489596,0.2180394093976985,0.5188295106615365,0.0234113156801132,0.3480197426937874,-0.0291012909589199,0.2446929111401123,0.2184503055988337,-10.531543750344603,19.86818855152893,32.03581648138356,0.0391435728598271,0.6387329383792582,-1.4733752497664865,5074.85595703125,12.037333333333336,0.31,179.17267330171157,-3.7601822088584527,92.81660859365134,1525.0,1435.0,1200.0,1262.0,1475.0,1021.7000000000002,135.0,293.35,1637161853.3131778,1637161854.4324534,fdd65242-1ddc-48f1-bd35-ecaefe5cc405
0.1610343346747569,0.2079313495930315,0.5119264457635876,0.0293830152633303,0.3431848578477943,-0.0269098415269721,0.238611639423907,0.2118622613311364,-10.5341633428949,19.9505222624221,31.67037350855158,0.0307398623679077,0.6029075559272625,-1.450443653506447,5062.204861111111,12.039444444444444,0.3,179.1832403632675,-3.7545465438832855,92.8170920192626,1525.0,1435.0,1200.0,1262.0,1475.0,1021.7000000000002,135.0,293.35,1637161854.54117,1637161855.5671666,fdd65242-1ddc-48f1-bd35-ecaefe5cc405
0.2040826167340631,0.230434794326146,0.6372773380493255,0.0431754498037714,0.4540447943108843,-0.068876098543021,0.3581962849586968,0.3208594686015493,-9.402742283894948,20.241807449804256,31.57807586570875,-0.0859488557032804,0.6863726414745331,-1.939183658161796,5016.768771701389,12.030333333333331,0.3277777777777778,179.1751807400469,-3.776228030766106,92.73782084375544,1525.0,1435.0,1200.0,1173.0,1475.0,1021.7000000000002,135.0,293.35,1637161857.265632,1637161858.3311503,a83fab9a-a692-46c0-97e9-23331c45683f
0.1915228730388634,0.2273941584610634,0.6324424533396696,0.0473939898600104,0.451661593327533,-0.0700813957708875,0.34985508139964,0.3155452043084595,-9.830145639596566,20.354514725695378,31.485682477719976,-0.0978967791612126,0.6779883573971967,-1.9182774676438143,5018.3994140625,12.035,0.33,179.16647907904428,-3.775635084968784,92.69635097075474,1525.0,1435.0,1200.0,1173.0,1475.0,1021.7000000000002,135.0,293.35,1637161858.4449203,1637161859.4829967,a83fab9a-a692-46c0-97e9-23331c45683f
0.2061234038679767,0.2270517444973252,0.6372499449331028,0.0479281556550518,0.4550309464224905,-0.0701635751550603,0.3573334018391284,0.3217634414899581,-9.463299225992722,20.30038541053948,31.542190270220026,-0.0992121743471472,0.6738449050656327,-1.939745612535825,5004.4013671875,12.036888888888887,0.3299999999999999,179.17360220743868,-3.7782853880942255,92.6542413367018,1525.0,1435.0,1200.0,1173.0,1475.0,1021.7000000000002,135.0,293.35,1637161859.5909164,1637161860.6860034,a83fab9a-a692-46c0-97e9-23331c45683f
-0.0682323603844894,0.0968248695247631,-0.1824890595200749,0.0961537382030095,-0.2794880984160818,0.0565022013440391,-0.4725411278876898,-0.4985509006550422,-15.274916441375447,20.04951080545494,31.40532885670665,0.0312097949539146,0.1698522060354149,1.3401659940623103,5003.427083333333,12.043555555555557,0.29,179.2057936479069,-3.7746094182284207,92.78300254511504,1525.0,1435.0,1200.0,1617.0,1475.0,1021.7000000000002,135.0,293.35,1637161861.2702816,1637161862.227368,fe4852e5-68f4-447c-81ff-f06320474502
-0.0690815470574375,0.1045771215395209,-0.1817083556615215,0.090113555938293,-0.2802824989654995,0.0538587655104838,-0.4726507003919007,-0.4871553613619352,-15.283494946558262,19.980397314054457,31.322177386940364,0.0384579521438898,0.2005175464126828,1.3411299698306658,5002.130208333333,12.041,0.2899999999999999,179.21122440720694,-3.779136695283277,92.76966394457594,1525.0,1435.0,1200.0,1617.0,1475.0,1021.7000000000002,135.0,293.35,1637161862.3353207,1637161863.3514874,fe4852e5-68f4-447c-81ff-f06320474502
-0.0685062915647346,0.1147399678819524,-0.1749285585261687,0.0841555530133249,-0.2756119718268519,0.0503798396637568,-0.4658709022648027,-0.4922504812647599,-15.17973536216806,19.8403534181678,31.51649210251689,0.043572561681487,0.2373387935211426,1.3174555123775298,5006.673828125,12.043666666666669,0.29,179.2193735817967,-3.7713462953524473,92.7744890937696,1525.0,1435.0,1200.0,1617.0,1475.0,1021.7000000000002,135.0,293.35,1637161863.460461,1637161864.5950592,fe4852e5-68f4-447c-81ff-f06320474502
-0.1356901066788853,0.070810174239085,-0.3747728803928776,0.1314651091439027,-0.4555058921814703,0.0564386493045033,-0.6781265354993117,-0.7045159794806493,-16.333195181803422,20.453001761510112,30.86441472420738,-0.0561054121229734,0.0680351154477734,2.1302156629277875,5014.811197916667,12.036666666666664,0.3077777777777777,179.23712752017926,-3.771529382367699,92.8075623875506,1525.0,1435.0,1200.0,1706.0,1475.0,1021.7000000000002,135.0,293.35,1637161865.2642,1637161866.4246807,db16a492-be1b-4493-96fe-29e15d08cb67
-0.1281000212875149,0.0771018253198865,-0.366570831755876,0.1311895344339527,-0.4487228069596341,0.0494621702187953,-0.672990324086063,-0.6898918846374267,-16.41385560083885,20.496248169654407,30.764267303113588,-0.0705223366646074,0.0936457596995918,2.1030271579870328,4992.09814453125,12.040333333333333,0.3,179.23131730592533,-3.7756695205058497,92.78740042803064,1525.0,1435.0,1200.0,1706.0,1475.0,1021.7000000000002,135.0,293.35,1637161866.5338905,1637161867.6521738,db16a492-be1b-4493-96fe-29e15d08cb67
-0.1300887617686629,0.0604621502950961,-0.3748517726072112,0.1339502126893131,-0.4528761523767106,0.0638545139818883,-0.6756414310175469,-0.7029249878019105,-16.428346334177885,20.459156944173813,30.81230432385184,-0.0450660869769949,0.0300481773457431,2.121830254585005,4971.184299045139,12.03622222222222,0.31,179.24118465254625,-3.770596302636084,92.75988690823402,1525.0,1435.0,1200.0,1706.0,1475.0,1021.7000000000002,135.0,293.35,1637161867.7603416,1637161868.8797214,db16a492-be1b-4493-96fe-29e15d08cb67
-0.1796264787304285,0.0551325454550363,-0.5331484157450711,0.1861127326563587,-0.5986453785693223,0.0291227806308529,-0.8618385579059381,-0.8826984291802807,-17.766681185415518,21.1398150506115,30.63359809731683,-0.2448509160873164,0.0046692504167108,2.7995991441453043,4966.06396484375,12.038,0.31,179.24124536533887,-3.7975865540512976,92.7353589400146,1525.0,1435.0,1200.0,1795.0,1475.0,1021.7000000000002,135.0,293.35,1637161869.7911644,1637161870.816553,41b38922-c4b7-41cb-bb02-bdbca6ac7789
-0.1854064269586651,0.050585288008393,-0.5331895052228292,0.1934951774606249,-0.5982070883767822,0.0263834689062474,-0.8623864201504191,-0.8894782288309072,-17.671597621572932,21.226901614549565,30.573406194747324,-0.2670459729811937,-0.0134352933858929,2.799298593895345,4969.264377170139,12.03788888888889,0.3044444444444444,179.2292287858591,-3.7899452799173456,92.6839564541409,1525.0,1435.0,1200.0,1795.0,1475.0,1021.7000000000002,135.0,293.35,1637161870.9248798,1637161872.1582365,41b38922-c4b7-41cb-bb02-bdbca6ac7789
-0.1811604933730776,0.0622547558912705,-0.5286559429824838,0.1820585514757987,-0.5955636516304599,0.0245070403318771,-0.8576337118999117,-0.8819314205553664,-17.686105121883966,21.02824386046568,30.473269723771363,-0.2465787824599834,0.0330146217025034,2.783993432369858,4971.82470703125,12.039111111111112,0.3,179.22785971238545,-3.801427539390176,92.63949268155405,1525.0,1435.0,1200.0,1795.0,1475.0,1021.7000000000002,135.0,293.35,1637161872.2668066,1637161873.3830836,41b38922-c4b7-41cb-bb02-bdbca6ac7789
-0.2194697715976067,0.0283694698722335,-0.6544040875488472,0.2528423630204492,-0.7062318848347756,-0.0019273181146967,-1.0047896219498178,-1.02695066943422,-18.620761685908395,21.9481197502616,30.204845521337536,-0.4663279725144418,-0.1017526602167324,3.310765556080149,4968.94287109375,12.028333333333332,0.3566666666666667,179.25511368499363,-3.807023219299577,92.58634470289242,1525.0,1435.0,1200.0,1883.0,1475.0,1021.7000000000002,135.0,293.35,1637161874.2968855,1637161875.4345844,40af1dd2-63b9-489b-85d8-c3f56c3b081f
-0.2320021240587515,0.0298213050809742,-0.6630877088779518,0.2524999490775753,-0.716394735512972,-0.0010644348880413,-1.0143635225022465,-1.050960752202313,-18.534337470382653,22.05580929137301,30.41273708441508,-0.4632584132496527,-0.0992681329645507,3.350557775643759,4966.703721788194,12.030555555555557,0.3400000000000001,179.24902570971346,-3.807391100877374,92.47079080360425,1525.0,1435.0,1200.0,1883.0,1475.0,1021.7000000000002,135.0,293.35,1637161875.5433242,1637161876.6666558,40af1dd2-63b9-489b-85d8-c3f56c3b081f
-0.2246470713023528,0.0414359868378245,-0.6541164598152371,0.2425699446509887,-0.7094916672230367,-0.0052281888107032,-1.0056935953793331,-1.0232252028022,-18.53656974526996,21.87707092276331,30.208956621098974,-0.4509870445320422,-0.0520958199577073,3.3176853107532573,4963.1884765625,12.033111111111111,0.3400000000000001,179.2679468515342,-3.816112493537572,92.34320211099848,1525.0,1435.0,1200.0,1883.0,1475.0,1021.7000000000002,135.0,293.35,1637161876.7749264,1637161877.9823675,40af1dd2-63b9-489b-85d8-c3f56c3b081f
-0.0199421281682059,0.128717031752171,-0.0560221516896989,0.0681409888887127,-0.1429087413273697,0.046537681062556,-0.3045982767868779,-0.3234403617344263,-13.56005759526266,16.475847063795538,31.93109546579776,0.0555620721632143,0.2840756887374335,0.7496576437900626,7538.63330078125,11.829,7.83,-179.79492174893753,-3.9562274210580366,78.2211295449269,1525.0,1435.0,1350.0,1528.0,1475.0,1021.7000000000002,135.0,293.35,1637161881.265047,1637161882.402901,07b12786-f162-42e2-8ea5-51fed7c6a6e0
-0.0151954486977131,0.122168981174725,-0.0515121486851998,0.0768980205028872,-0.1349800768989372,0.0475764280239916,-0.2994308384060796,-0.3252417334670905,-13.704305826181258,16.428412185988307,32.351368015719984,0.0380470569374256,0.2560195340522378,0.7251493714047258,7538.63330078125,11.825888888888889,7.825555555555555,-179.5055266338041,-3.898761102725573,71.41393079166043,1525.0,1435.0,1350.0,1528.0,1475.0,1021.7000000000002,135.0,293.35,1637161882.510865,1637161883.515892,07b12786-f162-42e2-8ea5-51fed7c6a6e0
-0.0072799333280426,0.1300976448298598,-0.0501446842253311,0.0599887972652309,-0.1371101658143455,0.0463273018948222,-0.2973533440712534,-0.3140916373588512,-13.607249553737626,16.343795735021743,31.07921110104763,0.0727363929909205,0.2985121397677661,0.7223481599080085,7538.63330078125,11.825,7.867777777777778,-179.35497408629888,-3.84264602348391,65.99228599958494,1525.0,1435.0,1350.0,1528.0,1475.0,1021.7000000000002,135.0,293.35,1637161883.624368,1637161884.743621,07b12786-f162-42e2-8ea5-51fed7c6a6e0
0.1784563566177276,0.4722886087931039,-0.0367028811989017,-0.1045419388995892,-0.2031023821865238,-0.1345784938145655,-0.3598184272021337,-0.3757612253923546,-13.285111840705603,15.494158730745337,31.30754891954655,0.0325934656114573,1.5987275257070843,0.9237048127818304,7497.603841145833,11.817777777777778,7.952222222222223,-179.5348448413614,-3.722306390885402,55.10815643765672,1610.0,1435.0,1350.0,1528.0,1542.0,1021.7000000000002,135.0,293.35,1637161886.789857,1637161887.927796,8e916d36-5788-4cc9-86ba-4e34588b2797
0.1744021754112744,0.4733295471530946,-0.0347990594887896,-0.1016245718036471,-0.2014861881233928,-0.1369343020065192,-0.3595444959324652,-0.380691987206381,-13.32372522811321,15.563607534163843,31.507176220464743,0.021286351511833,1.600898361392635,0.9188959434778896,7497.603841145833,11.815888888888889,7.974444444444444,-179.69578382986452,-3.6923753161456734,51.953035169024055,1610.0,1435.0,1350.0,1528.0,1542.0,1021.7000000000002,135.0,293.35,1637161888.0366173,1637161889.1533985,8e916d36-5788-4cc9-86ba-4e34588b2797
0.1744980513438486,0.4639337087859292,-0.0405790073996251,-0.1020354685143176,-0.206006052905035,-0.1340580244961624,-0.3640369679611756,-0.3935119687811839,-13.34108173668645,15.63174744890396,30.513849459216065,0.0286734394891842,1.5742702579297052,0.9367455871759754,7492.50537109375,11.812,7.98,-179.79356937148188,-3.68271036131076,49.61693250850632,1610.0,1435.0,1350.0,1528.0,1542.0,1021.7000000000002,135.0,293.35,1637161889.2615716,1637161890.385579,8e916d36-5788-4cc9-86ba-4e34588b2797
0.4031757799395937,0.8811171477814909,-0.0196917549358935,-0.2969923029353701,-0.2840490530730671,-0.3487105162110709,-0.4375190194877219,-0.4607620857995001,-12.93365505057769,14.904320516660098,32.39093277802841,-0.0171823656460142,3.1447567544563,1.1711949075035928,7512.20556640625,11.808333333333332,8.046666666666665,179.7103549000939,-3.640546749790625,44.51730723013483,1695.0,1435.0,1350.0,1528.0,1609.0,1021.7000000000002,135.0,293.35,1637161892.320563,1637161893.4177048,5609cb29-baef-498b-8abf-7308783bda9b
0.3957796388430916,0.8846919492715256,-0.0120216819719447,-0.303498169072237,-0.2788580566692393,-0.3495186133501279,-0.430684435295065,-0.4451069154536983,-12.921116369304704,14.981797861533456,31.97743503967368,-0.0034867049293984,3.163029074888072,1.143707713036011,7515.134168836806,11.806,8.027777777777779,179.60655879200692,-3.670034383984864,43.27631498163706,1695.0,1435.0,1350.0,1528.0,1609.0,1021.7000000000002,135.0,293.35,1637161893.5264895,1637161894.472798,5609cb29-baef-498b-8abf-7308783bda9b
0.3947660936101285,0.8873079917435797,-0.018007078190785,-0.3133596928092367,-0.287541675973646,-0.3476147913785027,-0.4362041495574648,-0.4630357150304065,-12.80135075815022,15.03239304283568,31.276424747069168,0.023022529369076,3.1790417701867315,1.170857118565536,7518.794921875,11.807333333333332,8.076666666666666,179.44109670045347,-3.645811118093413,42.22863947449293,1695.0,1435.0,1350.0,1528.0,1609.0,1021.7000000000002,135.0,293.35,1637161894.5881674,1637161895.7099545,5609cb29-baef-498b-8abf-7308783bda9b
0.6035838071781756,1.2224079760980109,0.0115500958234589,-0.484758461524968,-0.3481352605941755,-0.5167125407929638,-0.4903877481570069,-0.5238758437106489,-12.556649818380713,15.435874082882336,31.37594967792454,0.0339564529914287,4.456239897590847,1.3294341814987864,7525.396484375,11.793333333333331,8.11,178.9922652384343,-3.65641546109855,39.942153964290846,1779.0,1435.0,1350.0,1528.0,1677.0,1021.7000000000002,135.0,293.35,1637161897.8497264,1637161898.8744087,99ec27b7-ce66-4dd9-997c-e2f9deef9630
0.5891065461401958,1.2258732053771295,0.0086738184673423,-0.4880867258213601,-0.3517648492790997,-0.5216980893426626,-0.4922093909374035,-0.5221500765749103,-12.3536164748771,15.2817286523778,30.69729335112232,0.0290899605210854,4.474039333757997,1.340530302224743,7525.396484375,11.792444444444444,8.167777777777777,178.85619420978932,-3.6280751563892673,39.27431248653525,1779.0,1435.0,1350.0,1528.0,1677.0,1021.7000000000002,135.0,293.35,1637161898.9823115,1637161900.2135248,99ec27b7-ce66-4dd9-997c-e2f9deef9630
0.5945029897178915,1.230365676535229,0.005824934205717,-0.4862239934303611,-0.3565312525280826,-0.5199449293665318,-0.4988522235880519,-0.5240265064061201,-12.498648871823042,15.53371703647374,31.776661918218423,0.0304553351746656,4.481943246534728,1.362241067822157,7532.00927734375,11.793666666666669,8.157777777777778,178.75005762354678,-3.639551107423488,38.7036657390338,1779.0,1435.0,1350.0,1528.0,1677.0,1021.7000000000002,135.0,293.35,1637161900.3264964,1637161901.4800313,99ec27b7-ce66-4dd9-997c-e2f9deef9630
0.7140049039518719,1.4209050812938684,0.064288420977358,-0.6250057839683153,-0.3632414717357864,-0.611199648151484,-0.487877990192105,-0.5129394121868215,-12.06538509695464,16.405342551611923,27.434267357176022,0.1466666085789919,5.252809924721197,1.2917226227396168,7545.26953125,11.779777777777776,8.177777777777777,178.5565507752612,-3.638547875957274,38.02164972147565,1864.0,1435.0,1350.0,1528.0,1744.0,1021.7000000000002,135.0,293.35,1637161902.356825,1637161903.4951296,4a8fbafd-b6f7-48ff-8304-a8a3841d0140
0.7230380574036687,1.4157902381556855,0.0622898191613117,-0.6257552598908069,-0.36525322260691,-0.6078204322153072,-0.4882987485843824,-0.5166604941178139,-11.974209246518887,16.453329788860348,27.09391948928578,0.1561610303952595,5.235963717126996,1.2967246526561846,7552.657443576389,11.781777777777778,8.153333333333332,178.50007877120356,-3.6130086602857343,37.61816957718053,1864.0,1435.0,1350.0,1528.0,1744.0,1021.7000000000002,135.0,293.35,1637161903.604646,1637161904.7177002,4a8fbafd-b6f7-48ff-8304-a8a3841d0140
0.7246887664833327,1.4263771307058493,0.0719930090308906,-0.6318321510772914,-0.3603662896841997,-0.6124515140020835,-0.4803755614851765,-0.5006738670754661,-11.769275605226213,16.53615462795359,27.18044853837924,0.1606115104842598,5.274818356780084,1.267020123354741,7551.91748046875,11.778333333333332,8.22,178.42063608205723,-3.622397039891133,37.33526086502887,1864.0,1435.0,1350.0,1528.0,1744.0,1021.7000000000002,135.0,293.35,1637161904.826987,1637161905.837229,4a8fbafd-b6f7-48ff-8304-a8a3841d0140
-0.2636411782007201,-0.3252757005209126,-0.0783815105860171,0.2867687367617828,-0.059041969023417,0.272921516815154,-0.2276329211780695,-0.261942805392773,-13.9326260068106,17.471066544598454,29.697735472415584,0.0760466746966674,-1.4245602627720064,0.4994888894321236,7554.137369791667,11.818,8.006666666666668,178.73970305676505,-3.59758087563423,36.60926525940502,1440.0,1435.0,1350.0,1528.0,1408.0,1021.7000000000002,135.0,293.35,1637161907.884475,1637161908.9154236,efd1dd59-6ccf-4280-83ba-1942af67edf4
-0.2607101143010293,-0.3296449034039627,-0.0762037576651438,0.2849197014460925,-0.0557684913983022,0.2827830384512382,-0.22325002195713,-0.2462876373749543,-14.045107389679822,17.482884573365354,30.274364935401127,0.1025998797050952,-1.4448960526693648,0.4860063502313601,7554.877332899306,11.81411111111111,8.045555555555556,178.7464057490705,-3.58066738254264,36.46498244610291,1440.0,1435.0,1350.0,1528.0,1408.0,1021.7000000000002,135.0,293.35,1637161909.022761,1637161910.0435717,efd1dd59-6ccf-4280-83ba-1942af67edf4
-0.2547521105088536,-0.3225774780643932,-0.0791759110311425,0.2762634769156382,-0.063780978499012,0.2840294251930603,-0.2281396938920107,-0.2415623234731932,-13.904236814304353,17.70481128191533,30.269139954519503,0.1263202622249458,-1.4184585375420091,0.5087121930796339,7558.5771484375,11.81722222222222,8.003333333333334,178.70904006085112,-3.5493672106133443,36.35313088879983,1440.0,1435.0,1350.0,1528.0,1408.0,1021.7000000000002,135.0,293.35,1637161910.152176,1637161911.1640844,efd1dd59-6ccf-4280-83ba-1942af67edf4
-0.4512566710207379,-0.6661009525776044,-0.094776292052124,0.4426355619825641,-0.0006809312256195,0.460632838434631,-0.1721618534641519,-0.2019244792100206,-14.4281884086085,18.80807557728604,29.44971489803608,0.1540195622370852,-2.71736371833009,0.322249617968166,7565.248046875,11.802111111111111,8.09222222222222,178.76939464799696,-3.5295686503595274,36.17956895180063,1355.0,1435.0,1350.0,1528.0,1341.0,1021.7000000000002,135.0,293.35,1637161912.751788,1637161913.8253772,9c307230-3f4e-4720-a83e-2fa1ce87ac9c
-0.4489282555305327,-0.6678952023993315,-0.0923246079268516,0.4534421457865381,0.0016337872229936,0.4501960616843449,-0.1720659775046835,-0.2058006054588712,-14.265648610867435,18.90213476011211,29.13875301101962,0.1069675823641692,-2.7236611183160027,0.31513259424041,7568.960883246527,11.800333333333334,8.107777777777777,178.7965529979568,-3.534061088706431,36.11409020495744,1355.0,1435.0,1350.0,1528.0,1341.0,1021.7000000000002,135.0,293.35,1637161913.93319,1637161915.0527203,9c307230-3f4e-4720-a83e-2fa1ce87ac9c
-0.4602416155789885,-0.6714015227063981,-0.099186584168974,0.4440600039661047,-0.0042146434209613,0.4598521346715825,-0.175325758775721,-0.1973498275062027,-14.329713540707038,18.78858260908768,28.75784639208474,0.1486424820708247,-2.73226434571497,0.3360512690730841,7570.446017795139,11.798444444444446,8.107777777777777,178.74577585384708,-3.516259742170542,36.08804441692246,1355.0,1435.0,1350.0,1528.0,1341.0,1021.7000000000002,135.0,293.35,1637161915.170055,1637161916.1912432,9c307230-3f4e-4720-a83e-2fa1ce87ac9c
-0.6893440214990733,-1.0986111115436168,-0.1203614649827401,0.6506314813744715,0.0702261530243957,0.6916937600288807,-0.1083906720515892,-0.1390983594898064,-15.04842963607708,20.474397348341984,29.410492340514555,0.213510281562187,-4.362004688377438,0.1180674333262626,7565.248046875,11.796,8.100000000000001,178.8734609280111,-3.4955021332367044,36.08002008301256,1271.0,1435.0,1350.0,1528.0,1273.0,1021.7000000000002,135.0,293.35,1637161917.7441769,1637161918.6877348,92316546-71fb-47f8-ac21-248cd45eee9b
-0.6816191595037665,-1.0943651753389128,-0.1168551457437989,0.655877262805114,0.0728284991645713,0.6842428328811003,-0.1086782997955619,-0.1226077013068268,-15.107984359350189,20.58447037705302,29.640644968136503,0.1858448437375142,-4.34811988860839,0.1109505054864231,7565.248046875,11.795,8.133333333333333,178.87892507934714,-3.487143546944293,36.06016813818991,1271.0,1435.0,1350.0,1528.0,1273.0,1021.7000000000002,135.0,293.35,1637161918.7966309,1637161919.8772094,92316546-71fb-47f8-ac21-248cd45eee9b
-0.6862129870037489,-1.0860387574877428,-0.1178736219251578,0.6449742553675337,0.0680095020057962,0.6799892300588148,-0.1101290393844908,-0.1345198727832765,-14.912422910546011,20.561225475740187,28.75875308228893,0.2006339991855583,-4.309181276166615,0.120782362079681,7563.0244140625,11.793,8.123333333333331,178.89759881653794,-3.4872860559954137,36.03671326858009,1271.0,1435.0,1350.0,1528.0,1273.0,1021.7000000000002,135.0,293.35,1637161919.9855793,1637161921.108217,92316546-71fb-47f8-ac21-248cd45eee9b
-0.8236388368877939,-1.3519291766279646,-0.1277986967938349,0.7696134743777495,0.1121650149312659,0.828371705311589,-0.0682871464743053,-0.0964335765995548,-15.271950775321136,22.104384149826284,29.23844144598409,0.2625447628803592,-5.324087605479561,-0.0166921424825285,7558.5771484375,11.773,8.22777777777778,179.04084154381144,-3.4478987740772813,36.07299143890165,1186.0,1435.0,1350.0,1528.0,1206.0,1021.7000000000002,135.0,293.35,1637161922.7428029,1637161923.8642848,e977bd74-8478-4138-a60f-055ff2e1efa2
-0.839579447400887,-1.3650411789614163,-0.1199248186784661,0.7787359293930084,0.1259295081826778,0.8302130704552869,-0.0590200545536295,-0.0817673007546022,-15.604738639932888,22.01671476515472,28.93701751614399,0.245699862687313,-5.368864177276919,-0.0614956512089512,7558.5771484375,11.776,8.186666666666666,179.0778611691129,-3.4471400538969785,36.07967971191891,1186.0,1435.0,1350.0,1528.0,1206.0,1021.7000000000002,135.0,293.35,1637161923.9725688,1637161925.0915155,e977bd74-8478-4138-a60f-055ff2e1efa2
-0.8333075161151391,-1.3569547230036552,-0.1294707728269456,0.7731608827107075,0.1137669643418909,0.8338421103129607,-0.0673431796569413,-0.0851991105710234,-15.363235463797826,21.95841282271124,29.77958180690128,0.2658247999882346,-5.347631720853277,-0.0177565245075627,7560.80078125,11.773666666666664,8.233333333333334,179.05715658900888,-3.455101635443883,36.09208105872193,1186.0,1435.0,1350.0,1528.0,1206.0,1021.7000000000002,135.0,293.35,1637161925.2000196,1637161926.4313247,e977bd74-8478-4138-a60f-055ff2e1efa2
-0.0191575892829623,0.1197392117141127,-0.0598911557208022,0.0829913454821558,-0.141782884124243,0.0405731036672896,-0.3091411520842379,-0.3356713913955941,-13.699118854054577,16.40114522166047,31.746012633601666,0.0078727429589047,0.2509530931302889,0.7585824097071526,7565.248046875,11.821555555555555,7.9766666666666675,178.6972906176589,-3.500358990634949,36.23332633511816,1525.0,1435.0,1350.0,1528.0,1475.0,1021.7000000000002,135.0,293.35,1637161927.3409126,1637161928.4842193,62e37f33-2bdf-47e4-9e60-0462b8b890d6
-0.0267317863498658,0.1093983101866089,-0.069834857630471,0.0875522994399571,-0.1437004024214497,0.0458599753025735,-0.3137158032908825,-0.3260837990109398,-13.926608948560334,15.94624677748008,31.60512742331469,0.0058169773968197,0.2138275627039244,0.7798794718270923,7572.675021701389,11.81988888888889,8.01222222222222,178.75599078120578,-3.484143481215104,36.36159804664091,1525.0,1435.0,1350.0,1528.0,1475.0,1021.7000000000002,135.0,293.35,1637161928.5931618,1637161929.8078215,62e37f33-2bdf-47e4-9e60-0462b8b890d6
-0.0104191846494317,0.1159452650657282,-0.0669448836565257,0.0817586552211593,-0.145563134565256,0.0427371599643242,-0.3143869348058175,-0.3376163026874605,-13.867448976483251,16.213283676718323,31.319889024968337,0.0137670685246094,0.2413930243255673,0.7797036304612268,7578.6259765625,11.822,7.951111111111111,178.72344265308095,-3.4864279423331266,36.46386419235379,1525.0,1435.0,1350.0,1528.0,1475.0,1021.7000000000002,135.0,293.35,1637161929.9160435,1637161931.145634,62e37f33-2bdf-47e4-9e60-0462b8b890d6
0.0028938705100254,0.121697819552628,-0.0887771990718476,-0.3636808575793412,-0.2141144164228887,0.4729734366079011,-0.2166482799925538,-0.2518073507894478,-13.805656723169363,15.320858246974728,35.272766387122,1.979025952418872,0.2809409493294676,0.7664488548973726,7578.6259765625,11.815,8.04,178.7044532093685,-3.3646544917594774,36.606143862954326,1525.0,1535.0,1350.0,1528.0,1475.0,1021.7000000000002,135.0,293.35,1637161931.7628927,1637161932.8054435,2958c25e-ec91-4137-8733-a027d8618ec1
-0.0054199407016417,0.113959264111773,-0.092269821672919,-0.361462014548977,-0.216456528163467,0.4771508866352839,-0.2196478266699341,-0.2511773095702578,-13.873100121666653,15.434202999084656,35.053310872031666,1.9839166091566665,0.2538463594470364,0.7773503229477973,7579.376627604167,11.817,7.991111111111111,178.69522638270973,-3.3566865780580306,36.68450586439198,1525.0,1535.0,1350.0,1528.0,1475.0,1021.7000000000002,135.0,293.35,1637161932.91761,1637161934.0083888,2958c25e-ec91-4137-8733-a027d8618ec1
-0.0028997738264534,0.1197939979539193,-0.0929546496402232,-0.3647354928997324,-0.21853840529717,0.4749731339965168,-0.2196204335230562,-0.2444112082401598,-13.700444636074735,15.32319421325549,35.125771103776685,1.9857355437916169,0.2742236707272609,0.7820262109634024,7578.6259765625,11.820777777777778,7.9255555555555555,178.7653754611254,-3.350792954862021,36.75535162210298,1525.0,1535.0,1350.0,1528.0,1475.0,1021.7000000000002,135.0,293.35,1637161934.1163418,1637161935.331341,2958c25e-ec91-4137-8733-a027d8618ec1
0.0251096887956383,0.121067777869947,-0.1169236285631199,-0.8435125529477446,-0.2952117498916574,0.9342050045786846,-0.1178960842798207,-0.1483024472708041,-13.586285076196075,14.70609720600928,38.2167547570854,4.0929605009932,0.3082155492302743,0.7749454642273553,7578.6259765625,11.808,8.02,178.90749348391557,-3.282352917842743,36.86489419601165,1525.0,1636.0,1350.0,1528.0,1475.0,1021.7000000000002,135.0,293.35,1637161936.3522432,1637161937.496334,83df2a65-cda1-43db-86b1-aec18090d11c
0.017357436583974,0.1123567667556583,-0.1176632427776672,-0.8366231807952621,-0.2940201491322768,0.9354924809807412,-0.1168825389033547,-0.1415500434167115,-13.494361995626642,14.71546153466178,38.08880336434111,4.080364021666568,0.2751324243438893,0.771773913830156,7580.116427951389,11.81122222222222,7.992222222222223,178.93421621958828,-3.295627651369944,36.93954968145969,1525.0,1636.0,1350.0,1528.0,1475.0,1021.7000000000002,135.0,293.35,1637161937.6339824,1637161938.6129148,83df2a65-cda1-43db-86b1-aec18090d11c
