raw_voltage_G-,raw_voltage_G0,raw_voltage_G1,raw_voltage_G2,raw_voltage_G3,raw_voltage_G4,raw_voltage_G5,raw_voltage_G6,load_x,load_y,load_z,load_l,load_m,load_n,rpm,voltage,current,roll,pitch,yaw,aileron1_pwm,elevator_pwm,throttle_pwm,rudder_pwm,aileron2_pwm,pbaro,pdiff,Tt,sample_start_time,sample_end_time,uid
0.0587347403177787,0.1899751619980492,-0.0126106340160053,-0.0221708321311784,-0.1085002445519234,0.1781002461829401,-0.2226747664172675,-0.2497391700855367,-13.388257274009694,14.915588735704477,47.83496818742566,0.5493621761800173,0.3855042546439002,0.5567876179093176,5046.3046875,12.042,0.3,179.16562758212774,-8.746170120050111,105.32251496812532,1525.0,1435.0,1200.0,1528.0,1475.0,1021.7000000000002,135.0,293.35,1637164915.2757509,1637164916.2543252,20322964-7ce6-4fc7-931a-6a4c232d0d93
0.0378069466287315,0.1955387038964027,-0.0138279841415799,-0.0227559491192702,-0.1093927123345635,0.1760391881150071,-0.2258770221974794,-0.2467703033962059,-13.57635160483692,14.872235968365253,48.22459849013769,0.5456700048615,0.4042430529435683,0.5653257552971814,5048.28662109375,12.040333333333333,0.3,179.31800151341167,-8.773370494646038,105.04577847025368,1525.0,1435.0,1200.0,1528.0,1475.0,1021.7000000000002,135.0,293.35,1637164916.3631728,1637164917.4167063,20322964-7ce6-4fc7-931a-6a4c232d0d93
0.044696863494637,0.1911996343275055,-0.0128549806054726,-0.0247414023238877,-0.1068813112209372,0.1799443507903706,-0.2228002269092399,-0.2455869203817595,-13.636023634132316,14.793705812800113,47.93248633733859,0.5583753842544443,0.3912850337243427,0.5552341895648284,5039.05126953125,12.042,0.2966666666666666,179.43227968514486,-8.799078283180844,104.8240151293718,1525.0,1435.0,1200.0,1528.0,1475.0,1021.7000000000002,135.0,293.35,1637164917.5253518,1637164918.4698594,20322964-7ce6-4fc7-931a-6a4c232d0d93
0.2346297760551047,0.5322767906360599,0.0244478712564027,-0.1903492413110178,-0.155268516694695,-0.0073982715769596,-0.261194424503876,-0.2898454385501224,-12.728425795324002,14.224810918562858,47.12829951513235,0.509377037604559,1.693980499637215,0.6645088375191402,5029.5244140625,12.031555555555556,0.3388888888888889,179.49488368125742,-8.828328568301423,104.35191852521976,1610.0,1435.0,1200.0,1528.0,1542.0,1021.7000000000002,135.0,293.35,1637164920.1879675,1637164921.278207,bec51d31-e92b-41d0-8f89-68f2038cd9fd
0.2198637908627453,0.5098845629904365,0.0230409607177484,-0.1799354730805651,-0.1517315171454285,0.0048168675006516,-0.2586961718665883,-0.2818641783300664,-12.831234355384506,14.35375582627044,47.11218636973379,0.514065593244728,1.609497334151703,0.6552864137392096,5012.533203125,12.036333333333332,0.3333333333333333,179.54179038483738,-8.843398242340195,104.13622191014068,1610.0,1435.0,1200.0,1528.0,1542.0,1021.7000000000002,135.0,293.35,1637164921.387456,1637164922.3998444,bec51d31-e92b-41d0-8f89-68f2038cd9fd
0.2286471195167139,0.5308567315689163,0.0240928564331125,-0.1864966729645911,-0.1548740557861658,-0.0107380404747622,-0.2648234650829328,-0.287846835663709,-12.967177124389648,14.363079999910862,46.94442726638808,0.4939311140930025,1.6914793983459555,0.6690013763679823,4992.0947265625,12.036,0.33,179.54963599546403,-8.845534668594333,103.93308980749478,1610.0,1435.0,1200.0,1528.0,1542.0,1021.7000000000002,135.0,293.35,1637164922.5096753,1637164923.7392237,bec51d31-e92b-41d0-8f89-68f2038cd9fd
0.4084078648705802,0.8372881641210599,0.0713081811739693,-0.3660640590007256,-0.1904467607981902,-0.1682857270467125,-0.2850762950608599,-0.3096753183917265,-12.359957868857933,14.133792830936068,43.82957487985387,0.545600623726368,2.889190588597648,0.7135580096302986,4894.897732204861,12.027888888888889,0.3699999999999999,179.49090547552083,-8.825612334877743,103.47106241999916,1695.0,1435.0,1200.0,1528.0,1609.0,1021.7000000000002,135.0,293.35,1637164925.878996,1637164927.015342,6460e65b-20ef-4a4e-94ae-33398e17145f
0.4139516834817904,0.8287798626961842,0.0714150143316054,-0.3535640295333949,-0.1869437286546904,-0.1724538642061523,-0.283047560553228,-0.3089373477574206,-12.20448085892453,14.011342836476828,43.6971793565615,0.50728800136173,2.855817950180872,0.7048049906127954,4819.322591145833,12.02588888888889,0.38,179.47421856446857,-8.836970085693828,103.27986038110356,1695.0,1435.0,1200.0,1528.0,1609.0,1021.7000000000002,135.0,293.35,1637164927.1241324,1637164928.2500436,6460e65b-20ef-4a4e-94ae-33398e17145f
0.4098624392817545,0.8222712586389609,0.070349969926321,-0.3559176466325168,-0.1887713976132982,-0.1638546160329584,-0.2828634787932527,-0.3175891915754224,-12.191470383575734,14.198495196598198,43.69923267642451,0.5331153436924757,2.8315218807868168,0.7076110266305659,4796.248426649306,12.028444444444444,0.3744444444444444,179.4753159481952,-8.831701163931594,103.11039883433608,1695.0,1435.0,1200.0,1528.0,1609.0,1021.7000000000002,135.0,293.35,1637164928.3582792,1637164929.4744065,6460e65b-20ef-4a4e-94ae-33398e17145f
0.5422303527485335,1.0571989966789177,0.1054043937453497,-0.4825133207918686,-0.2216825876277954,-0.2955651211829928,-0.309647376917968,-0.3340250639175266,-11.815533961689862,14.731510989009166,41.15159570143262,0.5277751082506036,3.750380530244554,0.7665559851895037,4796.247341579861,12.016777777777778,0.4288888888888889,179.37986025999476,-8.800856124503555,102.81953143398157,1779.0,1435.0,1200.0,1528.0,1677.0,1021.7000000000002,135.0,293.35,1637164930.2724524,1637164931.3170388,11118e77-f8fd-4c8f-a66b-7628eeb8183b
0.5392981937750075,1.0605387653655447,0.1090202851584439,-0.4765043652067777,-0.2195130525080464,-0.3029415409304363,-0.309660525591495,-0.3428478408568944,-11.794416136745548,14.883962101748654,41.36657023581412,0.498880139021294,3.7603438953912014,0.7594030643163383,4796.54541015625,12.017333333333331,0.42,179.35332269833955,-8.78733775718002,102.60819703305236,1779.0,1435.0,1200.0,1528.0,1677.0,1021.7000000000002,135.0,293.35,1637164931.4259098,1637164932.5342493,11118e77-f8fd-4c8f-a66b-7628eeb8183b
0.5261100526686646,1.0580405132216135,0.1033400484744568,-0.47334867739905,-0.2232604313488298,-0.3014031432110739,-0.314827963991848,-0.3501059230101886,-11.869121791705965,14.827627392830609,41.60954434400884,0.49456350465853,3.7485996209672328,0.7796462003765153,4794.160861545139,12.016777777777778,0.42,179.31823373984346,-8.780520564342181,102.42830730524211,1779.0,1435.0,1200.0,1528.0,1677.0,1021.7000000000002,135.0,293.35,1637164932.6438606,1637164933.5867302,11118e77-f8fd-4c8f-a66b-7628eeb8183b
0.6629720794628171,1.3056556591670028,0.1544052006197515,-0.5895645572014997,-0.2470546435418796,-0.4525989339283741,-0.3371095291152626,-0.3682829024642489,-11.455026102336534,15.939769294796871,39.48945908800381,0.4267466447729475,4.710731143483431,0.7999569718338737,4828.97265625,12.000999999999998,0.48,179.22707348172102,-8.739976656292724,102.0660507676826,1864.0,1435.0,1200.0,1528.0,1744.0,1021.7000000000002,135.0,293.35,1637164935.2065723,1637164936.2385988,84c74ae5-68dc-406d-a3ba-6b528c8b7c54
0.6608184328040791,1.2940990507588794,0.1517535469666387,-0.5926731294140092,-0.2476775631072094,-0.4391489104593599,-0.3353793795127452,-0.3533930968032692,-11.508239839334951,15.95368032793244,39.38147387463798,0.4638990040543898,4.668935406559512,0.8003357085542993,4828.671820746527,12.0,0.4944444444444443,179.20052984878652,-8.72855288031466,101.72627921287078,1864.0,1435.0,1200.0,1528.0,1744.0,1021.7000000000002,135.0,293.35,1637164936.3523989,1637164937.461942,84c74ae5-68dc-406d-a3ba-6b528c8b7c54
0.6778722901716037,1.322579127316069,0.1493341868968063,-0.5941194865842506,-0.2556588226975587,-0.4586221342853474,-0.3467661525038417,-0.3643459626194377,-11.505814133511697,15.96913086882197,40.33692408551885,0.4235381782770783,4.767292674756777,0.835493009117358,4823.83935546875,12.004444444444443,0.49,179.18215512209937,-8.737895535598115,101.49545676441974,1864.0,1435.0,1200.0,1528.0,1744.0,1021.7000000000002,135.0,293.35,1637164937.5700176,1637164938.6977684,84c74ae5-68dc-406d-a3ba-6b528c8b7c54
-0.2195787961707367,-0.2667300263899675,-0.067750789205717,0.2167738474686292,-0.053300371470444,0.3935843546642884,-0.1884032340614149,-0.2153580643536571,-14.32141144177654,16.21852885517754,46.04232937854497,0.4997193372841649,-1.337817827125073,0.4510881640961796,5000.83203125,12.033,0.3400000000000001,179.5459613536906,-8.706014394418482,101.03405699541788,1440.0,1435.0,1200.0,1528.0,1408.0,1021.7000000000002,135.0,293.35,1637164940.7053995,1637164941.6538703,226e1954-bfb7-4520-b117-de98846a9fdf
-0.242431232633046,-0.2643764094276224,-0.0649369680900896,0.2160769665933004,-0.0507758216866308,0.3939656668356329,-0.1834330264281503,-0.2102958155015447,-14.135412961242436,16.077397117646594,46.36362697589182,0.5014975629237062,-1.3328926478450691,0.4376574072599815,5051.927408854167,12.037,0.3299999999999999,179.49981204219853,-8.69627852893906,101.09220694928165,1440.0,1435.0,1200.0,1528.0,1408.0,1021.7000000000002,135.0,293.35,1637164941.762333,1637164942.8782609,226e1954-bfb7-4520-b117-de98846a9fdf
-0.2109269531349741,-0.2618518594502351,-0.0666988935232306,0.2107648935332578,-0.0543259698532893,0.3928085816419836,-0.1868122416679989,-0.2116106854983532,-14.180440594357046,16.1767411107774,45.8349766700039,0.5113440688855171,-1.3178759236500488,0.4491468360838289,5071.85009765625,12.030888888888889,0.33,179.44754288121013,-8.697557007542452,101.17455778119458,1440.0,1435.0,1200.0,1528.0,1408.0,1021.7000000000002,135.0,293.35,1637164942.9869852,1637164944.1036615,226e1954-bfb7-4520-b117-de98846a9fdf
-0.4114446016074214,-0.5970647950376948,-0.1015034941516354,0.3686544284911713,-0.0138279841646175,0.5669761967665634,-0.1561231820232105,-0.1875748665571142,-14.948602116231635,17.56343062050925,44.54332664295277,0.5534287737217949,-2.5798660098027564,0.3556304504315938,5050.92919921875,12.018111111111113,0.4,179.47178094584478,-8.65711147318979,101.28281931517893,1355.0,1435.0,1200.0,1528.0,1341.0,1021.7000000000002,135.0,293.35,1637164945.7056491,1637164946.6846914,129c0077-fb70-4962-818f-6cb7033b6236
-0.4078681554059883,-0.582469737587649,-0.1018979550700984,0.3576884166484705,-0.0174701731049547,0.5564309433739328,-0.1592788693683945,-0.1968184011937284,-14.924151651094794,17.44273918447147,43.62988165384191,0.5535157970488439,-2.515879787926232,0.3660701151031964,5053.90673828125,12.019555555555556,0.3977777777777778,179.4765165436693,-8.668855319421457,101.11401346657176,1355.0,1435.0,1200.0,1528.0,1341.0,1021.7000000000002,135.0,293.35,1637164946.8016574,1637164947.7957675,129c0077-fb70-4962-818f-6cb7033b6236
-0.3959817315748825,-0.5639958138900707,-0.0974931415736925,0.3420283205202345,-0.0178383366014115,0.5480552246495919,-0.1595023972322233,-0.187943029739373,-15.075139953650728,17.438652785423855,42.97980373012125,0.5700323900765298,-2.437553794277633,0.3619628247594963,5011.59912109375,12.019666666666668,0.4033333333333333,179.4678695241801,-8.665937405689784,100.94294454861962,1355.0,1435.0,1200.0,1528.0,1341.0,1021.7000000000002,135.0,293.35,1637164947.9036996,1637164949.022978,129c0077-fb70-4962-818f-6cb7033b6236
-0.590621931920881,-0.9284120864714408,-0.1334022332473939,0.509161384777919,0.0247239938492385,0.7377777444716351,-0.1244742678621761,-0.1518367069707004,-15.705381882430476,19.13145232328294,41.05011490514367,0.6281618674867468,-3.805598292566581,0.2565807201578842,4885.243543836806,12.018999999999998,0.4177777777777777,179.54931725330275,-8.645814624893806,100.62898276086146,1280.3333333333333,1435.0,1200.0,1528.0,1280.5555555555557,1021.7000000000002,135.0,293.35,1637164950.6863544,1637164951.687041,d1dc8582-7327-4c0a-99a3-e7181968ac66
-0.5953291667775529,-0.9317781546898768,-0.137504626762717,0.509831968217811,0.0225018641705506,0.7436683598347252,-0.1262756393689886,-0.1526387774617209,-15.739192652443965,19.03910555065936,41.484735120150006,0.6391220065624368,-3.822180017808648,0.2679899590285945,4877.519205729167,12.016333333333332,0.4099999999999999,179.56379270088377,-8.63566031546398,100.43304360632148,1271.0,1435.0,1200.0,1528.0,1273.0,1021.7000000000002,135.0,293.35,1637164951.7951202,1637164952.9149055,d1dc8582-7327-4c0a-99a3-e7181968ac66
-0.6192598016952772,-0.9599426785521378,-0.1391219164908455,0.521087251161142,0.0277481940264972,0.7659685465315146,-0.1202929821858587,-0.1462879567541796,-15.838912891743112,19.095352064928253,42.22143630813662,0.6642039153878272,-3.935125014760693,0.2521677907195461,4885.869683159723,12.017666666666663,0.4122222222222222,179.55887344686153,-8.64631977430117,100.28172835435896,1271.0,1435.0,1200.0,1528.0,1273.0,1021.7000000000002,135.0,293.35,1637164953.0232823,1637164954.2521124,d1dc8582-7327-4c0a-99a3-e7181968ac66
-0.7729681209438443,-1.2427318937122624,-0.1534145504370342,0.6554669139488455,0.0718357725636135,0.9018997562564453,-0.085619868227605,-0.1182549342092021,-16.43340198792322,20.76475976974542,39.80938049709744,0.676203178733634,-4.987593646000578,0.1246920626752784,4984.997992621527,11.994,0.51,179.63951976712158,-8.669956592561384,99.84463267515368,1186.0,1435.0,1200.0,1528.0,1206.0,1021.7000000000002,135.0,293.35,1637164956.394387,1637164957.534259,7b5ca948-eefe-4bd6-a19c-d51b34abbe53
-0.7490610413168582,-1.2385078714283244,-0.1628618894212798,0.6493713981045447,0.062583473330757,0.898703527580388,-0.0964198791686318,-0.1331266593820583,-16.58662613513871,20.67923321275521,39.06978217247429,0.6815384107949712,-4.963961343034448,0.1648911772776576,4969.908799913194,11.992222222222225,0.5188888888888888,179.65736022123366,-8.679137600034482,99.45365746886402,1186.0,1435.0,1200.0,1528.0,1206.0,1021.7000000000002,135.0,293.35,1637164957.6420925,1637164958.759755,7b5ca948-eefe-4bd6-a19c-d51b34abbe53
-0.7532187704264709,-1.215198500581195,-0.1555709367279519,0.6407535242831262,0.0633022687754358,0.8833206499871618,-0.0959941900908984,-0.1207531867947648,-16.541577889646494,20.753448803486723,39.030224927435576,0.6672822382092296,-4.874980765026865,0.1560578160814322,4928.952962239583,11.994666666666667,0.5066666666666667,179.65965212915515,-8.689051904205972,99.21325378282728,1186.0,1435.0,1200.0,1528.0,1206.0,1021.7000000000002,135.0,293.35,1637164958.8676977,1637164959.8780675,7b5ca948-eefe-4bd6-a19c-d51b34abbe53
0.0341593786534373,0.1731321310055113,-0.0237397106890377,-0.0041810246087705,-0.1112383112797817,0.1595202425355564,-0.2396771781039632,-0.2637930889537414,-14.006588700354888,14.942994157775631,45.09887365877948,0.4659099474540112,0.3480389928545457,0.5937119778284895,4876.904405381944,12.038333333333334,0.31,179.27723894444503,-8.70848853558158,98.6992623161262,1525.0,1435.0,1200.0,1528.0,1475.0,1021.7000000000002,135.0,293.35,1637164961.7195828,1637164962.7443607,5d8aeb81-6494-42d0-b88c-3d08cf2c2c74
0.0345197724970813,0.1732122184958234,-0.0218486890491592,-0.0060045097316358,-0.1090639949155263,0.1623513958031047,-0.2345814600553352,-0.2584463468265425,-13.834839067004824,14.78036255119323,45.301614564659246,0.4755200906961229,0.3456685130298608,0.5813840988982841,4889.576171875,12.038444444444444,0.3055555555555556,179.14977243633444,-8.683050444655253,99.09270549743596,1525.0,1435.0,1200.0,1528.0,1475.0,1021.7000000000002,135.0,293.35,1637164962.8537571,1637164963.97394,5d8aeb81-6494-42d0-b88c-3d08cf2c2c74
0.0316703404289439,0.1673895376885397,-0.0246362127020581,-0.0030504359510737,-0.1108012664943413,0.1651706953528957,-0.2360289125253591,-0.2689554440203854,-13.785748789763984,14.80571129938,45.2612137170409,0.4752392770399081,0.3233005486723,0.5888991922750509,4894.539767795139,12.038555555555556,0.3022222222222221,179.07592443102828,-8.665453600623575,99.46774056002268,1525.0,1435.0,1200.0,1528.0,1475.0,1021.7000000000002,135.0,293.35,1637164964.082553,1637164965.1092932,5d8aeb81-6494-42d0-b88c-3d08cf2c2c74
0.0359661291637825,0.1669139931575086,-0.0491190858950034,-0.3939436832782346,-0.175622700180032,0.544478779612397,-0.1523495058683617,-0.1881008142389256,-13.495530796362898,13.9361808142694,48.18189342402138,2.202982940303782,0.3401374605157971,0.5926137938520154,4906.993489583333,12.033333333333331,0.3388888888888888,178.9371167732558,-8.561661192222415,100.21769153634052,1525.0,1535.0,1200.0,1528.0,1475.0,1021.7000000000002,135.0,293.35,1637164967.2488291,1637164968.389303,a67eb65f-4212-451b-b7fd-75d2774c6714
0.0451307704504217,0.1616019200575765,-0.0512228773730698,-0.3934966275584252,-0.1759777150073414,0.5521444688031087,-0.1542297695898306,-0.184971424504036,-13.74738269748749,14.018847564097436,48.57500879869443,2.219579461413927,0.3183253215581532,0.5983476901008045,4909.803927951389,12.035333333333332,0.32,178.9365582155637,-8.556622030434761,100.36195196180036,1525.0,1535.0,1200.0,1528.0,1475.0,1021.7000000000002,135.0,293.35,1637164968.498515,1637164969.61614,a67eb65f-4212-451b-b7fd-75d2774c6714
0.050100977625686,0.1758814037382584,-0.0423475070945647,-0.4119048059406154,-0.1715466039756675,0.5585478832762615,-0.1411205184435457,-0.1539010528103071,-13.445192531382272,13.764437862136644,49.15031943514276,2.274492373342873,0.3674690531436761,0.5642430522295047,4920.464463975694,12.036555555555555,0.3211111111111111,178.92089735070675,-8.546063222024092,100.47098075370148,1525.0,1535.0,1200.0,1528.0,1475.0,1021.7000000000002,135.0,293.35,1637164969.7245133,1637164970.732252,a67eb65f-4212-451b-b7fd-75d2774c6714
0.070967958510182,0.1820086959788184,-0.0707092460059431,-0.8251027254583394,-0.2480062805597871,0.9563090570048486,-0.0655944029183192,-0.0850150283833138,-13.499767493312634,13.540875386819666,52.641569921137176,4.098022918982723,0.408965261076498,0.6016071066387245,5007.32421875,12.02811111111111,0.3400000000000001,178.92889929677438,-8.427492371261271,100.7495355997122,1525.0,1636.0,1200.0,1528.0,1475.0,1021.7000000000002,135.0,293.35,1637164972.7792046,1637164973.8041394,4f293203-ed9f-4418-bfd3-0064a34765de
0.0642621234912257,0.1736329767585792,-0.0683293318861096,-0.8212370069715372,-0.2442851990857423,0.9588467552105968,-0.0611632920986947,-0.0772572970878635,-13.417435125875857,13.56245955165802,52.367400463383134,4.095264679580713,0.3790737375663532,0.5856682752806393,5006.673828125,12.027,0.3466666666666667,178.94581539861878,-8.413413928425799,100.75688791889876,1525.0,1636.0,1200.0,1528.0,1475.0,1021.7000000000002,135.0,293.35,1637164973.912906,1637164974.9602764,4f293203-ed9f-4418-bfd3-0064a34765de
0.0661292383686815,0.173632976765736,-0.0715376139008373,-0.8216709141091232,-0.2478879422832962,0.9589387961226862,-0.0647397376204639,-0.0833582925545784,-13.404815404733306,13.60197752683531,52.29706174960598,4.096547654449704,0.3794585340377271,0.599930274953769,5001.156412760417,12.030555555555557,0.35,178.96567303526575,-8.40279345858512,100.76848406228964,1525.0,1636.0,1200.0,1528.0,1475.0,1021.7000000000002,135.0,293.35,1637164975.068629,1637164976.17016,4f293203-ed9f-4418-bfd3-0064a34765de
0.0782654849127955,0.1731859210783846,-0.0724317252898076,-1.0486438396618756,-0.2809832149945555,1.1749718640269604,-0.014866731161965,-0.0397703628958518,-13.480051331291923,14.18055456529,53.41509926983946,5.097929400713163,0.3963035221090739,0.5744600771558974,5000.83203125,12.008888888888889,0.43,179.00080601053645,-8.3447077274723,100.78860731740428,1525.0,1737.0,1200.0,1528.0,1475.0,1021.7000000000002,135.0,293.35,1637164977.704603,1637164978.7192907,9704a2e4-3530-4380-b3e8-af17c2335f62
0.0637756218160148,0.169477988898521,-0.0800448207826206,-1.050550402063606,-0.2871236569871901,1.1804022754422367,-0.020546968075623,-0.0383634523072639,-13.527640625516556,14.118608485829355,53.37086485290636,5.113612262077407,0.3828764542937689,0.600752893019474,4979.530870225694,12.009666666666666,0.4344444444444444,179.04656827797555,-8.350256686990505,100.57398911330417,1525.0,1737.0,1200.0,1528.0,1475.0,1021.7000000000002,135.0,293.35,1637164978.8271224,1637164979.9481163,9704a2e4-3530-4380-b3e8-af17c2335f62
0.0713492707586485,0.1616019200911376,-0.0833451436644337,-1.044528295093048,-0.2878336866475281,1.1811386024664237,-0.0242023057379377,-0.042886603725308,-13.68439862710468,14.177449924051244,53.14029277052924,5.1017925597644505,0.3555397815796725,0.610063925847349,4955.218695746527,12.013444444444444,0.43,179.08877884704623,-8.34702913801646,100.36877911533075,1525.0,1737.0,1200.0,1528.0,1475.0,1021.7000000000002,135.0,293.35,1637164980.0568511,1637164981.29045,9704a2e4-3530-4380-b3e8-af17c2335f62
0.0789919503476452,0.17440217546485,-0.0733411768413729,-1.138194196336727,-0.3015121678266212,1.2598680637696733,-0.0031189187071888,-0.0270331110892849,-13.503124473869605,15.152687633348693,53.96043161302416,5.497180579400102,0.4071796527668072,0.5866505609851215,4931.77587890625,11.996666666666666,0.47,179.11941604002328,-8.328431196952684,100.0076298273267,1525.0,1837.0,1200.0,1528.0,1475.0,1021.7000000000002,135.0,293.35,1637164982.199644,1637164983.2303,2051d754-7235-49b8-8dcc-67586a99d595
0.0774108196560504,0.1631797635763796,-0.0746275577501437,-1.1112974225061385,-0.2981028200379378,1.2430032176805843,-0.0063463758675232,-0.026805748074587,-13.334872314693206,15.131497734318026,53.502960988223215,5.398417733198626,0.3645590105872505,0.5867146540925574,4926.1103515625,12.002,0.4600000000000001,179.15016555166665,-8.35919816352396,99.77432194892768,1525.0,1837.0,1200.0,1528.0,1475.0,1021.7000000000002,135.0,293.35,1637164983.349592,1637164984.361658,2051d754-7235-49b8-8dcc-67586a99d595
0.0852923672519031,0.1677730413039089,-0.0792306973335868,-1.1007066876321574,-0.2990056972247598,1.229530186958333,-0.0140761658256472,-0.0450029963568075,-13.536115467185232,14.89714830623933,53.5702096185095,5.342378613937153,0.3810151863397554,0.605923508377498,4918.5693359375,12.004666666666669,0.4499999999999999,179.17551921386575,-8.377177498149157,99.59323086673342,1525.0,1837.0,1200.0,1528.0,1475.0,1021.7000000000002,135.0,293.35,1637164984.4691536,1637164985.5900977,2051d754-7235-49b8-8dcc-67586a99d595
0.0251518321359355,0.1830879004412074,0.0077298094733195,0.3812412698810652,-0.0480636501244643,-0.2225999621910185,-0.3142615585231426,-0.3246540874792157,-13.37376516269016,15.941824875116035,42.43802942552576,-1.2541007066595131,0.3590414124422336,0.5718254429372722,4917.942057291667,12.04011111111111,0.3088888888888889,179.14861433981517,-8.78174089147389,99.28922977151484,1525.0,1334.0,1200.0,1528.0,1475.0,1021.7000000000002,135.0,293.35,1637164987.7298648,1637164988.7551548,082bc63e-e3d0-4bff-a37e-5f56bb3905b1
0.0313246393557004,0.1808779081227297,0.012377367934199,0.3742820700639024,-0.0436097820003664,-0.2109532503892274,-0.3060183361834454,-0.3463059487725952,-13.375202659404854,15.908506028861614,42.92462550537604,-1.2121433550172656,0.3476009748633285,0.5480579296178051,4919.196614583333,12.040444444444445,0.3044444444444444,179.07240916033544,-8.782658698143612,99.6597341419521,1525.0,1334.0,1200.0,1528.0,1475.0,1021.7000000000002,135.0,293.35,1637164988.863533,1637164989.980243,082bc63e-e3d0-4bff-a37e-5f56bb3905b1
0.0193487055484155,0.1864762181973288,0.0093228246062579,0.3687120804729406,-0.0487969428412422,-0.2137751632000293,-0.3115433180465183,-0.3306468602619486,-13.437973490507828,15.993668775963092,42.54062816193688,-1.2056003883886266,0.3729392641492378,0.5671612199319028,4928.93994140625,12.03788888888889,0.3,179.02575441484476,-8.763366923696648,99.96680958120707,1525.0,1334.0,1200.0,1528.0,1475.0,1021.7000000000002,135.0,293.35,1637164990.0897076,1637164991.0572195,082bc63e-e3d0-4bff-a37e-5f56bb3905b1
0.0116617754151224,0.1872600827600863,0.0465184637377039,0.7725919487841296,0.0213968679600974,-0.6044685248011905,-0.3925342437864934,-0.4170236957377945,-13.567344826349112,17.725429757550543,39.79235435966176,-2.981765635611407,0.3538138910246166,0.5351254696967852,4928.93994140625,12.032666666666666,0.3299999999999999,178.93655821556368,-8.87582342705997,100.68224761164883,1525.0,1234.0,1200.0,1528.0,1475.0,1021.7000000000002,135.0,293.35,1637164993.2590342,1637164994.3974073,cf2f24fb-4203-4f1a-aca7-a10a4b77ffeb
0.0066445361814426,0.1935795481998151,0.0445522279179834,0.7698605602532433,0.0194250692283144,-0.6071104022072138,-0.3954031887366184,-0.4224106166379958,-13.65163923684108,17.61159508239326,39.92260241633927,-2.982415142157957,0.3771676714644515,0.5454882740812996,4924.220865885417,12.036666666666669,0.3299999999999999,178.9632870225157,-8.879034185152305,100.83376625146668,1525.0,1234.0,1200.0,1528.0,1475.0,1021.7000000000002,135.0,293.35,1637164994.5054617,1637164995.5134113,cf2f24fb-4203-4f1a-aca7-a10a4b77ffeb
0.0043303656087261,0.185940155983682,0.0434477374276805,0.7775262494441861,0.0194513666008095,-0.6078993242425194,-0.3973228987789013,-0.421292977345952,-13.665445025787514,17.761078569163946,39.73657899493557,-3.0005805268699994,0.3492504467322217,0.5485007273693974,4927.05126953125,12.032666666666668,0.3266666666666666,178.96995784060508,-8.89487367842878,100.97853894111428,1525.0,1234.0,1200.0,1528.0,1475.0,1021.7000000000002,135.0,293.35,1637164995.6205723,1637164996.8549984,cf2f24fb-4203-4f1a-aca7-a10a4b77ffeb
-0.0148979594435474,0.2001927942890808,0.0703357254935651,1.0474755364129775,0.0608029207639843,-0.884876181548972,-0.4624193687280503,-0.4758556973335704,-13.957429109540977,19.58735340416172,37.51883860672525,-4.21897902041103,0.3929278668666113,0.5482204865469011,4923.27783203125,12.03,0.33,178.97412425599876,-8.998479679583843,101.19921552300823,1525.0,1133.0,1200.0,1528.0,1475.0,1021.7000000000002,135.0,293.35,1637164997.7649014,1637164998.902655,4404d402-0553-48b4-9222-43d1f4e15fb9
0.0007933662843012,0.1976687926219299,0.064262123578517,1.0410129525910314,0.056451798019228,-0.8735425471993733,-0.4648809148838453,-0.5017235717589181,-14.069824953182511,19.44895146906095,37.90162684451907,-4.180148291497926,0.381272494904142,0.5660865998976553,4916.061848958333,12.027111111111113,0.3555555555555555,178.97379185345915,-9.000893772000488,101.29637344613184,1525.0,1133.0,1200.0,1528.0,1475.0,1021.7000000000002,135.0,293.35,1637164999.0106983,1637165000.0181808,4404d402-0553-48b4-9222-43d1f4e15fb9
-0.0060439559159187,0.1946840386306374,0.064446205308051,1.0396586371140772,0.0564255006059881,-0.8713467138018118,-0.463105840431322,-0.4955042365149428,-13.964061799412937,19.45121907530103,37.62786539547496,-4.172125159157599,0.3719340814149297,0.5626580518212265,4911.679578993056,12.028555555555556,0.3511111111111111,178.968081815313,-9.00259278155653,101.35408475006892,1525.0,1133.0,1200.0,1528.0,1475.0,1021.7000000000002,135.0,293.35,1637165000.1258583,1637165001.2473328,4404d402-0553-48b4-9222-43d1f4e15fb9
-0.0193630377109683,0.1887150786265552,0.0738968306288736,1.133161203155215,0.0690619454695817,-0.9572351424272392,-0.4868129455838124,-0.4998109837709815,-14.162714041176736,20.57564505182537,36.75982486844499,-4.568360640480756,0.3477523069003712,0.564591273136463,4901.69287109375,12.021,0.39,178.99694164128607,-9.060273254778595,101.45469874891256,1525.0,1033.0,1200.0,1528.0,1475.0,1021.7000000000002,135.0,293.35,1637165002.2714188,1637165003.4084022,6726b2ee-4810-4405-a83d-9314fd040379
-0.0201525073328522,0.1985629038912957,0.0773845222808541,1.1306081647009096,0.0693375202171959,-0.9626644613789342,-0.4863790386072997,-0.5124660591648315,-14.115947645548726,20.65673050486263,37.039206901487766,-4.574022750696164,0.3824172919971553,0.5604067038600428,4896.404568142361,12.019555555555556,0.3922222222222222,179.01252965079186,-9.070887084157578,101.42755633606085,1525.0,1033.0,1200.0,1528.0,1475.0,1021.7000000000002,135.0,293.35,1637165003.5170205,1637165004.639148,6726b2ee-4810-4405-a83d-9314fd040379
-0.0115149094615614,0.1917283213635632,0.0760882797606644,1.1364894666677043,0.0694454489070304,-0.96117975346682,-0.487894974459973,-0.5123296421644471,-14.173247379637454,20.762846114537663,37.05636298257296,-4.583340389560463,0.3562324622770996,0.5633501488298994,4892.987955729167,12.018777777777778,0.3911111111111111,179.04633149808433,-9.067544180877553,101.42628971542474,1525.0,1033.0,1200.0,1528.0,1475.0,1021.7000000000002,135.0,293.35,1637165004.7469633,1637165005.8742669,6726b2ee-4810-4405-a83d-9314fd040379
0.0403183476099709,0.1743956010841515,-0.0171677530853365,-0.025543472923269,-0.109379563644276,0.1853221673089566,-0.2246410445882637,-0.2400907645620907,-13.647033413947746,14.93493775085712,46.2270534919297,0.5727134291976708,0.3432805655726479,0.5626252667931338,4916.702365451389,12.038333333333334,0.3,179.08869688477614,-8.742492727228228,101.3965571430578,1525.0,1435.0,1200.0,1528.0,1475.0,1021.7000000000002,135.0,293.35,1637165007.8002577,1637165008.9460564,f742a513-1c4f-4104-af7b-164bc06b44d7
0.0184783630119992,0.1756052810860151,-0.0169310765272491,-0.0236763579483641,-0.1094716045125675,0.1807464212266757,-0.2245884497774933,-0.2439959277513393,-13.52334392522957,14.895024715303087,45.99056180596858,0.5579911234230912,0.3488226224260888,0.5622852016333605,4936.196343315973,12.04011111111111,0.3,179.0992260008367,-8.739599193477341,101.49764470168388,1525.0,1435.0,1200.0,1528.0,1475.0,1021.7000000000002,135.0,293.35,1637165009.0653038,1637165010.1675832,f742a513-1c4f-4104-af7b-164bc06b44d7
0.0337045533370116,0.1736198280672496,-0.0176279574660859,-0.0176411061522429,-0.1096688350002779,0.1764862437908932,-0.2261662935149581,-0.2519903363028268,-13.462886000336534,14.928847694784508,45.88900691209971,0.5350076476311887,0.3410614649981969,0.5654481169136477,4942.840494791667,12.041222222222224,0.3,179.09320936308782,-8.740685288419112,101.5694580695273,1525.0,1435.0,1200.0,1528.0,1475.0,1021.7000000000002,135.0,293.35,1637165010.27672,1637165011.2839096,f742a513-1c4f-4104-af7b-164bc06b44d7
0.0819734171667576,0.1953151760546609,0.1232077281260229,-0.0443855551117025,0.015480460302618,0.1671375210643951,-0.0790849658623624,-0.094008736945632,-12.500865606797488,14.863934832489452,45.18556223304027,0.5812832289230883,0.4340778239078072,-0.0042988610348707,4958.725802951389,12.037222222222224,0.2911111111111111,179.09801174498426,-8.721828653940523,101.69681225897156,1525.0,1435.0,1200.0,1439.0,1475.0,1021.7000000000002,135.0,293.35,1637165013.217492,1637165014.1823242,2eec8fac-4513-438b-8058-e48a5fe62d99
0.0802114919717455,0.1907394299478531,0.1247198281612114,-0.0418873027724601,0.0173475751810647,0.1651126219183351,-0.0781645570845215,-0.0990315393237145,-12.511043272547829,14.949718312968788,44.596127473840326,0.5716424440270753,0.4220018999679898,-0.0116189949953709,4914.840874565973,12.039333333333332,0.2955555555555555,179.11529515922405,-8.729466702707368,101.73302136849148,1525.0,1435.0,1200.0,1439.0,1475.0,1021.7000000000002,135.0,293.35,1637165014.2913282,1637165015.3344774,2eec8fac-4513-438b-8058-e48a5fe62d99
0.0818024841635425,0.2044535195818424,0.124969653403876,-0.0425052914712821,0.0153358246600425,0.15309471393966,-0.0813070956254895,-0.0953236073106858,-12.42771601824088,14.854616819963434,44.706519786238935,0.5454721735706258,0.471960212456281,-0.0028381616009624,4876.599283854167,12.041999999999998,0.2933333333333333,179.11213050490858,-8.723385842207547,101.76783104814152,1525.0,1435.0,1200.0,1439.0,1475.0,1021.7000000000002,135.0,293.35,1637165015.4428585,1637165016.5162342,2eec8fac-4513-438b-8058-e48a5fe62d99
0.1197364723764896,0.2306457213170897,0.2968231058683508,-0.0614920095933076,0.1689257437058935,0.1352387849015467,0.0959636299777939,0.0703499698474011,-11.17999627162138,14.83604890214528,44.668768645022176,0.5572330193862516,0.5749323764558628,-0.6948543800471201,4864.60400390625,12.041,0.2933333333333333,179.09079299394145,-8.7275383126317,101.76674504806348,1525.0,1435.0,1200.0,1351.0,1475.0,1021.7000000000002,135.0,293.35,1637165017.221215,1637165018.358683,fd262e04-13ce-49b5-aa80-7882823e24d5
0.133345372585052,0.2162347508966763,0.29057747554495,-0.055851218659642,0.1663617480517649,0.1433515302693816,0.0914141811549267,0.0703762671489145,-11.363318563275868,14.931697068115335,44.51152295938881,0.5629449260260553,0.5224848306138852,-0.6784547064557548,4859.08544921875,12.038666666666666,0.3,179.09658347653783,-8.723207877834174,101.80257925608902,1525.0,1435.0,1200.0,1351.0,1475.0,1021.7000000000002,135.0,293.35,1637165018.467394,1637165019.4761736,fd262e04-13ce-49b5-aa80-7882823e24d5
0.1356546123383089,0.2223264320403536,0.2998215562880266,-0.057247719833451,0.1731010025087886,0.1382706550642429,0.098742387730197,0.0646790464589202,-11.292619183929446,14.994538663657073,44.51760539467409,0.5555911214107464,0.5455370676801814,-0.7099112404375102,4853.58203125,12.04,0.3,179.0922728682616,-8.717799032057693,101.83770388335074,1525.0,1435.0,1200.0,1351.0,1475.0,1021.7000000000002,135.0,293.35,1637165019.5838954,1637165020.703161,fd262e04-13ce-49b5-aa80-7882823e24d5
0.1925501149004087,0.25144531412911,0.4779178938569178,-0.0601103006522584,0.3320632530658816,0.1065768191230916,0.2773044153363121,0.2529519351002981,-9.919118685618438,15.1457692745948,45.0570141415879,0.5014760258394338,0.651893882521308,-1.4182652343842177,4839.891764322917,12.035666666666666,0.32,179.08900348437894,-8.72184990341794,101.78563962803749,1525.0,1435.0,1200.0,1262.0,1475.0,1021.7000000000002,135.0,293.35,1637165022.752236,1637165023.8880558,a1b93a2b-886d-4ef6-9c50-a8777d1c96a9
0.1734883410648924,0.2447805690406022,0.4690710135220981,-0.0546152412173309,0.3272623356856488,0.1084285938067515,0.2676855967332507,0.2454117062893677,-10.254514798346213,15.133100648296564,45.04211341731535,0.492546000465186,0.6281653329645803,-1.3869804123739218,4864.907552083333,12.035111111111112,0.3111111111111111,179.1007089107965,-8.718465354956722,101.77012447388284,1525.0,1435.0,1200.0,1262.0,1475.0,1021.7000000000002,135.0,293.35,1637165023.9964173,1637165025.2101965,a1b93a2b-886d-4ef6-9c50-a8777d1c96a9
0.200035557772687,0.2557334324562698,0.4683346866045271,-0.0644636150264553,0.322384169724012,0.1081524711362702,0.2662918350076079,0.2366152289266647,-10.099496646331389,15.142937554413942,45.2300244636057,0.5142775665757902,0.6676486320616632,-1.375739710841286,4871.05126953125,12.035333333333334,0.32,179.09849744732526,-8.71546538409127,101.77356840704432,1525.0,1435.0,1200.0,1262.0,1475.0,1021.7000000000002,135.0,293.35,1637165025.318993,1637165026.3486488,a1b93a2b-886d-4ef6-9c50-a8777d1c96a9
0.2210866195956358,0.2641880436763107,0.6071191625488713,-0.0418741540599276,0.4502815282044599,0.0708496203537094,0.3986203049062483,0.3826709375539681,-9.35125540359064,15.634440732857351,45.09582609129041,0.3900208185002606,0.7012773788594526,-1.9261732584634303,4881.22216796875,12.030333333333337,0.3400000000000001,179.1165701278691,-8.734777743969483,101.67594678996706,1525.0,1435.0,1200.0,1173.0,1475.0,1021.7000000000002,135.0,293.35,1637165028.280784,1637165029.3282297,a8dfa9a0-8c82-46a3-b787-1686ab617862
0.2308823977953816,0.2602565836730381,0.6156921116753025,-0.033511582994196,0.4602087930169275,0.0709285125327586,0.4088499897981896,0.3804751054258027,-9.2217567533435,15.586408570835433,45.72602749178968,0.3716082969733459,0.679543047991212,-1.965348581918592,4883.07666015625,12.030333333333331,0.3400000000000001,179.1278763676752,-8.728671270260277,101.60831653353532,1525.0,1435.0,1200.0,1173.0,1475.0,1021.7000000000002,135.0,293.35,1637165029.43761,1637165030.534404,a8dfa9a0-8c82-46a3-b787-1686ab617862
0.2286602681943076,0.2595597028588001,0.6072112034090423,-0.0360229841400896,0.4517673307374454,0.0750440544506137,0.4018285865427243,0.3767671733794646,-9.161859657923516,15.553763741158509,45.82558871103944,0.3859288970426238,0.6753939849857927,-1.9322042464497624,4904.186089409723,12.032888888888888,0.33,179.13369417102825,-8.742329846189271,101.59485878414068,1525.0,1435.0,1200.0,1173.0,1475.0,1021.7000000000002,135.0,293.35,1637165030.6445131,1637165031.8761098,a8dfa9a0-8c82-46a3-b787-1686ab617862
-0.0231635588374102,0.1487030494298976,-0.2137407742430172,0.0110624982862144,-0.2873866309121007,0.1833630116695375,-0.4364534269712713,-0.4592401231308733,-15.024910408844889,15.29160038597808,45.59284307108365,0.4775184929748455,0.2453285303858992,1.369811396355942,4923.27783203125,12.043,0.3,179.10975815253687,-8.734544094581626,101.65442258716264,1525.0,1435.0,1200.0,1617.0,1475.0,1021.7000000000002,135.0,293.35,1637165033.6976345,1637165034.7434616,7e1e753e-ff60-463b-ba8d-49a4ea6dd85b
-0.034931642291566,0.1506622051347496,-0.2129781498167081,0.0105628478156204,-0.2880703632297465,0.1827844690354079,-0.4351385570636557,-0.4655252018126679,-14.841086488819396,15.29618688546621,45.72496480987566,0.4775274907871075,0.2503144450552101,1.368376722090885,4928.93994140625,12.04044444444444,0.29,179.1171150251829,-8.726450130687683,101.68711414926004,1525.0,1435.0,1200.0,1617.0,1475.0,1021.7000000000002,135.0,293.35,1637165034.8517811,1637165035.9722166,7e1e753e-ff60-463b-ba8d-49a4ea6dd85b
-0.0322361594918721,0.1416947945591533,-0.2148189674774941,0.017202939525793,-0.2872156978757564,0.1848882603584594,-0.4351648544392847,-0.4485239334968527,-14.82953942755408,15.27314026371985,45.63726488667972,0.4670239640781357,0.2164421319091692,1.3686263201732816,4936.194932725694,12.038444444444444,0.2977777777777777,179.13491601597974,-8.718604330333584,101.70716151338392,1525.0,1435.0,1200.0,1617.0,1475.0,1021.7000000000002,135.0,293.35,1637165036.0801828,1637165037.089425,7e1e753e-ff60-463b-ba8d-49a4ea6dd85b
-0.0783617877581397,0.1233523636910829,-0.3938647910187718,0.0463535992748564,-0.451824256382149,0.1825083464429656,-0.6294368958079591,-0.654419428178229,-16.040711492888487,15.685222045040064,45.12448611091344,0.3890442734846983,0.1458313555436018,2.109787089366729,4914.495659722223,12.033222222222223,0.31,179.11589318023138,-8.713708981973456,101.75198880381664,1525.0,1435.0,1200.0,1706.0,1475.0,1021.7000000000002,135.0,293.35,1637165039.227787,1637165040.2731268,d1faf352-b267-4972-a409-848786b52d20
-0.0901824662630704,0.1253115194179503,-0.3934045865395411,0.0473660488926589,-0.4518374050983322,0.1788530089785895,-0.6313040113044183,-0.652394528152015,-16.130814864519692,15.760638515715405,45.00450529633135,0.3790047824759261,0.1547862964285227,2.111818812830124,4911.9921875,12.034333333333333,0.31,179.15237549731813,-8.707907210592222,101.69259879116356,1525.0,1435.0,1200.0,1706.0,1475.0,1021.7000000000002,135.0,293.35,1637165040.3816657,1637165041.5034406,d1faf352-b267-4972-a409-848786b52d20
-0.0889990834531732,0.1303080238986428,-0.3907354006829598,0.0442892539632066,-0.4505619812750126,0.1755526863161287,-0.6303047100890562,-0.6550242682120164,-16.168965084702407,15.78105005302304,44.84271384009519,0.3787522361684949,0.1757785751830389,2.1053348040389284,4897.9580078125,12.036888888888887,0.31,179.12223007796132,-8.722211713716474,101.6502933583544,1525.0,1435.0,1200.0,1706.0,1475.0,1021.7000000000002,135.0,293.35,1637165041.6114368,1637165042.7320175,d1faf352-b267-4972-a409-848786b52d20
-0.1445084995842949,0.1063713706670786,-0.5553916330917811,0.0980164701224256,-0.5988645234331904,0.1581032713055327,-0.8144621379781963,-0.8518674587578298,-17.31997142373905,16.359291619707093,44.71744507370064,0.2133807306236508,0.078214875218087,2.79032955540939,4906.36865234375,12.033888888888889,0.32,179.12462519763028,-8.733404591355093,101.62315018659277,1525.0,1435.0,1200.0,1795.0,1475.0,1021.7000000000002,135.0,293.35,1637165044.757926,1637165045.8027334,6e277335-bfcd-445d-8507-afa965c51642
-0.1349406309195958,0.105023081489078,-0.5501896785704956,0.1000134283435598,-0.5953028691832141,0.1580123261775447,-0.8097844870205202,-0.8288106605346626,-17.19732201940402,16.512324783364775,44.81360761157131,0.2100222816763559,0.0715241057880093,2.771740597848439,4903.56201171875,12.033666666666669,0.32,179.11726680716444,-8.723280258866629,101.56306197682451,1525.0,1435.0,1200.0,1795.0,1475.0,1021.7000000000002,135.0,293.35,1637165045.910643,1637165047.031751,6e277335-bfcd-445d-8507-afa965c51642
-0.1387406044270148,0.1045234309787848,-0.5591833894333399,0.1062853563749514,-0.6007332824145252,0.1532262007965031,-0.8191332145034969,-0.836542097127348,-17.32919447058427,16.31404783730043,44.817118933250285,0.1832912357873718,0.0692066280823368,2.804695673323541,4903.25048828125,12.032111111111114,0.32,179.11980308407624,-8.72108311981987,101.51709328589052,1525.0,1435.0,1200.0,1795.0,1475.0,1021.7000000000002,135.0,293.35,1637165047.140957,1637165048.261401,6e277335-bfcd-445d-8507-afa965c51642
-0.1808907765387885,0.0800729248926535,-0.6835503749587899,0.1607351176183472,-0.7153348319723035,0.1316183420462084,-0.9645659652223062,-0.9879807736878512,-18.118960848874703,17.31457247024359,44.42106939025389,0.0118894431834381,-0.0279688526595818,3.333375644591668,4914.80859375,12.022666666666666,0.3566666666666667,179.12079118477615,-8.734202300531908,101.441766924084,1525.0,1435.0,1200.0,1883.0,1475.0,1021.7000000000002,135.0,293.35,1637165049.2634058,1637165050.3971636,ac85b16e-3a82-4a3a-8b02-66178d9b9528
-0.1889817768920082,0.0928342402126358,-0.6675944260287534,0.1565002261381932,-0.7010184245941039,0.1213537620039944,-0.949712986693136,-0.9761155853980308,-18.06748457441648,17.08982016045331,44.3061509921763,-0.0023113783926591,0.0220771372637669,3.2724521361541474,4923.27783203125,12.025222222222222,0.3499999999999999,179.1307556718653,-8.736477417571693,101.29815688441512,1525.0,1435.0,1200.0,1883.0,1475.0,1021.7000000000002,135.0,293.35,1637165050.5053844,1637165051.742629,ac85b16e-3a82-4a3a-8b02-66178d9b9528
-0.1809347742385768,0.0873512339938204,-0.6701058288429054,0.1614704331926699,-0.7024384851512038,0.1256928316528343,-0.9521454979624434,-0.9736830750338984,-18.127632477254373,17.200880678607856,44.78953848379624,-0.0031145185981311,-0.0031152736725553,3.2812472723837875,4930.515462239583,12.02533333333333,0.3499999999999999,179.1247951934496,-8.742675150197309,101.18009706461146,1525.0,1435.0,1200.0,1883.0,1475.0,1021.7000000000002,135.0,293.35,1637165051.8506298,1637165052.971281,ac85b16e-3a82-4a3a-8b02-66178d9b9528
0.0075780936386278,0.1579202853382987,-0.0931935176703388,0.0090113015240454,-0.146813904420675,0.1812723690498102,-0.2695964425021864,-0.2927118540462851,-13.426998601539044,11.547107615056833,47.452948750426096,0.4597281505030219,0.2599341677573105,0.7828333716196151,7545.26953125,11.824999999999998,7.79,-178.84439164290356,-8.752572378895874,86.60442176993052,1525.0,1435.0,1350.0,1528.0,1475.0,1021.7000000000002,135.0,293.35,1637165056.2034714,1637165057.2770336,7891f2f0-75b6-40fe-8a26-7275c99ea35e
-0.0086999925043207,0.1602081584075236,-0.0912606592110923,0.0156645418970867,-0.1454464399035149,0.1751713741587107,-0.2675583943073641,-0.2968931397822541,-13.15166497609559,11.488808844899644,47.78957946586601,0.4309123508091948,0.262885177443627,0.7764608216677441,7557.097222222223,11.82322222222222,7.813333333333333,-178.14098233450005,-8.575924998802865,78.94246658208186,1525.0,1435.0,1350.0,1528.0,1475.0,1021.7000000000002,135.0,293.35,1637165057.3899305,1637165058.5934086,7891f2f0-75b6-40fe-8a26-7275c99ea35e
0.0218970240474512,0.1664537889188129,-0.0946135769155702,-0.0055048594282723,-0.1549003532072044,0.1784716968179072,-0.2712794758070259,-0.292646110339897,-13.027679766546717,11.669254332601136,46.32833642220705,0.4869403217763734,0.3007804221135214,0.7977276162929171,7551.91748046875,11.823,7.809999999999999,-177.87617134691922,-8.438135228944228,73.58673007985736,1525.0,1435.0,1350.0,1528.0,1475.0,1021.7000000000002,135.0,293.35,1637165058.7130957,1637165059.737331,7891f2f0-75b6-40fe-8a26-7275c99ea35e
0.2047948377624892,0.5001200133541576,-0.0612334184803493,-0.1568354034722141,-0.1990482004952967,-0.0031737050141171,-0.313113154609151,-0.3499569041850559,-12.66998348388112,10.894402749015317,47.14684322916276,0.416959535528995,1.5631805516955162,0.9126893529523376,7558.5771484375,11.815333333333331,7.88,-178.01161399816056,-8.195413547457902,62.63429938513894,1610.0,1435.0,1350.0,1528.0,1542.0,1021.7000000000002,135.0,293.35,1637165061.7034545,1637165062.6464748,1e771b49-b49a-4204-a5b0-90215f107c36
0.2051098586186127,0.5045850910493273,-0.0578366718390461,-0.1622318479077711,-0.1966513025394978,-0.0042557330860509,-0.309894462861957,-0.3341510732675448,-12.693999945249212,10.839215291079002,46.9349349969421,0.4264585527931035,1.582854245218834,0.9004117556025921,7563.0244140625,11.813333333333333,7.926666666666667,-178.22156945978728,-8.163164334972993,59.52304955991011,1610.0,1435.0,1350.0,1528.0,1542.0,1021.7000000000002,135.0,293.35,1637165062.7545607,1637165063.828513,1e771b49-b49a-4204-a5b0-90215f107c36
0.2212823329029475,0.497038287948038,-0.0627042182312093,-0.1600172193978027,-0.2022700527923101,0.002647332554601,-0.3132880491746904,-0.3314180815825417,-12.527673030808854,11.032789473010803,47.11983620697643,0.4381290580494063,1.5511551876334562,0.9189353528783712,7551.91748046875,11.815666666666669,7.900000000000001,-178.41031490731146,-8.196927382996444,56.78677560229519,1610.0,1435.0,1350.0,1528.0,1542.0,1021.7000000000002,135.0,293.35,1637165063.9364889,1637165065.0550978,1e771b49-b49a-4204-a5b0-90215f107c36
0.4114008366061358,0.8654384245754191,-0.0283835912511355,-0.3552207657193277,-0.2619176029200981,-0.1769507186589842,-0.3587183193718212,-0.3728268741690095,-11.879135645603355,10.58010945792218,47.30901253246125,0.4739443125930317,2.952814634476243,1.061848739001754,7554.414855957031,11.808,7.9625,-179.09227628335623,-8.201947500888597,51.400632568273736,1695.0,1435.0,1350.0,1528.0,1609.0,1021.7000000000002,135.0,293.35,1637165066.6839075,1637165067.92195,7b9f4d81-e425-440b-9f5f-48897699db9d
0.4047371874766224,0.8621885054335244,-0.0304024640619183,-0.347998295236718,-0.2595185134222007,-0.1825712390627812,-0.3619413941316993,-0.374925734717776,-12.173227011451615,10.428270065807569,46.98619638813295,0.4437155439616942,2.9445482779201737,1.0649934455328016,7558.5771484375,11.805666666666667,8.008888888888889,-179.30747239735112,-8.252796812587333,49.616971212911615,1695.0,1435.0,1350.0,1528.0,1609.0,1021.7000000000002,135.0,293.35,1637165068.030405,1637165069.149499,7b9f4d81-e425-440b-9f5f-48897699db9d
0.4102569001441192,0.8628870298663518,-0.023787026066168,-0.3563395008012388,-0.2561491595650252,-0.1763940905002992,-0.3506417312930175,-0.374953127950502,-11.728067392513912,10.380511849740593,46.93692329226781,0.4766411749737136,2.945899699583474,1.035571182733589,7556.357259114583,11.805666666666667,7.953333333333333,-179.54349793212992,-8.302940456651504,47.972427862042345,1695.0,1435.0,1350.0,1528.0,1609.0,1021.7000000000002,135.0,293.35,1637165069.25752,1637165070.3785226,7b9f4d81-e425-440b-9f5f-48897699db9d
0.5599328791361938,1.1079732325185487,0.0056194858445283,-0.4903603554292426,-0.2992522353172092,-0.3121954851404567,-0.3915944489917506,-0.4062771636108942,-11.7350306048961,11.344888144595126,44.17140244274443,0.4812083912892471,3.9080634031351846,1.1366819191518571,7565.248046875,11.795,8.05,-179.90496975684476,-8.361030930951246,46.17222222325877,1779.0,1435.0,1350.0,1528.0,1677.0,1021.7000000000002,135.0,293.35,1637165071.2896185,1637165072.4284737,b94ad461-fa96-4ea5-b34a-6aac9ccf4734
0.5410590231625304,1.0999881392283308,0.004523761142771,-0.4830189982166235,-0.296211598894558,-0.3076345304746388,-0.3905535103638071,-0.4167687298013773,-11.867683256686712,11.23915405966745,44.670022776138175,0.4741543873825145,3.873658937334334,1.1323040416467849,7560.80078125,11.794333333333334,8.046666666666665,179.89482009573814,-8.414821801168465,45.10978515949842,1779.0,1435.0,1350.0,1528.0,1677.0,1021.7000000000002,135.0,293.35,1637165072.5360303,1637165073.6559944,b94ad461-fa96-4ea5-b34a-6aac9ccf4734
0.5556595532498488,1.109205922745572,0.01059133669293,-0.4802659892019125,-0.2931572658127814,-0.3163729363262057,-0.3878826809108355,-0.4034282792400507,-11.73153352221157,11.325339146461117,45.103733869717495,0.4493190352888415,3.903470784301586,1.1178815076165602,7558.5771484375,11.794,8.05,179.62530083108945,-8.418119359581503,44.280854049623024,1779.0,1435.0,1350.0,1528.0,1677.0,1021.7000000000002,135.0,293.35,1637165073.7647202,1637165074.9776242,b94ad461-fa96-4ea5-b34a-6aac9ccf4734
0.6736006078940903,1.3439375411828909,0.0356286459916866,-0.6046170802790168,-0.3382052541638742,-0.448476268922204,-0.4314514428096265,-0.4603648850765997,-11.662460402937224,12.34248443476937,42.65932158300708,0.4406053895529891,4.821947713874601,1.230637970553735,7567.475748697917,11.767666666666663,8.176666666666668,179.26131094330057,-8.47191307571088,42.94677922420641,1864.0,1435.0,1350.0,1528.0,1744.0,1021.7000000000002,135.0,293.35,1637165076.0002816,1637165077.0265057,320fcf67-f423-4234-917a-f4ec40b7d6fd
0.6775589129430671,1.350813213728668,0.0481336040434685,-0.6011518498383751,-0.3276452056353265,-0.4659804749890422,-0.4210283594378327,-0.4335333207261104,-11.38066453725194,12.245918812753628,41.67081697065773,0.3934211841927275,4.854866741804153,1.1840737594258506,7565.248046875,11.772,8.167777777777777,179.14177656154607,-8.503580583751475,42.45075836466661,1864.0,1435.0,1350.0,1528.0,1744.0,1021.7000000000002,135.0,293.35,1637165077.1353538,1637165078.1621993,320fcf67-f423-4234-917a-f4ec40b7d6fd
0.6840916228911741,1.3464308627609578,0.0410415260289991,-0.602652992863475,-0.3351821490635911,-0.4513246060016017,-0.4274728655188565,-0.4529418962809093,-11.510118707903535,12.4809278189039,42.89234892856072,0.4310754098579227,4.8282593076074365,1.2141746889319085,7565.248046875,11.774333333333333,8.183333333333332,179.01201359205456,-8.568785079526739,41.91433010599701,1864.0,1435.0,1350.0,1528.0,1744.0,1021.7000000000002,135.0,293.35,1637165078.2699058,1637165079.3903973,320fcf67-f423-4234-917a-f4ec40b7d6fd
-0.2349759211274473,-0.2661909297005984,-0.1294707727656725,0.197747684705505,-0.0869873327394592,0.4070486185381252,-0.2115580904592224,-0.2357648434246843,-13.77530917396568,12.660506448316504,45.25445887186736,0.5463831970640273,-1.3343087196559076,0.6146991030937735,7565.248046875,11.817777777777778,7.931111111111111,179.07827098046312,-8.59209566139035,40.99244125988261,1440.0,1435.0,1350.0,1528.0,1408.0,1021.7000000000002,135.0,293.35,1637165081.212046,1637165082.3499787,22a30896-5ebc-472d-adf5-2688ac6737b6
-0.2182644742423148,-0.2659422001464794,-0.1292779252123609,0.196823441021657,-0.0874212397387189,0.4085996167197439,-0.2087179717706305,-0.2450549463477667,-13.519111545536155,12.563089636226149,45.39999695785013,0.5514693420574018,-1.3363546692577113,0.6114299117232233,7572.680230034723,11.816,7.974444444444444,178.98422079341188,-8.576577756187293,40.78283565572335,1440.0,1435.0,1350.0,1528.0,1408.0,1021.7000000000002,135.0,293.35,1637165082.4595947,1637165083.4872897,22a30896-5ebc-472d-adf5-2688ac6737b6
-0.2275096522768096,-0.2629289568833327,-0.1257579094115014,0.2020829192680076,-0.082353512826742,0.4021759312629605,-0.2082248956106975,-0.2378231628023355,-13.761650350109011,12.532514648606927,45.612010678055945,0.525054665142708,-1.3256405398476492,0.5995799603929548,7578.6259765625,11.812555555555557,8.014444444444443,178.81620876456824,-8.596975546961106,40.51411286702285,1440.0,1435.0,1350.0,1528.0,1408.0,1021.7000000000002,135.0,293.35,1637165083.594651,1637165084.8119862,22a30896-5ebc-472d-adf5-2688ac6737b6
-0.4034282781175416,-0.597220935717361,-0.1561642717430822,0.3546899661861687,-0.040702276505838,0.5783958383643625,-0.173298667936102,-0.1866528143401201,-14.386897967426378,14.090647342118876,44.079453454897646,0.5850562005801113,-2.582120713557884,0.4922196181170728,7572.675021701389,11.795444444444444,8.06,178.64861868963337,-8.537932166408407,40.03919918929316,1355.0,1435.0,1350.0,1528.0,1341.0,1021.7000000000002,135.0,293.35,1637165086.7419293,1637165087.782513,1555d96c-9bfa-4ac3-aad2-1241abb5e4d5
-0.4110024765866876,-0.5986864679552074,-0.1633960551941365,0.3512658268235598,-0.0464685278095705,0.5867918279765482,-0.1765995388054448,-0.2005822161115054,-14.335526677848748,13.908451188360418,44.5817031664584,0.6101851554290042,-2.592472331957047,0.5152426426051244,7571.93115234375,11.795333333333332,8.101111111111111,178.48508422924567,-8.465131077320011,39.86695471989387,1355.0,1435.0,1350.0,1528.0,1341.0,1021.7000000000002,135.0,293.35,1637165087.889712,1637165089.0153315,1555d96c-9bfa-4ac3-aad2-1241abb5e4d5
-0.4085781852419057,-0.6041650931654282,-0.1648478905425194,0.3456502381744628,-0.0467287624127436,0.591270602200979,-0.176859773435337,-0.1970074138967595,-14.505715217955364,13.908659857195822,43.71500902495681,0.632622218241325,-2.6035351024345075,0.5158929711281606,7578.6259765625,11.798,8.046666666666665,178.39680327531337,-8.399251815772992,39.73517115277287,1355.0,1435.0,1350.0,1528.0,1341.0,1021.7000000000002,135.0,293.35,1637165089.1235418,1637165090.244691,1555d96c-9bfa-4ac3-aad2-1241abb5e4d5
-0.6316130061630643,-0.9986809526365722,-0.2056225491960765,0.5327178197639417,-0.0003522138478312,0.8008964112688264,-0.1403995315711959,-0.1727645028064146,-15.310244023327456,15.673655837562883,43.01778259655413,0.6908547132476414,-4.096922667772472,0.4080285442719024,7578.6259765625,11.789333333333332,8.133333333333333,178.59122385112784,-8.442473537432047,39.554672779216574,1271.0,1435.0,1350.0,1528.0,1273.0,1021.7000000000002,135.0,293.35,1637165091.2478223,1637165092.3851516,83b00059-62d5-4f41-b457-72cb30ca4833
-0.6393789574997651,-1.0143635222029035,-0.2083070749554981,0.5502768062302558,0.0037156641557523,0.8063613376484073,-0.1403995315906212,-0.164135670335888,-15.456030680887109,15.595229133542723,43.899650452887954,0.6629399790081801,-4.164859370756136,0.4055776503299453,7598.7822265625,11.79022222222222,8.09,178.58248424462985,-8.380446882031869,39.442532077238624,1271.0,1435.0,1350.0,1528.0,1273.0,1021.7000000000002,135.0,293.35,1637165092.4941645,1637165093.613701,83b00059-62d5-4f41-b457-72cb30ca4833
-0.6548149844515989,-1.0307446169560894,-0.2033626168138093,0.5577140368413679,0.0112213783375115,0.8194004602197259,-0.1316611265943851,-0.1464534114364504,-15.449278737425326,15.74671188024787,44.49557378890691,0.6768128491281993,-4.232227538736553,0.3750392727277565,7598.7822265625,11.792777777777776,8.042222222222222,178.59117679871355,-8.389649897892292,39.43753920895535,1271.0,1435.0,1350.0,1528.0,1273.0,1021.7000000000002,135.0,293.35,1637165093.7222674,1637165094.757408,83b00059-62d5-4f41-b457-72cb30ca4833
-0.7628304716277238,-1.2399312187544935,-0.2069954924622548,0.6426600850516999,0.0467480601033974,0.9111564376150726,-0.1036467318233945,-0.1357032553220562,-16.06724524495896,17.280956135154103,39.60332075650747,0.700282184485015,-4.979733711531202,0.2591874099772186,7598.7822265625,11.745888888888889,8.355555555555556,178.62700493545984,-8.348100434215027,39.44126052368815,1186.0,1435.0,1350.0,1528.0,1206.0,1021.7000000000002,135.0,293.35,1637165096.8900115,1637165098.034215,b31942f2-15c8-4906-a8f2-9330bd4d351c
-0.7651155775095658,-1.2335381787295443,-0.2049809735525602,0.6334213967449815,0.0447750636904687,0.9024333164382567,-0.1014003806949556,-0.1312098662664703,-15.70118209173951,17.224787543394132,38.060414872187,0.7011866637581596,-4.943407856136381,0.2547258355260837,7598.7822265625,11.747444444444444,8.373333333333333,178.65947110131458,-8.347472151675126,39.292903123091165,1186.0,1435.0,1350.0,1528.0,1206.0,1021.7000000000002,135.0,293.35,1637165098.1682184,1637165099.2732651,b31942f2-15c8-4906-a8f2-9330bd4d351c
-0.7690097896697965,-1.228828564475101,-0.2067742512402331,0.6414881361528787,0.0459094020480474,0.8984022033053389,-0.1058579995787016,-0.1332558837562021,-16.007015550468235,17.106276107017496,39.177655648115824,0.6730808525434653,-4.934590284432665,0.2640230859996881,7598.7822265625,11.751,8.274999999999999,178.6928160848426,-8.359872573556695,39.22969010177765,1186.0,1435.0,1350.0,1528.0,1206.0,1021.7000000000002,135.0,293.35,1637165099.3837817,1637165100.487626,b31942f2-15c8-4906-a8f2-9330bd4d351c
-0.0017706295324359,0.1508068408813866,-0.1005699366408855,0.0175974002931247,-0.1495225360421919,0.1742246681083036,-0.2766441446016909,-0.305347753215522,-13.523010753550514,11.35989986056877,46.531979166087055,0.4227194330559587,0.2405685736203535,0.8045372226877814,7598.7822265625,11.818,8.003333333333334,178.46386510822416,-8.380536623128465,39.20480089244212,1525.0,1435.0,1350.0,1528.0,1475.0,1021.7000000000002,135.0,293.35,1637165101.284438,1637165102.534562,f56d6d74-c3ae-4574-9103-96edbf704684
0.0130742487794309,0.1598005488397203,-0.0977955615621549,0.0099580076269842,-0.1490886289970757,0.1744350472082738,-0.2729493604506533,-0.2999041917553963,-13.38330735009218,11.239825577824815,46.84000670270247,0.4398863641114287,0.271696036916061,0.7965065426339278,7598.7822265625,11.81611111111111,8.02222222222222,178.42466285802792,-8.323386438204459,39.29638500174805,1525.0,1435.0,1350.0,1528.0,1475.0,1021.7000000000002,135.0,293.35,1637165102.642881,1637165103.650258,f56d6d74-c3ae-4574-9103-96edbf704684
0.007407160571078,0.1575915679446171,-0.1000045426702015,0.0035282950914823,-0.1522311676740863,0.1743824524800459,-0.2748296242746748,-0.3048218051914858,-13.3647798801014,11.284726778991848,45.66748502672774,0.4542821154232676,0.2743242717701522,0.8044921001173313,7598.7822265625,11.817,8.04,178.43402021719083,-8.28196261206243,39.43486215425566,1525.0,1435.0,1350.0,1528.0,1475.0,1021.7000000000002,135.0,293.35,1637165103.7584894,1637165104.991093,f56d6d74-c3ae-4574-9103-96edbf704684
0.0391612623543613,0.1581043670808053,-0.1317454973830392,-0.44068730831089,-0.2292825349123567,0.6111558119102048,-0.1859312789680257,-0.2049574444889971,-13.369926717940338,10.435167337884554,49.90751339789177,2.431272715272909,0.2913705773883489,0.8286253477900047,7598.7822265625,11.809888888888889,8.087777777777779,178.51010548890514,-8.175875886200817,39.62191257650076,1525.0,1523.888888888889,1350.0,1528.0,1475.0,1021.7000000000002,135.0,293.35,1637165106.6833937,1637165107.6533406,067ce930-1e6f-491f-ac61-9b99fe4a15b6
0.0219627675724545,0.1498075399921647,-0.1370707197262416,-0.4449080408785337,-0.2344894192365013,0.6166125203195102,-0.1900205238521777,-0.2106113843695473,-13.398711467166969,10.561485342708105,48.93802050533849,2.453458790760092,0.2692329678922622,0.8463181080416139,7598.7822265625,11.81177777777778,8.064444444444446,178.46738948583587,-8.093460452081981,39.66211962341491,1525.0,1535.0,1350.0,1528.0,1475.0,1021.7000000000002,135.0,293.35,1637165107.762811,1637165108.9742577,067ce930-1e6f-491f-ac61-9b99fe4a15b6
0.0190832030514939,0.1532393496055354,-0.1297994902274503,-0.4392672488346354,-0.2265344571254161,0.6166914124918211,-0.1832094986035138,-0.2063775044497248,-13.44888046478482,10.512700931915266,50.2199587972302,2.441129582668239,0.2708632651492405,0.8181319340399242,7598.7822265625,11.809333333333331,8.076666666666666,178.4471296269378,-8.076674787877984,39.71380783886889,1525.0,1535.0,1350.0,1528.0,1475.0,1021.7000000000002,135.0,293.35,1637165109.083089,1637165110.204358,067ce930-1e6f-491f-ac61-9b99fe4a15b6
0.0507847099167776,0.1600898201430029,-0.1524021006931862,-0.8935154274259106,-0.3002986525493349,1.0553844766930782,-0.0888675963668726,-0.1123906154483818,-13.49702210715427,10.043554170244926,54.35420743187619,4.448003372848842,0.3147425201760668,0.8179244041670514,7598.7822265625,11.811,8.06,178.48737765498697,-7.954678217791446,39.85211158046257,1525.0,1636.0,1350.0,1528.0,1475.0,1021.7000000000002,135.0,293.35,1637165112.1631706,1637165113.1873524,b6ff7351-035e-4ba4-acdd-09f30c4714fb
0.0507452637829125,0.1542255018053542,-0.1641438873503442,-0.8911355120002793,-0.3120141425993206,1.0528336297577794,-0.1018453602407425,-0.1165981990727357,-13.453690072815789,10.195287812551664,53.3896373002562,4.437192025321556,0.2999552163000485,0.8662831153026299,7598.7822265625,11.806,8.067777777777778,178.49819667463225,-7.959527272647201,39.922835912588326,1525.0,1636.0,1350.0,1528.0,1475.0,1021.7000000000002,135.0,293.35,1637165113.2952716,1637165114.4139616,b6ff7351-035e-4ba4-acdd-09f30c4714fb
