raw_voltage_G-,raw_voltage_G0,raw_voltage_G1,raw_voltage_G2,raw_voltage_G3,raw_voltage_G4,raw_voltage_G5,raw_voltage_G6,load_x,load_y,load_z,load_l,load_m,load_n,rpm,voltage,current,roll,pitch,yaw,aileron1_pwm,elevator_pwm,throttle_pwm,rudder_pwm,aileron2_pwm,pbaro,pdiff,Tt,sample_start_time,sample_end_time,uid
0.0537081032654135,0.1978095931462626,-0.0445510095581696,-0.0899551032005319,-0.1271823516683617,0.262662794984128,-0.2157169140355735,-0.2406720467995272,-13.647609884122213,12.638699152655631,52.00426287098378,0.8761400871886801,0.386053645743978,0.6228522285996384,4850.545518663194,12.042666666666666,0.3488888888888888,179.076930745566,-11.383801157579382,111.12532985048205,1525.0,1435.0,1200.0,1528.0,1475.0,1021.7000000000002,135.0,293.35,1637166446.6570833,1637166447.6852543,62403299-d25e-4851-a7c0-d4e809a0e8b6
0.0501333015108793,0.1993299111358767,-0.0453454099852874,-0.0815865055999592,-0.1278945727320798,0.2539106944679729,-0.2179083635289488,-0.2347825260549889,-13.479173656482928,12.615178663229186,52.0551940076416,0.8374928720813603,0.3890310978299178,0.6284819257086772,4902.636067708333,12.041333333333334,0.3400000000000001,179.25608357185578,-11.377654556508803,110.59796107883652,1525.0,1435.0,1200.0,1528.0,1475.0,1021.7000000000002,135.0,293.35,1637166447.794067,1637166448.7417634,62403299-d25e-4851-a7c0-d4e809a0e8b6
0.0408059450737414,0.1891670650528475,-0.0461672035917456,-0.075423054467388,-0.1245115226141995,0.2592249587450157,-0.2147581548018918,-0.2344538089746073,-13.484792194044294,12.45210582126532,52.21276372612878,0.8344318376716161,0.3487437605502065,0.6196186317179767,4925.488118489583,12.042333333333334,0.3400000000000001,179.3678892151094,-11.401339375820683,110.18410322100748,1525.0,1435.0,1200.0,1528.0,1475.0,1021.7000000000002,135.0,293.35,1637166448.854028,1637166449.9378498,62403299-d25e-4851-a7c0-d4e809a0e8b6
0.2253807644054221,0.4989147162761293,0.005729058282635,-0.2333032973294186,-0.1507130409653498,0.1008105679556804,-0.2303037504685748,-0.2447125323766646,-12.94792519271834,11.990354974120937,52.31294831479357,0.8344019971452369,1.528518583933618,0.6435007909877651,4935.566026475694,12.036444444444443,0.3711111111111111,179.43847087217253,-11.392668830124304,109.5697231517054,1610.0,1435.0,1200.0,1528.0,1542.0,1021.7000000000002,135.0,293.35,1637166450.6920156,1637166451.8792598,c613dbf5-68b8-4b22-8ab9-962c22b8653e
0.2442683177527398,0.5297319702789366,0.0131525931589116,-0.2430278551895441,-0.1516581035921967,0.0775538116582957,-0.2308105231662375,-0.2563820023455689,-12.723532170478174,11.982290058985194,52.052045901906375,0.8044647240121613,1.646493972998842,0.638826320256137,4940.3037109375,12.035333333333334,0.37,179.48577828018384,-11.410282654765169,109.2558858251721,1610.0,1435.0,1200.0,1528.0,1542.0,1021.7000000000002,135.0,293.35,1637166452.009733,1637166453.016055,c613dbf5-68b8-4b22-8ab9-962c22b8653e
0.2424603720712374,0.5275679142115353,0.0129471446903712,-0.2444659938542099,-0.1527401318845996,0.0787454123493961,-0.2314131718335192,-0.2657504492788098,-12.717222461514549,12.09970249030986,51.727388702433,0.8111060334944137,1.6413762495620112,0.640662037272671,4935.246853298611,12.03622222222222,0.37,179.50833156482324,-11.386757111670182,108.95255788304172,1610.0,1435.0,1200.0,1528.0,1542.0,1021.7000000000002,135.0,293.35,1637166453.1296327,1637166454.2397568,c613dbf5-68b8-4b22-8ab9-962c22b8653e
0.3944521685197275,0.7996029083859857,0.0600545407555611,-0.4059484454058871,-0.1825520637614873,-0.0554436091437296,-0.2451530131919342,-0.2701092423427463,-12.095452013684907,12.194167256563372,49.529614025841326,0.876764729853142,2.6996208626644536,0.6654136571302913,4896.740776909723,12.032444444444444,0.4111111111111111,179.45207205553976,-11.353395526987946,108.50972105038414,1695.0,1435.0,1200.0,1528.0,1609.0,1021.7000000000002,135.0,293.35,1637166455.2414076,1637166456.294181,2febf61f-eb73-4caa-8c32-9b2c93985d19
0.3914652232273003,0.8036357227359385,0.0632956943485663,-0.4023736429735184,-0.1789416506547448,-0.0630276680967537,-0.2427676203578164,-0.2687089060813621,-12.038113770589328,12.072130804301054,49.504010148291165,0.85103563291849,2.714330736441108,0.6532551908814311,4840.804253472223,12.028,0.4099999999999999,179.46647312994978,-11.325837041779286,108.2263327071708,1695.0,1435.0,1200.0,1528.0,1609.0,1021.7000000000002,135.0,293.35,1637166456.428631,1637166457.5148098,2febf61f-eb73-4caa-8c32-9b2c93985d19
0.4043536838560992,0.7994308796511033,0.0595428373425062,-0.4033871884187849,-0.1818590178570713,-0.0599596388288381,-0.2468491952638789,-0.2761461381635071,-12.193174395918646,12.152774918425678,49.19166685382979,0.8604361039932192,2.702314035762744,0.6670558592213736,4809.703667534723,12.033666666666669,0.4,179.41981838445915,-11.317215256044484,107.98965906333076,1695.0,1435.0,1200.0,1528.0,1609.0,1021.7000000000002,135.0,293.35,1637166457.6224136,1637166458.6721928,2febf61f-eb73-4caa-8c32-9b2c93985d19
0.5363337108929952,1.0362443590046777,0.1076040608838363,-0.5250126576278807,-0.2044994314788321,-0.1942407080995337,-0.263778143859904,-0.2987180701186671,-11.777319423727183,12.965474704117582,47.27595215595935,0.8407304399031755,3.622579483174387,0.6813267542320238,4792.374077690973,12.020555555555555,0.4600000000000001,179.31136256953843,-11.286393742823584,107.43382282213456,1779.0,1435.0,1200.0,1528.0,1677.0,1021.7000000000002,135.0,293.35,1637166460.6784952,1637166462.022782,b9a041ad-7d76-4698-9068-15274df79c64
0.5278144522521131,1.0330667576057964,0.109973565445236,-0.5201503784578717,-0.2013081330253003,-0.1938161150955407,-0.2605457557298173,-0.2758448142049209,-11.70551862894903,12.961383434789385,47.55126667022207,0.8308873399393318,3.6072647459257183,0.6692463036859116,4788.803765190973,12.022888888888888,0.4600000000000001,179.2952129667009,-11.23318011845497,107.17388403616168,1779.0,1435.0,1200.0,1528.0,1677.0,1021.7000000000002,135.0,293.35,1637166462.1315815,1637166463.1385543,b9a041ad-7d76-4698-9068-15274df79c64
0.5344435859908542,1.033861158020614,0.1078505988243804,-0.5248346031073035,-0.205800604772202,-0.1916794518686235,-0.2637781442267282,-0.286377469421919,-11.688309615111914,13.139381328348485,47.32975564591561,0.8473027830886585,3.6125308382026176,0.6825428923735043,4790.290852864583,12.021,0.4499999999999999,179.24753217501495,-11.24926265262941,106.94519184782176,1779.0,1435.0,1200.0,1528.0,1677.0,1021.7000000000002,135.0,293.35,1637166463.2471488,1637166464.3657424,b9a041ad-7d76-4698-9068-15274df79c64
0.655562241988126,1.2583066559027454,0.1244097378843023,-0.6336674912503965,-0.2537111721087939,-0.3231664306162722,-0.306812737228282,-0.3275082403853471,-11.012278232812372,13.633915833958971,45.54368259826276,0.8014927670255535,4.479840859488104,0.810453350491092,4794.467719184027,11.979444444444448,0.6655555555555556,179.15811285622092,-11.2102806760339,106.50447768617624,1864.0,1435.0,1200.0,1528.0,1744.0,1021.7000000000002,135.0,293.35,1637166465.3895576,1637166466.5269663,a01b5dca-5df5-4853-ae06-de3265d66bbf
0.6754770362387369,1.2884527814851745,0.1283954364587093,-0.6496513804224348,-0.2582173402803037,-0.3330827409678743,-0.3099081596721886,-0.3363288257286048,-11.019444601561338,13.727034746972516,46.24260929186325,0.8161887948089848,4.588985521405632,0.8200152717690434,4877.5615234375,11.984,0.6533333333333334,179.2040466372992,-11.176235977570926,105.8193444461719,1864.0,1435.0,1200.0,1528.0,1744.0,1021.7000000000002,135.0,293.35,1637166466.63531,1637166467.848385,a01b5dca-5df5-4853-ae06-de3265d66bbf
0.6724155817623854,1.2844216103480244,0.1244174081388552,-0.646674843193141,-0.2611681271659178,-0.3302513876593586,-0.3141968266418654,-0.335234744239709,-11.113599812087466,13.808084468184854,46.44082986225301,0.8161602963207361,4.572158475553811,0.8352817783940394,4921.720648871527,11.984444444444446,0.6244444444444445,179.20881107370022,-11.179115850943472,105.37597789439866,1864.0,1435.0,1200.0,1528.0,1744.0,1021.7000000000002,135.0,293.35,1637166467.9561565,1637166469.0763795,a01b5dca-5df5-4853-ae06-de3265d66bbf
-0.1450651276592599,-0.1907962971030337,-0.0989657956953206,0.1108479538354987,-0.0869478867137477,0.4477438300481761,-0.1889160333109595,-0.2109795480911234,-14.083975463828194,13.437905701774232,50.3595647382591,0.8411860997521262,-1.0819485143015095,0.555852467814591,4911.9921875,12.037,0.36,179.5464531273108,-11.137021300224944,104.5116614717082,1440.0,1435.0,1200.0,1528.0,1408.0,1021.7000000000002,135.0,293.35,1637166471.2155972,1637166472.2640083,7bdf967b-8d2a-4165-853b-3ea9bd05d2b2
-0.1687327829886782,-0.1906385127465636,-0.0968225581398982,0.1137143695382483,-0.0859222884039558,0.445219280580934,-0.1900862674605457,-0.2073768050068246,-14.19324012541211,13.657316987543991,50.399550207807394,0.8305597641777182,-1.0811510950476666,0.5531344202505803,4893.918891059027,12.038888888888888,0.36,179.42316365933263,-11.139103369556937,104.77682231675652,1440.0,1435.0,1200.0,1528.0,1408.0,1021.7000000000002,135.0,293.35,1637166472.393603,1637166473.3776464,7bdf967b-8d2a-4165-853b-3ea9bd05d2b2
-0.1654779324582173,-0.1815987832644776,-0.0979265007537398,0.1147673608772544,-0.0885169645248722,0.4368556147216955,-0.1935147902550321,-0.2057732122187766,-14.105348172544003,13.60038487724206,50.59022436655071,0.809032458105027,-1.0497592266529738,0.5645115451284539,4898.580295138889,12.038555555555556,0.37,179.35651011995222,-11.106657978860868,104.95397465652944,1440.0,1435.0,1200.0,1528.0,1408.0,1021.7000000000002,135.0,293.35,1637166473.4859116,1637166474.6118755,7bdf967b-8d2a-4165-853b-3ea9bd05d2b2
-0.3431371117864786,-0.4744268707070223,-0.1406603140872162,0.233985489973932,-0.0650421577055243,0.5969683700215467,-0.1750047114155478,-0.1923872901614577,-14.861565808237591,14.57826200176885,48.07025534005263,0.9034725559020412,-2.1377266632905103,0.5255632055837473,4893.611924913194,12.021333333333336,0.4499999999999999,179.3393678629553,-11.077841600480062,105.11292530107416,1355.0,1435.0,1200.0,1528.0,1341.0,1021.7000000000002,135.0,293.35,1637166475.1771028,1637166476.152866,9e559909-e525-48fe-aabe-b5d353166050
-0.3370136533918073,-0.4780608425058797,-0.137975240554368,0.2334617335474174,-0.0638631578543579,0.5958315557692314,-0.1749285585409414,-0.2018012099059407,-14.952582672749402,14.853618107722042,47.34215259470636,0.9038966369354696,-2.144019540888092,0.5185409993367244,4839.907063802083,12.02,0.4466666666666667,179.34589145252255,-11.085598798102426,105.0067796079127,1355.0,1435.0,1200.0,1528.0,1341.0,1021.7000000000002,135.0,293.35,1637166476.2612193,1637166477.3877647,9e559909-e525-48fe-aabe-b5d353166050
-0.3353426729524423,-0.475883089146984,-0.1392764136784422,0.2402004400138707,-0.0639727303219664,0.5862165725529519,-0.1768734700254833,-0.2101561111993407,-14.836342231066638,14.698879484549826,47.149634642011705,0.8660268682787847,-2.135882871947077,0.5234288844704427,4786.452256944444,12.023777777777775,0.44,179.30402694636982,-11.090483711451324,104.9187141843942,1355.0,1435.0,1200.0,1528.0,1341.0,1021.7000000000002,135.0,293.35,1637166477.5007668,1637166478.6108484,9e559909-e525-48fe-aabe-b5d353166050
-0.470431857622579,-0.7029173163127184,-0.1562190579280011,0.3301320383820296,-0.0321008373615169,0.7017470330644406,-0.1514937448353316,-0.1802976104562063,-15.634867741595484,15.763738425981066,43.748075829869805,0.9280468488334084,-2.963728080921738,0.4345018812166525,4759.557074652777,11.984444444444444,0.64,179.34971332281813,-11.076906623473675,104.71849326015456,1271.0,1435.0,1200.0,1528.0,1273.0,1021.7000000000002,135.0,293.35,1637166479.176834,1637166480.254222,be3e4337-d235-4e30-ac42-e922a0b27765
-0.4657613300094297,-0.712422731640778,-0.1533838700848974,0.3387060834282493,-0.0275946694696684,0.7137452172213751,-0.1463712315590384,-0.1749422558093492,-15.638142338508665,15.908090966310851,45.28008112648191,0.9370080916976108,-3.0138075796939297,0.4182305223119102,4774.585720486111,11.985555555555557,0.62,179.44969211406897,-11.081464351788584,104.16691678027072,1271.0,1435.0,1200.0,1528.0,1273.0,1021.7000000000002,135.0,293.35,1637166480.3634374,1637166481.4743946,be3e4337-d235-4e30-ac42-e922a0b27765
-0.4767870623178084,-0.7305158930119927,-0.1532332079308828,0.3454037001735899,-0.024197922846254,0.723099965832858,-0.1408378214672871,-0.1775582985194138,-15.476402781845565,15.921165645609005,44.98752679574914,0.943050234761321,-3.081034633617173,0.4030848356808743,4812.410319010417,11.988333333333337,0.62,179.48765126983625,-11.08630031544843,103.75301642348684,1271.0,1435.0,1200.0,1528.0,1273.0,1021.7000000000002,135.0,293.35,1637166481.585511,1637166482.5917614,be3e4337-d235-4e30-ac42-e922a0b27765
-0.5947111777231399,-0.9596271095881992,-0.160370211336867,0.4599589677770386,0.0185704038822046,0.8163148997772071,-0.1148757190808971,-0.1383855898660276,-16.440175358229855,17.30972045188133,41.384794609920526,0.9018981076227552,-3.916121828749772,0.2845535841928871,4837.14794921875,11.982,0.64,179.58028988445906,-11.07162053137478,103.03701679971329,1186.0,1435.0,1200.0,1528.0,1206.0,1021.7000000000002,135.0,293.35,1637166484.1580458,1637166485.170107,2b5fab61-9861-43fb-9b77-eb6efdf39f76
-0.6123435850705089,-0.9552354423143364,-0.1644726048124696,0.455422667988729,0.014231334136967,0.8160124797894084,-0.1183075289474636,-0.1474713394938769,-16.417824180334016,17.17938614549058,41.33216849468207,0.9103858988892176,-3.899045943229104,0.3014282492888265,4837.14794921875,11.987000000000002,0.6244444444444445,179.60098991110362,-11.084861896581971,102.68332987283242,1186.0,1435.0,1200.0,1528.0,1206.0,1021.7000000000002,135.0,293.35,1637166485.2819653,1637166486.3932636,2b5fab61-9861-43fb-9b77-eb6efdf39f76
-0.605309030406447,-0.9567475433070912,-0.1639729543289999,0.451780479439056,0.0141392932398679,0.8235861281484617,-0.1183469750387332,-0.1423696450853077,-16.60483936951158,17.341585332504003,41.72200536064344,0.9366889038624272,-3.906365850737996,0.3010662738661613,4832.300401475694,11.984444444444444,0.62,179.58065416121477,-11.071233202730596,102.41662161048212,1186.0,1435.0,1200.0,1528.0,1206.0,1021.7000000000002,135.0,293.35,1637166486.5018022,1637166487.622776,2b5fab61-9861-43fb-9b77-eb6efdf39f76
0.0508866122131091,0.1862633946906451,-0.041825394320301,-0.0741492741286189,-0.1223748593244167,0.256910240566106,-0.2125804018224482,-0.2337552842460365,-13.425089682521536,12.723299200901764,51.66784719393288,0.8283141771623234,0.3423832702461649,0.6065111149771214,4850.838704427083,12.048333333333334,0.32,179.21169644916958,-11.077222994041485,101.96690829515016,1525.0,1435.0,1200.0,1528.0,1475.0,1021.7000000000002,135.0,293.35,1637166489.760863,1637166490.9051943,a5076f71-ec85-46ce-8da2-0b1d8d318fbe
0.0388473372167812,0.1710876083877167,-0.0477833974445961,-0.0441948991212293,-0.1180056567726936,0.2469254500059502,-0.2187027640522711,-0.2543960003759231,-13.670134573011282,12.464542686454182,52.01346975048656,0.736227036331035,0.2800658496317161,0.6162471304359568,4866.749728732639,12.047777777777778,0.32,179.0303503732463,-11.036099089095003,102.6072916535324,1525.0,1435.0,1200.0,1528.0,1475.0,1021.7000000000002,135.0,293.35,1637166491.017955,1637166492.124015,a5076f71-ec85-46ce-8da2-0b1d8d318fbe
0.0274107106720023,0.1771003974048371,-0.0499474538000229,-0.0533442007250614,-0.1231418665728541,0.2490895061492418,-0.2213051104553244,-0.2533824550614271,-13.622508554009286,12.52223279087478,51.94168477278682,0.7620157521592409,0.3039068709943134,0.6304535763855489,4872.89697265625,12.044333333333334,0.32,178.89519762558973,-11.016597760649756,103.08098500413038,1525.0,1435.0,1200.0,1528.0,1475.0,1021.7000000000002,135.0,293.35,1637166492.2342384,1637166493.2517211,a5076f71-ec85-46ce-8da2-0b1d8d318fbe
0.052913702894709,0.1751965757954758,-0.0807647120068202,-0.4589267457381169,-0.1947474807282503,0.6443310650276036,-0.137851971609575,-0.1608211024299884,-13.23633839365072,11.496773822954529,54.9816230878661,2.5574177485982945,0.3150551198009059,0.6523627807554883,4881.22216796875,12.041,0.3400000000000001,178.73797729563478,-10.90582451946189,104.07665355365928,1525.0,1535.0,1200.0,1528.0,1475.0,1021.7000000000002,135.0,293.35,1637166495.178018,1637166496.2227423,9781a718-3788-4c33-890d-e34967249e86
0.0475583485030258,0.1598701272579322,-0.0839697067864237,-0.4489967386546241,-0.192569727603265,0.6423450642348529,-0.14122132516216,-0.1590816394039881,-13.518890714479213,11.517132384759478,53.84100232220579,2.530206597362452,0.2682553175935033,0.654980473682611,4886.7900390625,12.0415,0.345,178.72736318166454,-10.89010953484216,104.3109939289878,1525.0,1535.0,1200.0,1528.0,1475.0,1021.7000000000002,135.0,293.35,1637166496.3319423,1637166497.4549737,9781a718-3788-4c33-890d-e34967249e86
0.0559817320605492,0.1685400485958154,-0.0773131789678222,-0.4446686250350495,-0.1867212965141375,0.6271829753400812,-0.1394407724067855,-0.1655053259639292,-13.59506129607606,11.503154469184542,53.4930637865894,2.4865171788170444,0.3042845488800418,0.6359547341614021,4846.601019965277,12.04322222222222,0.3477777777777777,178.70661003132642,-10.890493400959889,104.4977999822426,1525.0,1535.0,1200.0,1528.0,1475.0,1021.7000000000002,135.0,293.35,1637166497.5730703,1637166498.566295,9781a718-3788-4c33-890d-e34967249e86
0.0673361790553792,0.1765251419639773,-0.1007069023801716,-0.8554148693586062,-0.2595732997918278,1.0188497310088502,-0.0606718597418086,-0.0919411053859516,-13.556098525122763,11.352823446861136,56.728039917765535,4.291561441814369,0.3543722905939567,0.6569361988447796,4807.006293402777,12.034333333333333,0.37,178.7507831414186,-10.80451782559992,104.87633286059427,1525.0,1636.0,1200.0,1528.0,1475.0,1021.7000000000002,135.0,293.35,1637166500.7077026,1637166501.7500985,a1fe6c79-7d19-4edf-a11a-96662308425d
0.0654871436314067,0.177401721659176,-0.1013232474492491,-0.8554833515509351,-0.2616825699591571,1.0165624056881388,-0.0637261923393711,-0.0933792435076117,-13.593285071488484,11.521380120665029,56.50018753154271,4.287607648395553,0.3599148618346391,0.6646868819041652,4810.304796006944,12.037,0.36,178.7863411062377,-10.775595389559502,104.9161293372483,1525.0,1636.0,1200.0,1528.0,1475.0,1021.7000000000002,135.0,293.35,1637166501.8589134,1637166502.9815109,a1fe6c79-7d19-4edf-a11a-96662308425d
0.0752801830076177,0.1801684264464237,-0.0986250252282608,-0.858400720481991,-0.259135009699939,1.0176581302702334,-0.0590830587559583,-0.0722317559951188,-13.49240339220032,11.374484620125727,56.68881058958503,4.295892171689843,0.3684336620065514,0.6516342715558253,4818.11474609375,12.039666666666667,0.3611111111111111,178.80990374105443,-10.788338056093544,104.9607319903483,1525.0,1636.0,1200.0,1528.0,1475.0,1021.7000000000002,135.0,293.35,1637166503.0907495,1637166504.2106905,a1fe6c79-7d19-4edf-a11a-96662308425d
0.0801063023984836,0.1743035602648309,-0.1137054850536778,-1.184022916572898,-0.315340763346026,1.34823223432048,0.0066971310545254,-0.0202576969166631,-13.630171088343545,11.832740632658224,60.428281066248346,5.77607389168179,0.3534119143395438,0.6565129294822267,4865.530870225694,12.017,0.4577777777777778,178.89396060244005,-10.726141310010286,104.94872755342703,1525.0,1737.0,1200.0,1528.0,1475.0,1021.7000000000002,135.0,293.35,1637166506.1586225,1637166507.2048123,e4d8f127-e315-451a-aa8a-5f31f1cf637f
0.076608749220883,0.1727038022220908,-0.1135542750743889,-1.18754293484906,-0.3137021068845147,1.3587161285814435,0.0092901635320737,-0.0134187312837947,-13.792822895990872,11.7576155475262,61.24687660604175,5.807131030807138,0.3417495683544824,0.6512301870589519,4905.754774305556,12.017444444444443,0.4499999999999999,178.95625040985072,-10.728784972674037,104.7158082369008,1525.0,1737.0,1200.0,1528.0,1475.0,1021.7000000000002,135.0,293.35,1637166507.3137257,1637166508.5118172,e4d8f127-e315-451a-aa8a-5f31f1cf637f
0.0908882331962168,0.16690084446168,-0.1180971498321686,-1.2018131172790882,-0.3185227482805837,1.377632720049037,0.011785676533812,-0.0093574274745157,-13.675796612106964,11.661953169221276,61.25233148075463,5.881028588259046,0.3205756673871875,0.6597369482320659,4932.407172309027,12.015444444444446,0.4588888888888889,179.01199537821674,-10.726210939994324,104.5204982186744,1525.0,1737.0,1200.0,1528.0,1475.0,1021.7000000000002,135.0,293.35,1637166508.619765,1637166509.741997,e4d8f127-e315-451a-aa8a-5f31f1cf637f
0.0812518824930352,0.1614315349009608,-0.1100753489300542,-1.240836291763032,-0.32372798932866,1.420556094190821,0.0191242927658851,-0.0159115052092079,-13.93376001664609,12.85836634251806,61.53003914661544,6.073754877687899,0.3047603345636586,0.6441597573561192,4937.775499131944,12.011888888888889,0.48,179.07467071186062,-10.680992905822857,104.1074941344916,1525.0,1837.0,1200.0,1528.0,1475.0,1021.7000000000002,135.0,293.35,1637166511.8793182,1637166512.9113815,55f79f89-509a-4425-9c8d-da2e84236cc4
0.0981534355875132,0.1679647930716112,-0.1145267308549248,-1.2735573983348758,-0.3330690439486944,1.4445661630840767,0.0212883488611474,-0.0028449880677561,-13.849193031753728,12.78433960960144,61.56154235952038,6.200854717480413,0.3321314876376948,0.6605067575857932,4924.220865885417,12.014333333333331,0.4733333333333333,179.08743254086983,-10.718122952515907,103.93430785789675,1525.0,1837.0,1200.0,1528.0,1475.0,1021.7000000000002,135.0,293.35,1637166513.0471594,1637166514.0409358,55f79f89-509a-4425-9c8d-da2e84236cc4
0.0952634618020006,0.1697179525836316,-0.1086098171524497,-1.2461505589025497,-0.323892348027793,1.4143378555195616,0.0222881977720774,-0.0033654572376072,-13.632930383401662,12.605626101590012,61.12412326411573,6.070253602526333,0.3380507836298305,0.6385788716470405,4911.366970486111,12.012333333333332,0.4644444444444444,179.1209019856227,-10.759088909337828,103.75078598726788,1525.0,1837.0,1200.0,1528.0,1475.0,1021.7000000000002,135.0,293.35,1637166514.1497586,1637166515.1955404,55f79f89-509a-4425-9c8d-da2e84236cc4
0.0327112789612786,0.1768675559162519,-0.0143090073305254,0.3071629111780922,-0.0549877875862039,-0.1126229091511437,-0.2859117853149616,-0.3059498539180325,-13.350119766296912,13.48536429347966,47.55914092707517,-0.8564182788174568,0.2978375282963451,0.5777790660116131,4876.932345920139,12.046888888888889,0.32,179.12339272794006,-11.156873434775065,103.54751045064938,1525.0,1334.0,1200.0,1528.0,1475.0,1021.7000000000002,135.0,293.35,1637166516.179674,1637166517.212355,a08b3b97-2b5a-4458-af11-53f22d4fc2dc
0.0245481299715297,0.1737447407255069,-0.0172126777842913,0.3109294645819666,-0.055384987751795,-0.1112532530395192,-0.2875827656654409,-0.3101410013804344,-13.415162373327918,13.372350367638354,47.79588311680055,-0.8627256694129447,0.2838374509951946,0.5846471751002321,4810.03076171875,12.045,0.3133333333333333,179.04506715417796,-11.1888598747044,103.86606743789916,1525.0,1334.0,1200.0,1528.0,1475.0,1021.7000000000002,135.0,293.35,1637166517.3454516,1637166518.342767,a08b3b97-2b5a-4458-af11-53f22d4fc2dc
0.0090025357648684,0.1758540106214422,-0.0183357956057801,0.304204454680226,-0.058603679133418,-0.1104999422452203,-0.2891167804568921,-0.3124831135490334,-13.382076169957877,13.44820417832734,47.305412454652064,-0.8454775135741084,0.2966194280312266,0.5922426894485537,4782.274631076389,12.044777777777778,0.32,178.9880198964102,-11.182058524110886,104.17655341827968,1525.0,1334.0,1200.0,1528.0,1475.0,1021.7000000000002,135.0,293.35,1637166518.4505022,1637166519.571206,a08b3b97-2b5a-4458-af11-53f22d4fc2dc
-0.0038311398738616,0.1783056945098043,0.0118925097581219,0.6525763925049307,-0.0016670834682482,-0.4476544752468768,-0.3650642099856654,-0.3992508273766035,-13.697601535330875,15.22878807759262,45.12681969436216,-2.376147741085704,0.2864112256883086,0.5809484970384602,4781.680447048611,12.03788888888889,0.33,178.91428117413074,-11.264775719781802,104.71791572971472,1525.0,1234.0,1200.0,1528.0,1475.0,1021.7000000000002,135.0,293.35,1637166521.1765478,1637166522.2260058,18ce1437-e4b8-43c1-a675-2b1fbb2f2f75
-0.0057212649655147,0.1741830305418624,0.011782937307945,0.6663277359918475,0.0010037455251149,-0.4558313226452737,-0.3666530110736031,-0.3916492365366393,-13.705101706130025,15.198178228769132,45.18412194640764,-2.42574488423594,0.2687933950523637,0.5794320727989332,4786.723795572917,12.041,0.3400000000000001,178.88866948256302,-11.282474447468596,104.85502646493336,1525.0,1234.0,1200.0,1528.0,1475.0,1021.7000000000002,135.0,293.35,1637166522.3383071,1637166523.2886803,18ce1437-e4b8-43c1-a675-2b1fbb2f2f75
0.0003463105644676,0.1767168937658242,0.0148098767576433,0.6614243684912076,0.0035239123064242,-0.4551054048844494,-0.3629960293036746,-0.3843215758078154,-13.720501067533029,15.13222668439248,45.02509015945668,-2.41337243596436,0.2806098931441581,0.5667223028415697,4789.398600260417,12.04,0.3400000000000001,178.88356050106384,-11.282663131444416,104.98841550596428,1525.0,1234.0,1200.0,1528.0,1475.0,1021.7000000000002,135.0,293.35,1637166523.3987176,1637166524.485618,18ce1437-e4b8-43c1-a675-2b1fbb2f2f75
0.0092479781224239,0.1787083733615072,0.0333758360750824,0.9338905316595298,0.0393584928999466,-0.7171255844007537,-0.4302472410424361,-0.4590034463946857,-13.870028111539092,16.888954495961972,43.51448757032937,-3.604529719523603,0.2701862599656272,0.5880321031787538,4794.756998697917,12.037,0.3533333333333333,178.8927175080111,-11.359894072528258,105.1877454699722,1525.0,1133.0,1200.0,1528.0,1475.0,1021.7000000000002,135.0,293.35,1637166525.19263,1637166526.329551,4894eca4-1dde-4d52-93c5-f416fa799511
0.0111808364531286,0.1917913255783681,0.0335730664376868,0.9292095962905692,0.0392401545454316,-0.7256064970388059,-0.4305233638149002,-0.4554270006998255,-13.842932278067456,16.56588197710079,43.521861156956696,-3.615145470515473,0.3195815031760343,0.5900215168026649,4800.724338107639,12.037555555555556,0.3544444444444444,178.90292332845092,-11.379381361140211,105.2764635560114,1525.0,1133.0,1200.0,1528.0,1475.0,1021.7000000000002,135.0,293.35,1637166526.438449,1637166527.4532993,4894eca4-1dde-4d52-93c5-f416fa799511
-0.0090024126274276,0.1876363377256256,0.0362816979222339,0.9337064501509592,0.0405287268136379,-0.726763583466051,-0.429839631550813,-0.4438166986853247,-13.796765264738015,16.837535150725813,43.37691625215361,-3.625953571071687,0.3045783176719686,0.582853819926355,4812.7041015625,12.034,0.37,178.90706545872757,-11.405337597806076,105.34634473922964,1525.0,1133.0,1200.0,1528.0,1475.0,1021.7000000000002,135.0,293.35,1637166527.5861886,1637166528.787907,4894eca4-1dde-4d52-93c5-f416fa799511
-0.0143364005278986,0.1913996040662616,0.0422303872550065,1.005276442890774,0.0463667479789002,-0.796903144416706,-0.4545301496381804,-0.4914971706113733,-14.109181088370372,17.911144690923702,43.21574813327451,-3.9377805595180537,0.3139160107766823,0.6021440079510767,4810.903645833333,12.029333333333334,0.3933333333333333,178.95754055669397,-11.418887839345738,105.4482101805112,1525.0,1033.0,1200.0,1528.0,1475.0,1021.7000000000002,135.0,293.35,1637166529.6974175,1637166530.84048,551ef054-0c8c-4066-a169-c1e1f9874dc4
-0.0016533869831429,0.1962618821570524,0.0404087449116827,0.9900732633604256,0.0429015185636282,-0.7890961006112498,-0.453461817562353,-0.4807864589129738,-14.094396068438948,17.778552606264594,43.01141862572536,-3.886937244931744,0.3356129381137533,0.6080573997471311,4811.203721788194,12.030333333333331,0.39,178.99027993011558,-11.413829989401606,105.42853316442228,1525.0,1033.0,1200.0,1528.0,1475.0,1021.7000000000002,135.0,293.35,1637166530.9504194,1637166531.9516103,551ef054-0c8c-4066-a169-c1e1f9874dc4
-0.0080222869079134,0.2020007399341207,0.0415592557810001,0.99924995693567,0.0414222902068408,-0.8000807462484012,-0.457036620535078,-0.468966326342811,-13.929322725039398,17.980940508765695,43.43759443854871,-3.9307716125512697,0.3511381311764938,0.6150019709294073,4827.1650390625,12.031,0.3877777777777778,178.98645047072088,-11.425302809932456,105.39470096073347,1525.0,1033.0,1200.0,1528.0,1475.0,1021.7000000000002,135.0,293.35,1637166532.0603907,1637166533.180606,551ef054-0c8c-4066-a169-c1e1f9874dc4
0.0410935728271148,0.1757718312223276,-0.0467150658420056,-0.0712729966723213,-0.1204984306020312,0.2627586706357975,-0.2116901253767469,-0.2398913431673633,-13.56089144332526,12.319125021210404,51.40474691214586,0.8319351118540895,0.3056555861121716,0.6078085183851888,4851.446234809027,12.044111111111112,0.31,179.03055072546195,-11.15562720984275,105.35794619498984,1525.0,1435.0,1200.0,1528.0,1475.0,1021.7000000000002,135.0,293.35,1637166534.2034614,1637166535.340739,d488c87a-f059-44be-b23e-c8560ac0aac1
0.0421345112682985,0.1778126183883387,-0.0441675058916492,-0.066109393677405,-0.1175947600144773,0.2594030142157783,-0.2102108968041026,-0.2237157054629867,-13.557710790686992,12.303046709805356,51.90329459340924,0.8128480194084324,0.308394130363195,0.5992790942338136,4876.596354166667,12.046555555555557,0.3077777777777777,179.0458124037074,-11.136233077421975,105.40052407645588,1525.0,1435.0,1200.0,1528.0,1475.0,1021.7000000000002,135.0,293.35,1637166535.4497364,1637166536.5697424,d488c87a-f059-44be-b23e-c8560ac0aac1
0.0244933436844453,0.1692111799090279,-0.0458110930095556,-0.0480710253655399,-0.1164716421632911,0.2489799337322197,-0.2131282641231323,-0.2346866500534566,-13.41471148480186,12.338708264674072,51.5662361705055,0.7489086446001935,0.2757842337055344,0.6028708293875559,4884.93505859375,12.045555555555556,0.3088888888888889,179.0466684540834,-11.123092172913823,105.45823538039296,1525.0,1435.0,1200.0,1528.0,1475.0,1021.7000000000002,135.0,293.35,1637166536.6775,1637166537.8982208,d488c87a-f059-44be-b23e-c8560ac0aac1
0.0930172262163684,0.200439332339742,0.0956332689212846,-0.0805181739704331,0.0044826713885041,0.2380637769957564,-0.0701224854430267,-0.0961596451178666,-12.506792267665247,12.565607862917227,51.20450450678012,0.8065178915673722,0.4026543863365654,0.0452384138290444,4858.779568142361,12.045333333333334,0.31,179.03890935918625,-11.140637316208036,105.47796020780603,1525.0,1435.0,1200.0,1439.0,1475.0,1021.7000000000002,135.0,293.35,1637166538.709637,1637166539.74006,cd264e74-543e-427e-84c2-33e8f3c7c7a8
0.0839227113990245,0.1980698278043676,0.1012625544896991,-0.0697526783237876,0.0120568684853137,0.2295719111764048,-0.0653286896831297,-0.1014602135772886,-12.45769229633179,12.498299907879662,51.11725579444092,0.7629961305997494,0.393223331542099,0.0201699911371053,4853.58203125,12.045333333333334,0.31,179.0391248896,-11.13354881307816,105.50783241959604,1525.0,1435.0,1200.0,1439.0,1475.0,1021.7000000000002,135.0,293.35,1637166539.848788,1637166540.962744,cd264e74-543e-427e-84c2-33e8f3c7c7a8
0.0707055324914685,0.1897423205138484,0.0953045515639913,-0.072368721167796,0.0082492251136682,0.24098114388933,-0.0670681527195291,-0.0946941132058152,-12.480382821801555,12.431021184728223,51.20801783036851,0.7937957302210789,0.361289536696723,0.0350633669226317,4850.83544921875,12.042,0.31,179.03791822284668,-11.105793675339648,105.53597811134586,1525.0,1435.0,1200.0,1439.0,1475.0,1021.7000000000002,135.0,293.35,1637166541.0711584,1637166542.3012002,cd264e74-543e-427e-84c2-33e8f3c7c7a8
0.1332577146241938,0.2215868179173887,0.2711683574424033,-0.0900783725005987,0.163664073940414,0.214040014426759,0.1112336489547579,0.0797041712584131,-11.14382946875225,12.486261174663158,50.85145551441965,0.7829430344077863,0.4877563714886979,-0.6660957555496624,4843.830349392361,12.04388888888889,0.31,179.0341934930193,-11.133080945120016,105.54057406974736,1525.0,1435.0,1200.0,1351.0,1475.0,1021.7000000000002,135.0,293.35,1637166543.214393,1637166544.450907,1b263e84-8c56-4f58-bfe0-a7039b33cbf4
0.1438643293267266,0.2144859743673758,0.2705651610041574,-0.0821617609959162,0.1658489488511362,0.214525420379453,0.1118998495062152,0.0931892549617157,-11.149186530204956,12.439398348589927,50.9684704588951,0.7658511321811051,0.4591109678392239,-0.6698072015557704,4842.61376953125,12.045,0.3,179.03067974014627,-11.135122317908206,105.56790621007605,1525.0,1435.0,1200.0,1351.0,1475.0,1021.7000000000002,135.0,293.35,1637166544.587958,1637166545.5881302,1b263e84-8c56-4f58-bfe0-a7039b33cbf4
0.1395252596917247,0.2182333525919815,0.2711174062366535,-0.0899063435449415,0.1638897932061466,0.2179572300237933,0.1102299651756752,0.0971996069067542,-11.315373599389424,12.631439454700878,50.95877764478263,0.792248109863722,0.4754198431281499,-0.6653371510811277,4841.7021484375,12.045,0.3033333333333333,179.0291118322768,-11.120423940541812,105.60461012885588,1525.0,1435.0,1200.0,1351.0,1475.0,1021.7000000000002,135.0,293.35,1637166545.7059934,1637166546.8166797,1b263e84-8c56-4f58-bfe0-a7039b33cbf4
0.1978369863088789,0.246829574120598,0.4389922776999888,-0.0937627467171133,0.3141481556157328,0.1873591194330479,0.2784275330186259,0.2543900738431234,-10.082221173508271,12.721880914721794,51.37335314374972,0.7418345890162082,0.5813894495883822,-1.3334675909362346,4838.059407552083,12.038444444444444,0.3288888888888889,179.04136367382802,-11.143754159199284,105.55897004591192,1525.0,1435.0,1200.0,1262.0,1475.0,1021.7000000000002,135.0,293.35,1637166547.718714,1637166548.8576171,93825796-1077-4bc4-ac2d-6e0a660da173
0.1899614654506552,0.2358997209245837,0.434390234424965,-0.0864076944243179,0.3140933694158744,0.1914680867676073,0.2768524289224526,0.2489662370040511,-10.14303423104983,12.594900209058636,51.37593673290663,0.7333756699050799,0.5396039135163403,-1.3261220584181896,4842.61376953125,12.041444444444444,0.3222222222222222,179.06521317658988,-11.1375108919792,105.5138088351198,1525.0,1435.0,1200.0,1262.0,1475.0,1021.7000000000002,135.0,293.35,1637166548.9659216,1637166550.0928924,93825796-1077-4bc4-ac2d-6e0a660da173
0.1921803078148278,0.2397621502389105,0.437992429033121,-0.0877225642281324,0.3155041148579307,0.1887013819019337,0.2776468292578597,0.2572800473522458,-10.187690676464094,12.755700679998816,51.3637405823748,0.7313454467258564,0.5549075089165773,-1.3337433902652347,4839.575466579861,12.041,0.3211111111111111,179.06440721426782,-11.12208519432994,105.50607706097937,1525.0,1435.0,1200.0,1262.0,1475.0,1021.7000000000002,135.0,293.35,1637166550.206229,1637166551.3154106,93825796-1077-4bc4-ac2d-6e0a660da173
0.2381667751593871,0.2625050106413058,0.5829518611706779,-0.0859748831635066,0.4440227493023585,0.1568946869366936,0.4197108119709195,0.3842224835759606,-9.10554268598442,13.067183707091152,51.33436274870903,0.6657521292362586,0.6417880211394218,-1.90530020938648,4843.830349392361,12.037333333333333,0.3511111111111111,179.0826514084508,-11.13693696636144,105.36783099653866,1525.0,1435.0,1200.0,1173.0,1475.0,1021.7000000000002,135.0,293.35,1637166553.250005,1637166554.3847897,50df39cd-18a7-4cc1-8d4e-34bc863b1781
0.2306402426438727,0.2680729353204406,0.5897365877796548,-0.0799155254336211,0.4495523234543907,0.1482143561339895,0.4218852773861754,0.4071477814215985,-9.189043134944932,13.20562640920979,51.7021916237121,0.633850029956268,0.6596884883232313,-1.9240455685751527,4847.17822265625,12.037666666666668,0.3366666666666666,179.09236393745056,-11.147884146917418,105.31553830934314,1525.0,1435.0,1200.0,1173.0,1475.0,1021.7000000000002,135.0,293.35,1637166554.4930089,1637166555.4390104,50df39cd-18a7-4cc1-8d4e-34bc863b1781
0.2376665768889467,0.2624847397565495,0.584805827170548,-0.0786828350850088,0.4468267085650108,0.1524876824291121,0.419378807443354,0.3879999939847764,-9.19799255862762,13.113783913488987,51.66520554483321,0.6398073626429555,0.6386545937839189,-1.9107294281335008,4849.311848958333,12.03677777777778,0.3477777777777777,179.0904651448613,-11.14843919465122,105.26813755541316,1525.0,1435.0,1200.0,1173.0,1475.0,1021.7000000000002,135.0,293.35,1637166555.547806,1637166556.528141,50df39cd-18a7-4cc1-8d4e-34bc863b1781
-0.0117066611996489,0.1613767486915212,-0.2381929691426466,-0.0353606184736282,-0.2959787573564273,0.2550885985055059,-0.4196450067281005,-0.4438468320837375,-14.761446759412555,12.602908114393784,51.475487417149225,0.7254437676784481,0.2429800908794892,1.4016247709878171,4850.83544921875,12.043444444444445,0.31,179.12288425830178,-11.141919209906014,105.34429568247862,1525.0,1435.0,1200.0,1617.0,1475.0,1021.7000000000002,135.0,293.35,1637166558.175274,1637166559.301973,6aabe2d5-f3c6-4a66-b1b7-2a9ca48d2427
-0.030060050232842,0.1488991841754553,-0.2396448044362366,-0.0317584236349208,-0.2945269218497592,0.2626901880484888,-0.4190149648705072,-0.4470655236706687,-14.891657792120355,12.67078428671733,51.286487035877904,0.7346818803200459,0.1982439501727076,1.3988655965673924,4861.53662109375,12.044555555555554,0.3055555555555556,179.13162841825928,-11.14501821851443,105.32688704810408,1525.0,1435.0,1200.0,1617.0,1475.0,1021.7000000000002,135.0,293.35,1637166559.413971,1637166560.531505,6aabe2d5-f3c6-4a66-b1b7-2a9ca48d2427
-0.0264989449052377,0.1557748563131235,-0.2373848720555349,-0.0371959575331956,-0.2968964268835516,0.2611972632682706,-0.4173850740402677,-0.4479831936154277,-14.596688602254863,12.788942940605253,51.33212044057039,0.7446443950147931,0.2223544822976432,1.397698220894754,4870.74365234375,12.045555555555556,0.3,179.12820118111574,-11.136434378275016,105.3168034121594,1525.0,1435.0,1200.0,1617.0,1475.0,1021.7000000000002,135.0,293.35,1637166560.639779,1637166561.7680542,6aabe2d5-f3c6-4a66-b1b7-2a9ca48d2427
-0.069697892227347,0.133408376796364,-0.4142759545974546,-0.0062554310876537,-0.4585432417602377,0.2594851932984166,-0.6091369457260926,-0.6374066526917886,-15.837634466273926,13.229077114681989,50.60602252189844,0.6643722009318992,0.1386691546469381,2.127495235195083,4870.12841796875,12.041666666666666,0.3177777777777778,179.1239467321727,-11.13544789025864,105.34915801825775,1525.0,1435.0,1200.0,1696.111111111111,1475.0,1021.7000000000002,135.0,293.35,1637166562.653901,1637166563.605736,b4287e35-2012-4e98-ad7a-62291e4c8c84
-0.0812545010830645,0.131333622155454,-0.4131933784523713,0.0031206853915623,-0.4546117807295311,0.2567195845170365,-0.6097401424316825,-0.6368527639391117,-16.051098097705836,13.21140977602357,51.15412280035906,0.6369239914549637,0.1264545367751628,2.1219857792869647,4867.36328125,12.039666666666667,0.3188888888888889,179.11766599377592,-11.139629768441718,105.32703503553608,1525.0,1435.0,1200.0,1706.0,1475.0,1021.7000000000002,135.0,293.35,1637166563.7136548,1637166564.7198763,b4287e35-2012-4e98-ad7a-62291e4c8c84
-0.0869084406631411,0.1216824792739075,-0.4162964714696482,0.00794625711704,-0.4551377287630136,0.2628863227466407,-0.6089906663997051,-0.6358008682680459,-15.93739176136543,13.137966756863577,51.3092779395841,0.6393367616497005,0.087284865281215,2.125067917082435,4863.681966145833,12.041666666666666,0.31,179.12030851807484,-11.1159510204091,105.30648603196316,1525.0,1435.0,1200.0,1706.0,1475.0,1021.7000000000002,135.0,293.35,1637166564.828027,1637166566.0616033,b4287e35-2012-4e98-ad7a-62291e4c8c84
-0.1346469767067255,0.1029472310993606,-0.5773335265097136,0.0643092395006432,-0.6013162081594144,0.2377487561612254,-0.7955471816259587,-0.8165166241650312,-17.338054705024877,13.94511244406096,51.16390335316825,0.4523120783230268,0.0110836015303598,2.8060076565726795,4862.454481336806,12.041555555555554,0.3222222222222222,179.1070594689048,-11.153809051431187,105.28371494018025,1525.0,1435.0,1200.0,1795.0,1475.0,1021.7000000000002,135.0,293.35,1637166568.1987467,1637166569.3379333,66b20131-f5d9-43f5-a9df-c39daf25a808
-0.1423718362834741,0.1022076169253149,-0.5812096538665656,0.0614329623674491,-0.6033569961884738,0.2388992671206676,-0.7973003420931751,-0.8214884773192129,-17.372915188800153,13.743982904033876,50.82905374529532,0.4597883644591227,0.0116290907048332,2.8160381786728386,4861.84130859375,12.038444444444444,0.32,179.11717270233586,-11.142357670105232,105.23928683635904,1525.0,1435.0,1200.0,1795.0,1475.0,1021.7000000000002,135.0,293.35,1637166569.4470472,1637166570.4594486,66b20131-f5d9-43f5-a9df-c39daf25a808
-0.1394681656841009,0.1052482528802719,-0.5748407520944324,0.0588443127585592,-0.5994945652778726,0.2408441782248555,-0.7913560327951337,-0.8067098830961091,-17.287817284648643,13.860630887905415,51.23550546134023,0.471196227931695,0.0195531017352302,2.7945625846539897,4861.229220920139,12.037333333333333,0.3288888888888889,179.10801265974897,-11.10429606150038,105.2219783780923,1525.0,1435.0,1200.0,1795.0,1475.0,1021.7000000000002,135.0,293.35,1637166570.5679312,1637166571.6202004,66b20131-f5d9-43f5-a9df-c39daf25a808
-0.1826260253406167,0.0883466997846363,-0.683481892755116,0.1230537787174553,-0.6984248438416407,0.2001243114741368,-0.9235826778699108,-0.948236498317056,-17.894486535775354,14.681861212497154,50.56435552361773,0.2344744910656619,-0.0483746587171143,3.2624716032978007,4856.026909722223,12.027666666666669,0.3788888888888889,179.08077234751917,-11.152540723247814,105.17450476881118,1525.0,1435.0,1200.0,1883.0,1475.0,1021.7000000000002,135.0,293.35,1637166572.7061093,1637166573.7307804,ed2e0c62-93bd-47f2-a67a-ce83a93b4723
-0.1616291991820437,0.1062070119590378,-0.6720863518099347,0.1017282372101855,-0.6945898060623357,0.1989738004681044,-0.9123788868102158,-0.9277601310208164,-17.63628506955293,14.6670787348318,50.182987410750826,0.2805329428580413,0.02351273681419,3.2273858179391723,4853.58203125,12.029,0.3844444444444444,179.1101664460672,-11.113746671718218,104.986673048816,1525.0,1435.0,1200.0,1883.0,1475.0,1021.7000000000002,135.0,293.35,1637166573.8399563,1637166574.9644272,ed2e0c62-93bd-47f2-a67a-ce83a93b4723
-0.1733123646459523,0.0945238476984304,-0.6928366458303076,0.1146440917832897,-0.7094779710586961,0.2013296084796074,-0.93421121352958,-0.95924853768023,-17.977365180587867,14.700915242920551,50.41860772401336,0.2557487028898054,-0.022885550477308,3.3058130454948027,4858.779568142361,12.031222222222222,0.3688888888888889,179.1415230856369,-11.116596663013146,104.84046146598328,1525.0,1435.0,1200.0,1883.0,1475.0,1021.7000000000002,135.0,293.35,1637166575.0731766,1637166576.185181,ed2e0c62-93bd-47f2-a67a-ce83a93b4723
0.0214499683838648,0.1653230010853657,-0.1010301410288218,-0.0243732389084447,-0.1352299021739323,0.2479757021303114,-0.2329510215694932,-0.2576968711175135,-12.9754448428385,8.594252440686951,53.73653641165105,0.6661906858981326,0.2323750600811246,0.7365555967274853,7543.794813368056,11.830222222222224,7.865555555555555,-178.2483377300545,-11.058062416144828,89.49723683313297,1525.0,1435.0,1350.0,1528.0,1475.0,1021.7000000000002,135.0,293.35,1637166581.2605827,1637166582.242161,fe7b982f-a13f-404d-8e6b-5f5807f2144f
0.0274194765353847,0.1656648671802682,-0.1086300879098652,-0.034458289414153,-0.1459460904046484,0.2548524698097538,-0.2386707050888351,-0.2635085958136005,-12.763431464899622,8.691780825411856,53.38818271353787,0.7047123975353246,0.2360056807455641,0.769224462881724,7545.26953125,11.828111111111111,7.894444444444444,-177.5231416360185,-10.854671240629155,82.92960089372544,1525.0,1435.0,1350.0,1528.0,1475.0,1021.7000000000002,135.0,293.35,1637166582.3513625,1637166583.4700365,fe7b982f-a13f-404d-8e6b-5f5807f2144f
0.0074071606876494,0.1697541115683897,-0.1074992999842312,-0.0258064469677387,-0.1415149794786589,0.2482123785808238,-0.2384997720452021,-0.2583543058776567,-12.910855409954584,8.446315294206862,54.15469017537586,0.6687518503872704,0.244595023588546,0.7630537658099139,7553.397406684027,11.82922222222222,7.943333333333334,-177.17624543499244,-10.650323364310992,77.49522614685685,1525.0,1435.0,1350.0,1528.0,1475.0,1021.7000000000002,135.0,293.35,1637166583.5785823,1637166584.5936625,fe7b982f-a13f-404d-8e6b-5f5807f2144f
0.2099995297859838,0.4939976522176955,-0.067191421732496,-0.1909672303251997,-0.182845170119389,0.0800328887436214,-0.2698731130108361,-0.2985537116521122,-12.340582683879632,7.983174114777095,53.82730402813576,0.6625640615834422,1.4824530819435957,0.8469843518635233,7557.097222222223,11.82311111111111,7.993333333333333,-177.00666246263972,-10.48184982337972,70.56550594243885,1610.0,1435.0,1350.0,1528.0,1542.0,1021.7000000000002,135.0,293.35,1637166585.175352,1637166586.2227924,f9d27d92-4a18-4903-889f-d4bb089bfdac
0.2034799681989813,0.4924636377874924,-0.0646986479874586,-0.1885292426541595,-0.1792566715224826,0.0760197971462751,-0.2676542702905017,-0.2933901081961306,-12.370371805752214,7.93093892466144,53.38147971370844,0.6477383940967222,1.4807187391132277,0.8347471735313451,7556.357259114583,11.821333333333332,7.949999999999999,-177.04661299800506,-10.385726958506574,66.93964006765488,1610.0,1435.0,1350.0,1528.0,1542.0,1021.7000000000002,135.0,293.35,1637166586.3309224,1637166587.368026,f9d27d92-4a18-4903-889f-d4bb089bfdac
0.1997682009643965,0.4842593999301739,-0.0697800714137806,-0.1784896643002121,-0.1814481210466308,0.0770470391643844,-0.273146590931316,-0.3036899216925067,-12.482705137263844,8.003443397325364,53.657821503370805,0.6276150397038377,1.4467367239062845,0.8518551962931117,7551.91748046875,11.824,7.923333333333334,-177.352840734893,-10.34790554488754,63.26757555223483,1610.0,1435.0,1350.0,1528.0,1542.0,1021.7000000000002,135.0,293.35,1637166587.4809492,1637166588.5900338,f9d27d92-4a18-4903-889f-d4bb089bfdac
0.397710853487401,0.8121412848177408,-0.0233213430549246,-0.3633658367720025,-0.2239896362987521,-0.0797511665633571,-0.2975538617340204,-0.3170714619876715,-11.717355787554643,7.880027457325402,52.91994010218003,0.6940667157071808,2.7033213689453355,0.9188185633885788,7551.91748046875,11.814666666666668,8.017777777777777,-177.80400356814886,-10.30764214891274,59.00442267149234,1695.0,1435.0,1350.0,1528.0,1609.0,1021.7000000000002,135.0,293.35,1637166589.154928,1637166590.2354825,71f192f3-32c4-4d87-a8fa-6050b34442dc
0.3713038905526484,0.8066215722145857,-0.0352784390483797,-0.3651053000256919,-0.2359467332582575,-0.0803401186392372,-0.3089904898596816,-0.3351646183297967,-11.619844421210075,7.937326070353271,51.74909887910275,0.6963139664373886,2.6917631862449176,0.9653968911066926,7551.91748046875,11.81088888888889,8.053333333333335,-178.07509377630666,-10.335967607446957,56.63299844659179,1695.0,1435.0,1350.0,1528.0,1609.0,1021.7000000000002,135.0,293.35,1637166590.3529904,1637166591.3505137,71f192f3-32c4-4d87-a8fa-6050b34442dc
0.3871645041876781,0.8058545649993606,-0.0283890698783705,-0.355640976286993,-0.2258797615659092,-0.0814358433976707,-0.3017860989789565,-0.3326992377411537,-11.743431930975923,7.791979949821008,52.78147068269385,0.6719844138459186,2.6798803030829093,0.9334562961943834,7556.357259114583,11.811333333333332,8.056666666666665,-178.44026301009222,-10.410730288919485,54.62639245964446,1695.0,1435.0,1350.0,1528.0,1609.0,1021.7000000000002,135.0,293.35,1637166591.4704163,1637166592.4885924,71f192f3-32c4-4d87-a8fa-6050b34442dc
0.5327041232189894,1.057145306151393,0.006304313790088,-0.4966196845429283,-0.2682706155145198,-0.2134432850961776,-0.3370958325365197,-0.3657627354484831,-11.50397337895078,8.88747891641094,50.54757038687973,0.7021136268796595,3.660052990051093,1.0199140256444548,7551.91748046875,11.796666666666669,8.13888888888889,-178.85044774396764,-10.502863469543692,51.85922365913879,1779.0,1435.0,1350.0,1528.0,1677.0,1021.7000000000002,135.0,293.35,1637166593.1851966,1637166594.210729,14ea481b-e757-4c36-a146-72bb6009ef9b
0.5221988637411962,1.0478179502886016,0.003154105261037,-0.4911821489599475,-0.2684623673543039,-0.2124023465053418,-0.335383762458503,-0.3704743523322149,-11.237810494767064,8.675717570705809,50.10399832996077,0.6906896275773003,3.6262444922949513,1.0205981479881314,7551.91748046875,11.796555555555557,8.135555555555557,-179.1215288452065,-10.574001881887884,50.32772297467287,1779.0,1435.0,1350.0,1528.0,1677.0,1021.7000000000002,135.0,293.35,1637166594.329795,1637166595.5528572,14ea481b-e757-4c36-a146-72bb6009ef9b
0.5208702976801229,1.0528582835580609,0.0035376088935524,-0.4849913030706799,-0.2654902137599334,-0.2199491510830584,-0.3367945081978154,-0.353600189113163,-11.418912509117874,8.474162589132613,50.54281253885677,0.6584276694418159,3.641800071034757,1.0192749554453424,7551.91748046875,11.799111111111111,8.085555555555556,-179.333272298576,-10.634236371540842,48.748198471242674,1779.0,1435.0,1350.0,1528.0,1677.0,1021.7000000000002,135.0,293.35,1637166595.66203,1637166596.7836554,14ea481b-e757-4c36-a146-72bb6009ef9b
0.6676973917175842,1.297697958516813,0.0350944802266122,-0.6133554875741686,-0.3099355526606848,-0.351929208052711,-0.3765008386187365,-0.3943200653571281,-11.143003132362042,9.75462311574775,49.03367657542069,0.6613669798047176,4.589346960388975,1.1193680174976273,7552.657443576389,11.78022222222222,8.221111111111112,-139.99514990808473,-10.794269411341537,46.16098807989391,1864.0,1435.0,1350.0,1528.0,1744.0,1021.7000000000002,135.0,293.35,1637166598.7168624,1637166599.7437377,c268d0f4-0b2f-4e26-9486-908ff3ec822a
0.6865241314585123,1.3046969000269657,0.0382145562584344,-0.613001020600654,-0.3058999980712288,-0.3583633046106104,-0.3739445124291892,-0.3977436575233634,-11.19352406103441,9.53026398056426,49.165048060408544,0.6447726806646125,4.614940827657138,1.1070707945614495,7555.617296006944,11.77822222222222,8.262222222222222,179.73243766059045,-10.798882824670924,45.376589044497095,1864.0,1435.0,1350.0,1528.0,1744.0,1021.7000000000002,135.0,293.35,1637166599.852506,1637166600.968927,c268d0f4-0b2f-4e26-9486-908ff3ec822a
0.6675111185399979,1.2946118498872212,0.0350851665667066,-0.6139740244951232,-0.3097394178813475,-0.3513681969925677,-0.3735632001603604,-0.4102612198617463,-10.912176634744386,9.647613374774265,48.6141781202161,0.6633623917559206,4.5799301975907465,1.1141658320145575,7551.91748046875,11.782,8.24,179.62008256656355,-10.822315211574727,44.62625671595057,1864.0,1435.0,1350.0,1528.0,1744.0,1021.7000000000002,135.0,293.35,1637166601.0840647,1637166602.1989377,c268d0f4-0b2f-4e26-9486-908ff3ec822a
-0.1902824022315546,-0.2135665539809444,-0.1586570455688742,0.1361339917936505,-0.1073771266954174,0.4574415405530649,-0.2083481646657408,-0.2410966405523163,-13.577091219911036,9.764880965534749,51.61267463938191,0.7790727986988575,-1.1890043568382205,0.6938066517822818,7558.5771484375,11.814666666666666,8.073333333333332,179.5090874390914,-10.936648309412512,43.22288962140417,1440.0,1435.0,1350.0,1528.0,1408.0,1021.7000000000002,135.0,293.35,1637166604.2464268,1637166605.3843372,95174cdc-9740-49a7-b952-65af67d2e25f
-0.190679602490219,-0.212142111738836,-0.1565751685193669,0.1356546121732497,-0.1058294155839753,0.4514424483927386,-0.2075537641850095,-0.2440961871382879,-13.562617921409505,9.764415134626658,50.90694175406778,0.7666687636931669,-1.17731838417313,0.6869128218066871,7565.248046875,11.812888888888889,8.092222222222222,179.33646427364815,-10.981230377081262,42.79677916311404,1440.0,1435.0,1350.0,1528.0,1408.0,1021.7000000000002,135.0,293.35,1637166605.4924223,1637166606.6198442,95174cdc-9740-49a7-b952-65af67d2e25f
-0.1853927303910362,-0.2025271266301995,-0.1589857629764724,0.1265053113091705,-0.1100479557562844,0.4547981049573869,-0.2070743845555579,-0.2302215723352825,-13.349319507831051,9.526765299014704,51.51947476054232,0.7933575225153109,-1.147225256924668,0.6974558138477741,7571.93115234375,11.81577777777778,8.041111111111112,179.162745242298,-11.002189381731878,42.48136406288248,1440.0,1435.0,1350.0,1528.0,1408.0,1021.7000000000002,135.0,293.35,1637166606.7566595,1637166607.7306712,95174cdc-9740-49a7-b952-65af67d2e25f
-0.3657490382025488,-0.5228212074079828,-0.2066908808816443,0.2712231436025797,-0.0851613074725984,0.6218002283443812,-0.1955692742186117,-0.2103341666131032,-14.494614370929872,10.971100243933192,49.44126700686365,0.8484771025437641,-2.342815196440114,0.6703942401963833,7578.6259765625,11.797999999999998,8.133333333333333,178.83707575139255,-10.992016858464266,41.84083044033851,1355.0,1435.0,1350.0,1528.0,1341.0,1021.7000000000002,135.0,293.35,1637166609.7757788,1637166610.8628,86531578-7997-4a99-8817-83516e7d58c6
-0.3606128278563664,-0.5246017605194744,-0.199349524747875,0.2733871995746673,-0.0744779912689318,0.6264159681423253,-0.1836532671321565,-0.2088549386976109,-14.478710256245762,10.64245910951576,50.2102524813483,0.8522852412909464,-2.356228029764221,0.6299043619737915,7578.6259765625,11.797333333333333,8.176666666666668,178.73730793709606,-11.029405408844656,41.62025517291725,1355.0,1435.0,1350.0,1528.0,1341.0,1021.7000000000002,135.0,293.35,1637166610.9942272,1637166611.949407,86531578-7997-4a99-8817-83516e7d58c6
-0.365310748277831,-0.5203284330694243,-0.1969526267379664,0.2694699841499897,-0.075039550179763,0.6259228920827211,-0.1830917081723543,-0.1986646973114066,-14.441019449430431,10.800405703477514,50.231882375224025,0.8612023289187173,-2.3400220028478187,0.6270772168593837,7571.93115234375,11.804,8.119999999999997,178.68084959341675,-11.047928312691296,41.39820344627041,1355.0,1435.0,1350.0,1528.0,1341.0,1021.7000000000002,135.0,293.35,1637166612.0621622,1637166613.1656034,86531578-7997-4a99-8817-83516e7d58c6
-0.5785388241687743,-0.8869854522606294,-0.2411514261035919,0.4375678356621624,-0.0377712128700187,0.8159078381215267,-0.1569723687471693,-0.188707298393938,-15.35598051427529,12.408337343910778,48.09013480072,0.9165926940088224,-3.713221768415933,0.5521636840741753,7571.93115234375,11.791777777777778,8.202222222222224,178.63301246628984,-11.04161949462793,41.133417502716526,1271.0,1435.0,1350.0,1528.0,1273.0,1021.7000000000002,135.0,293.35,1637166614.1685734,1637166615.41906,e7fe89c4-4d28-4858-83cb-44739f643856
-0.5832586597090073,-0.8882822431258249,-0.242720504039321,0.4339771461775579,-0.0407039200728148,0.8248615516110155,-0.1565439403848802,-0.1845375173166613,-15.249823643431226,12.48936665895789,48.7060023805315,0.9454232325247672,-3.72395129989926,0.558408186257636,7565.248046875,11.789555555555555,8.205555555555556,178.61733186977528,-11.041046422783817,41.00126169028576,1271.0,1435.0,1350.0,1528.0,1273.0,1021.7000000000002,135.0,293.35,1637166615.526862,1637166616.5422845,e7fe89c4-4d28-4858-83cb-44739f643856
-0.5688608328741498,-0.8934891296417223,-0.2440090764663277,0.4226692682904637,-0.0411115297451514,0.8338421103113458,-0.1539667957500189,-0.1722566341167339,-15.328753371353924,12.385962407913734,47.78432081309847,0.9901752549318716,-3.733444004892986,0.5550086352318389,7565.248046875,11.792,8.19,178.59753494592093,-10.986541133752162,40.89311437224255,1271.0,1435.0,1350.0,1528.0,1273.0,1021.7000000000002,135.0,293.35,1637166616.6733758,1637166617.6727743,e7fe89c4-4d28-4858-83cb-44739f643856
-0.6949568733319738,-1.1246302090700089,-0.2430097754069608,0.5474503846618719,0.0086825841542472,0.923266385890812,-0.1211082014743043,-0.1466824178280614,-16.088172124583988,13.944019245029413,44.75299152092911,0.9191607373562664,-4.583395463317419,0.4067214977752334,7571.188585069444,11.755333333333333,8.39,178.5588791108583,-10.912908848587271,40.75692874820148,1186.0,1435.0,1350.0,1528.0,1206.0,1021.7000000000002,135.0,293.35,1637166619.698905,1637166620.7493577,93bf38ea-0ab6-41d3-9c86-8ef7cbd43778
-0.6824787557708318,-1.08855016024081,-0.241681756876639,0.5211003998315343,-0.0023754694960858,0.9008478606257287,-0.1296285571584823,-0.155860208227746,-15.94103180259592,14.093723962045615,43.11298107646413,0.9290936043650252,-4.431248420243431,0.4339669197439142,7568.218315972223,11.756777777777778,8.395555555555555,178.60708810384006,-10.96143867073255,40.61880752444063,1186.0,1435.0,1350.0,1528.0,1206.0,1021.7000000000002,135.0,293.35,1637166620.8578022,1637166621.9725618,93bf38ea-0ab6-41d3-9c86-8ef7cbd43778
-0.6774417075716256,-1.0739846817671668,-0.2366589543368075,0.5183227380308518,-0.001023345220557,0.8844043215801234,-0.128209593582978,-0.1516718004349062,-15.73214575850475,14.011274555410631,42.46568651879756,0.8981140014174577,-4.371701498736352,0.4242633785527831,7538.63330078125,11.755000000000004,8.41,178.5724408309103,-10.933244313884906,40.52547944016661,1186.0,1435.0,1350.0,1528.0,1206.0,1021.7000000000002,135.0,293.35,1637166622.0814464,1637166623.2016392,93bf38ea-0ab6-41d3-9c86-8ef7cbd43778
0.0241509297886767,0.1704164771261248,-0.1092809483950808,-0.0394011034735601,-0.1473025976343007,0.2318729328918913,-0.2464656914000984,-0.2617647497532026,-13.047314700987345,8.73092505038673,50.10678041250926,0.6637851965220553,0.2854873175429557,0.7787465545840452,7518.062771267361,11.820444444444444,8.131111111111112,178.21941719128884,-10.92444456377673,40.44671825211747,1525.0,1435.0,1350.0,1528.0,1475.0,1021.7000000000002,135.0,293.35,1637166624.2037022,1637166625.2603524,561be4eb-07f8-4d40-85f4-041efe8ee657
0.0320401475830921,0.1741830306105647,-0.1146226065746904,-0.0355934600717002,-0.1511376343475227,0.2341191684082334,-0.252642840099588,-0.2788580574140169,-13.213411079139163,8.663973419794573,51.40574263256136,0.6596573210524713,0.2884685326021484,0.8022787587007936,7525.396484375,11.821555555555555,8.117777777777778,178.20835683829287,-10.939296051217012,40.558593335627705,1525.0,1435.0,1350.0,1528.0,1475.0,1021.7000000000002,135.0,293.35,1637166625.3956769,1637166626.3672469,561be4eb-07f8-4d40-85f4-041efe8ee657
0.027465496960192,0.1798807987843443,-0.1140884407817563,-0.0277179386170871,-0.1500419095982595,0.2249972608329603,-0.2527113229463675,-0.2886784910699392,-13.03478485658858,8.487218536593339,51.93622287076642,0.6204232757884002,0.3029339423664509,0.8018598607321001,7543.794813368056,11.822555555555557,8.07888888888889,178.25105614534414,-10.954421694861484,40.638056135886586,1525.0,1435.0,1350.0,1528.0,1475.0,1021.7000000000002,135.0,293.35,1637166626.475887,1637166627.707432,561be4eb-07f8-4d40-85f4-041efe8ee657
0.0360669358153429,0.1647871917345766,-0.1533975666828373,-0.4795811610756428,-0.229591529380238,0.6844345846854424,-0.1622044545501475,-0.1748326844438555,-13.158974936335415,7.390223172417056,56.203839208034346,2.6635213320683384,0.2625023910728536,0.8355236560364793,7565.248046875,11.81688888888889,8.073333333333332,178.24176860589276,-10.661527246143274,40.889045476772,1525.0,1535.0,1350.0,1528.0,1475.0,1021.7000000000002,135.0,293.35,1637166629.846985,1637166630.8715944,bac34fce-5b36-4220-b0b9-5a4e6ad23f75
0.0403128690071062,0.1700055803714417,-0.1507952203480976,-0.4847447649076186,-0.2297832812238599,0.6780245958887091,-0.162697530721062,-0.1837902333444171,-13.176442952236464,7.513721768714768,55.35077987316254,2.661568547565544,0.2905616183892445,0.8322596635792449,7565.248046875,11.815555555555555,8.113333333333332,178.2627342510051,-10.613460833360431,40.970643090601456,1525.0,1535.0,1350.0,1528.0,1475.0,1021.7000000000002,135.0,293.35,1637166630.97947,1637166632.0955086,bac34fce-5b36-4220-b0b9-5a4e6ad23f75
0.0388884268920647,0.1700466700457734,-0.1540413049307973,-0.4965375047308591,-0.2322212689107735,0.689926904142923,-0.1598075565860527,-0.184872261805371,-13.09714709694302,7.226276534023163,55.5063556490374,2.7129137279003928,0.2900169082507063,0.8361847784381974,7565.248046875,11.815,8.103333333333333,178.3343632037409,-10.58292704185832,41.06028894400292,1525.0,1535.0,1350.0,1528.0,1475.0,1021.7000000000002,135.0,293.35,1637166632.203593,1637166633.3250186,bac34fce-5b36-4220-b0b9-5a4e6ad23f75
0.0652816953401298,0.1642667225158175,-0.1807906860921248,-0.9553450153579344,-0.3126748647254376,1.145748339671985,-0.072519383249758,-0.1006932063163382,-13.496888811925222,7.467960617928452,59.669590881019786,4.772895327673958,0.2890665711310543,0.8587189695904683,7571.93115234375,11.812444444444443,8.095555555555555,178.32745408794048,-10.444049279783144,41.22829414265736,1525.0,1636.0,1350.0,1528.0,1475.0,1021.7000000000002,135.0,293.35,1637166634.1521027,1637166635.2061489,e75b8e7f-46df-4b41-8e7e-aded08b6950c
0.0568109964467839,0.1686645628262908,-0.1836009711701161,-0.975227449586324,-0.3226185677807469,1.144970126123739,-0.0751391615033327,-0.0985677504617325,-13.130385231658536,7.66816417107738,57.5448399972242,4.817029509415426,0.3240719288411078,0.8773585583841608,7578.6259765625,11.810666666666666,8.075555555555555,178.3517209911516,-10.386491180783707,41.27554273515083,1525.0,1636.0,1350.0,1528.0,1475.0,1021.7000000000002,135.0,293.35,1637166635.326403,1637166636.5212877,e75b8e7f-46df-4b41-8e7e-aded08b6950c
