raw_voltage_G-,raw_voltage_G0,raw_voltage_G1,raw_voltage_G2,raw_voltage_G3,raw_voltage_G4,raw_voltage_G5,raw_voltage_G6,load_x,load_y,load_z,load_l,load_m,load_n,rpm,voltage,current,roll,pitch,yaw,aileron1_pwm,elevator_pwm,throttle_pwm,rudder_pwm,aileron2_pwm,pbaro,pdiff,Tt,sample_start_time,sample_end_time,uid
-0.0486462810372105,0.0049894435317392,-0.1009534425532686,-0.2496296002202704,-0.1636152027071596,0.5836553161220337,-0.1722440348969459,-0.2088001528168943,-14.302226603602683,12.847911756538716,49.82833459279303,1.9555417446974888,-0.2971334524687687,0.6591177887384497,4735.5947265625,12.044,0.35,-179.7302398574975,-14.037673720908774,113.76407477802844,1525.0,1435.0,1200.0,1528.0,1475.0,1021.7000000000002,135.0,293.35,1637167178.1632798,1637167179.141529,bb440acc-44cb-43eb-969f-e294bbcca6fc
-0.0217051493744476,0.0516125295365277,-0.0848325918633276,-0.2623400107477588,-0.1607937111253307,0.54604456937818,-0.1682309422312372,-0.1957747233856666,-13.85986961383778,12.85878637902225,49.38723470542252,1.9007241042702432,-0.1189028862208432,0.6327992396901954,4713.942111545139,12.042444444444444,0.36,-179.65991926544268,-13.883656465083313,113.0861997523821,1525.0,1435.0,1200.0,1528.0,1475.0,1021.7000000000002,135.0,293.35,1637167179.2501469,1637167180.3783913,bb440acc-44cb-43eb-969f-e294bbcca6fc
-0.0479751496523916,0.0101804394484118,-0.0875171164752726,-0.2353030011111471,-0.1517950701020585,0.5567963668926318,-0.1656833818694408,-0.1892414643582559,-14.133262488176229,12.960354797274087,48.68402187062679,1.864185881963947,-0.2696281459787717,0.6145739650923542,4632.68115234375,12.044555555555556,0.3588888888888888,-179.59789659431954,-13.841653173281196,112.53955770471865,1525.0,1435.0,1200.0,1528.0,1475.0,1021.7000000000002,135.0,293.35,1637167180.492129,1637167181.600654,bb440acc-44cb-43eb-969f-e294bbcca6fc
0.1079053849179069,0.278865822702824,-0.0348127580839343,-0.3911835619568746,-0.1704908755553788,0.4399647309659811,-0.1663134245336519,-0.2014177069352287,-13.58092643720783,12.64335754523784,49.29613466303891,1.954176469054088,0.751298994265832,0.6016174108256279,4577.669053819444,12.035222222222224,0.3944444444444445,-179.68675128414213,-13.836754599553956,111.60835551621597,1600.5555555555557,1435.0,1200.0,1528.0,1534.5555555555557,1021.7000000000002,135.0,293.35,1637167183.1447928,1637167184.146473,b7f71dae-052f-4a3f-9b75-3a732552c501
0.1539532139042924,0.3669209918592178,-0.0489065159918168,-0.5113435105301928,-0.2269343977137408,0.4582770272688308,-0.1923642809047817,-0.2173331100795525,-13.115939015118386,13.62995414137022,48.26676476403882,2.272286516869377,1.1013091529765289,0.7428672754106923,4648.575575086806,12.032111111111112,0.4055555555555556,-179.7332709436692,-13.77502591115632,111.13631810703676,1610.0,1435.0,1200.0,1528.0,1542.0,1021.7000000000002,135.0,293.35,1637167184.2544415,1637167185.3784504,b7f71dae-052f-4a3f-9b75-3a732552c501
0.1585552574888556,0.3907256088146476,-0.0538235815732819,-0.5301214825557347,-0.2369328877733865,0.454592655514223,-0.1993769193909119,-0.2264961082590856,-13.100393186428963,13.44588411837917,48.556646693292045,2.304954720621972,1.1899088267000697,0.7763835692930289,4683.841959635417,12.034,0.4,-179.77772333260748,-13.660023454779877,110.77813919241174,1610.0,1435.0,1200.0,1528.0,1542.0,1021.7000000000002,135.0,293.35,1637167185.486653,1637167186.5156193,b7f71dae-052f-4a3f-9b75-3a732552c501
0.3188597712872562,0.6266351129937452,0.026397164181677,-0.6462135458460115,-0.2248388243133344,0.3254341176698681,-0.1761338569398549,-0.2053623160023425,-12.365216601697734,13.8008095421981,48.24889382463928,2.283261805286228,2.091622110560152,0.6449297109664941,4715.332790798611,12.03077777777778,0.4099999999999999,-179.98881564127603,-13.656064601245946,110.35575574067872,1695.0,1435.0,1200.0,1528.0,1609.0,1021.7000000000002,135.0,293.35,1637167187.1641576,1637167188.1511867,f8c1296e-3e84-4799-9010-e7e512147315
0.3607986306579392,0.692310105153687,0.0259177836111693,-0.6630740277713137,-0.2379601304000696,0.2877822774995404,-0.1902002259818309,-0.2183877456157556,-12.131320759157733,13.473252057997447,49.78290102008916,2.2348531881874885,2.3247318777490515,0.6937427981442553,4715.909071180556,12.032,0.4055555555555556,179.96441516992112,-13.701889953071117,110.05471894755992,1695.0,1435.0,1200.0,1528.0,1609.0,1021.7000000000002,135.0,293.35,1637167188.2598546,1637167189.382163,f8c1296e-3e84-4799-9010-e7e512147315
0.3177640466866829,0.6548637175673447,0.0176861526582466,-0.6672377784049672,-0.2394530546111207,0.3154767198307406,-0.1910357149702179,-0.2059512684149022,-12.56189211526232,13.712826954641791,47.92455214784356,2.307144019692324,2.203798002816074,0.7005983952549556,4714.755859375,12.031,0.4099999999999999,179.88198389355796,-13.582278541960992,109.84940346110936,1695.0,1435.0,1200.0,1528.0,1609.0,1021.7000000000002,135.0,293.35,1637167189.4907415,1637167190.5393496,f8c1296e-3e84-4799-9010-e7e512147315
0.4772330659192111,0.9073460555442469,0.0763896023037285,-0.7831518004365495,-0.253218098956292,0.1627464017436715,-0.1999110861376293,-0.2319747324282239,-11.872134144126456,14.279942868183952,46.38954547172898,2.2321972741115563,3.1774856670169527,0.6795829187973935,4719.370985243056,12.020111111111111,0.4600000000000001,179.66517699328378,-13.539220080795848,109.25026837403472,1779.0,1435.0,1200.0,1528.0,1677.0,1021.7000000000002,135.0,293.35,1637167192.6441133,1637167193.8879783,c5db0375-fbc4-4c04-b9f6-2ff867bc7f7d
0.4541340957871593,0.8633083362936338,0.0718357710208997,-0.7681294098708195,-0.249426342530762,0.1897269777905169,-0.1930973218370615,-0.2146085904825823,-11.746711895442314,14.421979717079571,46.06405663289729,2.2596654769834137,3.0121786790548435,0.6652979263213823,4717.3505859375,12.020888888888887,0.4600000000000001,179.59789659431954,-13.56732232495343,108.94032729096796,1779.0,1435.0,1200.0,1528.0,1677.0,1021.7000000000002,135.0,293.35,1637167193.99658,1637167195.1134508,c5db0375-fbc4-4c04-b9f6-2ff867bc7f7d
0.480095646417255,0.9256309599006975,0.0725134768039213,-0.8046006262465751,-0.2664900652386217,0.1664718639217834,-0.2085262223111948,-0.2365767786367236,-11.851669762934652,14.652995938547544,46.6054770755346,2.291276911791486,3.246407947861371,0.717399686480877,4716.486653645833,12.022666666666666,0.4466666666666666,179.50446567775302,-13.5713821135051,108.75631212889904,1779.0,1435.0,1200.0,1528.0,1677.0,1021.7000000000002,135.0,293.35,1637167195.2225368,1637167196.3467302,c5db0375-fbc4-4c04-b9f6-2ff867bc7f7d
0.5565492816138284,1.013229759854109,0.096634212330213,-0.8151886087274373,-0.2650601438011957,0.0732032340722349,-0.2151739842376443,-0.2459813818754216,-11.311465017086414,14.768235331282558,44.22665569831607,2.107431456373264,3.5950513924323486,0.6995198520413891,4717.3505859375,11.984,0.6255555555555555,179.39199371160032,-13.538840436114478,108.39010167072,1864.0,1435.0,1200.0,1528.0,1744.0,1021.7000000000002,135.0,293.35,1637167197.2562497,1637167198.3936398,a0757aeb-46e7-44fc-8238-e7ad0346dbc3
0.5366421573587516,1.016148769668991,0.0956612079954069,-0.8386458955027828,-0.2698331220124862,0.091571963337575,-0.2124127592127282,-0.2496893159804359,-11.343013364818454,14.832498707572896,44.180141713327785,2.201976600895685,3.609462498365553,0.7034492203661551,4711.302083333333,11.985666666666669,0.6233333333333333,179.40926650110137,-13.44234731807008,107.8619512218695,1864.0,1435.0,1200.0,1528.0,1744.0,1021.7000000000002,135.0,293.35,1637167198.5025756,1637167199.5262806,a0757aeb-46e7-44fc-8238-e7ad0346dbc3
0.5226124997515555,1.0128352985588094,0.083722192889779,-0.8325712002963891,-0.2776960426346917,0.0905463623395516,-0.2248251273985218,-0.2438907392851016,-11.582727758237354,14.707377040457809,44.27698964537814,2.1844397565430933,3.596366329019605,0.7477782046934365,4716.773980034723,11.988333333333337,0.61,179.36268764660153,-13.44659351386784,107.43674007182008,1864.0,1435.0,1200.0,1528.0,1744.0,1021.7000000000002,135.0,293.35,1637167199.634344,1637167200.6812506,a0757aeb-46e7-44fc-8238-e7ad0346dbc3
-0.0844101886696404,-0.0737991913451442,-0.1191358993037284,-0.2611418378716965,-0.1801327054156243,0.6631983466640691,-0.1673127272058035,-0.196042629673779,-13.7191514439519,13.874256931533942,48.58879670603344,2.166248659601613,-0.5854974677702854,0.6879826782936237,4709.5751953125,12.033666666666669,0.4,179.5868195453056,-13.5234893962274,106.95359981069006,1440.0,1435.0,1200.0,1528.0,1408.0,1021.7000000000002,135.0,293.35,1637167201.762326,1637167203.105668,c4eee777-2431-44f8-808b-e3b3d62f8002
-0.0836957759086583,-0.061849764512137,-0.1315378594991485,-0.2729137539307217,-0.1965006425321998,0.6742580427229008,-0.1795169085552456,-0.20699220690438,-13.668738783226884,13.930846605598289,50.18780363202816,2.217693704221427,-0.5545445020064638,0.7481677433779561,4754.287868923611,12.032222222222222,0.3988888888888888,179.4276472990678,-13.404123682199916,107.02311444042284,1440.0,1435.0,1200.0,1528.0,1408.0,1021.7000000000002,135.0,293.35,1637167203.214081,1637167204.3325007,c4eee777-2431-44f8-808b-e3b3d62f8002
-0.1203477692593366,-0.0900372835945934,-0.1437825839126921,-0.2971566686810129,-0.2089508154682299,0.7231136625836386,-0.1797360530066314,-0.2036228529147344,-13.72339270689539,14.288211150089866,49.98139292565383,2.3838637742481485,-0.6558339643806956,0.7780289804402148,4841.107150607639,12.03322222222222,0.3899999999999999,179.3212041132225,-13.468509029593474,107.1073906267718,1440.0,1435.0,1200.0,1528.0,1408.0,1021.7000000000002,135.0,293.35,1637167204.440347,1637167205.5618136,c4eee777-2431-44f8-808b-e3b3d62f8002
-0.2419458270110741,-0.3078810703060624,-0.169066434338288,-0.1436045380589584,-0.175722962013988,0.7881038282329923,-0.1689294699316687,-0.1960212636227973,-13.975428810879828,14.671988745378997,48.91914344527313,2.1845183117229854,-1.4821839791126,0.7250051075677942,4883.69482421875,12.01088888888889,0.4988888888888889,179.33926616902764,-13.450682520450954,107.0983482152206,1355.0,1435.0,1200.0,1528.0,1341.0,1021.7000000000002,135.0,293.35,1637167206.1445382,1637167207.19623,26f24340-d72e-43b1-ad3a-4e65d9b3bf38
-0.2223186565983179,-0.2734205244091099,-0.1615607189757489,-0.137167152355369,-0.1719290145996791,0.7366458623422513,-0.178969048160604,-0.1881731347167853,-14.30638039530873,14.594939535479543,47.24063060892911,2.053793035350709,-1.3360350336245723,0.7255596768976197,4888.64990234375,12.010444444444444,0.49,179.31516167253676,-13.489927269602031,106.8757440021609,1355.0,1435.0,1200.0,1528.0,1341.0,1021.7000000000002,135.0,293.35,1637167207.3048337,1637167208.4367788,26f24340-d72e-43b1-ad3a-4e65d9b3bf38
-0.2218118836936595,-0.2685034584658299,-0.1563834175248853,-0.1505897758641606,-0.1753120631287848,0.7329067012767347,-0.178133554786127,-0.2016505479290154,-14.088935018989238,15.102731933715829,45.65372651039669,2.079149298231075,-1.303077943334784,0.7201034586844752,4817.551703559027,12.00911111111111,0.49,179.31991244855945,-13.404750446920003,106.71819809985548,1355.0,1435.0,1200.0,1528.0,1341.0,1021.7000000000002,135.0,293.35,1637167208.5504682,1637167209.658343,26f24340-d72e-43b1-ad3a-4e65d9b3bf38
-0.3847050792762148,-0.5554875105877981,-0.2077044272327966,-0.0124051887547509,-0.1568627969849166,0.8767616438111316,-0.1762434299063879,-0.2105396156357503,-15.25812706481353,16.09632504514583,44.023824842400586,2.09388283670826,-2.376971700430996,0.7252021913214414,4710.439887152777,11.988222222222223,0.6066666666666667,179.32325924125274,-13.373926277514428,106.43888054938743,1271.0,1435.0,1200.0,1528.0,1273.0,1021.7000000000002,135.0,293.35,1637167210.7732613,1637167211.9072297,3d96ffc2-8d36-4ba2-85ca-fbb71b26df88
-0.4169878744600582,-0.5939474592128396,-0.2223323547613317,0.0113309434472852,-0.1639028298379286,0.9007854063435312,-0.1798182338961512,-0.2065265241305534,-14.831907570077597,16.193976955801457,45.114889078563785,2.0946319831303897,-2.537754745244863,0.7571715053380847,4701.82421875,12.008111111111113,0.508888888888889,179.29317149904895,-13.395118646961684,106.08198874596604,1271.0,1435.0,1200.0,1528.0,1273.0,1021.7000000000002,135.0,293.35,1637167212.0153117,1637167213.1396072,3d96ffc2-8d36-4ba2-85ca-fbb71b26df88
-0.4444494805607888,-0.6637725386250569,-0.2283451446926236,0.0769648453106657,-0.1437004044831098,0.9175910869033108,-0.1767775979722322,-0.2134295903475377,-15.50556495953242,16.068228515060806,46.362723157799486,1.983069400665616,-2.814397036472729,0.7269890555340167,4695.817328559027,12.009444444444444,0.5,179.3078199780889,-13.489939981342989,105.99156994282347,1271.0,1435.0,1200.0,1528.0,1273.0,1021.7000000000002,135.0,293.35,1637167213.2479851,1637167214.3698378,3d96ffc2-8d36-4ba2-85ca-fbb71b26df88
-0.5315185259347089,-0.8107229786892759,-0.2303722367591339,0.1322167701284594,-0.1212243509963258,0.9807596065636014,-0.156561476199591,-0.1835026075182166,-15.709785766596928,17.27588593946577,42.16576644093244,2.0075156457498977,-3.3338183059748565,0.6465010945644426,4691.53076171875,11.984,0.63,179.32735431911513,-13.434217116228035,105.78144144973776,1186.0,1435.0,1200.0,1528.0,1206.0,1021.7000000000002,135.0,293.35,1637167215.1662436,1637167216.106841,e8f88d25-eed0-4877-b7dc-1ac2ee327487
-0.5081401371109202,-0.7891541741965444,-0.2166860847899657,0.1183295558967695,-0.1150335053656869,0.9670252469862752,-0.1487467657711676,-0.1779105747929459,-15.64168269696554,17.377919994807197,41.481335828554,2.00926191308778,-3.2447589281399343,0.6098152083909365,4691.53076171875,11.984333333333334,0.62,179.38307955582354,-13.441683082173292,105.3553560354746,1186.0,1435.0,1200.0,1528.0,1206.0,1021.7000000000002,135.0,293.35,1637167216.215431,1637167217.4367926,e8f88d25-eed0-4877-b7dc-1ac2ee327487
-0.5014737462175007,-0.7628436215672236,-0.2196313920901496,0.0988431915871365,-0.1221863957273751,0.956401099058681,-0.1567148750532093,-0.1802247456609462,-15.885603336443554,17.171071274180505,41.04700286059364,2.027634597407077,-3.1382935029021217,0.6372318194869043,4688.9638671875,11.989,0.61,179.3875829272163,-13.358387502288911,105.08301362596892,1186.0,1435.0,1200.0,1528.0,1206.0,1021.7000000000002,135.0,293.35,1637167217.545009,1637167218.6658728,e8f88d25-eed0-4877-b7dc-1ac2ee327487
0.0863880916544916,0.2438574203915385,-0.0645616839716165,-0.3967854564663802,-0.1984592502152811,0.4828212600399931,-0.1819822882858519,-0.2179768476711385,-13.095700911316491,12.918153808762874,49.59795156321572,2.0637500349864246,0.6126953483191256,0.6989386285117897,4712.740017361111,12.03977777777778,0.36,179.10859550255816,-13.472920952342347,104.6428754769434,1525.0,1435.0,1200.0,1528.0,1475.0,1021.7000000000002,135.0,293.35,1637167219.6720078,1637167220.9229634,ccca35f0-fdb0-47d9-a3f0-c3d4c77cbecd
0.0003326138033419,0.1193146173437547,-0.1066101208470772,-0.3598595283333691,-0.2125941002764922,0.5731500552749927,-0.1949940217188602,-0.2218118851503032,-13.621003568239235,13.379341848284946,49.71032184329733,2.1841520801104832,0.1411019462651652,0.7788893186957949,4705.267903645833,12.040777777777777,0.36,178.98195924188667,-13.420942074393688,105.08791238942366,1525.0,1435.0,1200.0,1528.0,1475.0,1021.7000000000002,135.0,293.35,1637167221.0309117,1637167222.243255,ccca35f0-fdb0-47d9-a3f0-c3d4c77cbecd
0.1077958123960441,0.2820982096102643,-0.0370042076479933,-0.3821438336580407,-0.181941200357502,0.4340752116443504,-0.1703676057258331,-0.1867349948170117,-12.58270764322054,13.162834604555714,50.05638802223033,1.92450874379098,0.7483760566043577,0.6280001703525635,4710.155598958333,12.04,0.3655555555555556,178.88108797258428,-13.314024474992294,105.39336755602552,1525.0,1435.0,1200.0,1528.0,1475.0,1021.7000000000002,135.0,293.35,1637167222.3515606,1637167223.473246,ccca35f0-fdb0-47d9-a3f0-c3d4c77cbecd
0.0635011423935012,0.1665677435091121,-0.121402405455683,-0.790726006925369,-0.2856378564086616,0.9301234330898352,-0.1173756171867643,-0.1472204199574387,-13.495660748617892,13.00247115646063,50.88136504531813,3.955263023819104,0.3591685693423264,0.7918627364650265,4719.9482421875,12.032,0.39,178.724207634268,-13.306813597639792,105.7536015986808,1525.0,1535.0,1200.0,1528.0,1475.0,1021.7000000000002,135.0,293.35,1637167224.143285,1637167225.1105263,dc55ac47-99f5-4234-87a5-c2a58e5248d6
0.033697430799956,0.154473682471536,-0.1224433435328594,-0.7578816347029322,-0.2771185950977904,0.9177280470004632,-0.1181837132586084,-0.1331403566809048,-13.567732858410102,12.693226556571656,51.730642102101,3.851317328227344,0.3026763951429076,0.7829276126460604,4703.544921875,12.031666666666666,0.3966666666666667,178.7741818516953,-13.207262452121997,105.87659509179494,1525.0,1535.0,1200.0,1528.0,1475.0,1021.7000000000002,135.0,293.35,1637167225.2183669,1637167226.4484808,dc55ac47-99f5-4234-87a5-c2a58e5248d6
0.0592552094416994,0.1827296821523904,-0.1187315760166601,-0.7805220759485518,-0.2814193153228068,0.9099757992514442,-0.1193479231127081,-0.1342223856002975,-13.57531400451384,12.672901563534891,51.61079963968468,3.884995445618818,0.412791876141215,0.7884378663576969,4717.3505859375,12.035,0.3899999999999999,178.69558914164566,-13.300084153760038,106.04911656331056,1525.0,1535.0,1200.0,1528.0,1475.0,1021.7000000000002,135.0,293.35,1637167226.5560234,1637167227.6813033,dc55ac47-99f5-4234-87a5-c2a58e5248d6
0.1171368652229727,0.2405428533201161,-0.1029531400854132,-1.2007601404716428,-0.3331101371134315,1.2632648149937236,-0.0192945559143678,-0.0546864644371217,-13.22006217178785,13.053675962045956,55.31250509646824,5.630915908809278,0.647050937809604,0.7035040145892685,4717.3505859375,12.029222222222224,0.4177777777777777,178.71398663563002,-13.120133428565945,106.28458278148732,1525.0,1636.0,1200.0,1528.0,1475.0,1021.7000000000002,135.0,293.35,1637167228.683901,1637167229.8217375,e9f6aea1-69c6-4410-933c-db9fdd07ccb5
0.036888728830389,0.125656123328477,-0.1579996130584327,-1.1150196246167043,-0.3468340906527773,1.3030396229766763,-0.0544947135092079,-0.0811482172986104,-14.071375649592923,12.710304795640118,55.84897894869008,5.521525407656031,0.2033745141971528,0.8345011673112901,4717.3505859375,12.029444444444444,0.4,178.76361479013934,-13.104653753449492,106.29063129345232,1525.0,1636.0,1200.0,1528.0,1475.0,1021.7000000000002,135.0,293.35,1637167229.9299672,1637167230.874087,e9f6aea1-69c6-4410-933c-db9fdd07ccb5
0.0730476436503312,0.1809491297530087,-0.1547809205627135,-1.19476104899407,-0.3703647808566024,1.3150515049177018,-0.0546316785512185,-0.0726837433740991,-13.539863551620556,13.107020255902851,54.82466037629919,5.731289238330184,0.426102155949613,0.8671138428840851,4730.083658854167,12.030666666666663,0.4,178.79999541329846,-13.084371981027832,106.3869855309836,1525.0,1636.0,1200.0,1528.0,1475.0,1021.7000000000002,135.0,293.35,1637167230.9822495,1637167232.0744617,e9f6aea1-69c6-4410-933c-db9fdd07ccb5
0.0581874255563787,0.124877611920915,-0.1640518475033132,-1.482183047369917,-0.4038052087803567,1.647259916403156,0.0231592978624794,-0.0002848277126646,-14.048992758399644,13.435417556186168,56.87694069897878,7.127945723466883,0.2360196975660569,0.807639364731435,4761.9033203125,12.009222222222222,0.4877777777777777,178.78395357566785,-12.976058936033509,106.43708876309516,1525.0,1737.0,1200.0,1528.0,1475.0,1021.7000000000002,135.0,293.35,1637167233.6659782,1637167234.7324443,ebab46cb-93c6-48a5-8e19-eacb5ddcb5bf
0.1213964948845343,0.2372008933184888,-0.1099383853220049,-1.5258072124384154,-0.3798564996536615,1.584887434111961,0.0556530119569832,0.030177414232542,-13.277638723695215,13.232392593794373,58.27602038213225,7.088151769566097,0.6482389628506311,0.6707982842578087,4765.72802734375,12.01,0.4911111111111111,178.83237202778415,-13.039202896545412,106.26117268756204,1525.0,1737.0,1200.0,1528.0,1475.0,1021.7000000000002,135.0,293.35,1637167234.841096,1637167235.9648526,ebab46cb-93c6-48a5-8e19-eacb5ddcb5bf
0.1169812223384264,0.2139080283876538,-0.1363851968192859,-1.4598768706357506,-0.3891240904926466,1.5571518922491152,0.0254035404032806,-0.0075877371738456,-13.43641213761736,12.89105154980722,59.505255265996425,6.87363996459616,0.5413058268550343,0.7620622258027239,4761.9033203125,12.009,0.49,178.89893753361525,-12.90674038964817,106.12856532373615,1525.0,1737.0,1200.0,1528.0,1475.0,1021.7000000000002,135.0,293.35,1637167236.0727322,1637167237.1942017,ebab46cb-93c6-48a5-8e19-eacb5ddcb5bf
0.1578019467614898,0.2636078568235651,-0.1088837520634386,-1.7039448499558558,-0.408824729098139,1.7316186782114336,0.0844568736486301,0.0582005726713716,-13.63363702537474,13.825017097231788,59.60311137489945,7.823724771834622,0.7600482904488137,0.6708187974819294,4746.960611979167,11.998,0.55,178.93435434119152,-12.917166958007412,105.94188259334136,1525.0,1837.0,1200.0,1528.0,1475.0,1021.7000000000002,135.0,293.35,1637167238.2168229,1637167239.3503828,5fb0d4ba-bc83-4fb6-83ec-f9559bf61768
0.1073986121955746,0.1934403905439641,-0.1369753939505162,-1.7055747562878087,-0.4266987389966505,1.7970471580656664,0.0737598640817959,0.0447231594052044,-13.934757636070335,14.400586627255146,58.76314835342547,7.9765592439025,0.5048830365003717,0.7385500467252877,4741.999674479167,11.99688888888889,0.54,178.96760673771075,-12.940227384192667,105.76859310499908,1525.0,1837.0,1200.0,1528.0,1475.0,1021.7000000000002,135.0,293.35,1637167239.4590442,1637167240.5836782,5fb0d4ba-bc83-4fb6-83ec-f9559bf61768
0.1169177203929858,0.2184092159810121,-0.1319487563868277,-1.6993291327908544,-0.4261782701188545,1.7636138563000354,0.0682675430770432,0.04003893704689,-13.834064472925997,14.37981393671513,58.30402496716237,7.8874316420924195,0.6014371701345501,0.7413165660847728,4732.399088541667,11.998333333333337,0.5422222222222222,179.0264753792572,-13.003552629308794,105.62174707348343,1525.0,1837.0,1200.0,1528.0,1475.0,1021.7000000000002,135.0,293.35,1637167240.6925704,1637167241.8123872,5fb0d4ba-bc83-4fb6-83ec-f9559bf61768
0.0701028835431446,0.2496784570616111,-0.0338950881120492,-0.0283890742453993,-0.1407967332934356,0.1116582385758833,-0.2569024733933061,-0.2881991134316914,-12.45153615626365,14.280046834109362,45.6820005403251,0.4089403626321417,0.6212852260028635,0.6835715402022281,4727.75830078125,12.037666666666668,0.36,178.96332345019124,-13.468923584130598,105.42623973868098,1525.0,1334.0,1200.0,1528.0,1475.0,1021.7000000000002,135.0,293.35,1637167242.72268,1637167243.8603876,cde040fc-bed7-4444-8c90-e765f1e5bf4f
0.0366195612601683,0.1836848667085313,-0.0449881105082631,0.0095646864885861,-0.1323554850872342,0.1452820971239558,-0.2533663783006887,-0.2899254763482748,-12.741053780123371,14.223209665737985,46.21079818742498,0.3978926955213935,0.3657544300804717,0.6750748533582948,4722.548828125,12.038777777777776,0.35,178.88466547388958,-13.454600392849866,105.7525664455666,1525.0,1334.0,1200.0,1528.0,1475.0,1021.7000000000002,135.0,293.35,1637167243.968085,1637167245.0894868,cde040fc-bed7-4444-8c90-e765f1e5bf4f
0.0370530877149908,0.1944128459514962,-0.0511938418502225,-0.0634248716511953,-0.1503432352522198,0.1964536315234168,-0.2504239992377071,-0.2780910512111085,-12.951146642104218,14.45081852606261,45.41115533254018,0.6784951460265386,0.4231621015700468,0.7031345371405661,4722.548828125,12.037333333333336,0.36,178.83824447265053,-13.38434525677459,106.07298731554984,1525.0,1334.0,1200.0,1528.0,1475.0,1021.7000000000002,135.0,293.35,1637167245.1983645,1637167246.2068768,cde040fc-bed7-4444-8c90-e765f1e5bf4f
0.0324921336125006,0.2191762230169686,-0.0249649314851618,0.3149288585613601,-0.0951461006851991,-0.1869952305867196,-0.3416841819393156,-0.3757064394454015,-13.1888938996293,15.88414978179038,43.61319235125321,-1.02623749515042,0.4887614777158384,0.725159623143257,4722.259874131944,12.035222222222224,0.3711111111111111,178.79482571900664,-13.595954288226649,106.53052423312114,1525.0,1234.0,1200.0,1528.0,1475.0,1021.7000000000002,135.0,293.35,1637167247.228511,1637167248.2543,2390ae1d-9a9c-4aca-a0f4-8b3b3e34a049
0.0419838487802265,0.2302019520987298,-0.0137474488553125,0.2893162951649904,-0.092365698094739,-0.1853516440379077,-0.3305488773104686,-0.3480667789839066,-12.951418666199004,16.053183306619147,42.113470804183706,-0.9632088947111632,0.5455933183151601,0.689318663173514,4721.104058159723,12.036888888888887,0.3744444444444444,178.77282643859996,-13.59461974515382,106.76429352874408,1525.0,1234.0,1200.0,1528.0,1475.0,1021.7000000000002,135.0,293.35,1637167248.3627148,1637167249.4820976,2390ae1d-9a9c-4aca-a0f4-8b3b3e34a049
0.0075233069588665,0.1939745562280676,-0.0196095769505922,0.3010816362515295,-0.0873938479445773,-0.1536167217964993,-0.3259468346430813,-0.3485324629207371,-13.29175576780048,16.00081130971483,43.11585942475396,-0.9190866197085846,0.4014221538443333,0.6809021314842435,4715.044162326389,12.03488888888889,0.3788888888888889,178.77607760864487,-13.56137721446337,106.95118116481396,1525.0,1234.0,1200.0,1528.0,1475.0,1021.7000000000002,135.0,293.35,1637167249.5899336,1637167250.71129,2390ae1d-9a9c-4aca-a0f4-8b3b3e34a049
0.0641174874552168,0.2761812967825211,0.0199049937012131,0.5667948535649917,-0.0490434839208082,-0.4882100011185773,-0.3955938498273952,-0.4174809532514283,-12.892543406123927,17.639587472808063,41.64749827567184,-2.257548217053971,0.6897537543422047,0.6837797726863366,4719.371310763889,12.032444444444444,0.3933333333333333,178.75693941859052,-13.804466113481322,107.44448019396953,1525.0,1133.0,1200.0,1528.0,1475.0,1021.7000000000002,135.0,293.35,1637167253.167678,1637167254.305812,795aca24-f754-4bab-bd60-339bc97dd5e8
-0.0026806292403296,0.1766347136702874,-0.0074196404806844,0.5985571704099996,-0.0510568778292461,-0.4274657510585637,-0.4023188596425696,-0.4192204158314076,-13.638190190340843,17.860105345334166,40.445731384628445,-2.193161434383516,0.3266831608203059,0.7192699617749572,4715.621744791667,12.032666666666666,0.3899999999999999,178.7547841144524,-13.708693106075664,107.57586647175376,1525.0,1133.0,1200.0,1528.0,1475.0,1021.7000000000002,135.0,293.35,1637167254.4139442,1637167255.5335248,795aca24-f754-4bab-bd60-339bc97dd5e8
0.0101683866415614,0.2049926155579535,-0.0043346264460703,0.5855027073035108,-0.059782680154301,-0.444316356654576,-0.4084467010078951,-0.4232915811338841,-13.339795739866457,18.21480803429048,40.27388997946628,-2.1989515329449385,0.4342624706215243,0.7388119236972136,4700.679253472223,12.033,0.3822222222222222,178.83239327726153,-13.680766075243035,107.68948515077714,1525.0,1133.0,1200.0,1528.0,1475.0,1021.7000000000002,135.0,293.35,1637167255.641987,1637167256.7641344,795aca24-f754-4bab-bd60-339bc97dd5e8
0.0606659546246414,0.2923432350356911,0.0147276956676746,0.5996528949352323,-0.0641507877887557,-0.5487077175471552,-0.429794163809948,-0.4580227753319259,-12.9351889734807,18.86984211924569,39.43488750073785,-2.460090812552806,0.7659301205246664,0.75869591752034,4696.671875,12.021666666666668,0.4377777777777778,178.78485516063824,-13.727581709634118,107.9564043900818,1525.0,1033.0,1200.0,1528.0,1475.0,1021.7000000000002,135.0,293.35,1637167258.6976748,1637167259.72166,e6494824-8731-4d7c-b6e9-e75778c6b52e
-0.0279096907296767,0.1387774266495511,-0.0029408653632918,0.7101567198951333,-0.0379081804615314,-0.4991398595112705,-0.4275205338061403,-0.4521332533348892,-13.892304252763164,19.34161537355845,39.496777730703,-2.59619902892884,0.1814731892988885,0.7254113282380471,4695.243109809027,12.02511111111111,0.42,178.85061773978694,-13.73083069781306,107.90736894421048,1525.0,1033.0,1200.0,1528.0,1475.0,1021.7000000000002,135.0,293.35,1637167259.8301651,1637167260.9574592,e6494824-8731-4d7c-b6e9-e75778c6b52e
-0.0013246698003273,0.2040415262329438,0.0033869446992814,0.6808460866391899,-0.0443044741149888,-0.5342167495067413,-0.4318623423616507,-0.4535029089412809,-13.692906251107132,18.84655392264082,39.7764230738266,-2.611725667327565,0.4263649831337077,0.7400566257637543,4704.118489583333,12.021555555555556,0.4366666666666667,179.004800912291,-13.731601181096933,107.90615620617784,1525.0,1033.0,1200.0,1528.0,1475.0,1021.7000000000002,135.0,293.35,1637167261.0750866,1637167262.2923934,e6494824-8731-4d7c-b6e9-e75778c6b52e
0.0302322014838308,0.1687728895080322,-0.0860926746832714,-0.3986481919198709,-0.2091562634168731,0.5504685565742465,-0.1814344254481104,-0.206553916126002,-13.10225573703947,13.328827452138782,48.42719920125965,2.221424798902897,0.3403768059445893,0.7311514740208768,4704.4052734375,12.037,0.36,179.01215474929737,-13.498443946314609,107.90235179081012,1525.0,1435.0,1200.0,1528.0,1475.0,1021.7000000000002,135.0,293.35,1637167264.1621635,1637167265.1150465,617e846f-955f-42c4-bd05-15a52547fa8c
0.0604194169084658,0.2196282094270244,-0.0609731866869979,-0.3911972525004419,-0.1948707529795748,0.4946550859847765,-0.1762434316133212,-0.2150731776527799,-12.985930719904523,13.422494290842463,48.66667762132397,2.081165425197122,0.5288460243454248,0.6766620949571788,4714.755859375,12.037,0.3544444444444444,178.9946041987701,-13.410966583110884,107.94265597819246,1525.0,1435.0,1200.0,1528.0,1475.0,1021.7000000000002,135.0,293.35,1637167265.2248747,1637167266.3897116,617e846f-955f-42c4-bd05-15a52547fa8c
0.056899401116676,0.1749774301253859,-0.0945845412710822,-0.40390766052494,-0.2190725725864669,0.5402235327078921,-0.1936380605725814,-0.2179768478715942,-13.186170833601285,13.342637956956729,47.06795053669265,2.209676735356584,0.3763979709497125,0.7723317528776578,4717.927842881944,12.037222222222224,0.3677777777777777,179.04611900331017,-13.374179658559887,107.97832019039863,1525.0,1435.0,1200.0,1528.0,1475.0,1021.7000000000002,135.0,293.35,1637167266.4976432,1637167267.617494,617e846f-955f-42c4-bd05-15a52547fa8c
0.0830050418284714,0.1977958959440053,0.0338206987813037,-0.3828560501206882,-0.1031038017617705,0.5028319304901036,-0.0710949429051337,-0.0903660014845216,-12.223945481627473,13.607433199524404,48.64348244566443,2.087050129142268,0.4467595916666426,0.2706043275530426,4722.548828125,12.037,0.35,178.9765967844783,-13.317616395585812,108.02959138485828,1525.0,1435.0,1200.0,1528.0,1475.0,1021.7000000000002,135.0,293.35,1637167269.1874866,1637167270.1686103,5c951555-ae22-45ae-92f8-31fb77aadb30
0.0723902088776889,0.1693755372592079,0.0406278885018239,-0.3635302086094391,-0.0874760276238018,0.5124880020502848,-0.0570559705538764,-0.0909549538481391,-12.230202162210404,13.47112286607222,48.66926232744456,2.0645905425867563,0.3380315670269636,0.2168697935551352,4718.793728298611,12.03588888888889,0.36,179.01958447729456,-13.46880661714106,108.01959578246291,1525.0,1435.0,1200.0,1439.0,1475.0,1021.7000000000002,135.0,293.35,1637167270.2771485,1637167271.3964078,5c951555-ae22-45ae-92f8-31fb77aadb30
0.1241221099028121,0.2428438749734499,0.0625149885380879,-0.3917725087249584,-0.0819015286249702,0.4688370753473043,-0.049563952348598,-0.0801894583061212,-11.952376613719236,13.127610707194014,49.11578167271534,2.029232467500978,0.6125175625372842,0.1783826555416875,4712.452039930556,12.039333333333332,0.3588888888888888,179.00583302976557,-13.442940690754224,108.0297272297318,1525.0,1435.0,1200.0,1439.0,1475.0,1021.7000000000002,135.0,293.35,1637167271.5045526,1637167272.7385538,5c951555-ae22-45ae-92f8-31fb77aadb30
0.1317046438209507,0.2147272234292613,0.1734517529195362,-0.402032425076353,0.0214842683747657,0.4973384207584002,0.077180430840119,0.0602729216013037,-11.020810678477098,13.547370197835823,48.81329009596921,2.1251499080576206,0.5114537384548276,-0.2975480807189167,4697.244032118056,12.039777777777775,0.3622222222222222,179.0095805268902,-13.382032573694373,107.99187963372091,1525.0,1435.0,1200.0,1351.0,1475.0,1021.7000000000002,135.0,293.35,1637167273.7408648,1637167274.7853165,19a69768-7a08-4a17-85f2-ea5aa67cf075
0.1523978328610207,0.2655029126592756,0.1723049560916189,-0.4366638152011027,0.0066708302682409,0.4747118018359748,0.0637624698165973,0.0334415782468238,-11.123517534832722,13.58091438195986,48.08037734742848,2.1524215406444074,0.7133078989647359,-0.2519832036600186,4704.119357638889,12.036111111111111,0.36,179.02648296835625,-13.390196547027308,108.0301962360548,1525.0,1435.0,1200.0,1351.0,1475.0,1021.7000000000002,135.0,293.35,1637167274.8936818,1637167276.014371,19a69768-7a08-4a17-85f2-ea5aa67cf075
0.1228757232367389,0.189235547044775,0.1740871532345619,-0.3880607455771278,0.0303828618768888,0.5084064291598348,0.0821969436686421,0.0469283053766804,-11.323869472358504,13.529556515963932,48.68858857933946,2.1182456343139564,0.4174144213292959,-0.321019348930337,4703.545572916667,12.035,0.37,179.02736785730875,-13.476304172711233,108.0005790179938,1525.0,1435.0,1200.0,1351.0,1475.0,1021.7000000000002,135.0,293.35,1637167276.1229556,1637167277.334636,19a69768-7a08-4a17-85f2-ea5aa67cf075
0.2024938159494244,0.2851525425870865,0.3733994630658588,-0.4307529235290182,0.1897423192375914,0.4414165674619894,0.2647994564279722,0.2407209081265654,-9.829409093997354,13.904121571995791,48.39521882492425,2.077126532100433,0.7870821881195936,-1.0580351305291271,4706.98828125,12.034,0.3766666666666667,179.03493115344966,-13.42888586898963,107.9162512257711,1525.0,1435.0,1200.0,1262.0,1475.0,1021.7000000000002,135.0,293.35,1637167278.245787,1637167279.295604,7f5cbf5c-60c1-4a8b-85a2-78a565a3ac47
0.1980150412853214,0.2629915117695021,0.3470335885006579,-0.4008670295883241,0.1744021723720751,0.43978667669942,0.2384061882055774,0.2120814048019647,-10.152441319758127,13.82206403801782,48.78826082084038,2.004091928422532,0.6974152294315129,-0.9656806362686168,4708.138020833333,12.037555555555556,0.3655555555555556,179.07241523161468,-13.529887196477455,107.92187171254812,1525.0,1435.0,1200.0,1262.0,1475.0,1021.7000000000002,135.0,293.35,1637167279.4050815,1637167280.4070065,7f5cbf5c-60c1-4a8b-85a2-78a565a3ac47
0.1572234040429433,0.212934427464125,0.3270914015329329,-0.3967969535525148,0.1662302593269069,0.4824695331074359,0.2350373842487072,0.2113171380615074,-10.260199114365207,13.740611496928423,48.32839294087846,2.0891644168801933,0.512742486259287,-0.9292820968752076,4706.414496527777,12.03677777777778,0.3611111111111111,179.0917719877225,-13.446895275419925,107.88550550867724,1525.0,1435.0,1200.0,1262.0,1475.0,1021.7000000000002,135.0,293.35,1637167280.5151513,1637167281.637348,7f5cbf5c-60c1-4a8b-85a2-78a565a3ac47
0.2002196391434305,0.2483570136764658,0.4479279110087478,-0.4346389157787428,0.266239238992952,0.4689132276922022,0.3549271889218554,0.3341128051849518,-9.495033144648067,13.979862636924077,47.30205172810315,2.1518882204801666,0.6616031043672218,-1.3979652661066726,4707.8505859375,12.028666666666668,0.3933333333333333,179.08275613801808,-13.351912482955742,107.79818685250795,1525.0,1435.0,1200.0,1173.0,1475.0,1021.7000000000002,135.0,293.35,1637167283.6839788,1637167284.8267138,e61cede3-a98b-4aeb-bd78-b81446181769
0.2189039351987251,0.2702101450477162,0.4766841072938794,-0.4033976132312152,0.2906169202459765,0.4250754776181444,0.3717049246838631,0.3474192849596481,-9.031054434526602,14.086348444874588,48.37463079631937,1.985448522616004,0.7287537875356669,-1.4895426272891767,4691.821723090277,12.031777777777778,0.38,179.08647935002566,-13.460672336158268,107.7599749797414,1525.0,1435.0,1200.0,1173.0,1475.0,1021.7000000000002,135.0,293.35,1637167284.935609,1637167286.0551882,e61cede3-a98b-4aeb-bd78-b81446181769
0.2227959497828994,0.2445175944423664,0.461852379530279,-0.4031346364608922,0.2808211426140636,0.4568558730960831,0.3652883617389538,0.3396089601154475,-9.173014293586965,14.210904091559051,49.26508946613401,2.056427762170544,0.6245332279464342,-1.4488483059369546,4700.972981770833,12.029666666666666,0.39,179.07779286722123,-13.400941288365384,107.71257726145105,1525.0,1435.0,1200.0,1173.0,1475.0,1021.7000000000002,135.0,293.35,1637167286.1873596,1637167287.243951,e61cede3-a98b-4aeb-bd78-b81446181769
0.0431190194751016,0.2131842526113989,-0.2245490071538983,-0.3939568468440166,-0.3483702975201479,0.5262415372776666,-0.3438997410552719,-0.3666732849600454,-14.021413401454156,13.515483140536354,50.62606521510911,2.150631920117556,0.4846116648391179,1.3486100599420268,4832.603190104167,12.035666666666666,0.3533333333333333,179.1015664789923,-13.478279235746225,107.7306886464002,1525.0,1435.0,1200.0,1617.0,1475.0,1021.7000000000002,135.0,293.35,1637167289.213158,1637167290.3503246,ce340d05-5b2d-408f-8f0b-719f44713c70
-0.0298135125734865,0.1128361454082458,-0.2698320262595989,-0.3523127148765096,-0.3672145731029754,0.5802448734164023,-0.3699401896528404,-0.4053457997789194,-14.606501847011494,13.72160173761356,49.50371611150897,2.1766838337092342,0.1143392253587275,1.4592247070091602,4851.141927083333,12.039222222222223,0.3400000000000001,179.0742381332132,-13.483040446780151,107.74716230376836,1525.0,1435.0,1200.0,1617.0,1475.0,1021.7000000000002,135.0,293.35,1637167290.457907,1637167291.4660156,ce340d05-5b2d-408f-8f0b-719f44713c70
-0.0023108221631224,0.169526199904432,-0.2461095823353777,-0.3667625968305169,-0.3564079855194839,0.530855086476901,-0.3609826365767429,-0.386211702122092,-14.329214771621858,13.520853644852783,48.61465737354148,2.098142075388084,0.3361580940389987,1.4051709645516748,4818.127007378473,12.037222222222224,0.3411111111111111,179.0555993058781,-13.456065373563096,107.78590769020012,1525.0,1435.0,1200.0,1617.0,1475.0,1021.7000000000002,135.0,293.35,1637167291.5735044,1637167292.696303,ce340d05-5b2d-408f-8f0b-719f44713c70
-0.1317706993484087,0.0295884634035567,-0.4242196621647485,-0.1627523333611979,-0.4651586859095855,0.5094610620815857,-0.5431743033905482,-0.5691703790864615,-16.168237783760414,13.161228649927963,51.41258122840543,1.5781372718931117,-0.2368906333915723,2.043143157110052,4738.795138888889,12.03711111111111,0.36,179.07934559689252,-13.426477942715984,107.82880583164724,1525.0,1435.0,1200.0,1706.0,1475.0,1021.7000000000002,135.0,293.35,1637167294.7427778,1637167295.7672396,cecf7c80-7a1d-4502-a12c-94adcfdcab21
-0.1366877643216947,0.0022364351308412,-0.424671647114768,-0.184242229255221,-0.4666379122896704,0.5420725666698698,-0.5308200018554013,-0.5446535299469784,-15.812409420391432,13.33194397857006,49.46861516482503,1.700874039354658,-0.3221464048775393,2.0221230873357414,4748.71240234375,12.033666666666669,0.36,179.08865286800153,-13.47274877465702,107.7706498065042,1525.0,1435.0,1200.0,1706.0,1475.0,1021.7000000000002,135.0,293.35,1637167295.876057,1637167297.1097708,cecf7c80-7a1d-4502-a12c-94adcfdcab21
-0.1125133369472988,0.0317114293452665,-0.395662332547989,-0.1877896378672258,-0.4435318151882874,0.5171859220447237,-0.508330249495447,-0.5208762990553888,-15.673055713714886,13.153311937186482,49.77148006111533,1.6533312330013714,-0.2129950828382407,1.9232215482313328,4727.769856770833,12.034,0.36,179.08198660337158,-13.452432661562034,107.74537582984544,1525.0,1435.0,1200.0,1706.0,1475.0,1021.7000000000002,135.0,293.35,1637167297.2187748,1637167298.3382747,cecf7c80-7a1d-4502-a12c-94adcfdcab21
-0.1581228805338766,0.0301500211918568,-0.529162718877921,-0.1218543968592218,-0.5631438902551555,0.4689329498328824,-0.6704427654295827,-0.7015476620973199,-16.8665239603389,13.637523074818011,50.1878383479661,1.3921946866883477,-0.2306674510352226,2.498870003512337,4712.1640625,12.031666666666666,0.3766666666666666,179.08235998704626,-13.489382562015727,107.72140186585872,1525.0,1435.0,1200.0,1795.0,1475.0,1021.7000000000002,135.0,293.35,1637167299.2487557,1637167300.3852262,91dfde06-5c9c-4704-9565-6ee215cf6534
-0.1686007483471645,0.0088244797943224,-0.5511730948853812,-0.1511376363624215,-0.5844146519012487,0.5134878527012315,-0.681687645625615,-0.7182026849300955,-17.102369459512953,13.805428786557954,49.58948364743344,1.5581743140406532,-0.3014658373576639,2.569939507098394,4708.138454861111,12.029222222222222,0.3744444444444444,179.07181265714792,-13.471442595841994,107.67787914155748,1525.0,1435.0,1200.0,1795.0,1475.0,1021.7000000000002,135.0,293.35,1637167300.4939108,1637167301.6210234,91dfde06-5c9c-4704-9565-6ee215cf6534
-0.1720659778901482,0.005099015891369,-0.5471463049338933,-0.1345100169718753,-0.5796071585049423,0.4999693503272412,-0.6792359601946725,-0.7142854660337236,-16.805286000183575,13.834121168249816,49.34859316472076,1.4907904560625391,-0.3171977217085421,2.553963129607378,4699.24658203125,12.032666666666666,0.3622222222222222,179.1032026887535,-13.348784730634568,107.65294363871756,1525.0,1435.0,1200.0,1795.0,1475.0,1021.7000000000002,135.0,293.35,1637167301.7348034,1637167302.7313728,91dfde06-5c9c-4704-9565-6ee215cf6534
-0.0939408023019626,0.163581893884563,-0.6086849628472449,-0.2658052394580658,-0.6971510664801754,0.4478539485416152,-0.7885756320775497,-0.7992452552867864,-17.120211333095426,15.275389754723015,46.156238577059234,1.6756727682110732,0.3200206221362209,2.966333484658507,4704.695746527777,12.027333333333337,0.4022222222222222,179.03253299814108,-13.407930469161077,107.59895706460787,1525.0,1435.0,1200.0,1883.0,1475.0,1021.7000000000002,135.0,293.35,1637167304.6653378,1637167305.8035328,7cb116e8-eb93-4fb8-80d3-ec44df3f3008
-0.0933381535290799,0.1722792084735724,-0.60269956450926,-0.2345770818489783,-0.6863444772587974,0.4232823256654536,-0.7851241017430762,-0.8132568446673437,-16.87440443435811,14.8370236977224,48.00173461558097,1.547823945122081,0.3310716474667862,2.942822427962591,4687.254557291667,12.021,0.4266666666666666,179.0777245653295,-13.558785821719518,107.46241247618045,1525.0,1435.0,1200.0,1883.0,1475.0,1021.7000000000002,135.0,293.35,1637167305.9125478,1637167307.0315511,7cb116e8-eb93-4fb8-80d3-ec44df3f3008
-0.1234705848727247,0.1451189331015402,-0.6435016344030028,-0.2338100755215562,-0.7254892649540473,0.4509219780452351,-0.8231320779850142,-0.8552094266930786,-16.977849118417428,15.42100218048992,47.93831564316895,1.6099811686415972,0.2278271736454119,3.102190881481457,4690.6767578125,12.024777777777778,0.4044444444444444,179.01634089634868,-13.465570340703076,107.45153729720197,1525.0,1435.0,1200.0,1883.0,1475.0,1021.7000000000002,135.0,293.35,1637167307.1389935,1637167308.2608032,7cb116e8-eb93-4fb8-80d3-ec44df3f3008
0.1100327343096645,0.2693291832339934,-0.0893672485770053,-0.3517232149967271,-0.1918218973433443,0.4378034157418796,-0.1793832296086685,-0.2109138060749705,-11.96533134170308,8.915697061078761,52.59995764007817,1.8342191670376928,0.6664342176216566,0.7301549611571465,7505.62744140625,11.819,7.946666666666666,-177.93308048308376,-13.4406679453079,92.59171323158006,1525.0,1435.0,1350.0,1528.0,1475.0,1021.7000000000002,135.0,293.35,1637167313.3344126,1637167314.3137803,5e602b4b-47c7-49b6-9995-c9acf1cf108c
0.0951089644993146,0.2701444022740623,-0.0894592896932929,-0.3814787243279699,-0.1983699487669723,0.4632724377925854,-0.174623402535002,-0.1869174333503664,-11.87580766997492,9.160973224188178,52.45362394322646,1.9602157189604208,0.6738169748846662,0.7320154184184412,7505.62744140625,11.81988888888889,7.98888888888889,-177.17195759401346,-13.090476842053484,86.66528710344431,1525.0,1435.0,1350.0,1528.0,1475.0,1021.7000000000002,135.0,293.35,1637167314.4226792,1637167315.4287112,5e602b4b-47c7-49b6-9995-c9acf1cf108c
0.0493936868928991,0.1827433786764488,-0.1114724003244535,-0.2401241880848468,-0.1816535720972935,0.4355133515304716,-0.1966513053980233,-0.2195245595888264,-12.335581355199333,8.974534966208717,54.67114746492857,1.5767661639955926,0.3108078624479677,0.7641629273705087,7511.474663628473,11.819,8.002222222222223,-176.72245373781604,-12.954764398339917,81.022001913892,1525.0,1435.0,1350.0,1528.0,1475.0,1021.7000000000002,135.0,293.35,1637167315.537029,1637167316.7703865,5e602b4b-47c7-49b6-9995-c9acf1cf108c
0.2380911698439948,0.5148164188965835,-0.0436470391627879,-0.4629124511178373,-0.2057595180898545,0.304629044759753,-0.1886662114107352,-0.2246059832857957,-11.538468005373025,8.484394386998824,53.44955807047965,1.7855419558879355,1.593190263133749,0.7304366945916732,7505.62744140625,11.812111111111111,8.068888888888889,-176.76629140972898,-12.316874438459685,69.5643869019523,1610.0,1435.0,1350.0,1528.0,1542.0,1021.7000000000002,135.0,293.35,1637167318.705475,1637167319.730343,a978be87-6aee-4be8-ada7-1fa52cccb6ff
0.26336131919576,0.5546870976152563,-0.0294026162663979,-0.4727191855567851,-0.2003493749284205,0.2705657077264874,-0.1840504694105871,-0.207882483940775,-11.290735190980032,8.297904004973171,52.95085824888708,1.7306368962345224,1.747503398087935,0.7013641168907171,7512.20556640625,11.813666666666668,8.053333333333333,-177.0251115624978,-12.247612905181173,66.4392558556003,1610.0,1435.0,1350.0,1528.0,1542.0,1021.7000000000002,135.0,293.35,1637167319.8387012,1637167320.8664055,a978be87-6aee-4be8-ada7-1fa52cccb6ff
0.247076111923977,0.5114333693179477,-0.0373740161260746,-0.4807864639708701,-0.2029243312819416,0.3213114538415265,-0.180598938087707,-0.2167441585983231,-11.681313041911691,8.7579989692592,53.06299093439345,1.8653415373143567,1.5875419170860186,0.7052146918666476,7512.20556640625,11.811444444444444,8.098888888888888,-177.29237990036006,-12.321839321940116,63.21147920858151,1610.0,1435.0,1350.0,1528.0,1542.0,1021.7000000000002,135.0,293.35,1637167320.9749744,1637167322.1040847,a978be87-6aee-4be8-ada7-1fa52cccb6ff
0.3795492180172317,0.7642033344794426,0.009276465783699,-0.5924545374217084,-0.2246333763482427,0.1676771635337015,-0.1985277332552855,-0.225345597186684,-10.959096787397812,8.938441902236129,51.918338782467,1.7757007299294418,2.557325505300468,0.7251428891433163,7485.236111111111,11.806111111111113,8.164444444444444,-177.78136073214034,-12.35869777374992,58.35893412616047,1695.0,1435.0,1350.0,1528.0,1609.0,1021.7000000000002,135.0,293.35,1637167323.2106223,1637167324.3449612,a331d18f-6e7f-406a-aa36-3ed1d50f5f58
0.3736460017850513,0.7443159332498875,0.0016611788633913,-0.5964265412517039,-0.2293586900083869,0.1866195032492856,-0.2025408244329873,-0.2200039392671098,-11.236968069682655,9.161712947656945,51.27548664708761,1.8280851166014176,2.4904100027701808,0.7440393508610678,7479.4296875,11.806555555555557,8.195555555555554,-178.19330006572253,-12.470710599408406,56.225391729673134,1695.0,1435.0,1350.0,1528.0,1609.0,1021.7000000000002,135.0,293.35,1637167324.4545078,1637167325.4644983,a331d18f-6e7f-406a-aa36-3ed1d50f5f58
0.3986696122916857,0.7993076108179503,0.0168232682167512,-0.6434468436877427,-0.2324678114771987,0.1709095507142954,-0.194459856655437,-0.2116490383107944,-10.860849521944722,9.122641041204297,50.63513543050838,1.8994322491307791,2.706425308999139,0.7217185395406812,7479.4296875,11.808222222222222,8.18,-178.45108354755732,-12.5678798113169,54.17185968694312,1695.0,1435.0,1350.0,1528.0,1609.0,1021.7000000000002,135.0,293.35,1637167325.5725968,1637167326.694248,a331d18f-6e7f-406a-aa36-3ed1d50f5f58
0.5458528182222279,1.043010459056959,0.055159935281369,-0.707122167400169,-0.2557656610255952,-0.0072278904741962,-0.2324678123243501,-0.2466026605254319,-10.508230349581613,9.65787170372535,50.91421687378707,1.6484485687438906,3.625769129060096,0.7846594909205616,7479.4296875,11.795555555555556,8.21,-179.08546848202846,-12.561084626866382,51.61341919074332,1779.0,1435.0,1350.0,1528.0,1677.0,1021.7000000000002,135.0,293.35,1637167327.6613228,1637167328.7101986,6b747fd1-733b-4b79-a3c4-c146c1038c2e
0.5152684056584078,0.9944013756412348,0.0557077987563335,-0.7102312947632674,-0.2429319822286225,0.0338343922646084,-0.2143746549556971,-0.2286327739138607,-10.794039087557657,9.423749673088295,49.65066475235096,1.7458644007354085,3.4570907879286943,0.7328770783100822,7481.607096354167,11.796666666666663,8.22,-179.38110790788312,-12.623229767075912,50.43716992593315,1779.0,1435.0,1350.0,1528.0,1677.0,1021.7000000000002,135.0,293.35,1637167328.819534,1637167329.87733,6b747fd1-733b-4b79-a3c4-c146c1038c2e
0.499750206230216,0.9648305074892854,0.0478733687914195,-0.6447754123843046,-0.2282492675613849,0.0237948152417845,-0.2145527071003243,-0.2291532407978659,-10.829913312011124,8.505567885338463,52.65160466941085,1.5696351654856506,3.311267454610178,0.7253915463755937,7485.1453857421875,11.79725,8.227500000000001,-179.7168407338932,-12.65079078988958,49.30303622415957,1779.0,1435.0,1350.0,1528.0,1677.0,1021.7000000000002,135.0,293.35,1637167329.985624,1637167331.1072388,6b747fd1-733b-4b79-a3c4-c146c1038c2e
0.6115689000569149,1.1637319208166186,0.101180373662173,-0.841238934954824,-0.2608607793210367,-0.0135557011974917,-0.2126351898185023,-0.2439044367305212,-10.693237588190176,10.940420053232415,49.51336958280668,1.94724094941849,4.111724964936234,0.7114307020253907,7505.62744140625,11.778333333333332,8.312222222222223,179.67464818893285,-12.641890792525771,47.01505466536991,1864.0,1435.0,1350.0,1528.0,1744.0,1021.7000000000002,135.0,293.35,1637167333.245879,1637167334.271468,be01b77b-54f5-49a7-a209-f1f50d9529e7
0.6227369537157668,1.1733671522613196,0.0906864278136498,-0.8101137942746025,-0.2694878261952502,-0.0357125660243989,-0.2271404428372012,-0.2469349509109884,-10.25070684634524,10.748833140994828,51.682500720529305,1.826016773566936,4.121005182258225,0.7630240882667181,7502.708821614583,11.776333333333334,8.322222222222223,179.4170240781787,-12.64823271803387,46.31175805508772,1864.0,1435.0,1350.0,1528.0,1744.0,1021.7000000000002,135.0,293.35,1637167334.379732,1637167335.4995291,be01b77b-54f5-49a7-a209-f1f50d9529e7
0.6263688519686262,1.1811911981570489,0.099106166310703,-0.8641543969539931,-0.2754213202424209,-0.0240050812454017,-0.2197760289020849,-0.241984178463638,-10.199255934202151,11.344177018228224,47.4183539657414,1.977939437380876,4.194976397581902,0.743393649949786,7506.358344184027,11.776333333333334,8.321111111111112,179.2158750071218,-12.754355359306864,45.64838997178353,1864.0,1435.0,1350.0,1528.0,1744.0,1021.7000000000002,135.0,293.35,1637167335.607915,1637167336.6559365,be01b77b-54f5-49a7-a209-f1f50d9529e7
-0.1482339641619009,-0.1512976113067644,-0.1759908642597037,-0.0439385029722068,-0.1474844885117664,0.5882113389742194,-0.1864177815481053,-0.206246017320226,-13.303185367494931,8.470400688835008,55.33329391483056,1.4704160174597058,-0.9693224025099708,0.7527641277896617,7508.553548177083,11.810666666666668,8.124444444444444,179.28870151969215,-12.79639526851203,44.77667911040663,1440.0,1435.0,1350.0,1528.0,1408.0,1021.7000000000002,135.0,293.35,1637167337.731716,1637167338.7763202,d527c1c8-8ad2-4698-ac1e-6ad52b99e462
-0.0765872617040123,-0.0285397332112628,-0.1554109642882101,-0.2375766284393493,-0.1878992041695414,0.6090761263794137,-0.1792155871099245,-0.2037872131978236,-12.782814235730855,9.617049860326697,50.143688982360025,1.9621628561728068,-0.4414283446460147,0.7752330727305439,7518.794921875,11.808333333333334,8.18,179.03910667576224,-12.770610450621586,44.325976556009856,1440.0,1435.0,1350.0,1528.0,1408.0,1021.7000000000002,135.0,293.35,1637167338.8846848,1637167340.00541,d527c1c8-8ad2-4698-ac1e-6ad52b99e462
-0.0530428763157701,-0.0017766563422868,-0.1490146690133446,-0.2440414095783323,-0.1883100987134364,0.5884354143366015,-0.1766954177334627,-0.2121558098485472,-12.31544975488766,9.42770203183316,50.12512932849802,1.9296589666183728,-0.3429956990042098,0.7670457127809156,7518.062771267361,11.807666666666668,8.181111111111111,178.9100252073679,-12.762264338910784,43.95287329859342,1440.0,1435.0,1350.0,1528.0,1408.0,1021.7000000000002,135.0,293.35,1637167340.11411,1637167341.2343605,d527c1c8-8ad2-4698-ac1e-6ad52b99e462
-0.2225651944367452,-0.2929792114834684,-0.1986510016300464,-0.1119106922403433,-0.1702991231171607,0.746041699721317,-0.1714359378924273,-0.1980894433264105,-13.473288209384156,10.661678954884984,49.08616264843886,1.9907269881524643,-1.4371729698261897,0.7658269924870127,7518.794921875,11.78588888888889,8.291111111111112,178.79975104430818,-12.815008387773965,43.41445821378525,1355.0,1435.0,1350.0,1528.0,1341.0,1021.7000000000002,135.0,293.35,1637167342.2572644,1637167343.2816064,e631bcdf-296e-4989-850c-9bd051dfe5db
-0.2418773442404704,-0.305675923520705,-0.1983222843197699,-0.0900098929633472,-0.1674502383539617,0.7390153656240191,-0.17079219965006,-0.191720543649361,-13.154545922217096,10.760706389364213,49.18649807548584,1.9263843133730827,-1.4906125482025556,0.7595615849858511,7514.402018229167,11.789,8.29,178.67875955553075,-12.915212670131142,43.16573573679437,1355.0,1435.0,1350.0,1528.0,1341.0,1021.7000000000002,135.0,293.35,1637167343.3898685,1637167344.5117476,e631bcdf-296e-4989-850c-9bd051dfe5db
-0.2235787399377137,-0.28014553466435,-0.2091151746685258,-0.0840244977316615,-0.1789553495607611,0.7076776426595043,-0.1902002275352284,-0.2025682192238912,-13.203305775902916,10.437653315338034,48.959244908169104,1.8397229386986549,-1.3939254390279203,0.8204963840185723,7518.794921875,11.788222222222222,8.262222222222222,178.56699792905172,-12.966014573676572,42.90718537649776,1355.0,1435.0,1350.0,1528.0,1341.0,1021.7000000000002,135.0,293.35,1637167344.6202412,1637167345.701658,e631bcdf-296e-4989-850c-9bd051dfe5db
-0.4158784527655778,-0.6250249596863551,-0.2478627420861011,0.0524069277112098,-0.1432210241103685,0.908633532723242,-0.1614785393663262,-0.197185470407831,-14.52360082410214,12.161260764862613,47.29670793561616,1.9921087967804687,-2.6825780073192256,0.7392387974857316,7531.274522569444,11.762,8.39,178.444280679144,-12.966919478877864,42.37987579982508,1271.0,1435.0,1350.0,1528.0,1273.0,1021.7000000000002,135.0,293.35,1637167347.6745143,1637167348.7204523,6d02ea95-82cd-4204-8344-79db84bfd4cb
-0.4367907206802504,-0.6373512729300259,-0.2454056997724323,0.0401354032009473,-0.1428172747883168,0.926757654692782,-0.1495345460919972,-0.1714299843899318,-13.992111095014232,12.156667051552551,46.60294380411539,2.0607665119741965,-2.724755543170415,0.7161299484005627,7518.794921875,11.777,8.316666666666666,178.3777576722677,-13.11509844078278,42.32856628041508,1271.0,1435.0,1350.0,1528.0,1273.0,1021.7000000000002,135.0,293.35,1637167348.8291495,1637167349.8415067,6d02ea95-82cd-4204-8344-79db84bfd4cb
-0.463679453427698,-0.6688676619609241,-0.2641890428888001,0.1302170753145452,-0.1411117551410541,0.8869792757115839,-0.176174949290908,-0.205622551283718,-14.224461500730746,11.973870833336475,48.17794103777919,1.76616404204308,-2.867560651372152,0.7764512787246778,7517.330620659723,11.778666666666668,8.324444444444445,178.34511999277376,-13.188011469082577,42.17290057740618,1271.0,1435.0,1350.0,1528.0,1273.0,1021.7000000000002,135.0,293.35,1637167349.9540415,1637167351.0656135,6d02ea95-82cd-4204-8344-79db84bfd4cb
-0.541571802752024,-0.8323087654580914,-0.2670516233479257,0.1525835539780141,-0.1175673685032494,0.9974968002074788,-0.1476039239883579,-0.1792840659850489,-15.15397484932837,13.30170554976265,44.14145462581337,1.971606886826116,-3.4411227620209552,0.6811375466799762,7518.794921875,11.753,8.43,178.32817960581235,-13.177667527039542,41.96498620397641,1186.0,1435.0,1350.0,1528.0,1206.0,1021.7000000000002,135.0,293.35,1637167352.6422138,1637167353.6344569,ddf91959-71d6-4970-ba48-8bfb141e7675
-0.6009962571023286,-0.9417974677140024,-0.2855195188793536,0.3266574929198286,-0.088499434965575,0.9701151899398118,-0.1607383799369467,-0.1963976450902476,-15.378864509080463,12.912313951557172,47.66746277664245,1.5143565551152718,-3.904040769288092,0.6786742302226694,7525.396484375,11.755555555555556,8.411111111111111,178.2997037882526,-13.244605562771651,41.92028261585868,1186.0,1435.0,1350.0,1528.0,1206.0,1021.7000000000002,135.0,293.35,1637167353.743168,1637167354.864536,ddf91959-71d6-4970-ba48-8bfb141e7675
-0.6076577178056913,-0.9460861384116755,-0.2816795506506689,0.3038209491794492,-0.0840244948431205,0.9947711839073068,-0.1491379393688511,-0.1644232991775893,-15.58540566348882,12.730639082497875,47.64847418295332,1.6201553790517007,-3.915443729200897,0.6500125242462854,7537.161295572917,11.759555555555554,8.384444444444446,178.38001770597307,-13.30470553564346,41.90051415112589,1186.0,1435.0,1350.0,1528.0,1206.0,1021.7000000000002,135.0,293.35,1637167354.9731104,1637167356.093447,ddf91959-71d6-4970-ba48-8bfb141e7675
0.0888397753508881,0.2296951791624228,-0.119443797401172,-0.3254948516017334,-0.2085262220806731,0.4579894018530681,-0.2027188812979003,-0.2190177867465968,-12.293790456508106,8.908850478640316,53.17819891960525,1.8187988501685937,0.5098463382236676,0.823152421022154,7558.5771484375,11.81711111111111,8.084444444444443,178.08176763003567,-13.242187486077992,41.898044658285976,1525.0,1435.0,1350.0,1528.0,1475.0,1021.7000000000002,135.0,293.35,1637167357.2080638,1637167358.233297,232bb4f0-219e-45aa-9228-cc8f84f60184
0.0692673936534618,0.2283255240436099,-0.1052952511345526,-0.3299051417451829,-0.2006370033016736,0.4651390047552956,-0.1895427894843013,-0.2191684485438224,-12.05311749821523,9.399056392350332,53.52427359871383,1.8489439488727009,0.5013868806748095,0.7746118749378587,7558.5771484375,11.813444444444444,8.116666666666667,178.06831519301036,-13.23596214810448,41.99574406362879,1525.0,1435.0,1350.0,1528.0,1475.0,1021.7000000000002,135.0,293.35,1637167358.3408654,1637167359.4616067,232bb4f0-219e-45aa-9228-cc8f84f60184
0.1146440917402948,0.2768113386656486,-0.1019669879552042,-0.3522716287618961,-0.2038967851314017,0.4294457755258588,-0.193720242694711,-0.2154429854239578,-11.984055207681942,8.735071602180822,52.28100876466795,1.814790482329618,0.6967219102519556,0.7847008001194663,7550.440158420139,11.815111111111111,8.108888888888888,178.15931456223237,-13.200818168640089,42.18269620704084,1525.0,1435.0,1350.0,1528.0,1475.0,1021.7000000000002,135.0,293.35,1637167359.5701666,1637167360.803672,232bb4f0-219e-45aa-9228-cc8f84f60184
0.1111103794912005,0.243912206272679,-0.1206354008010782,-0.7745366550799493,-0.2619428105294481,0.8724198344170172,-0.092530061569333,-0.1082537093689238,-12.363865611368,8.402594916757556,55.71592351602141,3.759961551325805,0.5963755496302363,0.7421676606229134,7545.26953125,11.808,8.13,178.1124549110666,-13.124723600279406,42.305006681237984,1525.0,1535.0,1350.0,1528.0,1475.0,1021.7000000000002,135.0,293.35,1637167361.7137425,1637167362.8514068,688cb199-a84b-466e-acdd-47dbc52c707a
0.1140825326419991,0.2648542434932637,-0.1424951065421324,-0.7559778143844659,-0.2818165149176749,0.8390824142548546,-0.1223885580023472,-0.1503021462302768,-12.288251042423434,8.014150448767207,56.12810336706311,3.6396239728540665,0.6670552338418932,0.8450360480632512,7538.63330078125,11.813555555555556,8.176666666666668,178.204134263566,-13.148903323714896,42.347897992495945,1525.0,1535.0,1350.0,1528.0,1475.0,1021.7000000000002,135.0,293.35,1637167362.9601476,1637167364.080369,688cb199-a84b-466e-acdd-47dbc52c707a
0.079107001329758,0.2538794659162222,-0.1314299308249561,-0.7607924298229353,-0.2706746379165468,0.846530601900539,-0.1088273213162968,-0.1341122640081918,-12.328347830687727,8.151266572570695,55.12197515583782,3.668501002704729,0.6363908102301078,0.7925955097690479,7544.532172309027,11.814444444444444,8.118888888888888,178.19261401116592,-13.197360005917815,42.46255827536771,1525.0,1535.0,1350.0,1528.0,1475.0,1021.7000000000002,135.0,293.35,1637167364.1887047,1637167365.3085358,688cb199-a84b-466e-acdd-47dbc52c707a
0.0847445047377612,0.1812093637115706,-0.1911589834794339,-1.1039801791172037,-0.351148505442052,1.266867008152453,-0.055713707112443,-0.0763270288389801,-13.044123737173088,7.992555653848804,59.80642540923171,5.383560715906463,0.3658462278481544,0.9023680211080196,7525.396484375,11.801555555555558,8.166666666666666,178.26121946682912,-13.110665363420226,42.605292153548056,1525.0,1636.0,1350.0,1528.0,1475.0,1021.7000000000002,135.0,293.35,1637167367.2437458,1637167368.3816493,1b4e130d-5300-4cc2-aa27-fc9eb528c8dc
0.1080286540371899,0.2376939691650681,-0.1822425235817487,-1.1687923438446626,-0.3683513870626425,1.260224177588941,-0.0572340262390086,-0.0800524925298952,-12.660043255926302,8.560635892200379,58.26612821685876,5.518991409982635,0.5971856835734202,0.9199388185735154,7525.396484375,11.805333333333332,8.217777777777778,178.27930732557115,-13.028164077618072,42.71527413629333,1525.0,1636.0,1350.0,1528.0,1475.0,1021.7000000000002,135.0,293.35,1637167368.48967,1637167369.6116498,1b4e130d-5300-4cc2-aa27-fc9eb528c8dc
