raw_voltage_G-,raw_voltage_G0,raw_voltage_G1,raw_voltage_G2,raw_voltage_G3,raw_voltage_G4,raw_voltage_G5,raw_voltage_G6,load_x,load_y,load_z,load_l,load_m,load_n,rpm,voltage,current,roll,pitch,yaw,aileron1_pwm,elevator_pwm,throttle_pwm,rudder_pwm,aileron2_pwm,pbaro,pdiff,Tt,sample_start_time,sample_end_time,uid
-0.0234922762711273,0.1094015972745567,0.0254077260924478,0.1620358271057498,-0.1022003750612694,-0.1530069407989015,-0.3193642648872049,-0.3468318962316722,-13.672714256480148,22.322168087028768,13.363191848131878,-0.5648509944651976,0.370696188721717,0.5740566072232058,4990.480414496527,12.033444444444443,0.3055555555555556,179.2528278483514,1.211299850924042,84.70011190563741,1525.0,1435.0,1200.0,1528.0,1475.0,1021.7000000000002,135.0,293.35,1637159500.4736893,1637159501.6600792,9c8e07aa-1c97-4a9c-9e4b-5349d44c2592
-0.0297313328009703,0.1062481016568224,0.0254384063676995,0.1650200331920852,-0.101268461184036,-0.1518635521133331,-0.3202490627240602,-0.3448343897817126,-13.803702140720672,22.407434495243265,13.473448456563329,-0.5684948766461011,0.3584545327363499,0.573678751668231,4991.771864149306,12.033,0.3011111111111111,179.253802288673,1.1961616022603223,84.08773080503241,1525.0,1435.0,1200.0,1528.0,1475.0,1021.7000000000002,135.0,293.35,1637159501.7684832,1637159502.889806,9c8e07aa-1c97-4a9c-9e4b-5349d44c2592
-0.0339772661100452,0.096701600493096,0.019617368883818,0.1727722851014476,-0.1055280911823631,-0.1501651785700513,-0.3237553822736153,-0.3458342389691987,-13.587698446567137,22.43001903224312,13.362690917631904,-0.5822146433325022,0.320779061517702,0.5913059070674951,5000.83203125,12.032555555555554,0.31,179.2507317391861,1.1780168964230338,83.50775288075985,1525.0,1435.0,1200.0,1528.0,1475.0,1021.7000000000002,135.0,293.35,1637159503.003146,1637159504.1151907,9c8e07aa-1c97-4a9c-9e4b-5349d44c2592
0.1546106489233759,0.4564964780749525,0.0395047721209652,0.0042224368297443,-0.1668201951665623,-0.3310830424412636,-0.3842530921386433,-0.4045787900591572,-13.6345851281559,21.569259152751936,15.548554889094008,-0.6129450607763306,1.6731854524307057,0.7792759048818375,5003.386535644531,12.026875,0.32,179.14683924954088,1.1597382400225298,82.55519278558629,1610.0,1435.0,1200.0,1528.0,1542.0,1021.7000000000002,135.0,293.35,1637159505.8442523,1637159507.102269,174d79db-eb0b-4103-bfeb-a636b58f0d73
0.1707451944086433,0.4602219416903572,0.04284673243325,-0.0040502846974787,-0.1652998770256748,-0.3286313580645951,-0.3795277785282531,-0.3919231672909184,-13.548548812767104,21.51823826244303,15.364387788358789,-0.5889324308359064,1.689411076800038,0.7661214783035204,5000.508083767361,12.029000000000002,0.32,179.14289823038976,1.1706368770248348,82.19331940266648,1610.0,1435.0,1200.0,1528.0,1542.0,1021.7000000000002,135.0,293.35,1637159507.2117882,1637159508.425043,174d79db-eb0b-4103-bfeb-a636b58f0d73
0.1573362639906022,0.4467445292027384,0.0383679577646009,0.000305220999672,-0.1672858781936532,-0.3206599597060606,-0.3799523719390834,-0.3997576003811198,-13.43495334281018,21.52900529164749,15.170975395513889,-0.580969875240795,1.638952790313878,0.7737457282272029,4995.974772135417,12.030333333333331,0.32,179.1527564700918,1.1677580115795108,81.90475984734151,1610.0,1435.0,1200.0,1528.0,1542.0,1021.7000000000002,135.0,293.35,1637159508.5333145,1637159509.656205,174d79db-eb0b-4103-bfeb-a636b58f0d73
0.3740190961445943,0.8607311917559827,0.0549528466761198,-0.2080605369236169,-0.2508463992355356,-0.5264036802969736,-0.4555453382528063,-0.4583986074231627,-13.07920073153512,20.85399823385412,16.089471551738438,-0.5766047829757894,3.207690169380071,1.022666164779354,4910.117567274306,12.022,0.3388888888888888,179.06331741964024,1.1766419769715162,81.42579283179435,1685.5555555555557,1435.0,1200.0,1528.0,1601.5555555555557,1021.7000000000002,135.0,293.35,1637159511.2996445,1637159512.3046467,72f31795-dc61-4c04-8610-eeb359e42cf1
0.3975464947762164,0.8689683013931031,0.0572555120926219,-0.2187438537311805,-0.2503418179638378,-0.5223829175026031,-0.454242521288076,-0.4927572554635004,-13.282557673040191,20.851563503423566,16.424698734028993,-0.5434210571365522,3.2385138194035026,1.018219800691143,4900.136013454861,12.022333333333332,0.3477777777777777,179.02210861164784,1.1643465929643702,81.27057678290582,1695.0,1435.0,1200.0,1528.0,1609.0,1021.7000000000002,135.0,293.35,1637159512.4128058,1637159513.5336072,72f31795-dc61-4c04-8610-eeb359e42cf1
0.3985737365890356,0.874624979613365,0.0602002721720335,-0.2143609545572074,-0.2494652381264278,-0.5338195470731129,-0.452804382303424,-0.4622413152523466,-12.969260813401158,20.82635186768216,16.176207294263843,-0.5789098444455164,3.259361362981435,1.0115660880404311,4908.242024739583,12.024666666666668,0.3433333333333334,179.03427545528933,1.191625751895101,81.0943191979142,1695.0,1435.0,1200.0,1528.0,1609.0,1021.7000000000002,135.0,293.35,1637159513.6413553,1637159514.5864136,72f31795-dc61-4c04-8610-eeb359e42cf1
0.6025434166939454,1.2455409155080124,0.0806453990263384,-0.3921817575528033,-0.3221780863467863,-0.7305241108659168,-0.5247863901845387,-0.5461530285003885,-12.870353463686849,20.83235846679925,16.401210705328026,-0.6186675949155823,4.671017156932648,1.2289274669735049,4928.93994140625,12.009333333333334,0.3966666666666666,178.8714710662329,1.184036415657963,80.83186690232672,1779.0,1435.0,1200.0,1528.0,1677.0,1021.7000000000002,135.0,293.35,1637159515.8763618,1637159517.0258565,b9745bc2-aa9c-4e16-b323-9bf342226804
0.6012143027640335,1.2492532308011046,0.0791426126313929,-0.393922864458899,-0.3252893970804176,-0.733008667840075,-0.5271082314494423,-0.5397912491333087,-12.775717394976274,20.8575806030658,16.321694115768747,-0.6201958817317775,4.685095065681218,1.2388970580398806,4935.563639322917,12.010333333333332,0.39,178.86449061290116,1.170109197479582,80.68833503037837,1779.0,1435.0,1200.0,1528.0,1677.0,1021.7000000000002,135.0,293.35,1637159517.1330712,1637159518.2505436,b9745bc2-aa9c-4e16-b323-9bf342226804
0.5866000761629386,1.2550057853262706,0.0762526387835388,-0.3886359917758841,-0.3285217854276608,-0.7441302779335374,-0.5340112988765592,-0.5553916345881101,-12.81397379123034,20.875433851714405,16.196379905763347,-0.6571782972414494,4.707218235384759,1.2575991273739084,4958.409016927083,12.012666666666668,0.3833333333333333,178.8619179083138,1.170037018032572,80.54028157319944,1779.0,1435.0,1200.0,1528.0,1677.0,1021.7000000000002,135.0,293.35,1637159518.3586895,1637159519.4873712,b9745bc2-aa9c-4e16-b323-9bf342226804
0.708337816435492,1.4442834656043164,0.1030902231368879,-0.4945706793180659,-0.3616504792878771,-0.8416569430953867,-0.5610768025926858,-0.5858095086300079,-12.587493931915292,21.891831531280378,14.815829823616548,-0.6294029428102995,5.442518852709408,1.324442398526438,4974.71044921875,11.989444444444445,0.4622222222222222,178.8129833974602,1.1534305870044494,80.2423897027385,1864.0,1435.0,1200.0,1528.0,1744.0,1021.7000000000002,135.0,293.35,1637159521.615922,1637159522.666406,d5b2167f-04d8-43e6-9ad9-5dcf7d62c057
0.7153592195396282,1.4426004320001002,0.1063248024084453,-0.4938475002190858,-0.3570878808206516,-0.8416437941013365,-0.5577633299277509,-0.5778545442969929,-12.71098215638129,21.85046861883438,14.704372209227762,-0.6311977772389077,5.438183633501727,1.3086773181554947,4968.622992621527,11.990444444444444,0.4611111111111111,178.84883581932348,1.1373047593913628,80.07709077681521,1864.0,1435.0,1200.0,1528.0,1744.0,1021.7000000000002,135.0,293.35,1637159522.7739675,1637159523.979882,d5b2167f-04d8-43e6-9ad9-5dcf7d62c057
0.7016714280676426,1.4280579729078482,0.1014203387106452,-0.4927824556148152,-0.3585999812270068,-0.8294155003789091,-0.560577151951512,-0.5854413442876868,-12.990793333861095,21.971445858798933,14.526950767000535,-0.6057330168185406,5.386753491720838,1.319182592544007,4964.785970052083,11.988555555555555,0.4600000000000001,178.83690727339302,1.1363587070435122,79.94934423094864,1864.0,1435.0,1200.0,1528.0,1744.0,1021.7000000000002,135.0,293.35,1637159524.0881913,1637159525.1185,d5b2167f-04d8-43e6-9ad9-5dcf7d62c057
-0.2840216601243337,-0.3686801022433316,0.0031130155899607,0.3915747957438474,-0.0159799874709138,0.1085354269697577,-0.2361932712514233,-0.2522319446884613,-14.07356906625804,23.776641993107585,14.217777141718392,-0.4864478470162259,-1.4567877307240975,0.3130864243343954,4960.954264322917,12.034666666666668,0.29,179.33911438704612,1.1569486087456984,79.71740087256381,1440.0,1435.0,1200.0,1528.0,1408.0,1021.7000000000002,135.0,293.35,1637159526.797652,1637159527.988418,ccce74b4-d5ba-478f-8dd1-8706a1b012a1
-0.2629957962096186,-0.3589812934569882,0.0078936624491839,0.3831837367431266,-0.0146300546471677,0.1069822371998711,-0.2313600291129111,-0.2622068743245457,-13.902854068466649,23.726201547386072,14.286164659841113,-0.4710093950942666,-1.4208903655375045,0.2991862367842797,4973.752170138889,12.03722222222222,0.28,179.34243993026195,1.167822720507116,79.89159422260627,1440.0,1435.0,1200.0,1528.0,1408.0,1021.7000000000002,135.0,293.35,1637159528.0959988,1637159529.1175582,ccce74b4-d5ba-478f-8dd1-8706a1b012a1
-0.2742642304008868,-0.3632809178487016,0.0049089083497499,0.388048753992188,-0.0156688016812141,0.1078369024941564,-0.2338188356047025,-0.2639162053224335,-13.94704474488132,23.70270706903718,14.425098167843144,-0.4803676012583329,-1.4387237682871332,0.3078675070865917,4984.031846788194,12.03611111111111,0.2899999999999999,179.35096552416596,1.1850765135445418,80.02964221156104,1440.0,1435.0,1200.0,1528.0,1408.0,1021.7000000000002,135.0,293.35,1637159529.2263937,1637159530.3273418,ccce74b4-d5ba-478f-8dd1-8706a1b012a1
-0.4709249337951256,-0.7054100907567017,0.0052496787611122,0.5588645476843737,0.0600496100272961,0.2787973401449633,-0.1642452418943943,-0.2004178569300903,-14.2740406844369,25.04657222572413,13.68911712399841,-0.4728715597933402,-2.734065487427626,0.0634956161872814,4993.3876953125,12.021,0.3544444444444444,179.46181645875566,1.194692518690404,80.2191700952001,1355.0,1435.0,1200.0,1528.0,1341.0,1021.7000000000002,135.0,293.35,1637159532.470439,1637159533.6166174,02646b5c-42ab-4a91-b1ae-f3318e2c9f68
-0.4676815880009621,-0.7009132349351758,-8.759627230340627e-05,0.549619919372872,0.0527438657155127,0.2842792504201786,-0.1686407418403167,-0.201131173923922,-14.236959738782296,25.041293782675456,13.846912896998132,-0.4399562918623336,-2.718060766483193,0.0876935700382369,4991.771864149306,12.020555555555555,0.35,179.46891530203305,1.192659031450477,80.17373188229163,1355.0,1435.0,1200.0,1528.0,1341.0,1021.7000000000002,135.0,293.35,1637159533.7247727,1637159534.754957,02646b5c-42ab-4a91-b1ae-f3318e2c9f68
-0.4571461926174303,-0.6975208699230047,-0.0006124484263248,0.5488797574111401,0.0519138542378504,0.280975092805992,-0.1697923486175997,-0.2068826335566667,-14.223598296635794,24.98572371961141,13.747035539208518,-0.4461152611687207,-2.704489779127419,0.0914744190741937,4992.0947265625,12.02077777777778,0.35,179.46723507549717,1.1891709510766837,80.16891659892677,1355.0,1435.0,1200.0,1528.0,1341.0,1021.7000000000002,135.0,293.35,1637159534.8667257,1637159535.8623695,02646b5c-42ab-4a91-b1ae-f3318e2c9f68
-0.6977537117834398,-1.1194161995105552,-0.0092823702432696,0.7529447641348096,0.1344767083803545,0.5101048036313024,-0.0907084139415013,-0.1157594219704192,-14.625549181069786,26.79278173375245,14.517973279476571,-0.3800828042310304,-4.316485417904613,-0.1709553092588122,4986.28662109375,12.006555555555556,0.4,179.59554093796578,1.1895455916958455,80.13204040759787,1271.0,1435.0,1200.0,1528.0,1273.0,1021.7000000000002,135.0,293.35,1637159537.8115466,1637159538.853572,9bd2d214-2aca-401c-9e4b-6077d3bd912c
-0.6928229489070814,-1.1100614431958988,-0.0016259937780933,0.7559717033024569,0.1393252900387423,0.4952166458010364,-0.0848462865396213,-0.1116367574842991,-14.263617092468488,26.70913731689268,14.152110776218109,-0.4204159016495532,-4.280607156407318,-0.1954122698357645,4985.320149739583,12.006999999999998,0.3966666666666667,179.5934721495572,1.1960238245381585,79.9971517605892,1271.0,1435.0,1200.0,1528.0,1273.0,1021.7000000000002,135.0,293.35,1637159538.9616191,1637159539.9551685,9bd2d214-2aca-401c-9e4b-6077d3bd912c
-0.694850040286804,-1.1165673132789644,-0.0134598206782028,0.762422781779717,0.1311758378588576,0.4983531574309099,-0.0981319490714582,-0.1253333164458603,-14.614077123664636,26.768173627513864,14.440539315114018,-0.4282481159596893,-4.306627455815924,-0.1498588190235605,4986.28662109375,12.008499999999998,0.39,179.59358826277304,1.194891169287749,79.95889700941282,1271.0,1435.0,1200.0,1528.0,1273.0,1021.7000000000002,135.0,293.35,1637159540.062954,1637159541.1818235,9bd2d214-2aca-401c-9e4b-6077d3bd912c
-0.7923493080164483,-1.33573270661607,-0.000258529403461,0.879704758828842,0.1874654047230586,0.6155343273341026,-0.042505291494012,-0.0684345223662634,-14.55219812042937,28.147122941881385,16.171027497049284,-0.4193802309623679,-5.157985813866564,-0.3472952328214145,4977.599609375,11.982333333333337,0.48,179.63267439975343,1.1811985076317246,79.75171194840442,1186.0,1435.0,1200.0,1528.0,1206.0,1021.7000000000002,135.0,293.35,1637159542.411342,1637159543.5556316,d7fdfba4-d790-4a45-b76c-05a3b4ec5937
-0.7991471869306443,-1.3302628437557302,0.0108521191301602,0.8745504703149853,0.1977608334928716,0.6147454056336245,-0.0303558957723693,-0.0610186566762122,-14.527318695015124,28.00483576416513,16.237145576273676,-0.4098931707819494,-5.136896049804501,-0.3929754562849984,4977.599609375,11.982333333333337,0.4866666666666666,179.66278946271393,1.1757474830655257,79.57175619543217,1186.0,1435.0,1200.0,1528.0,1206.0,1021.7000000000002,135.0,293.35,1637159543.663781,1637159544.7877138,d7fdfba4-d790-4a45-b76c-05a3b4ec5937
-0.8195298672956132,-1.3372738450647197,0.0024829737968305,0.876994484019583,0.1907421692733319,0.6209373452359778,-0.0398120000938993,-0.0528785180759461,-14.761976098875138,28.201069603491508,16.39091907550699,-0.4007016297737351,-5.1637217521796765,-0.3593988959864798,4977.599609375,11.98488888888889,0.48,179.65058619139683,1.169895362755098,79.3720892754252,1186.0,1435.0,1200.0,1528.0,1206.0,1021.7000000000002,135.0,293.35,1637159544.8959377,1637159545.861138,d7fdfba4-d790-4a45-b76c-05a3b4ec5937
-0.0194041273373925,0.1256561248438043,0.0265067379423411,0.1580621816552395,-0.1044323663996292,-0.1512609033623441,-0.3240704031527718,-0.3488063935489769,-14.007017037369856,22.51363749474935,15.339728609151706,-0.5504930554488393,0.4170708267261633,0.586706444606783,4974.71044921875,12.033555555555555,0.2888888888888888,179.25621865781935,1.1599023216806768,79.1335836230678,1525.0,1435.0,1200.0,1528.0,1475.0,1021.7000000000002,135.0,293.35,1637159547.8273346,1637159548.9787064,0f7914fe-da80-4442-ae5e-2cda7c59dbb6
-0.0222530116247043,0.1238892688012905,0.0277668213370361,0.1616917695287145,-0.1023504893805521,-0.152945580302604,-0.3215913256889917,-0.3556820674215838,-13.885601962936049,22.43346224295249,15.34397375342914,-0.5628731641977377,0.4091787145646962,0.5785653784833501,4984.997992621527,12.03588888888889,0.28,179.26998224790682,1.1871887376874009,79.45454635472522,1525.0,1435.0,1200.0,1528.0,1475.0,1021.7000000000002,135.0,293.35,1637159549.0866292,1637159550.1042645,0f7914fe-da80-4442-ae5e-2cda7c59dbb6
-0.0077483556856773,0.1287789401169966,0.0264656482595114,0.1625135630548178,-0.1040625593054935,-0.1594925357326632,-0.3263714253604881,-0.3400542903919374,-14.035129178665372,22.476700725974087,15.178895132867629,-0.5793185513501443,0.4298564249065713,0.5897204787740512,4992.0947265625,12.035999999999998,0.28,179.27929710811492,1.1867556135734705,79.74924776793387,1525.0,1435.0,1200.0,1528.0,1475.0,1021.7000000000002,135.0,293.35,1637159550.2121935,1637159551.434079,0f7914fe-da80-4442-ae5e-2cda7c59dbb6
0.0002230415036519,0.1150138989981214,-0.0045022711366829,-0.2578612296354808,-0.1743533030147074,0.2622245051383448,-0.2356591054144396,-0.2610114398307799,-13.819858543662756,21.44095340821837,18.422290314397564,1.3088157759263028,0.3977357574475109,0.5983153804566684,4995.651150173611,12.035444444444444,0.28,179.269783413511,1.293415254754024,80.24563935496361,1525.0,1535.0,1200.0,1528.0,1475.0,1021.7000000000002,135.0,293.35,1637159553.358183,1637159554.5128124,28d48d40-902b-436a-8d27-d8f91ce98311
-0.0158134374435299,0.1086521215792906,-0.004334625266868,-0.2534761388627355,-0.1725853510783532,0.2650558576215034,-0.2330167650153065,-0.2462575046911971,-13.710386939082449,21.39305612569961,18.52343671700408,1.3050485718856095,0.3716738700935897,0.5914242618173241,4997.91650390625,12.035555555555554,0.28,179.26371668770824,1.2932221951882656,80.37345040817235,1525.0,1535.0,1200.0,1528.0,1475.0,1021.7000000000002,135.0,293.35,1637159554.6258538,1637159555.8304455,28d48d40-902b-436a-8d27-d8f91ce98311
-0.0076387832642,0.1095352756805166,0.0004969728416017,-0.2554095453306481,-0.1694499346254416,0.2648405477341012,-0.2286327700588907,-0.2655997870172637,-13.645980153818384,21.48393439179556,18.39687086040697,1.309781302864853,0.3761980120380856,0.5742449790381848,4995.974772135417,12.035333333333334,0.2866666666666667,179.26643358517808,1.3043301697809528,80.49872442555936,1525.0,1535.0,1200.0,1528.0,1475.0,1021.7000000000002,135.0,293.35,1637159555.9397204,1637159557.0585968,28d48d40-902b-436a-8d27-d8f91ce98311
0.0035239122248763,0.1038512039479117,-0.0319638717856103,-0.6538973144895156,-0.2428224064243936,0.6590822572030254,-0.1552602987516025,-0.1846394205681554,-13.85278320832919,21.006318586097223,21.6481676504434,3.090217511113164,0.3745232560055589,0.6144171933318004,4997.91650390625,12.033333333333331,0.3,179.27306797559189,1.4095248421062443,80.69420368069522,1525.0,1636.0,1200.0,1528.0,1475.0,1021.7000000000002,135.0,293.35,1637159558.991352,1637159560.134423,1ed4faa9-32bd-4488-9b8f-2a29f8f1825d
0.0225484323740159,0.1126170013286771,-0.02111619705707,-0.6604442718783202,-0.2348373118116546,0.6546445726520261,-0.1477271909394375,-0.1739150136982294,-13.991487571394387,21.098167124930374,21.45179710576793,3.096061667249994,0.4116177813214025,0.578620689718477,5003.103135850694,12.03077777777778,0.3088888888888889,179.261957534542,1.4090452703343646,80.6729443374486,1525.0,1636.0,1200.0,1528.0,1475.0,1021.7000000000002,135.0,293.35,1637159560.2422645,1637159561.3612454,1ed4faa9-32bd-4488-9b8f-2a29f8f1825d
0.0137579809596535,0.1074161441588131,-0.028146914717498,-0.6543668327832377,-0.2412741472362694,0.6541783418432461,-0.1530463868411184,-0.1756884439996697,-13.729871099365248,21.091448356465392,21.40781912260356,3.081034829148395,0.3894554367298486,0.6040926043698664,5002.7783203125,12.031,0.3,179.25152100549022,1.4156919218863675,80.643834071206,1525.0,1636.0,1200.0,1528.0,1475.0,1021.7000000000002,135.0,293.35,1637159561.469145,1637159562.5861073,1ed4faa9-32bd-4488-9b8f-2a29f8f1825d
0.0340672382686937,0.1033581278683969,-0.042099325438867,-0.9950102727537414,-0.2960198469502431,0.9876900619622369,-0.0801072770508765,-0.1006932061025013,-13.68508553947809,21.142578390236327,23.886809711164773,4.598950257539113,0.3930040534314089,0.5938560658236159,4976.316297743056,12.015444444444444,0.3677777777777777,179.2623779706309,1.5085566086559057,80.62260356653587,1525.0,1737.0,1200.0,1528.0,1475.0,1021.7000000000002,135.0,293.35,1637159564.314725,1637159565.4597125,190b30e7-f651-4403-b8ba-10615584f124
0.0264990677673847,0.10677185807331,-0.0432153210742785,-0.9930642644483084,-0.2964460839090619,0.9825801502052852,-0.0812150547422498,-0.1074467054692306,-13.627560282353034,20.98873728994035,23.883619911156867,4.582030933476208,0.4051157862275126,0.5980640738573364,4962.87060546875,12.016444444444444,0.35,179.2598629431965,1.5007809126045382,80.49413909189656,1525.0,1737.0,1200.0,1528.0,1475.0,1021.7000000000002,135.0,293.35,1637159565.5685575,1637159566.8921127,190b30e7-f651-4403-b8ba-10615584f124
0.0136730622291244,0.0978795044451337,-0.050057026273735,-0.987408677989473,-0.300662981015598,0.9871421996452612,-0.0879827986194405,-0.118375464281607,-13.79966208326808,21.0839736508162,23.981195062593013,4.579744434758847,0.3709889055239181,0.6217212551741663,4958.722222222223,12.015333333333333,0.3611111111111111,179.25655561381842,1.5142673582800747,80.35816672153959,1525.0,1737.0,1200.0,1528.0,1475.0,1021.7000000000002,135.0,293.35,1637159567.0001285,1637159568.13867,190b30e7-f651-4403-b8ba-10615584f124
0.0193160445089149,0.0973316421646584,-0.046687672766622,-1.046783300321121,-0.3143458451548456,1.0441746664369087,-0.0782856347721463,-0.1031174973680321,-13.643552226497064,22.09655486729572,24.27718682403133,4.848844662912729,0.3727468727919461,0.6214824818587174,4963.1884765625,12.001666666666669,0.4111111111111111,179.25931501024309,1.5362298908460872,80.1870067343985,1525.0,1837.0,1200.0,1528.0,1475.0,1021.7000000000002,135.0,293.35,1637159569.844227,1637159570.9793618,b5a577a6-73b7-4df6-91b3-aae77cbd5bee
0.0228360600932143,0.1060974395234399,-0.0478244872206855,-1.0576857663648251,-0.3168934055221306,1.0461469704419628,-0.0798744356249692,-0.1048569606255978,-13.78609288355264,22.007605096612654,24.34266634939277,4.877162407565546,0.4073212172177792,0.6297583144670839,4958.403483072917,12.007,0.39,179.25241348354177,1.5012078824334354,80.00223114460196,1525.0,1837.0,1200.0,1528.0,1475.0,1021.7000000000002,135.0,293.35,1637159571.0872564,1637159572.141146,b5a577a6-73b7-4df6-91b3-aae77cbd5bee
0.0234387086671728,0.0976603595623267,-0.0508925164471657,-1.0521386567925528,-0.318523296248675,1.049023247651398,-0.084134065549837,-0.1075688791684196,-13.952744106305074,22.20804363928393,24.272801952862807,4.872193805530376,0.3766016951273682,0.6409555570679423,4973.111056857639,12.004111111111111,0.4,179.22589413572436,1.509969189011596,79.8287701426205,1525.0,1837.0,1200.0,1528.0,1475.0,1021.7000000000002,135.0,293.35,1637159572.2485034,1637159573.2468164,b5a577a6-73b7-4df6-91b3-aae77cbd5bee
-0.0481121150254758,0.1239029653979397,0.0549818833711661,0.5632748391277254,-0.0393874067674855,-0.5397501586263481,-0.4088795093425516,-0.4390256421741126,-13.999416309236866,23.863944304791563,12.681402295857604,-2.327591469005945,0.3859400172633879,0.5790907966339591,5043.666720920139,12.033555555555555,0.2833333333333334,179.2280964922767,1.100088695003452,79.61953792213588,1525.0,1389.888888888889,1200.0,1528.0,1475.0,1021.7000000000002,135.0,293.35,1637159574.7928343,1637159575.9050376,4d37b6de-a74d-47f5-a6fd-968ccadfe06f
-0.0357304256694933,0.1277790913873382,0.0578444641200765,0.559111085712273,-0.0366617915065333,-0.5402706279752079,-0.4066469698348311,-0.4314651406115526,-14.131169154485796,23.808430370743224,12.62328721207612,-2.3196696816201605,0.4026186112012133,0.5685789201655743,5050.599717881944,12.037444444444445,0.27,179.2392494322814,1.030285134039241,79.9421778446895,1525.0,1334.0,1200.0,1528.0,1475.0,1021.7000000000002,135.0,293.35,1637159576.013094,1637159577.0512817,4d37b6de-a74d-47f5-a6fd-968ccadfe06f
-0.0463589554266649,0.1200953221841566,0.0524480200181541,0.5562485052374887,-0.0410857801051368,-0.5299571164369977,-0.4072085288607969,-0.4439427081497761,-13.973950970964614,23.74721034310684,12.621396522581028,-2.290632267501921,0.3727131113710351,0.5819376097034522,5056.888671875,12.037444444444445,0.27,179.22787337276384,1.0235322706740506,80.22118500100525,1525.0,1334.0,1200.0,1528.0,1475.0,1021.7000000000002,135.0,293.35,1637159577.1661708,1637159578.14372,4d37b6de-a74d-47f5-a6fd-968ccadfe06f
-0.0563163538898989,0.1219443575315851,0.0883603964543314,0.99596278275353,0.0337111278165256,-0.9581939006849312,-0.5025776884284383,-0.530080387489357,-14.565221779297872,25.55528236184131,9.31687623951921,-4.231875446143298,0.3612899451521724,0.5651572561852907,5044.9833984375,12.027,0.3,179.2448866150764,0.8973338180135849,80.50067102947281,1525.0,1234.0,1200.0,1528.0,1475.0,1021.7000000000002,135.0,293.35,1637159578.7915063,1637159579.7933886,cad1f3c2-dc5e-40c3-b7e7-ed08a4fc52e6
-0.0531387522510151,0.1264779183376501,0.0901820387293003,0.9974420109858017,0.033341320722723,-0.9640286382558946,-0.5023585434320285,-0.5241360790077657,-14.38891653749821,25.615266692946207,9.31873242994175,-4.2477462645536095,0.3769636330723582,0.5635286572349638,5037.736165364583,12.029,0.3,179.24066859380898,0.8800817206654847,80.68995378521164,1525.0,1234.0,1200.0,1528.0,1475.0,1021.7000000000002,135.0,293.35,1637159579.9017906,1637159580.9265769,cad1f3c2-dc5e-40c3-b7e7-ed08a4fc52e6
-0.0565743970900776,0.1287696264900377,0.0878771818877651,0.9906534491292116,0.0301675541614432,-0.95966655555818,-0.5031567790590854,-0.5201711969736436,-14.356575765003958,25.5595176399854,9.357921096214556,-4.223092557225003,0.3856714599586173,0.5724482765256885,5037.081000434027,12.029666666666666,0.2955555555555555,179.2398064721537,0.8791564612633105,80.85791496709143,1525.0,1234.0,1200.0,1528.0,1475.0,1021.7000000000002,135.0,293.35,1637159581.034241,1637159582.0506012,cad1f3c2-dc5e-40c3-b7e7-ed08a4fc52e6
-0.0671092424976161,0.1445984648853875,0.1158630856739175,1.2299547799226744,0.0689797661941225,-1.2064989873305625,-0.5567749858642215,-0.5729643240930559,-14.432955340661698,27.217725037931604,7.681998511943086,-5.305482793065805,0.4327726466005162,0.5586934683762713,5022.974934895833,12.024555555555557,0.32,179.22804033294355,0.7744295146005569,81.09213429628969,1525.0,1133.0,1200.0,1528.0,1475.0,1021.7000000000002,135.0,293.35,1637159582.811701,1637159583.892253,bf5aae7a-fc2d-4609-b68b-347f4b1b3c8a
-0.0675930049503073,0.1300976447378265,0.1112950095293006,1.2209528541156605,0.0671153906325986,-1.18433848565364,-0.5553571177050478,-0.5913582601661678,-14.646567339028875,27.238995567737323,7.622867126221745,-5.235582455249582,0.3812408266233259,0.5633658198724993,4998.241753472223,12.023222222222223,0.3244444444444444,179.2237054395503,0.8154272626328335,81.17145024748143,1525.0,1133.0,1200.0,1528.0,1475.0,1021.7000000000002,135.0,293.35,1637159584.0003164,1637159585.122442,bf5aae7a-fc2d-4609-b68b-347f4b1b3c8a
-0.0483449565178769,0.1378460616789454,0.1120965320088882,1.2280235653744336,0.0676648964717202,-1.198253653048284,-0.5591444913575556,-0.592344960740001,-14.688601044777435,27.22161312177068,7.638510889525745,-5.282895471491238,0.4096409166664236,0.5679165817322748,4982.423122829861,12.021444444444446,0.32,179.23304003141595,0.8152414601430679,81.28918980730401,1525.0,1133.0,1200.0,1528.0,1475.0,1021.7000000000002,135.0,293.35,1637159585.231949,1637159586.3483603,bf5aae7a-fc2d-4609-b68b-347f4b1b3c8a
-0.055905457129745,0.1494059568370362,0.1258478767046192,1.305135190214081,0.0795398128085122,-1.2828573684068496,-0.5801413220389534,-0.6069865869886302,-14.909747019446092,28.32337401943768,7.276124465770128,-5.639136904036804,0.4491709460002668,0.5638498534230232,4974.71044921875,12.014222222222225,0.3522222222222221,179.24743807018635,0.786359833297143,81.47072485179433,1525.0,1033.0,1200.0,1528.0,1475.0,1021.7000000000002,135.0,293.35,1637159588.2977588,1637159589.4153626,a95888a2-f756-4080-84df-ec2eeb66a163
-0.0767927099309789,0.1287652435430179,0.1212321365268409,1.314517332845558,0.0787317158138967,-1.2725575464191057,-0.5799221769255462,-0.5971113641757418,-14.789790590780315,28.40430934656865,7.075028147485797,-5.636820619802333,0.3712426279038656,0.568282034236487,4973.427897135417,12.012777777777778,0.3644444444444444,179.2510595882663,0.754103541605752,81.47314805112988,1525.0,1033.0,1200.0,1528.0,1475.0,1021.7000000000002,135.0,293.35,1637159589.5228062,1637159590.6519785,a95888a2-f756-4080-84df-ec2eeb66a163
-0.0762037578248226,0.1306553686393464,0.1231770477891925,1.321406702166103,0.0784577846443383,-1.2803098053976478,-0.5784566446832186,-0.602466721360824,-14.374923349583844,28.457363006320843,7.1483424864494935,-5.669112647058847,0.3740216026537631,0.5645782724104164,4971.82470703125,12.011666666666668,0.3611111111111111,179.24260684971344,0.7481968390718008,81.48460076054818,1525.0,1033.0,1200.0,1528.0,1475.0,1021.7000000000002,135.0,293.35,1637159590.7651622,1637159591.879305,a95888a2-f756-4080-84df-ec2eeb66a163
-0.0211572868954797,0.1129594152626418,0.0222608047330969,0.1019610789614609,-0.1133625231286238,-0.0842573345415576,-0.3090589726214208,-0.3460533841063155,-13.925316964884791,22.512487530716488,15.793141953980166,-0.2734823869493777,0.3714916596974467,0.5819531401615968,4975.676703559027,12.04,0.26,179.2875115489567,1.1132396194939789,81.48390484016274,1525.0,1435.0,1200.0,1528.0,1475.0,1021.7000000000002,135.0,293.35,1637159592.896453,1637159594.129491,8df8a576-4fc9-4a24-b9e2-c881f13190b5
-0.0117888405723217,0.1194789770418053,0.0285201320534335,0.0987012980284095,-0.1091987690920328,-0.0870925223956919,-0.3053745978422555,-0.3395612142235859,-14.010388009060796,22.59700039547976,15.90913772459603,-0.2716525789812183,0.3963176146420382,0.563333749367627,5007.650390625,12.03788888888889,0.27,179.27361135508585,1.131073397570457,81.52261076327929,1525.0,1435.0,1200.0,1528.0,1475.0,1021.7000000000002,135.0,293.35,1637159594.2370389,1637159595.2904243,8df8a576-4fc9-4a24-b9e2-c881f13190b5
-0.0111451023054847,0.1222182887177411,0.0247535784229092,0.0995230915701389,-0.1122941915019535,-0.0913795453681488,-0.3116750157169095,-0.3382052547059399,-14.200823337889858,22.596305034381544,15.751200371242636,-0.2834530521812588,0.4089993765521308,0.5816375216374566,5015.462890625,12.036111111111111,0.26,179.26649885143013,1.1169775235230397,81.55495019117949,1525.0,1435.0,1200.0,1528.0,1475.0,1021.7000000000002,135.0,293.35,1637159595.3985815,1637159596.5999804,8df8a576-4fc9-4a24-b9e2-c881f13190b5
0.0300023377332801,0.1410373597470778,0.1654053233424956,0.0809249517085209,0.0149099212229733,-0.1001554669169447,-0.1620829719685727,-0.1897238221554763,-13.067005842613742,22.361696984216024,15.80456486275025,-0.2551933585059758,0.4822869060791033,0.0067484130015825,4965.764268663194,12.037,0.2655555555555555,179.27392250814805,1.117253778587438,81.56773858203547,1525.0,1435.0,1200.0,1439.0,1475.0,1021.7000000000002,135.0,293.35,1637159598.9295871,1637159600.076499,7207e1d0-65e3-4d99-b545-ea20cb934734
0.0338480932595899,0.1423933189998368,0.1688002832458225,0.0784303916031996,0.0176861541344873,-0.0985839356182826,-0.1585063833696958,-0.1704771771625095,-13.083022460716627,22.368823544462742,15.917065293281416,-0.2458086413886409,0.4870113278603755,-0.0064661757995984,4929.261773003473,12.038333333333334,0.2622222222222222,179.26067953025728,1.1253072949548892,81.5612043677295,1525.0,1435.0,1200.0,1439.0,1475.0,1021.7000000000002,135.0,293.35,1637159600.183883,1637159601.2021282,7207e1d0-65e3-4d99-b545-ea20cb934734
0.0192201685657775,0.1362846539750664,0.1645406536688412,0.0814847241090749,0.0155631875286836,-0.0958583203212387,-0.1616018058666747,-0.1953638266009242,-13.143138793374796,22.348046950860745,15.825792429705515,-0.2469682878204258,0.46468811382647,0.0057643331001562,4917.315104166667,12.03622222222222,0.27,179.25143752540038,1.1312410336543053,81.56426277465783,1525.0,1435.0,1200.0,1439.0,1475.0,1021.7000000000002,135.0,293.35,1637159601.3102734,1637159602.26242,7207e1d0-65e3-4d99-b545-ea20cb934734
0.0918480880315384,0.1652704061978164,0.3481687612559391,0.0756488944929627,0.1793395107878724,-0.1272223456444436,0.0224229720222517,-0.0032827296460695,-11.796107012826482,22.53705121530424,16.04653940052925,-0.2931736029394421,0.574274636991499,-0.7249904418017507,4941.899685329861,12.03622222222222,0.2677777777777778,179.24432502174463,1.14560691361735,81.58234304430077,1525.0,1435.0,1200.0,1351.0,1475.0,1021.7000000000002,135.0,293.35,1637159603.8079236,1637159604.984059,6edca18a-44d0-45c0-9990-a2415e152022
0.093496605785423,0.1670745168451813,0.35155345456543,0.0702809392495142,0.1806204128886942,-0.1249772055803846,0.0270272071973254,-0.0082140389968748,-11.638810725258333,22.557015284310022,15.944047242376556,-0.2756559611093025,0.5817120500366686,-0.7377757540368693,4978.248318142361,12.036666666666664,0.2644444444444444,179.24804216247293,1.139982928739981,81.58516694806764,1525.0,1435.0,1200.0,1351.0,1475.0,1021.7000000000002,135.0,293.35,1637159605.0914204,1637159606.214634,6edca18a-44d0-45c0-9990-a2415e152022
0.0781471467023224,0.1653230009975138,0.3457756987153025,0.0752412848803737,0.1760654855471061,-0.1274195761929159,0.0197800840322424,-0.0085159109539525,-11.724831711673206,22.59300921538792,15.952083325341084,-0.2924247237631943,0.5747040192934163,-0.7136097376498922,5000.508083767361,12.037000000000004,0.2588888888888889,179.24421725653775,1.1175248991519924,81.58696784127878,1525.0,1435.0,1200.0,1351.0,1475.0,1021.7000000000002,135.0,293.35,1637159606.322652,1637159607.4538114,6edca18a-44d0-45c0-9990-a2415e152022
0.1492826877774841,0.2022746711450535,0.5314577365120275,0.0686099591065484,0.3393087320489811,-0.1665736571517279,0.2025896919476359,0.1790590046510256,-10.328687196239184,22.855279209438283,16.072995912042547,-0.3537441222993192,0.7149341930430607,-1.443887662169305,5011.879231770833,12.032222222222222,0.28,179.23401447173754,1.1429862198362786,81.53627721289858,1525.0,1435.0,1200.0,1262.0,1475.0,1021.7000000000002,135.0,293.35,1637159609.3697262,1637159610.32524,e0e38b1b-d529-46d4-9640-6040a2c8ad95
0.1418728497754353,0.1951524609307141,0.5237328781875732,0.0671033376667793,0.3362680962713842,-0.157890038269907,0.197152158468318,0.1654035361801228,-10.697155074778449,22.701585274001665,16.071306360370013,-0.332421551080781,0.6905376499618585,-1.422546465946242,5012.857421875,12.032111111111112,0.2744444444444445,179.22392096996407,1.1391792431476429,81.53222387508113,1525.0,1435.0,1200.0,1262.0,1475.0,1021.7000000000002,135.0,293.35,1637159610.4337542,1637159611.5298102,e0e38b1b-d529-46d4-9640-6040a2c8ad95
0.1408730010065507,0.1921940043747302,0.5126249701960076,0.0625834733362923,0.3247492912907948,-0.149617316325628,0.1872084573295717,0.1721833323914746,-10.7102737060848,22.79076274105488,16.16147537243207,-0.3035900953017266,0.6785891462169872,-1.377874627104349,5000.835611979167,12.035,0.2733333333333333,179.22221949395086,1.136593530370133,81.49831578040155,1525.0,1435.0,1200.0,1262.0,1475.0,1021.7000000000002,135.0,293.35,1637159611.6378736,1637159612.763929,e0e38b1b-d529-46d4-9640-6040a2c8ad95
0.1942347915279239,0.2146563595342226,0.6722720418394572,0.0654460540664755,0.467549599914592,-0.1852009785225594,0.3435957545937298,0.3157232595129498,-9.616743950641975,23.1144372165682,15.81372599436076,-0.3794185589645036,0.7679528116362508,-2.009768064845929,4986.28662109375,12.027,0.29,179.25339703078225,1.1106136252015204,81.42870932256996,1525.0,1435.0,1200.0,1173.0,1475.0,1021.7000000000002,135.0,293.35,1637159614.8078623,1637159615.837595,994f6dd9-c6e3-4c97-a202-d457e12b4a25
0.190659989834789,0.2243672191131364,0.6621091963559557,0.0669115858496941,0.4556062018771463,-0.1953638259586557,0.3303237902614798,0.3073546625944354,-9.48590690350241,23.08080277407105,15.822941010602312,-0.4062233944388015,0.8025414553373068,-1.9594450349625216,4984.997992621527,12.027666666666669,0.3,179.24308496295532,1.1097104631214263,81.38736770534368,1525.0,1435.0,1200.0,1173.0,1475.0,1021.7000000000002,135.0,293.35,1637159615.9755678,1637159617.1714203,994f6dd9-c6e3-4c97-a202-d457e12b4a25
0.1814832959816222,0.2225455769555139,0.6629172932345339,0.0718012572152001,0.4585098720316374,-0.1968567509007754,0.3279816788483978,0.3165861426265448,-9.861634331284089,23.17260465186926,15.99194821417636,-0.4201214840697555,0.7963213522140661,-1.961406404522369,4988.866482204861,12.026777777777776,0.3,179.23463677786197,1.104840953272063,81.36042868034724,1525.0,1435.0,1200.0,1173.0,1475.0,1021.7000000000002,135.0,293.35,1637159617.278868,1637159618.3038254,994f6dd9-c6e3-4c97-a202-d457e12b4a25
-0.0930231326170729,0.0788138951193404,-0.180626327434864,0.1264642218230543,-0.2964170472296661,-0.0644795030634436,-0.5229170833391007,-0.5611031009037993,-15.58174546348305,22.928363701026104,15.455693969117087,-0.2925451721848773,0.242268014870903,1.4066041263698696,4988.221516927083,12.040333333333333,0.26,179.28668737279688,1.1152751581622502,81.52618295221521,1525.0,1435.0,1200.0,1617.0,1475.0,1021.7000000000002,135.0,293.35,1637159619.4642825,1637159620.4186862,febf7623-241b-4a6c-a55d-fac97e96184c
-0.0834218445652269,0.0795535093075329,-0.1724494812131632,0.1228209372969296,-0.2904316502570707,-0.0603431422051785,-0.5132473103787408,-0.5315459185880435,-15.416214901867532,22.98991241587477,15.736725184625652,-0.2740885716715093,0.2423476391431898,1.374082578757335,4995.00390625,12.037333333333333,0.26,179.27778535957864,1.1061962003558146,81.53367187518516,1525.0,1435.0,1200.0,1617.0,1475.0,1021.7000000000002,135.0,293.35,1637159620.5464811,1637159621.6770627,febf7623-241b-4a6c-a55d-fac97e96184c
-0.0902153379480388,0.0752664865197889,-0.1799551959907007,0.1279708432209864,-0.2961157229122602,-0.0617812809086716,-0.5190820458764146,-0.5388187935960279,-15.27608831221358,22.88494011035388,15.558550768352935,-0.2899646618501645,0.2257444047999885,1.3997792285969328,5000.184461805556,12.040555555555557,0.26,179.25735398704143,1.1080965463387955,81.54461459714543,1525.0,1435.0,1200.0,1617.0,1475.0,1021.7000000000002,135.0,293.35,1637159621.7845414,1637159622.914162,febf7623-241b-4a6c-a55d-fac97e96184c
-0.1450152722711215,0.0485308041776316,-0.3795688682592756,0.1670060341012794,-0.4764857378117478,-0.0623565363705579,-0.7357342838605802,-0.7544985779854568,-16.843906873378213,23.34619263667653,15.262981884262784,-0.3870292094352452,0.1217329074048801,2.221416391957744,5003.75146484375,12.03,0.2866666666666667,179.29079459321778,1.08371634025001,81.54605197251078,1525.0,1435.0,1200.0,1706.0,1475.0,1021.7000000000002,135.0,293.35,1637159624.8340452,1637159625.986511,7dc5abf7-9476-4c78-b2e5-e24532a20e37
-0.1594377496254388,0.0505989845265521,-0.3744189612701687,0.1629518529088822,-0.4720343551514847,-0.0590419690816879,-0.7306391618931979,-0.752937169835232,-16.94205899662116,23.370909844688608,15.531048380093546,-0.3700220862640407,0.1286347234767382,2.201593191905126,4995.007161458333,12.031,0.2766666666666666,179.28803064333363,1.0704608284878177,81.51068525298845,1525.0,1435.0,1200.0,1706.0,1475.0,1021.7000000000002,135.0,293.35,1637159626.1032946,1637159627.2008374,7dc5abf7-9476-4c78-b2e5-e24532a20e37
-0.158273542056079,0.0449012161654163,-0.3787607711236072,0.1675538964373888,-0.4758830890392127,-0.0576175269452016,-0.7339811236160863,-0.7627986975946719,-16.80804732415495,23.433358800197063,15.511292976593646,-0.3769401598174105,0.1056504193178746,2.216903057477741,4990.481174045139,12.031666666666666,0.28,179.28146455481158,1.0659670383326414,81.4887512388338,1525.0,1435.0,1200.0,1706.0,1475.0,1021.7000000000002,135.0,293.35,1637159627.3094046,1637159628.4304564,7dc5abf7-9476-4c78-b2e5-e24532a20e37
-0.2158538796915554,0.0174670091164896,-0.5501732427562178,0.2378857218507039,-0.6299420252062613,-0.0888182888127062,-0.930348780935758,-0.949756817921867,-17.973411634503325,24.22495974402931,15.042303142923318,-0.6096527572651215,-0.0043522945268776,2.9354724790046105,4991.126139322917,12.030666666666669,0.29,179.32209507345422,1.049511322069017,81.48845071051034,1525.0,1435.0,1200.0,1795.0,1475.0,1021.7000000000002,135.0,293.35,1637159630.3658228,1637159631.504278,762078f2-bfff-4805-bd19-7032afbfc380
-0.2117421723246364,0.0282741417889707,-0.5461530276943329,0.236680972630205,-0.626846601912669,-0.0975062904083607,-0.9301608639462284,-0.9568921797623876,-18.142772285163023,24.17178849161941,15.172520141851324,-0.6266750310968494,0.036627895615485,2.926892996065664,4988.1005859375,12.030125,0.28625,179.32838738522713,1.040443156495079,81.4608573154459,1525.0,1435.0,1200.0,1795.0,1475.0,1021.7000000000002,135.0,293.35,1637159631.6120691,1637159632.736787,762078f2-bfff-4805-bd19-7032afbfc380
-0.2278520663371515,0.0155357943091347,-0.554254818359706,0.2371050180689782,-0.6323526203049775,-0.0858735285692603,-0.9348275581268852,-0.948085836670706,-18.210378276905363,24.220184608181345,15.058082419831662,-0.601626069181482,-0.010220893681221,2.950314234060995,4986.28662109375,12.030888888888889,0.28,179.33575393397444,1.0418610003060087,81.40340878406442,1525.0,1435.0,1200.0,1795.0,1475.0,1021.7000000000002,135.0,293.35,1637159632.8529365,1637159633.8705685,762078f2-bfff-4805-bd19-7032afbfc380
-0.2563272151130296,0.0052085890016655,-0.6778389081715327,0.3028074058522145,-0.7459930110119682,-0.1297846979989174,-1.0848460608385218,-1.1051306813667676,-18.9446597953151,25.02232022377312,14.918992242975756,-0.8497368187448018,-0.0584347144976662,3.4854372608217368,4985.320149739583,12.016333333333332,0.3466666666666666,179.33247240753315,1.0151850324563545,81.39208584824036,1525.0,1435.0,1200.0,1883.0,1475.0,1021.7000000000002,135.0,293.35,1637159634.8663015,1637159636.015136,292c11bf-0544-4939-a789-c46192662944
-0.2598335344379093,0.0002778278097451,-0.6845091348588519,0.30609457968871,-0.7495267246533883,-0.1279219659635088,-1.0904068678803032,-1.1138006084787409,-19.07608019056352,24.917582444007028,14.882189207891662,-0.8540645424079388,-0.0765010757690413,3.506591337215038,4985.320149739583,12.017,0.3366666666666666,179.32748181597964,1.0194411652307227,81.26993474512383,1525.0,1435.0,1200.0,1883.0,1475.0,1021.7000000000002,135.0,293.35,1637159636.124006,1637159637.1510274,292c11bf-0544-4939-a789-c46192662944
-0.259616580967868,0.0021871280840296,-0.6791258373288904,0.3035026431229028,-0.7456188208006579,-0.1291289067115357,-1.0844872108685275,-1.1088386167881392,-18.94336552662387,24.910116278753424,14.68028317046341,-0.8506767472007752,-0.067829603940682,3.485521676850004,4988.866482204861,12.018777777777778,0.3377777777777778,179.32679727924284,1.0140661028031053,81.18903419004467,1525.0,1435.0,1200.0,1883.0,1475.0,1021.7000000000002,135.0,293.35,1637159637.2595394,1637159638.4726412,292c11bf-0544-4939-a789-c46192662944
-0.0327719688597133,0.0910586184919507,-0.0516732202156447,0.1041525282805067,-0.1530003664085715,-0.0643151443222505,-0.3495186132787796,-0.3851433694093893,-14.072690520169155,19.470200421233784,15.4615648703761,-0.2575891446138534,0.2883237569030605,0.7923745426584053,7512.20556640625,11.817,7.792222222222222,179.22601100785013,0.7889271128644706,66.30556856297564,1525.0,1435.0,1350.0,1528.0,1475.0,1021.7000000000002,135.0,293.35,1637159643.7382584,1637159644.6903126,506df223-c4a1-4efe-af4e-53003ebe92a8
-0.0506706322109248,0.0921636568275625,-0.0484616510520747,0.0971733099686611,-0.1501405247624169,-0.0574422109670703,-0.3443336431543294,-0.3644248547130831,-14.122233557494097,19.41355127358836,15.712037317367578,-0.2266019703700529,0.2916609717643945,0.7771337078219969,7518.794921875,11.817,7.819999999999999,179.2068014802644,0.7443019889164213,61.41205448809304,1525.0,1435.0,1350.0,1528.0,1475.0,1021.7000000000002,135.0,293.35,1637159644.7982376,1637159645.7553215,506df223-c4a1-4efe-af4e-53003ebe92a8
-0.0402568644370958,0.0988826405164305,-0.0394942399149683,0.0969497821522296,-0.1416464663541935,-0.0632539349294465,-0.3358264352746302,-0.3615189927899556,-14.08145014451371,19.271781024797,15.86115865275871,-0.23960646088577,0.3158445348776671,0.7423365396171931,7518.794921875,11.815555555555555,7.817777777777778,179.22361133472174,0.7407900503124016,57.0397513898642,1525.0,1435.0,1350.0,1528.0,1475.0,1021.7000000000002,135.0,293.35,1637159645.8638656,1637159646.8644383,506df223-c4a1-4efe-af4e-53003ebe92a8
0.1510769369027206,0.4361844834639605,-0.0279370834299437,-0.0711497273515642,-0.2101972002349588,-0.2399598253593016,-0.4005383034994716,-0.4327937064498035,-13.846475232960335,18.602749695569656,15.521099561374324,-0.2612924292865837,1.6037003275975206,0.9513862815926388,7525.396484375,11.807,7.85,179.17565581764916,0.802945352799916,48.54330531815577,1610.0,1435.0,1350.0,1528.0,1542.0,1021.7000000000002,135.0,293.35,1637159648.7986002,1637159649.8421755,741891c2-d9c3-4df0-94ad-b8729abdcccd
0.1452695962010422,0.4288705217911175,-0.0442359886582114,-0.0673694770203701,-0.223154146052926,-0.2327143449968202,-0.4154401623157914,-0.4476818691498691,-13.998485484091097,18.57847734923073,15.90793724702795,-0.2545255209663006,1.572416777962517,1.012065797249403,7532.00927734375,11.808333333333334,7.859999999999999,179.17129360349924,0.8504561486665246,46.0579281144175,1610.0,1435.0,1350.0,1528.0,1542.0,1021.7000000000002,135.0,293.35,1637159649.9510405,1637159650.972269,741891c2-d9c3-4df0-94ad-b8729abdcccd
0.1528437929234862,0.4411837269250201,-0.0311694713630142,-0.0749573708534388,-0.2138267886663807,-0.2359330366957643,-0.4040583198270955,-0.4319034306247289,-13.961006634115703,18.57534106763531,16.2659396561085,-0.2439361534486203,1.6169230776483945,0.967300974972729,7534.953287760417,11.808,7.854444444444444,179.17754550331952,0.8938404015545021,44.07019773469644,1610.0,1435.0,1350.0,1528.0,1542.0,1021.7000000000002,135.0,293.35,1637159651.0817864,1637159652.1993878,741891c2-d9c3-4df0-94ad-b8729abdcccd
0.3708929938055763,0.8633801059292608,-0.0200478654584762,-0.2854597988825282,-0.3055663496612457,-0.4489145588930448,-0.4879908498095424,-0.5017421989910402,-13.501546553184523,17.953310362357136,16.96515415974306,-0.2509191629712173,3.2175789819072302,1.247398524695783,7518.794921875,11.79811111111111,7.90888888888889,179.08926910284666,1.0311945689840414,40.37608271245093,1695.0,1435.0,1350.0,1528.0,1609.0,1021.7000000000002,135.0,293.35,1637159653.806528,1637159654.8599312,a8894496-40b0-4462-a2ec-59d2d491b18c
0.3808093015048059,0.8647634582270364,-0.0170894087488893,-0.2877608211379137,-0.3028544306778957,-0.4508457742034828,-0.4853063237053867,-0.5089328941785113,-13.529722642729224,17.923424123375067,16.604542750788635,-0.2501907939453973,3.226633255969165,1.2354810589223797,7525.396484375,11.797111111111112,7.938888888888889,179.0957122479637,1.0816904302511938,39.216800396448974,1695.0,1435.0,1350.0,1528.0,1609.0,1021.7000000000002,135.0,293.35,1637159654.9671967,1637159656.0849202,a8894496-40b0-4462-a2ec-59d2d491b18c
0.3873973456537705,0.8643936511869831,-0.0173770364786596,-0.2848160604672398,-0.3019641542409526,-0.451284064070489,-0.4852378408864617,-0.5094670603028756,-13.548081801118569,17.854596743031273,16.876128008924198,-0.2582548846333692,3.22258717864749,1.2349425628862392,7523.929470486111,11.799,7.954444444444444,179.10207343081072,1.1057591986865742,38.296450999082495,1695.0,1435.0,1350.0,1528.0,1609.0,1021.7000000000002,135.0,293.35,1637159656.1930134,1637159657.3147955,a8894496-40b0-4462-a2ec-59d2d491b18c
0.5874218696002592,1.2389671152369226,0.0027158153749261,-0.477649945582721,-0.3784046605301823,-0.6394200469646932,-0.5556792608125111,-0.5803330755844825,-13.37317647509054,17.90934719337915,16.867119622857356,-0.2445855141442502,4.651323998655178,1.4556818814823849,7518.794921875,11.783111111111111,8.011111111111113,178.984252667628,1.2035057394494442,36.80329917062151,1779.0,1435.0,1350.0,1528.0,1677.0,1021.7000000000002,135.0,293.35,1637159658.4206011,1637159659.562175,08a86cca-ab5a-452b-bcde-94c0ecf4cdd6
0.5831211506183981,1.2319407807656642,-0.0048720782340044,-0.4723904658442185,-0.3836778365858597,-0.6368861827800955,-0.5617742312338442,-0.5933037199466455,-13.357971448383395,17.88513221144294,16.884640713572583,-0.251283584402215,4.62357906879302,1.4811264232333354,7518.794921875,11.784222222222224,7.982222222222223,178.98432855861878,1.2526928842965657,36.21720101739767,1779.0,1435.0,1350.0,1528.0,1677.0,1021.7000000000002,135.0,293.35,1637159659.670188,1637159660.726307,08a86cca-ab5a-452b-bcde-94c0ecf4cdd6
0.5937907687308462,1.2417612131657507,-0.0045296642528949,-0.483292929227106,-0.3886222952097704,-0.6381051770468237,-0.5635958740384571,-0.5832641395799457,-13.236513540967104,18.04413405261511,16.643941935416603,-0.2283356786231577,4.663052049439444,1.4907607141300268,7525.396484375,11.783,8.017777777777777,178.965366435663,1.2974278485957988,35.7551182294788,1779.0,1435.0,1350.0,1528.0,1677.0,1021.7000000000002,135.0,293.35,1637159660.8342907,1637159661.9293633,08a86cca-ab5a-452b-bcde-94c0ecf4cdd6
0.7645090414016599,1.5528391105784778,0.0223177824392761,-0.6398112211570501,-0.449352300900284,-0.8018558194820679,-0.6228888428909919,-0.6452284861564509,-13.230329163878755,19.01336028918024,16.070257004371523,-0.2355647113290495,5.855813256334461,1.6563672012465838,7532.745279947917,11.763888888888888,8.146666666666667,178.86453159403618,1.3631909732109937,34.8504293175143,1864.0,1435.0,1350.0,1528.0,1744.0,1021.7000000000002,135.0,293.35,1637159663.859132,1637159664.8891256,fbe44502-b3eb-41df-a459-5491c415ddf3
0.7800245015192295,1.5624508084762805,0.0217392397813532,-0.6434402624758924,-0.4528498549374797,-0.8047090878856673,-0.6261102745749654,-0.6430589513619803,-13.215545767043942,19.084938370290388,16.512558886411096,-0.2332665190623546,5.888249573704749,1.6682422318135866,7538.63330078125,11.763666666666666,8.100000000000001,178.87684870183944,1.40686692616579,34.60060224715265,1864.0,1435.0,1350.0,1528.0,1744.0,1021.7000000000002,135.0,293.35,1637159664.9974394,1637159666.1181424,fbe44502-b3eb-41df-a459-5491c415ddf3
0.7569879878685757,1.543805955299821,0.0241191537829845,-0.6272542119046186,-0.4433696428572261,-0.7993049712657739,-0.6192072069013413,-0.6473717249326021,-13.275655504556305,18.93933130081373,16.840203609265426,-0.2584592842069783,5.8139971285360765,1.640622987270214,7538.63330078125,11.767555555555557,8.096666666666668,178.864278118127,1.4131791237498414,34.34832427724383,1864.0,1435.0,1350.0,1528.0,1744.0,1021.7000000000002,135.0,293.35,1637159666.226517,1637159667.244733,fbe44502-b3eb-41df-a459-5491c415ddf3
-0.2905823126027222,-0.377377418417849,-0.0522210825841377,0.3135044174145628,-0.0473588041045305,0.1926596874023868,-0.2388230108136503,-0.2772281668771305,-14.146337160443688,20.425255705531143,14.56281952750829,-0.1462553963420615,-1.4859036110728114,0.4350704925706348,7538.63330078125,11.810444444444446,7.945555555555554,179.41599499634376,1.4430929688630685,33.96148285322182,1440.0,1435.0,1350.0,1528.0,1408.0,1021.7000000000002,135.0,293.35,1637159668.4575255,1637159669.594537,4df152e1-9e95-486d-b0dd-aab07a6672fa
-0.2913904096529877,-0.3771171837394007,-0.0520704204595048,0.320229427243815,-0.0477833974720763,0.1844417525874302,-0.2406720464852009,-0.2689417477563599,-14.011466252565391,20.492823037976123,14.303243352412023,-0.1794102410711247,-1.4843988344259191,0.4378670000536561,7545.26953125,11.81,7.930000000000001,179.40075608539553,1.4430014134974751,33.81496808588092,1440.0,1435.0,1350.0,1528.0,1408.0,1021.7000000000002,135.0,293.35,1637159669.702402,1637159670.8230317,4df152e1-9e95-486d-b0dd-aab07a6672fa
-0.2901988088792733,-0.3722412080005502,-0.0516595236639655,0.3175585985100645,-0.0482764735754127,0.1821544274048214,-0.2407816189468138,-0.2658189320233129,-13.990069242612606,20.440217005570947,14.309307535896709,-0.1788419653502117,-1.465962157633089,0.438746180230705,7551.91748046875,11.810666666666668,7.940000000000001,179.39904853810302,1.4456454319002434,33.68609228207158,1440.0,1435.0,1350.0,1528.0,1408.0,1021.7000000000002,135.0,293.35,1637159670.9303858,1637159671.964145,4df152e1-9e95-486d-b0dd-aab07a6672fa
-0.4710345064977577,-0.7210789600700506,-0.0505911920997294,0.4677002620484436,0.027575069506054,0.3815900053073394,-0.1610402469683432,-0.1897482371700655,-14.257512711083576,21.6793607910103,14.02313212165649,-0.0612790133591943,-2.78828346568672,0.1784504896496723,7551.91748046875,11.793,7.992222222222223,179.4899279995596,1.4549627704234926,33.55659341322796,1355.0,1435.0,1350.0,1528.0,1341.0,1021.7000000000002,135.0,293.35,1637159673.990975,1637159674.942376,e3b69754-242d-40c3-b4d0-12346c630f59
-0.4801701130984047,-0.736583470756607,-0.0577270993616696,0.4825884199067336,0.0251644751883394,0.3843430133626785,-0.1668749813809149,-0.1793525487962314,-14.311815674077849,21.73779213050143,14.153372038942834,-0.0886512190442005,-2.8494892159129024,0.1981444805433869,7551.91748046875,11.79,8.030000000000001,179.5154486219384,1.4545018038023203,33.49697800433226,1355.0,1435.0,1350.0,1528.0,1341.0,1021.7000000000002,135.0,293.35,1637159675.0511062,1637159676.1552343,e3b69754-242d-40c3-b4d0-12346c630f59
-0.4806494927286254,-0.7306117687344562,-0.0557821879521623,0.4763838794251847,0.0256575513142292,0.3827816058169013,-0.1640124003998015,-0.1873924288435653,-14.193557012037076,21.61104401468076,13.970513403729248,-0.0788769923720885,-2.8254229776510607,0.1912910488077273,7557.837185329861,11.792777777777776,7.962222222222222,179.53941347900624,1.4389330042035766,33.387288581356444,1355.0,1435.0,1350.0,1528.0,1341.0,1021.7000000000002,135.0,293.35,1637159676.2633922,1637159677.2916286,e3b69754-242d-40c3-b4d0-12346c630f59
-0.7074919687348974,-1.1493979886163503,-0.061658011836009,0.6900364766003309,0.1091928617924058,0.5964068111842917,-0.0854626317256092,-0.1188548450703371,-14.303216724475666,23.500060200300524,14.231953369151336,-0.0685641313955131,-4.424312580576978,-0.0755988898034949,7558.5771484375,11.776888888888887,8.094444444444443,179.70248045089073,1.4321280606459648,33.41140256422117,1271.0,1435.0,1350.0,1528.0,1273.0,1021.7000000000002,135.0,293.35,1637159678.399061,1637159679.4333627,d1a80414-2731-4a52-977a-1191e7723727
-0.701944860374366,-1.1400432319372011,-0.0533852901376274,0.683051232402817,0.1162191961905802,0.5957630729848229,-0.0775323239470734,-0.1034325186216628,-14.387646013057,23.3750138429962,14.593184118148956,-0.0546556359520445,-4.390448205840086,-0.1061642688291718,7558.5771484375,11.781777777777778,8.04888888888889,179.7084545896848,1.426287027534971,33.39735438291828,1271.0,1435.0,1350.0,1528.0,1273.0,1021.7000000000002,135.0,293.35,1637159679.5417182,1637159680.6658962,d1a80414-2731-4a52-977a-1191e7723727
-0.7145046094313746,-1.1493158091786884,-0.0622880535446723,0.6884202828438575,0.11060360729492,0.601255392458051,-0.0845723553636863,-0.103158587081862,-14.470850038175408,23.35443270690887,14.724449447803613,-0.0550256144722143,-4.427026293642726,-0.0772961905240315,7558.5771484375,11.781222222222222,8.086666666666666,179.68584818135187,1.4139109382023196,33.40304089485726,1271.0,1435.0,1350.0,1528.0,1273.0,1021.7000000000002,135.0,293.35,1637159680.7789123,1637159681.8822515,d1a80414-2731-4a52-977a-1191e7723727
-0.7506361464116843,-1.230372108577592,-0.0390039031333582,0.7192238401322393,0.1468173073680825,0.6398385942573747,-0.0487421566126466,-0.0637809790298863,-14.691062398104531,24.090698718858807,13.172209512439268,-0.0321273803715227,-4.718024625526904,-0.2215571945394698,7560.0595703125,11.728666666666664,8.262222222222222,179.72197229296216,1.4188463546339865,33.46454750724313,1186.0,1435.0,1350.0,1528.0,1206.0,1021.7000000000002,135.0,293.35,1637159682.7942865,1637159683.890333,1af4d6a7-29c4-4905-8df5-02387ce2d347
-0.7389524288013611,-1.210254586463854,-0.0366015266554403,0.708574492926197,0.1440878572528372,0.632719671658116,-0.0499737511921854,-0.0699071760075904,-14.63837782440867,24.05924673851208,13.572679957237902,-0.0241007510847848,-4.645031007126356,-0.2164053320345675,7558.5771484375,11.730222222222222,8.309999999999999,179.72488347136837,1.4024853360972922,33.51343534513741,1186.0,1435.0,1350.0,1528.0,1206.0,1021.7000000000002,135.0,293.35,1637159683.9990203,1637159685.1542494,1af4d6a7-29c4-4905-8df5-02387ce2d347
-0.7305843759813461,-1.1806124702410032,-0.0416884286769334,0.6849824469741116,0.1330111766763747,0.6235807807938943,-0.0586310722525703,-0.087530812725168,-14.671226150782944,23.808742696950656,13.264511276973002,0.0066012422857138,-4.528313310445386,-0.1790332677126529,7557.837185329861,11.731444444444444,8.302222222222222,179.72096901406405,1.3918881315884752,33.50351563373283,1186.0,1435.0,1350.0,1528.0,1206.0,1021.7000000000002,135.0,293.35,1637159685.2626257,1637159686.3864782,1af4d6a7-29c4-4905-8df5-02387ce2d347
-0.0374287989384529,0.0942499166093627,-0.0474820731494138,0.0867305059568178,-0.1465081971609761,-0.0521115101335352,-0.3373423706301263,-0.3516963672862294,-14.122279537760358,18.923202431590568,15.430181151235606,-0.194313524406936,0.303323640619287,0.7608615483884739,7519.528428819444,11.807111111111112,8.002222222222223,179.38767399640523,1.3711672467793932,33.591226646324415,1525.0,1435.0,1350.0,1528.0,1475.0,1021.7000000000002,135.0,293.35,1637159688.324777,1637159689.3694468,0a5ea34a-d6ba-4169-8a20-5d3e9efc287e
-0.0393874068800044,0.0938801095274987,-0.045044085638645,0.0889493484587248,-0.1419061531222632,-0.0535770419716075,-0.3342469478824703,-0.3608319743784622,-14.219242276560571,18.7695134697376,15.48442986549413,-0.2035495234026807,0.3020208746044397,0.7469094200333748,7532.00927734375,11.81,7.963333333333334,179.38837522916003,1.3603620179500733,33.6276486300735,1525.0,1435.0,1350.0,1528.0,1475.0,1021.7000000000002,135.0,293.35,1637159689.47672,1637159690.4930005,0a5ea34a-d6ba-4169-8a20-5d3e9efc287e
-0.0296354568734972,0.1001257401664216,-0.038962813399992,0.0826489315267022,-0.1407693386668041,-0.053755097250611,-0.3290285581662273,-0.3612428702082219,-13.972767647173994,18.94191416619817,15.544394641426251,-0.1881581408146226,0.3243339938933511,0.7305283826478203,7532.00927734375,11.809,7.973333333333334,179.36421001987654,1.343224824305198,33.68063723765446,1525.0,1435.0,1350.0,1528.0,1475.0,1021.7000000000002,135.0,293.35,1637159690.6054146,1637159691.6203773,0a5ea34a-d6ba-4169-8a20-5d3e9efc287e
-0.0290738979563656,0.0818819243289606,-0.0744505980963188,-0.3223857262973173,-0.2133063193489182,0.3573060087227631,-0.2483832098494406,-0.2670653190083102,-13.989675698641443,18.10405151787344,18.600023488782284,1.6423672304282786,0.2765507918105292,0.7617611968234964,7532.837280273437,11.80875,7.93375,179.35726200994333,1.4302844342851149,33.80645842908499,1525.0,1535.0,1350.0,1528.0,1475.0,1021.7000000000002,135.0,293.35,1637159692.8276908,1637159693.9747326,cb98ac3a-3cdb-4c00-acce-6635a5586696
-0.0217873285622888,0.0877303547979822,-0.0691637262287318,-0.3240430101633169,-0.2103204692666759,0.3528135378604355,-0.2454247528407087,-0.2765707321767445,-13.969076816027671,18.186794466471028,18.58971033891377,1.6368309638238874,0.2989721831125742,0.7469345900735306,7532.00927734375,11.81022222222222,7.950000000000001,179.36747333248,1.4419773238667637,33.83998858663048,1525.0,1535.0,1350.0,1528.0,1475.0,1021.7000000000002,135.0,293.35,1637159694.0833445,1637159695.195804,cb98ac3a-3cdb-4c00-acce-6635a5586696
-0.0174181262454612,0.0881686446652257,-0.0713277825843536,-0.3182630614959033,-0.2115942493388362,0.3465679075951698,-0.250821197564105,-0.2767487871401151,-14.126015331335742,18.25435082259085,18.49049290311381,1.6100033195931076,0.3017584911376086,0.7591290565996456,7538.63330078125,11.812777777777775,7.915555555555557,179.37749701454192,1.4518023019705135,33.901351385588846,1525.0,1535.0,1350.0,1528.0,1475.0,1021.7000000000002,135.0,293.35,1637159695.3298178,1637159696.429844,cb98ac3a-3cdb-4c00-acce-6635a5586696
0.0039074158942483,0.0804711788126653,-0.1009123506089371,-0.7699893917459556,-0.288377166165676,0.7940755257054875,-0.1554246574656481,-0.1791060098156114,-13.874259343243075,17.523374371240546,22.16054958382215,3.628989527771274,0.2923081066547754,0.7689730250717316,7558.5771484375,11.802666666666669,7.979999999999999,179.3713331482709,1.5500689094636235,34.029987753322274,1525.0,1636.0,1350.0,1528.0,1475.0,1021.7000000000002,135.0,293.35,1637159698.483514,1637159699.698526,adb3f63c-ceb8-492b-bc76-ee17fea871cc
0.0038937193509872,0.0846760222631216,-0.103665359045027,-0.7715508000251813,-0.2928011552080126,0.7909527106360773,-0.1604923845504519,-0.1821329495202834,-13.8890553733695,17.61559825153751,22.066828269309497,3.6259461940164393,0.309033479208553,0.7862813878485655,7551.91748046875,11.801777777777778,7.992222222222223,179.38296268369777,1.5625416530878111,34.081381891186986,1525.0,1636.0,1350.0,1528.0,1475.0,1021.7000000000002,135.0,293.35,1637159699.805992,1637159700.8352902,adb3f63c-ceb8-492b-bc76-ee17fea871cc
