raw_voltage_G-,raw_voltage_G0,raw_voltage_G1,raw_voltage_G2,raw_voltage_G3,raw_voltage_G4,raw_voltage_G5,raw_voltage_G6,load_x,load_y,load_z,load_l,load_m,load_n,rpm,voltage,current,roll,pitch,yaw,aileron1_pwm,elevator_pwm,throttle_pwm,rudder_pwm,aileron2_pwm,pbaro,pdiff,Tt,sample_start_time,sample_end_time,uid
0.0067015139569689,0.153199903528616,0.07259565768488,-0.087243184404335,-0.1457959760229982,0.057775981350756,-0.2896646428214969,-0.3140445210522737,-14.913301363184802,28.791212184429288,17.019091478304116,0.5163107625193584,0.5451376465707439,0.5315747469465627,-1.0,11.991666666666667,0.0,179.25449441450888,1.1641416398574007,95.5213635049764,1553.0,1435.0,1000.0,1528.0,1471.0,1011.0,94.0,292.63,1649150492.9814427,1649150494.1203043,983aa07d-c437-4143-ad4b-c42793eb0a44
0.0040032918522753,0.1528574895795318,0.0731709131445505,-0.088010191719477,-0.1447961271660192,0.0572966017995459,-0.2903494708495744,-0.317824771793135,-15.07716893319134,28.83261709171626,16.802929416239426,0.5171498910155768,0.5470606447013676,0.5299192046193277,-1.0,11.991666666666667,0.0,179.26666125815038,1.159641576837518,95.57077537016198,1553.0,1435.0,1000.0,1528.0,1471.0,1011.0,94.0,292.63,1649150494.2289264,1649150495.3444211,983aa07d-c437-4143-ad4b-c42793eb0a44
0.005030533767355,0.1502277504088883,0.069308483650531,-0.0853256661073264,-0.1476587081200604,0.0595565339633876,-0.2933079279204213,-0.3232212166548278,-15.056673232924622,28.816087175284377,17.08297695386987,0.5159256844652774,0.5339947458219451,0.5434167115707146,-1.0,11.993333333333332,0.0,179.2422501620568,1.1619838336882056,95.62571285838612,1553.0,1435.0,1000.0,1528.0,1471.0,1011.0,94.0,292.63,1649150495.4532034,1649150496.577803,983aa07d-c437-4143-ad4b-c42793eb0a44
0.202586404812718,0.5108970125333485,0.0940570690655978,-0.2593141606509806,-0.2085470386622184,-0.1316403077684401,-0.3477391560369474,-0.3688691149780284,-14.516117393492618,27.97623337352672,17.257348943902073,0.4747209882935183,1.9043287806664813,0.7131963659517453,-1.0,11.967444444444444,0.0,179.10318143927603,1.1525627142350672,95.70271944672848,1663.0,1435.0,1000.0,1528.0,1555.0,1011.0,94.0,292.63,1649150498.512411,1649150499.8544817,b24f6697-ecfb-47dc-bf48-4b834d2b8cda
0.2013843948697482,0.5130769565990407,0.0981671323192023,-0.2597239617431311,-0.205060990207426,-0.1325650994847404,-0.3450809274849242,-0.3610648145026163,-14.604457653772258,28.03576288743392,17.401608834443437,0.4741450783627996,1.9121635961444576,0.6994384578872476,-1.0,11.965888888888887,0.0,179.0996145627095,1.150223113569057,95.72573946096117,1663.0,1435.0,1000.0,1528.0,1555.0,1011.0,94.0,292.63,1649150499.9629118,1649150501.082322,b24f6697-ecfb-47dc-bf48-4b834d2b8cda
0.2112459166477726,0.5073244025187459,0.0908394735661115,-0.2581762504241997,-0.2111285662855553,-0.128483524737391,-0.3499842963020145,-0.3742272096043965,-14.499871770696156,27.99746160442289,17.33601794959267,0.4792490822429756,1.8897733775607672,0.7239863334205507,-1.0,11.964666666666668,0.0,179.08786967297672,1.1410251373447404,95.7287872431508,1663.0,1435.0,1000.0,1528.0,1555.0,1011.0,94.0,292.63,1649150501.2005663,1649150502.3121312,b24f6697-ecfb-47dc-bf48-4b834d2b8cda
0.4153657161097722,0.9024015980510344,0.1209719019730484,-0.4443125140353527,-0.2765981241261102,-0.3422594359410548,-0.4137143955249434,-0.4382723305410354,-14.242494329508313,27.5269677594661,17.485083977394254,0.417278625464432,3.393229857149596,0.9095781587294032,-1.0,11.944333333333333,0.0,178.9046885528964,1.142706680114935,95.75800603351018,1779.0,1435.0,1000.0,1528.0,1638.0,1011.0,94.0,292.63,1649150503.4310243,1649150504.5669854,014af8e9-cb42-47e4-b297-7acbde59b085
0.4170810729672549,0.899730221482414,0.1237862707688766,-0.4428962895508651,-0.2736067953373415,-0.3396790038653159,-0.4116549805580219,-0.4333108883017215,-14.357548866888148,27.645094485037266,17.683045336289847,0.4207793991975406,3.3822764238158065,0.898574844193195,-1.0,11.940111111111111,0.0,178.88987007803712,1.143182445479309,95.78540344009092,1779.0,1435.0,1000.0,1528.0,1638.0,1011.0,94.0,292.63,1649150504.6755164,1649150505.7953615,014af8e9-cb42-47e4-b297-7acbde59b085
0.4163244751343247,0.9005525627944545,0.1201501084738127,-0.4431209131590652,-0.2772966487082498,-0.3392461925474217,-0.4146457617037278,-0.4292052068438856,-14.286677708197663,27.6011571977876,17.804275178353638,0.4218413571278381,3.3835810355708857,0.9131513948879476,-1.0,11.943,0.0,178.89123308023147,1.1423168020077807,95.8126574126991,1779.0,1435.0,1000.0,1528.0,1638.0,1011.0,94.0,292.63,1649150505.9036777,1649150507.023873,014af8e9-cb42-47e4-b297-7acbde59b085
0.4889518404606323,1.00537998793493,0.1634295888929876,-0.5297040039402561,-0.2737514310055327,-0.3891312593854381,-0.3983353485531751,-0.4133906094292878,-14.002053408009983,28.29995413776062,14.20165721069887,0.5114096240161504,3.820078796826417,0.832861462331504,-1.0,11.88811111111111,0.0,178.69430203044203,1.149932071619424,95.80944342923966,1904.0,1435.0,1000.0,1528.0,1723.0,1011.0,94.0,292.63,1649150508.957571,1649150510.097871,da0a99a7-9809-4f5a-aceb-d0c7274d8c72
0.4916736203314495,1.008772351351641,0.1622725036517872,-0.528993974196343,-0.274934813853526,-0.3931810586453907,-0.4005706273756986,-0.4242119882261429,-14.014090581775593,28.25075260252376,14.1790237380818,0.500314086042302,3.832926410913319,0.8396296226198221,-1.0,11.888444444444444,0.0,178.63829447924795,1.1590005351247907,95.75492561819452,1904.0,1435.0,1000.0,1528.0,1723.0,1011.0,94.0,292.63,1649150510.206589,1649150511.3319385,da0a99a7-9809-4f5a-aceb-d0c7274d8c72
0.4912397134106485,1.0087855000435688,0.1641396184451797,-0.5278237398287581,-0.2731860370289042,-0.3941014675628086,-0.3994266905922663,-0.4205040551315258,-14.041429836993595,28.29067471884482,14.21443812834254,0.4959555440433155,3.8328303114590745,0.8331002169540979,-1.0,11.879111111111111,0.0,178.63615738894762,1.1525027366364182,95.74238539087838,1904.0,1435.0,1000.0,1528.0,1723.0,1011.0,94.0,292.63,1649150511.4459736,1649150512.556878,da0a99a7-9809-4f5a-aceb-d0c7274d8c72
0.5586530728188651,1.1375243782834952,0.2017843343671482,-0.5667175949172996,-0.2737119849797971,-0.4735853541024898,-0.4024903375017534,-0.4166777843517954,-13.784472142728871,29.05535200510266,15.877378953096713,0.4124176681473078,4.306310200199531,0.8043123488389032,-1.0,11.78977777777778,0.0,178.5778260556159,1.1511597388328971,95.64438735448684,2045.0,1435.0,1000.0,1528.0,1813.0,1011.0,94.0,292.63,1649150514.4936168,1649150515.624573,c2ffd440-c99f-4192-b5e8-3661a0a75e66
0.5544679527877604,1.1306410360558057,0.2011104637277047,-0.5613770310129268,-0.2724069767129829,-0.4720069621332052,-0.4023462496654533,-0.425918032639037,-13.817967163295124,29.074205422498324,15.840019509555637,0.4039861334011589,4.280361729346246,0.8023783774601959,-1.0,11.799444444444443,0.0,178.551475185798,1.1338606246444165,95.47701812233512,2045.0,1435.0,1000.0,1528.0,1813.0,1011.0,94.0,292.63,1649150515.7332103,1649150516.8602211,c2ffd440-c99f-4192-b5e8-3661a0a75e66
0.5613162314248799,1.1389548468031565,0.2024390298716055,-0.5661297381728341,-0.2732698599622807,-0.4764172549378518,-0.4032913123585551,-0.4246990380765432,-13.8427546511036,29.08759131669009,15.75044161323862,0.4049246933394622,4.313182551786928,0.8039033713968063,-1.0,11.799111111111111,0.0,178.55474001622125,1.1274233255052546,95.37543727226898,2045.0,1435.0,1000.0,1528.0,1813.0,1011.0,94.0,292.63,1649150516.972596,1649150518.0777063,c2ffd440-c99f-4192-b5e8-3661a0a75e66
-0.2392339076742007,-0.3025531063023414,0.0524069303883258,0.1412565047742489,-0.0626852537343162,0.2878096751643037,-0.2144705269317495,-0.232714345291951,-15.251497049123556,30.278943815581027,16.34616819736313,0.5263674530087471,-1.185243297056354,0.2838951424763118,-1.0,11.972888888888887,0.0,179.34758837507636,1.103118476798718,95.10541560926134,1444.0,1435.0,1000.0,1528.0,1381.0,1011.0,94.0,292.63,1649150519.9882386,1649150520.9373455,d102e802-6c3a-4bba-b62e-76d1568cc733
-0.2354624228664168,-0.2994834331502721,0.0552815641024663,0.1427729877012327,-0.0614131173210458,0.2831221652348637,-0.212833514075354,-0.2445218762623792,-15.121500908239522,30.32841069765461,16.32198651206728,0.5129458199188414,-1.1744395515842443,0.2763344756026996,-1.0,11.976,0.0,179.359943428375,1.13293575062618,95.12713181627242,1444.0,1435.0,1000.0,1528.0,1381.0,1011.0,94.0,292.63,1649150521.0463195,1649150522.3916376,d102e802-6c3a-4bba-b62e-76d1568cc733
-0.2409870673977241,-0.3032105412260557,0.0510372745225214,0.1474336525272159,-0.0636029232028046,0.2826186797730757,-0.2177303082264068,-0.2409733709785525,-15.257757757586347,30.33389867181901,16.30684309862333,0.5010551438650684,-1.1881626646077976,0.2915454819454775,-1.0,11.976111111111113,0.0,179.3823737696093,1.131418369555412,95.15112551191676,1444.0,1435.0,1000.0,1528.0,1381.0,1011.0,94.0,292.63,1649150522.5237665,1649150523.611866,d102e802-6c3a-4bba-b62e-76d1568cc733
-0.4671857722923445,-0.7127103593436447,0.0320264511306762,0.3598124788115444,0.0079752939836833,0.4895325745155376,-0.1541508774006022,-0.1749970419701696,-15.498782701123504,31.993648827023623,16.636187958816297,0.4969309398357005,-2.752574432059121,0.0813710472338329,-1.0,11.939666666666668,0.0,179.50488914948153,1.133010289808685,95.1758568679915,1331.0,1435.0,1000.0,1528.0,1283.0,1011.0,94.0,292.63,1649150525.549761,1649150526.6862764,892712d6-a772-4d4f-ae33-04350c56132c
-0.4740340532654206,-0.7098751705999105,0.0323962582167002,0.3567170567986163,0.007263072929536,0.4901078299241193,-0.1537536771739614,-0.1837354467244247,-15.46372214669487,31.991479280493994,16.71042002815189,0.5052396425757638,-2.7424422977254808,0.0817175258823626,-1.0,11.932333333333334,0.0,179.50213278869649,1.128845759831779,95.0766331920989,1331.0,1435.0,1000.0,1528.0,1283.0,1011.0,94.0,292.63,1649150526.7943432,1649150527.912671,892712d6-a772-4d4f-ae33-04350c56132c
-0.4659119920293937,-0.7042595793406767,0.0319716648994646,0.3551967389049039,0.0059755964030211,0.4862727938646786,-0.1553287815325319,-0.1809824382518296,-15.452723847740456,31.943179885722845,16.741222816931224,0.4997203911463395,-2.7215718162533435,0.0870296116717508,-1.0,11.937,0.0,179.50216314509282,1.149982800003572,95.00077862899654,1331.0,1435.0,1000.0,1528.0,1283.0,1011.0,94.0,292.63,1649150528.0204997,1649150529.0694473,892712d6-a772-4d4f-ae33-04350c56132c
-0.6174058348476688,-0.99533899062972,0.0153358246225773,0.5003780564739343,0.0468401010618161,0.6426469363558173,-0.1159276147938128,-0.1416070203369414,-15.445897132234045,33.72670596758471,17.497224890014444,0.5347392895250573,-3.8389446322804592,-0.0356603248556925,-1.0,11.864,0.0,179.5822949244354,1.1597247841941258,94.83727148936552,1209.0,1435.0,1000.0,1528.0,1173.0,1011.0,94.0,292.63,1649150531.07666,1649150532.2175882,a63103f3-a49c-4fa7-952d-0b9a883b5ed7
-0.6138030908001049,-0.9755633391484728,0.0181890916915019,0.4973538565966031,0.0460248818604727,0.6254089972463663,-0.120174643996083,-0.1350063743186482,-15.540641845022243,33.7220734677599,17.40063673350118,0.5028734681529824,-3.762694130461873,-0.0302266649364778,-1.0,11.861,0.0,179.57974346932545,1.1534783983286394,94.67339551951932,1209.0,1435.0,1000.0,1528.0,1173.0,1011.0,94.0,292.63,1649150532.3251057,1649150533.4497974,a63103f3-a49c-4fa7-952d-0b9a883b5ed7
-0.6271621706494631,-0.9984552334543748,0.0111413904604799,0.5075572439678551,0.0438947930831257,0.6397410747709784,-0.1217261901851939,-0.1430665258400783,-15.50508855744368,33.799081305552875,17.550800746836458,0.5122646173586625,-3.851836925608231,-0.0179849496653381,-1.0,11.866666666666667,0.0,179.5938819609074,1.152703598744666,94.50357652618528,1209.0,1435.0,1000.0,1528.0,1173.0,1011.0,94.0,292.63,1649150533.5587423,1649150534.6715374,a63103f3-a49c-4fa7-952d-0b9a883b5ed7
-0.6698812043202711,-1.077669058948591,0.0380803299910923,0.55223541392083,0.0850321326987942,0.6638075694580888,-0.0878732261840412,-0.113622758593454,-15.882148179176816,34.62515883022869,16.013993361650815,0.4719450079915124,-4.136426556581252,-0.1708990353096226,-1.0,11.724444444444444,0.0,179.62730131760634,1.122158032281017,94.11883121132855,1074.0,1435.0,1000.0,1528.0,1047.0,1011.0,94.0,292.63,1649150536.6101158,1649150537.7494297,8160472c-c450-4962-8909-ab5ff6c90f79
-0.6658270216023657,-1.0767650852965331,0.0380392403315194,0.5595493755244215,0.0841966426627544,0.6563977319795942,-0.0908179864629321,-0.1048158703962227,-15.810836462967025,34.75305936404924,16.030547343375392,0.4396799657556887,-4.134588491070967,-0.1653181111788438,-1.0,11.732111111111111,0.0,179.6496891598858,1.1081585160759526,93.7962444124685,1074.0,1435.0,1000.0,1528.0,1047.0,1011.0,94.0,292.63,1649150537.8629942,1649150538.9716032,8160472c-c450-4962-8909-ab5ff6c90f79
-0.6668131740464006,-1.0835174934708698,0.0395184686861031,0.5618367006123081,0.0872098855551063,0.6596164229358404,-0.0875992949700784,-0.1085413348010266,-15.81304836308196,34.750841206515766,15.865214649058109,0.4417846319608549,-4.15862101347556,-0.1770521491314991,-1.0,11.735555555555557,0.0,179.64357234602917,1.1226095836761458,93.54801257073298,1074.0,1435.0,1000.0,1528.0,1047.0,1011.0,94.0,292.63,1649150539.081066,1649150540.2027578,8160472c-c450-4962-8909-ab5ff6c90f79
0.0042514735151178,0.1515694652482153,0.070718133446624,-0.0728524835441049,-0.1450256815087515,0.0454594879950412,-0.2960121768405649,-0.3181808822761178,-15.091291963417,28.834661206467576,16.893748057248644,0.4562570262683881,0.5395031095606114,0.5417321907093249,-1.0,11.988444444444443,0.0,179.24014494597262,1.1109366718049207,93.31504240724291,1553.0,1435.0,1000.0,1528.0,1471.0,1011.0,94.0,292.63,1649150540.9068244,1649150542.0408435,b061fd16-ce97-4a48-9ec8-b84898c92b38
0.0145469028565278,0.1578545418659118,0.0777395371979335,-0.0737202975500742,-0.1395032286779224,0.0396214668357591,-0.2902398983599544,-0.3143809084444842,-15.023125849024364,28.79577342994052,16.87504667423623,0.4452189482383703,0.5633105615817534,0.5172111091257722,-1.0,11.991666666666667,0.0,179.239326841092,1.135756761049003,93.70932342509089,1553.0,1435.0,1000.0,1528.0,1471.0,1011.0,94.0,292.63,1649150542.1489398,1649150543.2759354,b061fd16-ce97-4a48-9ec8-b84898c92b38
0.0045275961621255,0.1555140740035729,0.0790412581169181,-0.0718531825881209,-0.1381357641726183,0.0400553738280042,-0.2882544449464116,-0.3172210278853591,-14.944647573912784,28.813425736517928,16.867169817541303,0.4422023259102972,0.5538996862697586,0.510517023002094,-1.0,11.988888888888887,0.0,179.25190349608374,1.152040536786646,94.00937363532957,1553.0,1435.0,1000.0,1528.0,1471.0,1011.0,94.0,292.63,1649150543.3845434,1649150544.5086238,b061fd16-ce97-4a48-9ec8-b84898c92b38
0.0191226491693489,0.1523452383054875,0.0562545676230773,-0.405054333673161,-0.1935180773681187,0.3679575476730662,-0.2177248296020383,-0.2300057137154381,-14.832229656420534,28.01897408768541,19.61316876983885,1.9247556302637543,0.5564474054196684,0.5175640542334562,-1.0,11.982222222222225,0.0,179.2668646460057,1.2566687658715516,94.44823074443076,1553.0,1537.0,1000.0,1528.0,1471.0,1011.0,94.0,292.63,1649150545.618818,1649150546.7587368,3ff75828-2779-4977-a4b5-0cae251623ac
0.0244248610043446,0.1515426199909617,0.0569952775124617,-0.4048390237414341,-0.1932819486698959,0.3664142195601494,-0.2176755219787103,-0.2398228599641324,-14.819047332876664,28.08178508815988,19.312557587294787,1.9212138600741329,0.5560296198630478,0.5156267910526239,-1.0,11.986,0.0,179.26306098954788,1.2635167182765934,94.58323246901573,1553.0,1537.0,1000.0,1528.0,1471.0,1011.0,94.0,292.63,1649150546.8675623,1649150547.9868882,3ff75828-2779-4977-a4b5-0cae251623ac
0.0178094231330494,0.1510358473405199,0.0563789323815227,-0.4121940772023427,-0.1950488048901991,0.3742486504882376,-0.2166345834088516,-0.2388641011323549,-14.820310260554932,28.12460237292501,19.393961002845028,1.9556755625801536,0.5542835942487695,0.5173619314272154,-1.0,11.982333333333337,0.0,179.26734427706742,1.26751242637292,94.71135163964698,1553.0,1537.0,1000.0,1528.0,1471.0,1011.0,94.0,292.63,1649150548.0971403,1649150549.2198198,3ff75828-2779-4977-a4b5-0cae251623ac
0.0305488663306052,0.1400380589571456,0.033139159558965,-0.731917873080684,-0.2513854958340216,0.6960832326953228,-0.1502588630084625,-0.1722566337625354,-14.633535214290328,27.69157626912381,21.92880260490309,3.396569709901791,0.5271312372971272,0.531017433838064,-1.0,11.965,0.0,179.23256950727315,1.3484890858862797,94.98243425870572,1553.0,1645.0,1000.0,1528.0,1471.0,1011.0,94.0,292.63,1649150550.9420812,1649150552.0784194,53df8caa-a5cc-4730-b8f9-15a51c24fc28
0.0293260375744835,0.1403667763557988,0.0316665055698002,-0.7348763309864791,-0.25371281535769,0.6965565857143862,-0.1515605840335173,-0.1671286417658791,-14.589885321884736,27.715071771211274,21.643578800581107,3.404365885653504,0.5308544051231713,0.5376805242397835,-1.0,11.967444444444444,0.0,179.2427510425959,1.3533221443441346,94.998059454797,1553.0,1645.0,1000.0,1528.0,1471.0,1011.0,94.0,292.63,1649150552.188771,1649150553.2358675,53df8caa-a5cc-4730-b8f9-15a51c24fc28
0.0316270594276931,0.1388020815432003,0.0324422786586204,-0.7357309965911233,-0.2530422317580523,0.7009876959191642,-0.1500353351502847,-0.1675494002841416,-14.604429771366888,27.758512729460648,21.95189811706471,3.4166195284027947,0.5225113082007572,0.5337481065310249,-1.0,11.966555555555551,0.0,179.25127056522064,1.351495092457091,95.0350069836572,1553.0,1645.0,1000.0,1528.0,1471.0,1011.0,94.0,292.63,1649150553.344905,1649150554.541606,53df8caa-a5cc-4730-b8f9-15a51c24fc28
0.0415937712445117,0.1326747892393537,0.029023617599083,-0.9105167009518048,-0.2807991331572508,0.8743006451189356,-0.1131006448910603,-0.1416201693588489,-14.687685443647412,28.300671740842542,22.978292009197347,4.20389610810543,0.5123349278027544,0.5225198547652108,-1.0,11.952666666666667,0.0,179.2519976009123,1.422150992253509,95.04200413300694,1553.0,1761.0,1000.0,1528.0,1471.0,1011.0,94.0,292.63,1649150555.4484684,1649150556.7915354,5f02c6df-306f-476c-a4cb-c5d291afbe93
0.034875335272131,0.1347643361659221,0.0317525199415454,-0.9158167240610412,-0.2785156426148993,0.8788846089572558,-0.1085276376443679,-0.1408104286417325,-14.669226796123109,28.21822541857806,23.25603260912494,4.225795340089514,0.5184038914195949,0.50982371487989,-1.0,11.953,0.0,179.2452964264266,1.4195471367860168,95.0287634318459,1553.0,1761.0,1000.0,1528.0,1471.0,1011.0,94.0,292.63,1649150556.9011967,1649150558.02395,5f02c6df-306f-476c-a4cb-c5d291afbe93
0.0321634166789287,0.1341890807206792,0.0352862320863146,-0.8979974916623288,-0.2734890049241724,0.8602709874480379,-0.1096781486391315,-0.1287026701876223,-14.616560302938764,28.26014544338874,22.87107648871213,4.144191219593795,0.5173162301714145,0.4993618107559596,-1.0,11.952333333333334,0.0,179.25735702268105,1.410829088072599,95.01275953971066,1553.0,1761.0,1000.0,1528.0,1471.0,1011.0,94.0,292.63,1649150558.1333313,1649150559.4536326,5f02c6df-306f-476c-a4cb-c5d291afbe93
0.0447368575003379,0.1314086793926683,0.0334782863390054,-0.958673281041762,-0.2885004352058696,0.9237545312414138,-0.1017889304290446,-0.1323459551873278,-14.62881601071391,28.9911287901526,23.57998565336301,4.428579522450447,0.5080600048212873,0.5108626189880344,-1.0,11.896222222222224,0.0,179.24301969670327,1.430669886405971,95.00992045774566,1553.0,1887.0,1000.0,1528.0,1471.0,1011.0,94.0,292.63,1649150561.4114609,1649150562.5251548,d8863436-0716-40f9-8dea-968b2eef045b
0.0366969775950946,0.1321893832141419,0.0246166128569267,-0.96974010716246,-0.2988824281024951,0.9322190038282292,-0.1080482580872593,-0.1327020654585989,-14.544128344242989,28.96787152519325,23.385048884111185,4.471980499058559,0.5129168258950316,0.5457859124320513,-1.0,11.905333333333331,0.0,179.24793287944624,1.4108812631287593,94.89036330869392,1553.0,1887.0,1000.0,1528.0,1471.0,1011.0,94.0,292.63,1649150562.633437,1649150563.756777,d8863436-0716-40f9-8dea-968b2eef045b
0.0413570947002464,0.1341605918681583,0.0331391595422166,-0.942533794876519,-0.2875970100848558,0.9040166962136472,-0.1077228278141359,-0.1210424582905399,-14.629662546422992,29.011153791014863,23.245959034258643,4.347881435112576,0.5193395354070194,0.5185375624764079,-1.0,11.896555555555556,0.0,179.2445754620142,1.4264538217031402,94.79232277334758,1553.0,1887.0,1000.0,1528.0,1471.0,1011.0,94.0,292.63,1649150563.8649695,1649150564.9856389,d8863436-0716-40f9-8dea-968b2eef045b
-0.0098987153576879,0.1608425829970055,0.1025226378912905,0.2386527291303748,-0.0882430332263496,-0.2648053856206726,-0.3570791148803717,-0.3792675444138542,-15.178375102247957,30.02173523947199,14.731133564711774,-0.9345646720901571,0.5577498987238306,0.5082405199530707,-1.0,11.99025,0.0,179.22828754784598,1.0849132508607755,94.76962434718833,1553.0,1335.0,1000.0,1528.0,1471.0,1011.0,94.0,292.63,1649150566.1002038,1649150567.0314424,8536de13-3a48-42f3-a4e8-064f4d57aea4
-0.0058034442711457,0.1551174216824531,0.1002216160829184,0.2492538649318048,-0.0886265368863447,-0.2699005060774402,-0.360667613865816,-0.3937722026369828,-15.18071059578665,30.07966018953765,14.5738386208519,-0.9696844865261788,0.5362375772263802,0.5161616190073304,-1.0,11.989333333333336,0.0,179.22705071442377,1.0628408275472183,94.99049843538576,1553.0,1335.0,1000.0,1528.0,1471.0,1011.0,94.0,292.63,1649150567.1405509,1649150568.2612064,8536de13-3a48-42f3-a4e8-064f4d57aea4
-0.0080496799183912,0.1604179896894522,0.1029061415209366,0.2455420977383993,-0.0878047433349863,-0.2720508660948759,-0.3588185781451544,-0.3828834363518176,-15.129388545566137,30.0862621507175,14.537698794334505,-0.9659462852477202,0.5567022860375245,0.5093414032107343,-1.0,11.990777777777778,0.0,179.239697189127,1.062342781062271,95.1846776778496,1553.0,1335.0,1000.0,1528.0,1471.0,1011.0,94.0,292.63,1649150568.3740854,1649150569.487976,8536de13-3a48-42f3-a4e8-064f4d57aea4
-0.0247151049103623,0.1625749236712474,0.1227738211858359,0.565358907289819,-0.0402042695112133,-0.5827064140591018,-0.4327191964144372,-0.4518637025461936,-15.33170499514618,31.3323499197092,12.320930119413616,-2.3766646102310776,0.5477755539869162,0.5219304507220056,-1.0,11.979555555555557,0.0,179.22107657562972,0.976965748460196,95.38194871927772,1553.0,1247.0,1000.0,1528.0,1471.0,1011.0,94.0,292.63,1649150570.4040308,1649150571.5373209,9548d7dc-bce7-40f9-83cd-b9cd090858ce
-0.0133283336908069,0.1665852758955799,0.1253378168992541,0.5606779718734338,-0.0382451137070363,-0.5825749270402003,-0.4309309733289565,-0.4557031233817749,-15.45048390712586,31.313068158543928,12.303100660521038,-2.3658728815330936,0.5645540630762068,0.5135648645636519,-1.0,11.964555555555556,0.0,179.2165261518227,0.9500680247638952,95.54945379630291,1553.0,1236.0,1000.0,1528.0,1471.0,1011.0,94.0,292.63,1649150571.645812,1649150572.9698837,9548d7dc-bce7-40f9-83cd-b9cd090858ce
-0.007950516812317,0.1636531167266217,0.1249302073193891,0.5636627256357729,-0.0374824893056428,-0.5819569381333183,-0.4308389324432801,-0.455519041009219,-15.468148366887446,31.297548849719604,12.372275265432185,-2.371338091779265,0.5526750248355978,0.5127136726250658,-1.0,11.967111111111112,0.0,179.23462615312323,0.948681887675304,95.66755763288126,1553.0,1236.0,1000.0,1528.0,1471.0,1011.0,94.0,292.63,1649150573.0778606,1649150574.1991203,9548d7dc-bce7-40f9-83cd-b9cd090858ce
-0.0274303107810149,0.1674443240184312,0.1433520781305241,0.7464936856782499,-0.0094330323662084,-0.7633191649969614,-0.4729383282834482,-0.4938529788716324,-15.587086212662138,32.63175263710868,10.946000063176108,-3.181830425954124,0.55905728229429,0.5087582518561878,-1.0,11.95977777777778,0.0,179.23753429588984,0.8936768801853106,95.86422230529308,1553.0,1133.0,1000.0,1528.0,1471.0,1011.0,94.0,292.63,1649150575.8908331,1649150577.0668554,5a215511-9255-4ac0-8fbb-a5f9fff0c2d9
-0.0227734807360567,0.1708547669879666,0.1447080374228865,0.7313589899093875,-0.0097480531866392,-0.7504170016590302,-0.4672542550941613,-0.496674470777811,-15.53944217444315,32.51211988853519,11.302056644029149,-3.119342178526645,0.5703029203660912,0.5001106567879734,-1.0,11.964555555555554,0.0,179.23795776761838,0.8809888966675126,95.9405542227274,1553.0,1133.0,1000.0,1528.0,1471.0,1011.0,94.0,292.63,1649150577.1751518,1649150578.295472,5a215511-9255-4ac0-8fbb-a5f9fff0c2d9
-0.0294847946387562,0.1628285839145267,0.1356683089723142,0.7380976961051912,-0.0161580427832849,-0.7482118548834847,-0.4765131309212895,-0.4920313362163162,-15.668221440058083,32.583091189044254,11.309075383260629,-3.129631135645626,0.5396475691161201,0.5333247352133065,-1.0,11.954,0.0,179.24798752095955,0.8756957787229844,96.0137108611076,1553.0,1133.0,1000.0,1528.0,1471.0,1011.0,94.0,292.63,1649150578.4042866,1649150579.522714,5a215511-9255-4ac0-8fbb-a5f9fff0c2d9
-0.0044529634898891,0.1811803282088645,0.1500179191052841,0.8338684079000267,-0.0017574807476747,-0.8605910761223282,-0.5006190802782647,-0.5324915286686001,-15.613705803059192,33.40812657845521,10.379314708365431,-3.592134506124786,0.6054646214448204,0.5299207448199528,-1.0,11.931111111111113,0.0,179.23958335264084,0.8086055400514794,96.11745308659108,1553.0,1026.0,1000.0,1528.0,1471.0,1011.0,94.0,292.63,1649150581.4612055,1649150582.811842,c78c6f87-bfe9-4233-88ae-72ae5d60be6f
-0.0283178478243467,0.1698855985217639,0.1473881798663896,0.8305286393789167,-0.0028619713373857,-0.8461669491880757,-0.4997118201954671,-0.5255884619290921,-15.716046253077105,33.500322039862425,10.412169731466593,-3.551753914326872,0.5637817144049241,0.5322589643301842,-1.0,11.937666666666669,0.0,179.25462039355358,0.8269984568604813,96.15425262801932,1553.0,1026.0,1000.0,1528.0,1471.0,1011.0,94.0,292.63,1649150582.9204748,1649150584.0325592,c78c6f87-bfe9-4233-88ae-72ae5d60be6f
-0.0207967933600316,0.1686233237374747,0.1436276529142874,0.8287798627482442,-0.0059913610113335,-0.8435503558204991,-0.5016446786687045,-0.5274950232342961,-15.665448355003925,33.41333868873074,10.3582827540031,-3.542676260513154,0.5591423352417983,0.5442263092667129,-1.0,11.935333333333332,0.0,179.25385237672688,0.8296193937298824,96.16423001657688,1553.0,1026.0,1000.0,1528.0,1471.0,1011.0,94.0,292.63,1649150584.1424148,1649150585.2720044,c78c6f87-bfe9-4233-88ae-72ae5d60be6f
0.0147046872021018,0.1538441896321085,0.0758855710395864,-0.110247377612324,-0.1454858859087275,0.0790281094158822,-0.2800102112706751,-0.3098840541554141,-14.846112486524994,28.749697658642354,17.168521338458632,0.6159052077967848,0.5487943392182664,0.5130730640667004,-1.0,11.98977777777778,0.0,179.25667703940366,1.0785383453811022,96.12524936807372,1553.0,1435.0,1000.0,1528.0,1471.0,1011.0,94.0,292.63,1649150587.603013,1649150588.7399275,ee87a255-92ed-480b-95bc-1c404b48a2c8
0.0198721248735329,0.1606289166874747,0.0793173807382851,-0.1135871466563123,-0.1435661761086125,0.0750309057922946,-0.2790503562971316,-0.3015477791072794,-14.945095577474094,28.776796996589155,17.125276769805506,0.6147504652499743,0.5759542593369769,0.5050641198635336,-1.0,11.992222222222225,0.0,179.25334087144907,1.08974903368662,96.12527365319076,1553.0,1435.0,1000.0,1528.0,1471.0,1011.0,94.0,292.63,1649150588.8481452,1649150589.9715087,ee87a255-92ed-480b-95bc-1c404b48a2c8
0.0045538935326247,0.1512407478490005,0.0757277866845401,-0.1095767940778193,-0.1442499083731312,0.0805665068605152,-0.2798392781952427,-0.3068861509446476,-14.960484971097433,28.725260766173506,17.1133547521061,0.6176133023163858,0.5402353097382367,0.5109044244820259,-1.0,11.993666666666664,0.0,179.23757072356543,1.093052497367379,96.1100787590172,1553.0,1435.0,1000.0,1528.0,1471.0,1011.0,94.0,292.63,1649150590.0795777,1649150591.2040243,ee87a255-92ed-480b-95bc-1c404b48a2c8
0.048119907492916,0.1708547669962499,0.1902901829187012,-0.1217722105939356,-0.0422362910054784,0.0664185097906733,-0.161725074899643,-0.1922273141206586,-14.054454186299036,28.67203211148445,17.129327241466022,0.6191409378250156,0.6160088389427405,0.0505719251686051,-1.0,11.991777777777775,0.0,179.22053926741506,1.0970638105486847,96.0756394274022,1553.0,1435.0,1000.0,1435.0,1471.0,1011.0,94.0,292.63,1649150591.9027889,1649150593.0512912,77b7caa2-8a79-4f20-8a81-95e5bca7e939
0.0518103082448501,0.176157526435883,0.1975373057120305,-0.1246714982887169,-0.0363779987756638,0.0635652427304706,-0.154532189612826,-0.1729140685462482,-13.976047717436392,28.60760333155748,17.138750023092165,0.6192440705066238,0.6360742559467475,0.0231837347342595,-1.0,11.992,0.0,179.22805095768223,1.1005429974469962,96.08972555420048,1553.0,1435.0,1000.0,1435.0,1471.0,1011.0,94.0,292.63,1649150593.1606858,1649150594.270667,77b7caa2-8a79-4f20-8a81-95e5bca7e939
0.0474712384713626,0.171621226388009,0.19272488308165,-0.1202403873823196,-0.0398098086013136,0.0642621236106713,-0.1604491033902352,-0.1831832013248704,-14.108505676246812,28.702336930395926,17.144264368741105,0.6111371313270826,0.619099964174565,0.0422084957028967,-1.0,11.992333333333336,0.0,179.2248013054571,1.1015465846522303,96.07310163267056,1553.0,1435.0,1000.0,1435.0,1471.0,1011.0,94.0,292.63,1649150594.379325,1649150595.904287,77b7caa2-8a79-4f20-8a81-95e5bca7e939
0.103084196734917,0.197371303426939,0.3708792973301349,-0.1306886708226717,0.1200405360078792,0.0403676553636227,0.020904845452992,-0.0030367399698592,-12.833504392186727,28.782307597062708,17.342731643773334,0.591086313972364,0.7174770563369385,-0.6724040225725695,-1.0,11.982666666666669,0.0,179.20620953053634,1.1077325660322446,95.97196929835994,1553.0,1435.0,1000.0,1330.0,1471.0,1011.0,94.0,292.63,1649150597.0234044,1649150598.159178,a52b9c7b-490d-4566-bc90-0bde3b69041d
0.1034813969255899,0.2021377056196655,0.3750841405010304,-0.1337977898318896,0.1219717507335874,0.0378885782488482,0.0246440059906049,0.0026747251869968,-12.699871183210098,28.801112082252576,17.27690978164414,0.5929197129199978,0.7356411996537461,-0.6855474654490749,-1.0,11.984444444444444,0.0,179.2086911659348,1.1128048708385267,95.9550304292183,1553.0,1435.0,1000.0,1330.0,1471.0,1011.0,94.0,292.63,1649150598.26835,1649150599.4100733,a52b9c7b-490d-4566-bc90-0bde3b69041d
0.1042347076285759,0.2026992644990528,0.3728516016219185,-0.1338936657604207,0.1205199155570456,0.0381625094103515,0.0225210393954104,0.0078520246606893,-12.760459810305449,28.743887533814576,17.365709633041085,0.5932446878822741,0.737258490269774,-0.6773306977984265,-1.0,11.98188888888889,0.0,179.21170403826866,1.121410755039168,95.95806758666924,1553.0,1435.0,1000.0,1330.0,1471.0,1011.0,94.0,292.63,1649150599.5221002,1649150600.574494,a52b9c7b-490d-4566-bc90-0bde3b69041d
0.1603790913937785,0.2272665066056204,0.5480815220594131,-0.1293261370830841,0.2780204713976211,-0.0009948563168176,0.1943553213444159,0.1740274375558984,-11.58946403942244,29.05440415321425,17.14544168930294,0.5062877028780932,0.8336163421378592,-1.3719717406718206,-1.0,11.981333333333332,0.0,179.1673654858166,1.1096028876419988,95.90844398561936,1553.0,1435.0,1000.0,1210.0,1471.0,1011.0,94.0,292.63,1649150601.5298705,1649150602.5873172,7ccf7dbd-931f-42f5-8254-152cdc17c80e
0.1589064374849425,0.2258201500861605,0.5434005866354235,-0.1307330476702247,0.2736288071054267,0.0022791691119877,0.190450158710463,0.1687942566397128,-11.600887032243431,29.054814889136,17.192206423028548,0.5165898687715685,0.8277344817194746,-1.3541789300162554,-1.0,11.979777777777777,0.0,179.17596089943208,1.1124471041068458,95.9200386111904,1553.0,1435.0,1000.0,1210.0,1471.0,1011.0,94.0,292.63,1649150602.696587,1649150603.89853,7ccf7dbd-931f-42f5-8254-152cdc17c80e
0.1576047165797592,0.2250706744365239,0.5427168544937773,-0.1276299551637447,0.273471022757861,7.018808776900642e-05,0.1897269804403808,0.1673479001290967,-11.556593393488956,29.029924721938627,17.17465434865863,0.5044466301955229,0.8243397322630281,-1.3520494111781989,-1.0,11.978666666666667,0.0,179.19544515240443,1.1159416352148552,95.90887884099652,1553.0,1435.0,1000.0,1210.0,1471.0,1011.0,94.0,292.63,1649150604.0081444,1649150605.1236975,7ccf7dbd-931f-42f5-8254-152cdc17c80e
0.2087668396514854,0.2506372172749984,0.6884476759582864,-0.0932970636095007,0.4041756286549372,-0.0649999722370939,0.3194898131316541,0.303396357611899,-10.647240907806973,29.6657869859809,17.028180563569435,0.2926847257533961,0.9201140593392982,-1.9099126232082104,-1.0,11.962222222222223,0.0,179.1771341741495,1.1044881431707172,95.82785078905285,1553.0,1435.0,1000.0,1071.0,1471.0,1011.0,94.0,292.63,1649150606.034672,1649150607.172533,43802170-07a9-4449-8828-6c4cec538020
0.1953853024707033,0.2442957109812667,0.6948028785256352,-0.0913658487520348,0.4108732452700492,-0.0614251702954562,0.3277488374115844,0.3062863313229474,-10.558813499434455,29.716699702897603,16.96108604562713,0.2970492055250603,0.89646432021194,-1.9402610274797407,-1.0,11.971,0.0,179.17919385563923,1.1168268561904109,95.8070771481472,1553.0,1435.0,1000.0,1071.0,1471.0,1011.0,94.0,292.63,1649150607.2820337,1649150608.4014442,43802170-07a9-4449-8828-6c4cec538020
0.2017815950641777,0.2471582915769256,0.6921731395348506,-0.0892291855124669,0.4085722235873923,-0.0667394352511789,0.3220647659349963,0.2907681314666974,-10.728291634379095,29.75455360827557,16.85255517055367,0.2803049370559572,0.9089330304343332,-1.9253714446847685,-1.0,11.970333333333333,0.0,179.18932985636755,1.1194788550051775,95.78922986384596,1553.0,1435.0,1000.0,1071.0,1471.0,1011.0,94.0,292.63,1649150608.5103328,1649150609.612477,43802170-07a9-4449-8828-6c4cec538020
-0.0492111267948519,0.1252457760339309,-0.086172113465575,-0.0852122585959602,-0.2911208611310728,0.0907304489616027,-0.4528893009656511,-0.4857084553161638,-16.24129292015258,29.16123208992232,16.838997210822285,0.5796327267854795,0.4409792360011575,1.1736283657592657,-1.0,11.989,0.0,179.2588065406049,1.1332302669602348,95.92018963426206,1553.0,1435.0,1000.0,1613.0,1471.0,1011.0,94.0,292.63,1649150610.5408478,1649150611.8837502,c80f76b1-c14b-40d1-857f-3b34e718526b
-0.0363122553484721,0.122353062922,-0.0849098385667186,-0.0811230138658045,-0.2895693147600484,0.0895076202301539,-0.4501280741250963,-0.4656566881317138,-16.040942280715164,29.12400698188372,16.81242334050806,0.5675732316149605,0.4285232106768362,1.1656668292872483,-1.0,11.990000000000002,0.0,179.2654910190726,1.1323754616708273,95.89679168289533,1553.0,1435.0,1000.0,1613.0,1471.0,1011.0,94.0,292.63,1649150611.992505,1649150613.111553,c80f76b1-c14b-40d1-857f-3b34e718526b
-0.0552617187550118,0.1212595297075643,-0.0854900248170836,-0.0808194981275171,-0.2895276772141796,0.0911955840732118,-0.4507362014663187,-0.4655421855659455,-16.12201027800542,29.13276464284036,16.935472335650015,0.5706896279542041,0.4238309940023943,1.1672504252021378,-1.0,11.992666666666668,0.0,179.26864201300972,1.1375956471874211,95.88371414736449,1553.0,1435.0,1000.0,1613.0,1471.0,1011.0,94.0,292.63,1649150613.2240365,1649150614.345115,c80f76b1-c14b-40d1-857f-3b34e718526b
-0.0940914641292192,0.1004544575726019,-0.2195382541440347,-0.0512349303172107,-0.4108244210529652,0.0895930867478057,-0.5967826456937773,-0.6184095196359173,-17.122824790049975,29.536019944385995,16.604782035321705,0.4957950885290054,0.3436801454679434,1.719532663273224,-1.0,11.981333333333332,0.0,179.26753400454436,1.1243662110953412,95.87596643611596,1553.0,1435.0,1000.0,1694.0,1471.0,1011.0,94.0,292.63,1649150616.4805243,1649150617.616967,f2130730-fa48-4e56-b923-279f89144e31
-0.0976246285637541,0.1019199893219033,-0.2191711863337142,-0.0531557357590121,-0.4111158838786599,0.0899809732883322,-0.5961575345541751,-0.6207850510238151,-17.08132753806528,29.52700524666721,16.616314369255075,0.5009808328401769,0.3490404719518745,1.7187487401356727,-1.0,11.98377777777778,0.0,179.27644057122205,1.1191520494261402,95.81919542155462,1553.0,1435.0,1000.0,1694.0,1471.0,1011.0,94.0,292.63,1649150617.7260735,1649150618.785777,f2130730-fa48-4e56-b923-279f89144e31
-0.0875855984524405,0.1057687222285451,-0.2151553549352581,-0.0545768907318999,-0.4082631640792347,0.0880316790900193,-0.5928380355648982,-0.614177281223092,-17.051874832711068,29.52798727539509,16.717272509458823,0.5000436765695645,0.3628018854510772,1.7052787758856944,-1.0,11.982,0.0,179.28229328443084,1.1210044062154216,95.7736342652411,1553.0,1435.0,1000.0,1694.0,1471.0,1011.0,94.0,292.63,1649150618.8989198,1649150620.074775,f2130730-fa48-4e56-b923-279f89144e31
-0.1430796744155057,0.0734662109548122,-0.3545238845079321,0.0008722585837444,-0.5315448219327815,0.0752412849313079,-0.7492610108098466,-0.7668671235027386,-18.12819930026912,30.21707001787151,16.516903616410165,0.3432769135142821,0.2353911405122135,2.2811399464746867,-1.0,11.97177777777778,0.0,179.26655956422275,1.110149539934946,95.74112635934138,1553.0,1435.0,1000.0,1774.0,1471.0,1011.0,94.0,292.63,1649150620.9858284,1649150622.1299143,75b23bb4-4b43-4aef-85fc-a88d1b6dc096
-0.1383039579955706,0.0843336083131145,-0.3560107831657892,-0.008309914473802,-0.5351344170066668,0.0720614919065386,-0.7524440923863834,-0.7673185621093942,-18.19903455364197,30.140475874391715,16.36001465932087,0.3562017716606354,0.2790773069119733,2.293583008084509,-1.0,11.975,0.0,179.27595486888106,1.1077000989177523,95.70187022654166,1553.0,1435.0,1000.0,1774.0,1471.0,1011.0,94.0,292.63,1649150622.2390125,1649150623.3605204,75b23bb4-4b43-4aef-85fc-a88d1b6dc096
-0.1378656680850477,0.0813066688877332,-0.3466697285839344,-0.0045981470137132,-0.5259440236314108,0.0725545680158972,-0.7425962625577357,-0.765825636578595,-18.125600258976984,30.20378450431458,16.566975643365392,0.3498916999559777,0.2655066525404583,2.254294819759783,-1.0,11.976,0.0,179.274547849912,1.1084054819610984,95.67004761628868,1553.0,1435.0,1000.0,1774.0,1471.0,1011.0,94.0,292.63,1649150623.4744031,1649150624.5874588,75b23bb4-4b43-4aef-85fc-a88d1b6dc096
-0.1765036629519464,0.06348744626156463,-0.45346181736269514,0.03897060637878818,-0.6215734249933271,0.05474904187726535,-0.865468147471875,-0.8954362341194493,-18.965078162236896,30.737713179756113,16.3710406595925,0.20936801172532962,0.194226678763017,2.7022016140794443,-1.0,11.932888888888888,0.0,179.2834711126077,1.0916095368994425,95.66462444608769,1553.0,1435.0,1000.0,1856.0,1471.0,1011.0,94.0,292.63,1649150625.4911025,1649150626.6363852,09631763-3952-4a6c-9766-4e70ee31aaea
-0.16939514842741643,0.06630893733139764,-0.4526400237639298,0.030752671169952395,-0.6228472054808233,0.060939886376362794,-0.8640984911046748,-0.8950664268936674,-18.975776889623546,30.806651629962563,16.575897763730712,0.24234250544590885,0.20413413554757742,2.7013887576600397,-1.0,11.933666666666667,0.0,179.29218643398866,1.0834052583356248,95.52650511960161,1553.0,1435.0,1000.0,1856.0,1471.0,1011.0,94.0,292.63,1649150626.7494867,1649150628.062319,09631763-3952-4a6c-9766-4e70ee31aaea
-0.17599689023624912,0.06922630429629202,-0.45609155733547185,0.029328229061670607,-0.6259837184911046,0.05954283740017896,-0.8675363291474424,-0.896038883010922,-18.992570594967955,30.710062919855847,16.571919508665193,0.24159509302733348,0.21518508870983152,2.715623169463886,-1.0,11.937333333333335,0.0,179.29885118079878,1.0749738048340995,95.46409464551556,1553.0,1435.0,1000.0,1856.0,1471.0,1011.0,94.0,292.63,1649150628.1705754,1649150629.290269,09631763-3952-4a6c-9766-4e70ee31aaea
