raw_voltage_G-,raw_voltage_G0,raw_voltage_G1,raw_voltage_G2,raw_voltage_G3,raw_voltage_G4,raw_voltage_G5,raw_voltage_G6,load_x,load_y,load_z,load_l,load_m,load_n,rpm,voltage,current,roll,pitch,yaw,aileron1_pwm,elevator_pwm,throttle_pwm,rudder_pwm,aileron2_pwm,pbaro,pdiff,Tt,sample_start_time,sample_end_time,uid
0.1056805163356124,0.2233350466135827,0.271367231487455,-0.1707313847249566,0.010970457467062,0.0606067860768213,-0.0644241688797456,-0.0900904258474239,-11.192841669253548,28.091270726520424,17.882161098636626,0.7182687476867877,0.7970735833125723,-0.2617280935124882,-1.0,11.990333333333334,0.0,179.23111695370966,1.1898016644998846,93.47658700585244,1553.0,1435.0,1000.0,1528.0,1471.0,1011.0,94.0,292.63,1649151355.9261415,1649151357.062769,dc1fd6a2-ecb5-45c2-8716-f9808ff870ba
0.1000572573229713,0.2234358532813005,0.2698671844745168,-0.1744628754559533,0.0087559978382578,0.0630628529498024,-0.0648767032028959,-0.0867364119921629,-11.13045305063713,28.08427815026704,17.74919539357,0.7320943491384648,0.798552782796464,-0.2561844348922624,-1.0,11.989444444444446,0.0,179.2425385478217,1.1930373717554397,93.41856378994326,1553.0,1435.0,1000.0,1528.0,1471.0,1011.0,94.0,292.63,1649151357.1711206,1649151358.290951,dc1fd6a2-ecb5-45c2-8716-f9808ff870ba
0.101354595348848,0.2191669100970986,0.268461369782751,-0.1694954071619288,0.0094583573756632,0.0629472540036111,-0.0663701760060044,-0.0906558196798618,-11.23626545963713,28.073598155302207,17.777920148786237,0.7204397078939556,0.7823350738469442,-0.2536004942465014,-1.0,11.993777777777778,0.0,179.2550893998766,1.1982267977048338,93.35341516890998,1553.0,1435.0,1000.0,1528.0,1471.0,1011.0,94.0,292.63,1649151358.399532,1649151359.522424,dc1fd6a2-ecb5-45c2-8716-f9808ff870ba
0.2924391116411062,0.5844908063622282,0.2973698724701343,-0.2709140515528041,-0.0423732566007429,-0.2024312507218277,-0.1407556421019057,-0.1644232974973002,-10.805224271198044,27.6233355275221,17.49023051662856,0.3515001087369405,2.1663325969387266,-0.0731049256344154,-1.0,11.971555555555556,0.0,179.04853992591595,1.165333163986516,93.27746574206915,1663.0,1435.0,1000.0,1528.0,1555.0,1011.0,94.0,292.63,1649151361.454738,1649151362.5946486,b02fb166-32f2-4a4f-839e-12ae5f717173
0.3013857031557836,0.5887241382847805,0.2976120276117338,-0.2756711409198334,-0.0435308897685395,-0.2022488125278344,-0.1416070202336353,-0.1649065120577423,-10.865969463995862,27.660141192910693,17.48064207173622,0.362864840712564,2.183326762245698,-0.0702466774323917,-1.0,11.964666666666668,0.0,179.06080998130494,1.1674581710181342,93.2885898434974,1663.0,1435.0,1000.0,1528.0,1555.0,1011.0,94.0,292.63,1649151362.7023804,1649151363.823471,b02fb166-32f2-4a4f-839e-12ae5f717173
0.3028621920839723,0.5845045029195847,0.3000407012304512,-0.2721604385733894,-0.0396613379052015,-0.2012807396770547,-0.1385231028763011,-0.1642452422002955,-10.905630699356465,27.6528805465379,17.511580779570505,0.3571787126837303,2.167228666815712,-0.083679451639249,-1.0,11.968,0.0,179.0569653437121,1.16975720557798,93.32690644583124,1663.0,1435.0,1000.0,1528.0,1555.0,1011.0,94.0,292.63,1649151363.9323194,1649151365.0464098,b02fb166-32f2-4a4f-839e-12ae5f717173
0.5139212123762354,0.9726528852207612,0.3430407701070226,-0.3852655419199818,-0.0854620838295751,-0.4796469042071017,-0.2055228382047564,-0.2383288396255528,-10.403864184244792,27.37559607341507,17.107301870096876,-0.0127187286624503,3.6396997580468495,0.0613511186629172,-1.0,11.937555555555557,0.0,178.7330959871079,1.141265225608847,93.38170808918188,1779.0,1435.0,1000.0,1528.0,1638.0,1011.0,94.0,292.63,1649151366.988547,1649151368.1228435,70453bd3-419e-4fbe-91cf-0a92c510d766
0.5245190605773897,0.974559446038344,0.3469064865246504,-0.3873693337520806,-0.0819382330721519,-0.4803832314117513,-0.2018937976878267,-0.2257192379168952,-10.44167862034645,27.35433920173928,17.022160313375288,-0.0096087496480133,3.648376496152888,0.0461895719156916,-1.0,11.942666666666666,0.0,178.73725784904218,1.146762757122832,93.51156971696145,1779.0,1435.0,1000.0,1528.0,1638.0,1011.0,94.0,292.63,1649151368.236386,1649151369.561113,70453bd3-419e-4fbe-91cf-0a92c510d766
0.5072548239852397,0.9654079541139008,0.3426726066316657,-0.3777839324252863,-0.0839499836989584,-0.4805804619541808,-0.2050231877188927,-0.2188424694056994,-10.342892723890378,27.384291813051814,16.944995448794927,-0.0316491036625274,3.612589499832175,0.0580811481921693,-1.0,11.941,0.0,178.73715767293436,1.146237378023237,93.60990470935202,1779.0,1435.0,1000.0,1528.0,1638.0,1011.0,94.0,292.63,1649151369.6700408,1649151370.7889588,70453bd3-419e-4fbe-91cf-0a92c510d766
0.5957493764295504,1.1039327479483765,0.377302982817278,-0.4639670805349001,-0.0942147331009528,-0.5598293195913085,-0.2106217936243121,-0.2262906587908351,-10.256139113980906,28.098323411478688,13.797088404946573,-0.0093241628683196,4.17224597995502,0.0441619393014127,-1.0,11.887555555555556,0.0,178.5257678715819,1.133087544465703,93.7277027052375,1904.0,1435.0,1000.0,1528.0,1723.0,1011.0,94.0,292.63,1649151371.3957694,1649151372.4287865,6e1d55f0-49ea-4adb-8e74-0506743cbaca
0.5906953467971009,1.1002346773048968,0.3793848595588788,-0.4618167201854216,-0.0918863180335003,-0.5574050279151005,-0.2074578882798385,-0.2309885792958421,-10.189931363578664,28.135061029345167,13.927431520744433,-0.0083258354706352,4.15661998425035,0.0334344475470428,-1.0,11.892555555555552,0.0,178.50480677992903,1.1536658846497627,93.74196414022448,1904.0,1435.0,1000.0,1528.0,1723.0,1011.0,94.0,292.63,1649151372.5368464,1649151373.660957,6e1d55f0-49ea-4adb-8e74-0506743cbaca
0.5840936061893406,1.094851930029546,0.3782617418324346,-0.4569544406578445,-0.0904755724636784,-0.556953041314659,-0.2085673096748117,-0.2396858945579768,-10.339263180188768,28.12268283046025,13.87080299916964,-0.0185004496656041,4.1373201800476,0.0338355731715676,-1.0,11.893999999999998,0.0,178.4992621841428,1.170645331755526,93.7878478332488,1904.0,1435.0,1000.0,1528.0,1723.0,1011.0,94.0,292.63,1649151373.782407,1649151374.885382,6e1d55f0-49ea-4adb-8e74-0506743cbaca
0.6283674536237693,1.1839787207399994,0.4066804550957557,-0.4845908154344603,-0.0910239826455215,-0.6172217530670463,-0.2107428712191353,-0.222340023245435,-10.071440127172863,28.85669001399658,14.190444495139964,-0.0851247491379085,4.472087946028412,0.0098211329676908,-1.0,11.768999999999998,0.0,178.45884112463466,1.1412666604228914,93.80464326841788,2045.0,1435.0,1000.0,1528.0,1813.0,1011.0,94.0,292.63,1649151375.874918,1649151376.927492,46315881-7646-46cd-aacc-b06031f6fca4
0.6386743868915649,1.182729046682004,0.4104075623210924,-0.4798140024756557,-0.0865172667855942,-0.6180534084564965,-0.2081427162684549,-0.2400967913909849,-10.166261994062372,28.910304653632448,14.547465061242912,-0.0972187263411347,4.464556830184551,-0.0047937977709821,-1.0,11.771666666666668,0.0,178.4564384158666,1.1270647049999267,93.68231458038296,2045.0,1435.0,1000.0,1528.0,1813.0,1011.0,94.0,292.63,1649151377.0356166,1649151378.1547604,46315881-7646-46cd-aacc-b06031f6fca4
0.6387286252583881,1.1901849051384523,0.4120451227266054,-0.4794628228698119,-0.0862510056995365,-0.6268203045713701,-0.2080736856452736,-0.2257455355498079,-10.040034738471627,28.829043767337023,14.392646637955336,-0.1181295756617673,4.4930587755552525,-0.0066784091721526,-1.0,11.776666666666666,0.0,178.44972054536296,1.1273559841089065,93.6005086457838,2045.0,1435.0,1000.0,1528.0,1813.0,1011.0,94.0,292.63,1649151378.2641852,1649151379.3879917,46315881-7646-46cd-aacc-b06031f6fca4
-0.1410432699237054,-0.2127036706832188,0.2483224989884533,-0.0356208530005699,0.0777455636762392,0.3644693083919382,0.0311498713673795,0.00575645108242,-11.085146922743856,29.154180865657025,18.295051813662067,1.102330864277015,-0.8608362780558787,-0.5086974107322674,-1.0,11.974222222222222,0.0,179.38315848245395,1.1581936597392466,93.54712995851024,1444.0,1435.0,1000.0,1528.0,1381.0,1011.0,94.0,292.63,1649151380.501825,1649151381.6416705,e8b6633d-f815-421c-b9c6-dc1f959bfeae
-0.1482997071742658,-0.2258770221560317,0.2391134813393823,-0.025122714480167,0.0721907874226295,0.3649727938474308,0.0226070537818545,0.0078279187650157,-11.127450097057327,29.214935023467728,17.837391379281282,1.0796309858734054,-0.9077640288739812,-0.4786174840908215,-1.0,11.979222222222225,0.0,179.3519354110281,1.1746373994558887,93.61241897787647,1444.0,1435.0,1000.0,1528.0,1381.0,1011.0,94.0,292.63,1649151381.7501233,1649151383.071289,e8b6633d-f815-421c-b9c6-dc1f959bfeae
-0.1338936658219089,-0.2205654961492111,0.2417344546420412,-0.0340457487267333,0.0730750372241468,0.3687289377831023,0.025356227024432,-0.0006809319133574,-11.195630125678198,29.20866935760293,17.964170063905986,1.1082745822116185,-0.8872189857951104,-0.4866106173636801,-1.0,11.979555555555557,0.0,179.36599649379943,1.175053708972175,93.64998805395118,1444.0,1435.0,1000.0,1528.0,1381.0,1011.0,94.0,292.63,1649151383.179603,1649151384.3009574,e8b6633d-f815-421c-b9c6-dc1f959bfeae
-0.3587183193836755,-0.6351039858138969,0.2150382196577067,0.1116763217242024,0.1317280831281795,0.6471306413415651,0.1040237806762264,0.0772135890717545,-11.242501563493574,30.57051852723632,19.059136313831413,1.4130166125558876,-2.4709740818380856,-0.6900429622431392,-1.0,11.935666666666666,0.0,179.49571392869652,1.1947696666257168,93.66712423966884,1331.0,1435.0,1000.0,1528.0,1283.0,1011.0,94.0,292.63,1649151385.421193,1649151386.5530598,d681537f-986e-4022-97d6-d07d337711f0
-0.3704732559570706,-0.62438779468806,0.2152223014005355,0.1089939877646156,0.1296374404771263,0.6392019782793631,0.1008943910219071,0.0800800050002596,-11.25325291016581,30.56672248647828,19.062303025254643,1.401229630707123,-2.430391962675708,-0.6817191240378483,-1.0,11.937666666666663,0.0,179.4869439658022,1.1925075933499734,93.57622125200515,1331.0,1435.0,1000.0,1528.0,1283.0,1011.0,94.0,292.63,1649151386.6611302,1649151387.7895432,d681537f-986e-4022-97d6-d07d337711f0
-0.3593363082456528,-0.627175319240474,0.211185651829766,0.1090202851505914,0.1276125412975319,0.6415029998979329,0.0971338639440721,0.0732163855810037,-11.435566200069978,30.51940542113116,18.97615468883294,1.4057208399099517,-2.439052917663337,-0.6686711922330727,-1.0,11.938,0.0,179.50467513688756,1.196357341726693,93.5249326026176,1331.0,1435.0,1000.0,1528.0,1283.0,1011.0,94.0,292.63,1649151387.903601,1649151389.2214334,d681537f-986e-4022-97d6-d07d337711f0
-0.555501205712627,-0.9736573248201316,0.1806888956601991,0.2480622642304311,0.1646913157530427,0.8638731820527052,0.144351926897504,0.1177258174143672,-11.516268243351348,32.371571301397175,20.56918829655112,1.602744703196079,-3.771139889207525,-0.7841068406317468,-1.0,11.869,0.0,179.63773177537885,1.228584439102569,93.45504686593996,1209.0,1435.0,1000.0,1528.0,1173.0,1011.0,94.0,292.63,1649151389.8935995,1649151390.8424735,55ab805c-36f8-4bec-ac0f-47fae183c748
-0.5549670396935417,-0.963453382483762,0.172881857537225,0.247404829566908,0.1558981254350829,0.85379251576586,0.1325454936549369,0.1007968712397005,-11.596504058263598,32.32458981558196,20.39697085207217,1.58080708614089,-3.731189430345682,-0.7437293125497324,-1.0,11.876666666666669,0.0,179.59665046425096,1.1959843019331176,93.28311506742268,1209.0,1435.0,1000.0,1528.0,1173.0,1011.0,94.0,292.63,1649151390.9517338,1649151392.0826828,55ab805c-36f8-4bec-ac0f-47fae183c748
-0.5572817587263138,-0.9726711718995305,0.1762375142620887,0.2534587080320958,0.1610069416097243,0.8586274005723503,0.1374488615459902,0.1076588470288506,-11.602761437897072,32.40327608981091,20.62357198295173,1.5787373331020045,-3.768257113740481,-0.7630225272920766,-1.0,11.874000000000002,0.0,179.6147094844165,1.2065830124037826,93.13564521196282,1209.0,1435.0,1000.0,1528.0,1173.0,1011.0,94.0,292.63,1649151392.1905105,1649151393.3122394,55ab805c-36f8-4bec-ac0f-47fae183c748
-0.6061510949761438,-1.0752310697560503,0.1986039936024295,0.3160930667212147,0.2028088369142849,0.8904718965509063,0.1701288493454942,0.1536655861896101,-11.925697466701497,33.3681131774722,19.26695813936837,1.516139312922747,-4.144887142153539,-0.9113713151579133,-1.0,11.727111111111112,0.0,179.6509079691977,1.1905020553389936,92.78154999155156,1074.0,1435.0,1000.0,1528.0,1047.0,1011.0,94.0,292.63,1649151395.4527786,1649151396.5958474,13b9396f-25d5-4415-8ef3-fb0c5ed8a986
-0.615288894135526,-1.083316975671436,0.1917124334861375,0.318137141090303,0.1991808926595705,0.8962326686050216,0.1641527671472505,0.1444165744814128,-12.170225269996106,33.365894119425995,19.17903468119584,1.5239786372798358,-4.173392829557876,-0.8897818757109188,-1.0,11.744,0.0,179.6464061156248,1.1846793427874924,92.42445328245506,1074.0,1435.0,1000.0,1528.0,1047.0,1011.0,94.0,292.63,1649151396.7076352,1649151398.0264928,13b9396f-25d5-4415-8ef3-fb0c5ed8a986
-0.6046307765516382,-1.0756145735702916,0.1983300624316645,0.3189145576573182,0.2041510995910807,0.8894994409857796,0.1695125042487727,0.1473240793769362,-12.043043942994109,33.30589563801185,19.44248615542728,1.5071323065645523,-4.1474164723607005,-0.9117792091114326,-1.0,11.742111111111113,0.0,179.67622520372123,1.189632593601992,92.1214091726302,1074.0,1435.0,1000.0,1528.0,1047.0,1011.0,94.0,292.63,1649151398.140806,1649151399.4597151,13b9396f-25d5-4415-8ef3-fb0c5ed8a986
0.1066316053499358,0.2268325996517146,0.2658677895925249,-0.171463328864601,0.0052222856685308,0.0554749595122608,-0.0715058378440456,-0.093844926440374,-11.21374229534078,28.058739925545144,17.496287585217356,0.7078264174223193,0.8135003814052256,-0.2364484624743256,-1.0,11.989333333333333,0.0,179.2106658495148,1.1349500398170338,91.9153317406322,1553.0,1435.0,1000.0,1528.0,1471.0,1011.0,94.0,292.63,1649151400.5728242,1649151401.7097733,50d924b0-a239-4419-81e2-b02770c20041
0.0978964882677482,0.2282921048608627,0.2706440532286553,-0.1725722023643212,0.0083407181719237,0.0553999023635012,-0.0672774361018001,-0.0901035739911516,-11.149936275403784,28.147411809896475,17.576967619627975,0.7110297227926605,0.8182485644031149,-0.2529378983466504,-1.0,11.992,0.0,179.21369484868427,1.1516095945387006,92.32679011506032,1553.0,1435.0,1000.0,1528.0,1471.0,1011.0,94.0,292.63,1649151401.8186655,1649151402.9355977,50d924b0-a239-4419-81e2-b02770c20041
0.0987286911596999,0.2232714945858643,0.2599234834986383,-0.1696142933501048,0.001592697586911,0.0576664088629627,-0.0784773864768167,-0.1095685765169889,-11.497083347355437,28.085199177798007,17.505302471160174,0.7083181507941357,0.8014655474542601,-0.2140870623936525,-1.0,11.992666666666668,0.0,179.2162134809407,1.1587497035423024,92.62363298230125,1553.0,1435.0,1000.0,1528.0,1471.0,1011.0,94.0,292.63,1649151403.0446072,1649151404.1628735,50d924b0-a239-4419-81e2-b02770c20041
0.1138327078743037,0.2254651353038003,0.2557860273036895,-0.4635528961405638,-0.035891497000716,0.3397930423558909,-2.1852778485440537e-05,-0.022887436149711,-10.901559806523087,27.450100544810685,19.728675566008384,2.0015858655910983,0.8216894349352155,-0.2675952477352358,-1.0,11.982333333333337,0.0,179.2110043233337,1.2537374644947872,93.19652192912524,1553.0,1537.0,1000.0,1528.0,1471.0,1011.0,94.0,292.63,1649151406.1017373,1649151407.2393749,a011030a-5379-430a-b370-9e5bbee99e99
0.1151870235453291,0.2279896848589159,0.2578766698882725,-0.4708635729894281,-0.0339323412066163,0.344132111802172,0.0031864291624668,-0.0152480436747993,-11.0090111840128,27.36886413657317,19.762083290980808,2.0273442410197187,0.8326537119648032,-0.2774346883045978,-1.0,11.985888888888889,0.0,179.2321460355446,1.2608866329854134,93.32115163200056,1553.0,1537.0,1000.0,1528.0,1471.0,1011.0,94.0,292.63,1649151407.3476098,1649151408.4752274,a011030a-5379-430a-b370-9e5bbee99e99
0.110887399972109,0.2241634144405732,0.2546157934037213,-0.4639868032028063,-0.0364174448641187,0.3419888744774356,-0.0003637188784138,-0.0187850427842193,-10.925713840579876,27.41825961627985,19.79736231557448,2.007228424926916,0.8163480743015172,-0.2648652453076457,-1.0,11.983666666666666,0.0,179.233220651974,1.271517656416996,93.4454162992102,1553.0,1537.0,1000.0,1528.0,1471.0,1011.0,94.0,292.63,1649151408.595794,1649151409.705138,a011030a-5379-430a-b370-9e5bbee99e99
0.1406127664803068,0.2347218170116065,0.2636626437805786,-0.805901784584606,-0.0695061402005441,0.6636569073255286,0.0965235453073867,0.0821147656090418,-10.631877217093503,27.08095701401726,22.646023451324623,3.5001523288836807,0.8712860424188357,-0.3674345861879233,-1.0,11.970888888888888,0.0,179.23001198088392,1.3593271138531762,93.59057299727117,1553.0,1633.0,1000.0,1528.0,1471.0,1011.0,94.0,292.63,1649151410.373575,1649151411.33648,eb960a61-0a79-4372-bf71-6b9b33de79a3
0.1374077718467902,0.2281200760929103,0.255787123029832,-0.8051484735282939,-0.0761078817306981,0.6690533508834952,0.0901135559683508,0.064980370934692,-10.648220764189976,27.120665198292084,22.536900751167053,3.51042503320446,0.8470169861852073,-0.3395549554344457,-1.0,11.97,0.0,179.2179119213143,1.3746173697998303,93.587249730785,1553.0,1645.0,1000.0,1528.0,1471.0,1011.0,94.0,292.63,1649151411.44467,1649151412.564731,eb960a61-0a79-4372-bf71-6b9b33de79a3
0.1362709575336937,0.2261477717428195,0.2620327533972341,-0.8057785155490516,-0.0702457543991941,0.6719296279068677,0.0971946766642347,0.0747597135955603,-10.626693238624584,27.166888778741853,22.639165151342485,3.518954182499616,0.8390352076300543,-0.3662387282234245,-1.0,11.97222222222222,0.0,179.20747842790217,1.3709591513110868,93.59317529934494,1553.0,1645.0,1000.0,1528.0,1471.0,1011.0,94.0,292.63,1649151412.6733248,1649151413.7947843,eb960a61-0a79-4372-bf71-6b9b33de79a3
0.139012460625066,0.2242686039975068,0.2437549708376782,-1.0331809626363715,-0.1189255177282752,0.8949966912673153,0.1323986665677377,0.1072978057516902,-10.660551154669552,27.603715572841782,24.37913877941287,4.53542584968224,0.8436522845950072,-0.3251136272359802,-1.0,11.949,0.0,179.2058452537806,1.4377590180081112,93.64098282898549,1553.0,1761.0,1000.0,1528.0,1471.0,1011.0,94.0,292.63,1649151414.908981,1649151416.010604,ee075fc4-8803-498b-9280-f770ee40151a
0.1475722616650671,0.2248339979145166,0.2478310664879073,-1.0299463812351228,-0.1146653398298518,0.8911967183500467,0.1362117884094042,0.117461747774828,-10.601670682972738,27.56829435503624,24.371609239980245,4.519586969487742,0.8452824039593905,-0.3417595154903864,-1.0,11.95388888888889,0.0,179.18754945372388,1.4220178391385956,93.6282832305887,1553.0,1761.0,1000.0,1528.0,1471.0,1011.0,94.0,292.63,1649151416.1187754,1649151417.080456,ee075fc4-8803-498b-9280-f770ee40151a
0.1494744396646378,0.2208061141511126,0.2413783441475951,-1.03053916862495,-0.1205806099122415,0.8961422713234258,0.1301212028991464,0.1109323244573176,-10.674990300527709,27.648253130970986,24.387142911205945,4.532211793300364,0.830221927282527,-0.3167899907519982,-1.0,11.950888888888889,0.0,179.19513855280167,1.448846324163779,93.62975323908007,1553.0,1761.0,1000.0,1528.0,1471.0,1011.0,94.0,292.63,1649151417.189945,1649151418.3055265,ee075fc4-8803-498b-9280-f770ee40151a
0.1328605145305941,0.2242713433072974,0.2296266974513414,-1.0331826071356744,-0.1384820132229299,0.8963614163725023,0.109973565560721,0.0857580499621364,-10.835038113452429,28.357048209383635,24.424414765794733,4.542706103139857,0.8436135758528543,-0.2476570457070582,-1.0,11.891666666666667,0.0,179.21003595429136,1.4559604642189743,93.60241654529196,1553.0,1887.0,1000.0,1528.0,1471.0,1011.0,94.0,292.63,1649151419.4144442,1649151420.5519435,c768edb7-d256-49fa-963e-24b2199f4cd6
0.1344904049369228,0.2236960878688623,0.2235591222479285,-1.053001540656098,-0.146343838495516,0.9155092037892908,0.1072890401274203,0.0768963768054634,-11.00687284273257,28.4192033441406,24.43836838232381,4.630466032698053,0.8446050887437607,-0.2252253680140381,-1.0,11.899,0.0,179.18283206973712,1.4421693280734318,93.50469778774648,1553.0,1887.0,1000.0,1528.0,1471.0,1011.0,94.0,292.63,1649151420.6596775,1649151421.7819026,c768edb7-d256-49fa-963e-24b2199f4cd6
0.1268104707897179,0.2179440813953895,0.2289758370137071,-1.0321422152174131,-0.1381357642124786,0.8999011546051934,0.1118472547952889,0.0989352350659143,-10.73137701308434,28.33199308844024,24.18708400511662,4.548129344845807,0.8210824849855953,-0.2509176246099131,-1.0,11.906,0.0,179.18945279977257,1.4532995837866929,93.42043146722632,1553.0,1887.0,1000.0,1528.0,1471.0,1011.0,94.0,292.63,1649151421.8904302,1649151423.006101,c768edb7-d256-49fa-963e-24b2199f4cd6
0.0816709973018712,0.2291599187709116,0.2844501834781364,0.1938425222026255,0.0552421180141358,-0.2981685633531885,-0.1584767988036543,-0.187601163520285,-11.278726578288197,29.42778701015645,15.089534561431396,-0.9013138013743636,0.8002444507773713,-0.2065962121685404,-1.0,11.985666666666669,0.0,179.2231392927591,1.075189026940759,93.33086947336967,1553.0,1335.0,1000.0,1528.0,1471.0,1011.0,94.0,292.63,1649151424.9443595,1649151426.0819771,c9d375e8-5bd6-4511-ba0c-8b9beb7ab8c0
0.0808952242205867,0.225346797046255,0.2812419017890898,0.1935401022100965,0.0536116796851349,-0.2931326119483137,-0.1599231554989346,-0.1890343721730303,-11.339728247876964,29.37508879505616,15.217678880035516,-0.8898345343316768,0.7850718936053606,-0.1982472864830302,-1.0,11.987444444444444,0.0,179.2232576827047,1.0623746197044956,93.52900339536292,1553.0,1335.0,1000.0,1528.0,1471.0,1011.0,94.0,292.63,1649151426.1908634,1649151427.3110015,c9d375e8-5bd6-4511-ba0c-8b9beb7ab8c0
0.0811423101400043,0.2256683922253478,0.2797697957548637,0.1905641140745999,0.051681012777118,-0.2894591944242756,-0.1627660134422915,-0.1914740030983993,-11.528667265178685,29.49667175943323,15.377944009944608,-0.8742036473524856,0.7864700553019831,-0.1895065521730734,-1.0,11.985666666666669,0.0,179.21846288990733,1.063920495470707,93.74572529772745,1553.0,1335.0,1000.0,1528.0,1471.0,1011.0,94.0,292.63,1649151427.4199002,1649151428.7441046,c9d375e8-5bd6-4511-ba0c-8b9beb7ab8c0
0.0609946725599595,0.2282707382300446,0.3065191730251208,0.5153779782286243,0.105891991244604,-0.6068496195208927,-0.2318240685700918,-0.2608607766115411,-11.722374760587488,30.8038386312692,12.964416405877373,-2.310607739039721,0.7807188809248468,-0.2023953895363204,-1.0,11.96977777777778,0.0,179.21844922952903,0.9806579993151168,93.98708141569846,1553.0,1236.0,1000.0,1528.0,1471.0,1011.0,94.0,292.63,1649151429.3912313,1649151430.384549,d272c34f-9819-484f-b8fe-7f8966e6d7c3
0.0715821123146825,0.2319414157564796,0.3082038496254197,0.5126934529908631,0.1080834405829263,-0.6084521173972307,-0.2314268683099,-0.257464029855705,-11.924030516566802,30.745483009619363,12.906309672041834,-2.3085668662527987,0.7968647541423303,-0.2080205636679654,-1.0,11.968,0.0,179.21479735505278,0.9682882302790412,94.13457024390598,1553.0,1236.0,1000.0,1528.0,1471.0,1011.0,94.0,292.63,1649151430.492503,1649151431.8186846,d272c34f-9819-484f-b8fe-7f8966e6d7c3
0.0563466084464842,0.232433943980339,0.3065531404902746,0.5107786742770104,0.1051545685422279,-0.6078335806116351,-0.2321489509625705,-0.2530422320489901,-11.753389984843814,30.755128595781567,12.80209018199882,-2.3028066294823293,0.7985592450815703,-0.2007419550652823,-1.0,11.96775,0.0,179.2133243109218,0.9629230573961596,94.27096077362216,1553.0,1236.0,1000.0,1528.0,1471.0,1011.0,94.0,292.63,1649151431.9269235,1649151433.041401,d272c34f-9819-484f-b8fe-7f8966e6d7c3
0.0480788178075538,0.2335986992600821,0.315463025194872,0.7216070410960089,0.1279982363653779,-0.8109558173546393,-0.2900344499733034,-0.3149211010179316,-11.923505222623476,32.10490232194158,11.484233242122238,-3.2257307988805564,0.7904421981297567,-0.1621265538873065,-1.0,11.958666666666668,0.0,179.21653677656138,0.9034150105364888,94.5026992263319,1553.0,1133.0,1000.0,1528.0,1471.0,1011.0,94.0,292.63,1649151434.979955,1649151436.1202176,b673ddd6-51d0-4bfe-928c-ed8dcf7505cc
0.0505852880330555,0.2307361186526798,0.3118745270570142,0.7126631892026639,0.1236153376686552,-0.7999437790287435,-0.2893359254299978,-0.3046897701949448,-11.78421395439815,32.061084189526895,11.468826056333684,-3.181211639056807,0.7797294093901632,-0.1525910496041617,-1.0,11.956,0.0,179.21604652076095,0.8929521864422014,94.57971264486342,1553.0,1133.0,1000.0,1528.0,1471.0,1011.0,94.0,292.63,1649151436.2280605,1649151437.351801,b673ddd6-51d0-4bfe-928c-ed8dcf7505cc
0.0570774568235719,0.2303937047089867,0.3104363885165881,0.7065956143304827,0.1225470061566209,-0.7924380614313483,-0.2904590434007332,-0.3076071375819154,-12.020897199706454,32.09052605920551,11.684771955209657,-3.1506194803674177,0.7788627890253518,-0.147544183951662,-1.0,11.954444444444444,0.0,179.2151419001509,0.8940283977682199,94.6394821124704,1553.0,1133.0,1000.0,1528.0,1471.0,1011.0,94.0,292.63,1649151437.4646237,1649151438.5852275,b673ddd6-51d0-4bfe-928c-ed8dcf7505cc
0.0424358356519413,0.2352559827720848,0.3125730515153687,0.8247147244974236,0.1294774646536372,-0.9116392714831054,-0.3311515251448504,-0.3555040108109685,-12.214123193575974,33.158078663504504,10.719320922428617,-3.677996125323664,0.7926342295874359,-0.1022697412984154,-1.0,11.93877777777778,0.0,179.21540448297898,0.8534138221625844,94.71762099439516,1553.0,1026.0,1000.0,1528.0,1471.0,1011.0,94.0,292.63,1649151439.485587,1649151440.6258576,ee2ce97e-e28b-4930-845c-c91d18b1f4d5
0.0469693965623625,0.2385568532232972,0.3037113786485205,0.8019647427643628,0.1179312659519858,-0.8935735008412578,-0.3350413484868501,-0.3570517220429911,-12.181046795278675,33.085009595875434,10.720817106260576,-3.5869902890042265,0.8070051211176121,-0.0686705240973631,-1.0,11.93511111111111,0.0,179.20818876757585,0.8581447953798761,94.7466690300253,1553.0,1026.0,1000.0,1528.0,1471.0,1011.0,94.0,292.63,1649151440.7342622,1649151442.0569313,ee2ce97e-e28b-4930-845c-c91d18b1f4d5
0.0511879366297066,0.2322564365860211,0.3147781972886745,0.8338640248121948,0.1329016041957606,-0.918665609948745,-0.3300558003102932,-0.3600923590004146,-12.154623870654367,33.16600850201768,10.512771964888708,-3.714264431206397,0.7818070785677311,-0.112035166077829,-1.0,11.932666666666668,0.0,179.19968594096906,0.8508110932019863,94.75973669972736,1553.0,1026.0,1000.0,1528.0,1471.0,1011.0,94.0,292.63,1649151442.1650443,1649151443.28658,ee2ce97e-e28b-4930-845c-c91d18b1f4d5
0.1009338370779535,0.2318028065893472,0.2733789818939148,-0.1609093078179484,0.0118382714281128,0.0409231877734894,-0.0682635883571752,-0.0898931948234696,-11.122823621563038,28.12201177600406,17.541637433494305,0.6521657967534942,0.8302740613983387,-0.2595190187718242,-1.0,11.98522222222222,0.0,179.1979525907397,1.105053507336078,94.81510145422958,1553.0,1435.0,1000.0,1528.0,1471.0,1011.0,94.0,292.63,1649151445.4252355,1649151446.3706954,2e7197e5-f5c5-4bf3-935f-b2c2105a4010
0.1038134014978738,0.2315266839839248,0.2718537332181848,-0.1565176429236082,0.0105365504815698,0.0375702702088921,-0.0720241156463018,-0.0953762014899113,-11.201662894149315,28.214265151971016,17.580358984980535,0.6352269215909588,0.8288174145797782,-0.250346044049189,-1.0,11.988555555555555,0.0,179.18850568020764,1.1184569946723204,94.80082332322462,1553.0,1435.0,1000.0,1528.0,1471.0,1011.0,94.0,292.63,1649151446.4783351,1649151447.7903526,2e7197e5-f5c5-4bf3-935f-b2c2105a4010
0.1039185910682096,0.2273848448647577,0.2712225958331561,-0.1538090112600141,0.0098265208725048,0.0381619615580398,-0.0712351938362611,-0.0950737814561554,-11.016864937789189,28.239396232996224,17.441530796272172,0.6306525847545836,0.8128324008220973,-0.2501962038368354,-1.0,11.989444444444445,0.0,179.19263111446637,1.1255086195238622,94.76461497261457,1553.0,1435.0,1000.0,1528.0,1471.0,1011.0,94.0,292.63,1649151447.898656,1649151449.0202668,2e7197e5-f5c5-4bf3-935f-b2c2105a4010
0.1543641109304008,0.2614711945337885,0.4355681383786399,-0.1737506543530176,0.1553913528364972,0.0179189956580984,0.0967563867976084,0.0741981545394136,-9.82678378099291,28.161353428066107,17.975061581022512,0.6384974586387369,0.9403977152420396,-0.9060996664188474,-1.0,11.988888888888887,0.0,179.16345102851224,1.1255954791344012,94.74206927707424,1553.0,1435.0,1000.0,1435.0,1471.0,1011.0,94.0,292.63,1649151450.9543693,1649151452.0947964,6b9417e4-a8dc-43ca-b1d7-f921b7e75716
0.1597057686195516,0.2615396773208738,0.4311715434420658,-0.1744902685709476,0.1515974062254419,0.0198776035524197,0.0920447707092045,0.0794165435055984,-9.936561087236331,28.16203440181281,18.13162900370876,0.644322392398779,0.9398562442157518,-0.8880852171568625,-1.0,11.990555555555556,0.0,179.17991026659217,1.1239653762263933,94.755781261288,1553.0,1435.0,1000.0,1435.0,1471.0,1011.0,94.0,292.63,1649151452.202584,1649151453.3215368,6b9417e4-a8dc-43ca-b1d7-f921b7e75716
0.1513645646920859,0.2581977172093246,0.4376637116694839,-0.1713537564045354,0.1577471608497993,0.0175628851176783,0.0988245671251764,0.0812518823516882,-9.811611343152649,28.21711429204332,17.797626394745134,0.6327437604649401,0.9294240862113496,-0.9157471136779244,-1.0,11.991,0.0,179.1937968000847,1.1218397525804749,94.77577322498864,1553.0,1435.0,1000.0,1435.0,1471.0,1011.0,94.0,292.63,1649151453.4300468,1649151454.5498197,6b9417e4-a8dc-43ca-b1d7-f921b7e75716
0.2201075896490739,0.2894943517735353,0.6487002668044435,-0.170559355937085,0.3493072191388144,-0.024882750768088,0.3089845534072584,0.2786329813274337,-8.459177636953862,28.318335579060548,17.840130679308476,0.5474375521337148,1.0501390875358274,-1.758789877843841,-1.0,11.974555555555556,0.0,179.16657925515213,1.100637422440678,94.71123856207072,1553.0,1435.0,1000.0,1330.0,1471.0,1011.0,94.0,292.63,1649151456.42272,1649151457.3709867,550a0162-b178-4e0b-8ae2-15b56180ecb4
0.2257916611963536,0.287412474993619,0.6566168768967291,-0.168107671751909,0.3568266292467137,-0.0242253159506038,0.3184488747476067,0.2958906440611816,-8.286835496021544,28.317742369895203,18.0304334995309,0.5438918469832917,1.0396243454459295,-1.793139213127214,-1.0,11.973666666666666,0.0,179.1692506180275,1.1025489386288645,94.70116327413504,1553.0,1435.0,1000.0,1330.0,1471.0,1011.0,94.0,292.63,1649151457.4838965,1649151458.6444066,550a0162-b178-4e0b-8ae2-15b56180ecb4
0.2216257161447803,0.2870010303985004,0.642515449409623,-0.1692455819220141,0.3438691378927972,-0.0256092162434129,0.3024507475013354,0.2811235634089271,-8.489946724736052,28.33815295205509,17.51269771163959,0.5425972609713405,1.043353920568736,-1.7344313194100267,-1.0,11.97577777777778,0.0,179.17217242117243,1.1048624399088274,94.67855838362192,1553.0,1435.0,1000.0,1330.0,1471.0,1011.0,94.0,292.63,1649151458.752681,1649151459.8744688,550a0162-b178-4e0b-8ae2-15b56180ecb4
0.2905352901381541,0.3214210277940081,0.8556552475674638,-0.148905095068291,0.5356214899408015,-0.0886402334654065,0.5070093816871286,0.4873137321446967,-6.962087357497083,28.74478244326548,17.604446091126913,0.3691672400524273,1.1718373349421782,-2.572011716719165,-1.0,11.967444444444444,0.0,179.14726499799914,1.1076966126753631,94.620870605892,1553.0,1435.0,1000.0,1210.0,1471.0,1011.0,94.0,292.63,1649151462.0142972,1649151463.151264,50727fbe-59a1-4a66-ae6d-392de495d7e5
0.2942459615478864,0.3215032071431078,0.8668584836786569,-0.1490228854814432,0.5459777308418368,-0.0890516780993587,0.5181813895576904,0.4979849939522764,-6.938949434099686,28.78952372772919,17.62745477700332,0.3693781318381104,1.1725033542634542,-2.617255913117916,-1.0,11.964,0.0,179.14750177789037,1.1097975598913117,94.6271437551897,1553.0,1435.0,1000.0,1210.0,1471.0,1011.0,94.0,292.63,1649151463.2597263,1649151464.3828323,50727fbe-59a1-4a66-ae6d-392de495d7e5
0.2794547748984219,0.312353906611815,0.8576549449475358,-0.1400708141109794,0.5395113122166028,-0.0880786745225298,0.5087214513547283,0.4941620108328954,-7.0178551144317325,28.873117119709,17.590819007878718,0.3514212378991923,1.1373868622631145,-2.5836037786033863,-1.0,11.966222222222225,0.0,179.1491926291649,1.1027817579590102,94.61855593067328,1553.0,1435.0,1000.0,1210.0,1471.0,1011.0,94.0,292.63,1649151464.490751,1649151465.609042,50727fbe-59a1-4a66-ae6d-392de495d7e5
0.2913022973510563,0.3093954501438817,0.9246174143689108,-0.054385138921481,0.6063368151926999,-0.1711483080048248,0.5495097990193428,0.5361008693810794,-6.767419776497685,29.766186157924675,16.989524625095637,-0.0192484508502307,1.1235580576999766,-2.8246198053808427,-1.0,11.954666666666666,0.0,179.12870054383504,1.0755650786580309,94.56807400251772,1553.0,1435.0,1000.0,1071.0,1471.0,1011.0,94.0,292.63,1649151467.5433912,1649151468.681411,86c1bf3c-6d37-4ad6-ab83-034c494a9b52
0.2862252573264325,0.3182554793860879,0.9233584267420786,-0.0608608720622172,0.6032402975371791,-0.1739265181768309,0.5474898307764633,0.5247425883572648,-6.7350201129197975,29.6796932685176,16.969244588555725,-0.0115067772395291,1.157455000200124,-2.81476525572728,-1.0,11.952000000000002,0.0,179.13438781468392,1.075890117399939,94.56765053078918,1553.0,1435.0,1000.0,1071.0,1471.0,1011.0,94.0,292.63,1649151468.7901847,1649151469.9092865,86c1bf3c-6d37-4ad6-ab83-034c494a9b52
0.2932061188762729,0.314915162896917,0.9243434831531522,-0.0717386793684454,0.6035838071937586,-0.1585748661730252,0.5531119936186754,0.5395660983872066,-6.711588961923103,29.6612604005809,17.287717028093677,0.0475175193213202,1.143339754968935,-2.824607058389971,-1.0,11.94988888888889,0.0,179.13946643978682,1.0822706050177235,94.53787166491784,1553.0,1435.0,1000.0,1071.0,1471.0,1011.0,94.0,292.63,1649151470.018357,1649151471.1460202,86c1bf3c-6d37-4ad6-ab83-034c494a9b52
0.0403813518667703,0.2002201874995493,0.1082067096103745,-0.1381943854427121,-0.1372493228360692,0.0601865756556081,-0.2414116606733692,-0.2709551417351916,-12.376691239676704,28.53342431535028,17.553595165406698,0.6380874698340203,0.7073278662745487,0.4105664454542988,-1.0,11.988444444444449,0.0,179.22332902023604,1.1325170932323667,94.65009015516132,1553.0,1435.0,1000.0,1613.0,1471.0,1011.0,94.0,292.63,1649151473.0765436,1649151474.2210915,5797eccd-f5fc-40a9-a461-2d5d7412e13b
0.0456408303699166,0.194892226423996,0.1094120067501281,-0.1352907148362985,-0.1364001361395836,0.0624465078030522,-0.2396585009673327,-0.2592993689761253,-12.27722325055594,28.66359513397987,17.522146868997392,0.6375838600822407,0.6866406013725633,0.4046233005301839,-1.0,11.989777777777778,0.0,179.21647606376877,1.1326786580369523,94.62756343236872,1553.0,1435.0,1000.0,1613.0,1471.0,1011.0,94.0,292.63,1649151474.3348615,1649151475.4394271,5797eccd-f5fc-40a9-a461-2d5d7412e13b
0.0410250901046564,0.1975219655680308,0.1141099262589544,-0.1367425501411796,-0.1307845467327947,0.0621725766459813,-0.2350564567486573,-0.2664078836022222,-12.425419961600584,28.56057543800296,17.69718102080032,0.6397475829642572,0.6964761265493604,0.3845095357207266,-1.0,11.988888888888887,0.0,179.2127725834188,1.1299352817261017,94.6048135900632,1553.0,1435.0,1000.0,1613.0,1471.0,1011.0,94.0,292.63,1649151475.5475671,1649151476.6695602,5797eccd-f5fc-40a9-a461-2d5d7412e13b
-0.0004343931928504,0.1800999437145725,-0.0158567184215149,-0.1098151141976304,-0.2505198732247007,0.0588306163535289,-0.3756105620265506,-0.3991686477721465,-13.100329522647243,28.932633141918483,17.278155132126063,0.5670844705554535,0.6280753858299029,0.9217836764969728,-1.0,11.988,0.0,179.2280160478265,1.130463328868341,94.56268498326256,1553.0,1435.0,1000.0,1694.0,1471.0,1011.0,94.0,292.63,1649151478.3960905,1649151479.5110652,f7cc8790-67d9-4dea-9ed6-e81f36b2b622
0.0041988787102906,0.1741589246746528,-0.0187587453233046,-0.1061449841426462,-0.2509252914070363,0.0628552131298669,-0.3787437873492972,-0.4079338991540638,-13.340117063546726,28.981821538275447,17.480526618034332,0.5679424931693248,0.6050614858216273,0.9301635643256856,-1.0,11.984,0.0,179.2321232682474,1.1335078501169722,94.53238854083412,1553.0,1435.0,1000.0,1694.0,1471.0,1011.0,94.0,292.63,1649151479.6183443,1649151480.7644827,f7cc8790-67d9-4dea-9ed6-e81f36b2b622
0.0039485056184034,0.1778537081882778,-0.020362886299158,-0.1064731537003822,-0.254067282326706,0.0615562315185216,-0.3815959592401133,-0.4130843540304246,-13.284929982665192,29.04663847174939,17.749159209226388,0.5661841832976594,0.6160874959026473,0.9415256412549872,-1.0,11.981333333333332,0.0,179.2151024368357,1.1280756085709909,94.48616865072064,1553.0,1435.0,1000.0,1694.0,1471.0,1011.0,94.0,292.63,1649151480.8730876,1649151482.20456,f7cc8790-67d9-4dea-9ed6-e81f36b2b622
-0.0391134756310024,0.160842582994297,-0.1473984734981491,-0.0714236584941081,-0.3693238404727563,0.0495032599526802,-0.5223829174029042,-0.5541315497201803,-14.117183138353482,29.43012432489158,17.2233997479257,0.4557503786326948,0.5504734916131584,1.4688913872726503,-1.0,11.972666666666669,0.0,179.2346246353034,1.116716245071352,94.46288908929952,1553.0,1435.0,1000.0,1774.0,1471.0,1011.0,94.0,292.63,1649151484.5424252,1649151485.681368,53082a9c-f138-4af0-a67e-704d05941501
-0.036182411985298,0.1603358103425835,-0.1463301418367994,-0.07032793375868,-0.3677624324941802,0.0499004601517045,-0.5217528755270914,-0.5439687008963179,-14.19642700660657,29.44581177527052,17.359403396010805,0.4543102341770735,0.5478613431831271,1.464489647585036,-1.0,11.976000000000004,0.0,179.22234699081537,1.1088427919374888,94.41643014256508,1553.0,1435.0,1000.0,1774.0,1471.0,1011.0,94.0,292.63,1649151485.7901945,1649151486.9090176,53082a9c-f138-4af0-a67e-704d05941501
-0.0398624034456563,0.1677555098236766,-0.1438160013576191,-0.072642104402214,-0.3668573637372065,0.0454331906023374,-0.5203552783092111,-0.544969644937293,-14.132318327696645,29.392836111434956,17.47018835899632,0.4493158207915296,0.5746975061815388,1.4589403012459798,-1.0,11.975333333333332,0.0,179.24086591038497,1.1065367137450617,94.376198051624,1553.0,1435.0,1000.0,1774.0,1471.0,1011.0,94.0,292.63,1649151487.0180168,1649151488.339391,53082a9c-f138-4af0-a67e-704d05941501
-0.08483094642954274,0.14449546686194706,-0.2565134880470436,-0.025293647528767078,-0.4668532197053399,0.028786941060494984,-0.64918624453211,-0.6693037571906072,-15.036840601033616,29.975792860939194,17.130147921666637,0.3028463475572283,0.4839098175624057,1.9284344778666074,-1.0,11.949666666666666,0.0,179.25622017563916,1.0985442540512846,94.32114445018397,1553.0,1435.0,1000.0,1856.0,1471.0,1011.0,94.0,292.63,1649151489.4577086,1649151490.5954583,d8e0de4b-b14e-4202-839a-22aebe5ebb59
-0.0810178243779511,0.14124773897828055,-0.25450173728450104,-0.024005075253776025,-0.4644338590318807,0.030667204651784092,-0.6459385153894343,-0.6680546305978868,-14.97898230423533,29.97671589968492,17.133674060755922,0.3043008247256627,0.47125700361090983,1.917436288221759,-1.0,11.95411111111111,0.0,179.2424778350291,1.0960862752976281,94.27679223735353,1553.0,1435.0,1000.0,1856.0,1471.0,1011.0,94.0,292.63,1649151490.703994,1649151491.8265011,d8e0de4b-b14e-4202-839a-22aebe5ebb59
-0.07560056125497247,0.14429823642353287,-0.25252943258588895,-0.02667426068275196,-0.46330307086200095,0.029865134157861618,-0.6431509908121936,-0.6663321507796967,-14.873586247101652,29.90147220766105,17.113828558660703,0.30816879188927443,0.4825805378935473,1.909661108305894,-1.0,11.955,0.0,179.25554626364107,1.1019437316933451,94.23887482163117,1553.0,1435.0,1000.0,1856.0,1471.0,1011.0,94.0,292.63,1649151491.9340198,1649151493.0539198,d8e0de4b-b14e-4202-839a-22aebe5ebb59
