raw_voltage_G-,raw_voltage_G0,raw_voltage_G1,raw_voltage_G2,raw_voltage_G3,raw_voltage_G4,raw_voltage_G5,raw_voltage_G6,load_x,load_y,load_z,load_l,load_m,load_n,rpm,voltage,current,roll,pitch,yaw,aileron1_pwm,elevator_pwm,throttle_pwm,rudder_pwm,aileron2_pwm,pbaro,pdiff,Tt,sample_start_time,sample_end_time,uid
-0.1535071391617792,0.0290816910090563,-0.3266316600418819,-0.0611923288525198,-0.4741847153184451,0.1806341094284548,-0.6946993777809247,-0.7166686672048255,-21.565496428818644,28.967597245730605,17.542689174218427,0.7116503747016102,0.0935475449224898,2.0809501783636493,-1.0,11.98688888888889,0.0,179.3016257554216,1.0884291944932536,96.51453751763842,1553.0,1435.0,1000.0,1528.0,1471.0,1011.0,94.0,292.63,1649151887.083243,1649151888.2240956,2beba481-4fb2-4fa0-a8c8-33c2a051b9e8
-0.1676008990887549,0.0222471082212306,-0.3322609465342813,-0.0568368230257281,-0.4774581936292039,0.1836747453477324,-0.699013795365155,-0.7276396148374925,-21.60633750309232,28.94948142120209,17.555251525374292,0.7082391868447644,0.0671979973878755,2.0984327189330965,-1.0,11.987222222222222,0.0,179.30615644757103,1.0774828914268582,96.84497675731429,1553.0,1435.0,1000.0,1528.0,1471.0,1011.0,94.0,292.63,1649151888.33305,1649151889.4510098,2beba481-4fb2-4fa0-a8c8-33c2a051b9e8
-0.1609991573257125,0.0265889173345143,-0.3335210301026319,-0.0566998574410702,-0.4800057541204148,0.1796479572671288,-0.7031227645173596,-0.7349398836383059,-21.668622635800176,29.044066694741748,17.584017020539488,0.6994190016537756,0.0835731704905983,2.1099552720214114,-1.0,11.99,0.0,179.2976748704417,1.0699852054190515,97.12333352783908,1553.0,1435.0,1000.0,1528.0,1471.0,1011.0,94.0,292.63,1649151889.5594702,1649151890.687476,2beba481-4fb2-4fa0-a8c8-33c2a051b9e8
0.0554393483972858,0.3942549381442632,-0.3024550389992612,-0.3139470013244337,-0.5423924994059981,0.0639071087394477,-0.7285386568951854,-0.7525218892318136,-21.15373492987192,27.80233705623136,18.70111878846395,1.013372948730115,1.4826201829822647,2.233446059489393,-1.0,11.966777777777777,0.0,179.1706971003117,1.077136306758349,97.59831474855056,1663.0,1435.0,1000.0,1528.0,1555.0,1011.0,94.0,292.63,1649151892.4091346,1649151893.5464218,230b5b5d-ef55-44c2-87bf-a228a535d459
0.0513249022122239,0.390342105594542,-0.3026352857525541,-0.313976037920149,-0.542749705782017,0.068952373114305,-0.7270232690097339,-0.7493897588450608,-21.062537598953245,27.85386502401592,18.87345305996589,1.0251818184131871,1.4657648375729346,2.2318326772013704,-1.0,11.964,0.0,179.16670826983648,1.0793708458340012,97.72668815400094,1663.0,1435.0,1000.0,1528.0,1555.0,1011.0,94.0,292.63,1649151893.654936,1649151894.9787405,230b5b5d-ef55-44c2-87bf-a228a535d459
0.0505085873179915,0.3951490494194675,-0.2989969313364909,-0.3122113730811146,-0.5398285028692901,0.0623555626426985,-0.7261981879102675,-0.7518118596188078,-21.13064945269699,27.885127916607622,18.85341061449541,1.0067281835288624,1.4844674286138868,2.222228058193725,-1.0,11.965333333333334,0.0,179.158334457914,1.059190696192179,97.81905280214704,1663.0,1435.0,1000.0,1528.0,1555.0,1011.0,94.0,292.63,1649151895.0898952,1649151896.2196312,230b5b5d-ef55-44c2-87bf-a228a535d459
0.2724695303985501,0.7791325816740885,-0.2625043634952384,-0.5811000812223063,-0.6066989573284925,-0.0576723131326964,-0.7546766323733595,-0.7793304494680822,-20.618825562276346,27.23493498558976,20.11192021251696,1.3415216993075991,2.94527079472984,2.35061608911621,-1.0,11.934,0.0,178.99328976680985,1.093001235374702,97.88913054303136,1779.0,1435.0,1000.0,1528.0,1638.0,1011.0,94.0,292.63,1649151897.882615,1649151898.869997,965a7551-4547-4712-892c-af1e84d2abe8
0.2684838320636635,0.7820362518230587,-0.2658874139234502,-0.583332621019838,-0.6099724359268447,-0.0587269482116842,-0.7583062219908809,-0.7742353271670815,-20.66025557739856,27.164187657433384,20.04830905692782,1.3435194155641508,2.957077544982931,2.365096032038109,-1.0,11.930333333333332,0.0,178.99136213564404,1.0938899070187442,97.88332564114675,1779.0,1435.0,1000.0,1528.0,1638.0,1011.0,94.0,292.63,1649151898.978289,1649151900.1058855,965a7551-4547-4712-892c-af1e84d2abe8
0.2712094470829178,0.7829950108351905,-0.2567518082326489,-0.5817575164116757,-0.6010833665739964,-0.0614525635135067,-0.7496499933618822,-0.7653325603309807,-20.65573927150312,27.163267825442745,20.069050553295217,1.3342959181598255,2.9608428815331784,2.3283739474294167,-1.0,11.938777777777778,0.0,178.97305267520898,1.0933988567345092,97.87986273523754,1779.0,1435.0,1000.0,1528.0,1638.0,1011.0,94.0,292.63,1649151900.2188146,1649151901.3309467,965a7551-4547-4712-892c-af1e84d2abe8
0.3608704008712216,0.9150878974670532,-0.2285725052584423,-0.7040820721885441,-0.6202065079705086,-0.0978876025607713,-0.7491689699857267,-0.7634879065911678,-20.54033423509527,27.7983314000722,17.379574261651697,1.5335981768858524,3.4961494291001127,2.326261484940172,-1.0,11.892,0.0,178.82404830391562,1.107307695063561,97.78641436374316,1904.0,1435.0,1000.0,1528.0,1723.0,1011.0,94.0,292.63,1649151903.4715965,1649151904.60753,c0faef3d-adc4-4fb4-915d-d1ad251bbbdb
0.3577410114022601,0.9132865262133458,-0.2196445395029868,-0.7026620123349845,-0.6116992986385477,-0.0987291191550749,-0.7393074436164235,-0.7673141791417531,-20.420721220231474,27.804628006033496,17.26662106516334,1.529032368427715,3.489938953935335,2.288180084472333,-1.0,11.896666666666668,0.0,178.83700744950085,1.1131452537901332,97.71826501293452,1904.0,1435.0,1000.0,1528.0,1723.0,1011.0,94.0,292.63,1649151904.7164834,1649151905.843705,c0faef3d-adc4-4fb4-915d-d1ad251bbbdb
0.3591413474514968,0.923535386263744,-0.2289203978577052,-0.7003149692675752,-0.6223404324952927,-0.1049254425953333,-0.7535535141338984,-0.7794263251309826,-20.55538787100574,27.88817738350501,18.029258418613352,1.5099598123213642,3.521696717953344,2.337808937552376,-1.0,11.894333333333334,0.0,178.82284922626135,1.1085558054126752,97.66811396949872,1904.0,1435.0,1000.0,1528.0,1723.0,1011.0,94.0,292.63,1649151905.9532163,1649151907.2748778,c0faef3d-adc4-4fb4-915d-d1ad251bbbdb
0.4254874720609655,1.0245748917994977,-0.1665462639855737,-0.7219692371011087,-0.5934132912617547,-0.1847489920520271,-0.7256399160085961,-0.7562106482185769,-19.964726837026003,28.65973794288533,18.25589218705784,1.3879863954482232,3.901100468754914,2.186095270528437,-1.0,11.794000000000002,0.0,178.82119632048222,1.1282753204564098,97.5008889302295,2045.0,1435.0,1000.0,1528.0,1813.0,1011.0,94.0,292.63,1649151908.38404,1649151909.5212247,a64f40dc-32a5-4b64-b9e0-b6f5142a3a4e
0.4198307938262446,1.0124123485397618,-0.1650670355283758,-0.7174493706420052,-0.5890988739342852,-0.175407938166353,-0.7202982559993224,-0.7484857860280484,-19.95579645301984,28.655852242291427,18.50745737980188,1.3988737726059846,3.8527279307408513,2.169527753393796,-1.0,11.802,0.0,178.81422042060987,1.1176964246491177,97.25629302586216,2045.0,1435.0,1000.0,1528.0,1813.0,1011.0,94.0,292.63,1649151909.6295996,1649151910.7550976,a64f40dc-32a5-4b64-b9e0-b6f5142a3a4e
0.4185707105441731,1.0154392878086516,-0.1657792567175749,-0.7202160768396055,-0.5902904749967125,-0.1779554983226561,-0.7217363953991379,-0.7374052652835714,-19.98286948962115,28.621675513806053,18.197212669285964,1.399064967913353,3.867317010813329,2.1740687194286648,-1.0,11.804111111111114,0.0,178.7910266160083,1.112439479433866,97.08470729026284,2045.0,1435.0,1000.0,1528.0,1813.0,1011.0,94.0,292.63,1649151910.8637743,1649151911.978959,a64f40dc-32a5-4b64-b9e0-b6f5142a3a4e
-0.3855542655419766,-0.3965663006823547,-0.3266179634840156,0.2435287037117763,-0.3702415100775718,0.3011090327048804,-0.6280518993197306,-0.6516647752486007,-21.476663960352045,30.45663052944359,15.509585332631636,0.3045899120182696,-1.5229921620803044,1.7922171503439144,-1.0,11.98,0.0,179.4046842030782,1.0509444878559562,96.8500447576784,1444.0,1435.0,1000.0,1528.0,1381.0,1011.0,94.0,292.63,1649151913.0947597,1649151914.2315795,105acc53-2d30-4fe6-9920-3be79b06a181
-0.3741861197404016,-0.3792675438390592,-0.3106203805350143,0.2345985479365853,-0.3595171027590444,0.2912338145736341,-0.614327942983124,-0.6375710110902334,-21.278689195369807,30.39267612652669,15.460461530742288,0.3030076580443655,-1.4569645699175318,1.7383739264547036,-1.0,11.976,0.0,179.43111399952653,1.0557132524150616,96.8596525571109,1444.0,1435.0,1000.0,1528.0,1381.0,1011.0,94.0,292.63,1649151914.339508,1649151915.4669464,105acc53-2d30-4fe6-9920-3be79b06a181
-0.3770344565870054,-0.3858966794577572,-0.3210604469823771,0.2316844682922746,-0.3678040700615279,0.3003995510196324,-0.6217843519810541,-0.6485419584871878,-21.359143323203543,30.330340146480445,15.390922819193383,0.3291930796083916,-1.48094622072655,1.7735519380329396,-1.0,11.974666666666666,0.0,179.4291696723428,1.047457533989057,96.88876737681296,1444.0,1435.0,1000.0,1528.0,1381.0,1011.0,94.0,292.63,1649151915.5757325,1649151916.6895945,105acc53-2d30-4fe6-9920-3be79b06a181
-0.6117118995589098,-0.7838229219332761,-0.3476558810533122,0.5383744979500199,-0.2966361922376716,0.405065904883888,-0.59913845467818,-0.6235457313139215,-21.84142580651185,32.38318990420705,14.95306041861086,-0.1154534679140883,-3.005528627620612,1.6333708920406036,-1.0,11.942666666666666,0.0,179.5824117965612,1.0420293834417973,96.83690802717476,1331.0,1435.0,1000.0,1528.0,1283.0,1011.0,94.0,292.63,1649151918.4209888,1649151919.5572777,ce7d6578-890c-47d7-ab29-925c11217944
-0.6186697536293075,-0.7864937521038359,-0.3517511527467781,0.5414014371228819,-0.29926593184483,0.4059013949028734,-0.6030419750762811,-0.6180397121041649,-21.89887257005402,32.364594876527896,15.065719224565186,-0.120742188101554,-3.0167703774440184,1.6479225027915512,-1.0,11.94222222222222,0.0,179.58914029180357,1.0385308087669352,96.73106058560708,1331.0,1435.0,1000.0,1528.0,1283.0,1011.0,94.0,292.63,1649151919.665858,1649151920.7850735,ce7d6578-890c-47d7-ab29-925c11217944
-0.6217925700413384,-0.7893152444216125,-0.3493953442397302,0.5408672713926811,-0.2965129231481818,0.4077915198424919,-0.6004122349955751,-0.631613006391313,-21.963124210430465,32.40144749371546,14.89068516036557,-0.1149885180664235,-3.025130871349852,1.636564377252981,-1.0,11.941,0.0,179.57365549404523,1.0381091394494253,96.6549495109559,1331.0,1435.0,1000.0,1528.0,1283.0,1011.0,94.0,292.63,1649151920.8940456,1649151922.012603,ce7d6578-890c-47d7-ab29-925c11217944
-0.8271670718740423,-1.1468383738904322,-0.388342337498067,0.8246774698268214,-0.2510041836408274,0.4980112913787779,-0.6011934868930549,-0.6288715019698659,-22.32387449073568,34.74427796589215,14.889640843070188,-0.5390490718183976,-4.400869830453763,1.5867940474767002,-1.0,11.882333333333332,0.0,179.71569610802484,1.0219389511806354,96.46259924136982,1209.0,1435.0,1000.0,1528.0,1173.0,1011.0,94.0,292.63,1649151923.9492342,1649151925.099908,6dcb29be-b75f-49a5-9cf6-e3eb9604faa5
-0.8339523502853289,-1.1453848938608413,-0.3919505595832204,0.8250571384206383,-0.2545466619854968,0.4967232671176685,-0.6060689155246427,-0.62803820316437,-22.39886325573289,34.76659694492005,14.926140376670215,-0.5428635130007479,-4.395486247890496,1.603648084487121,-1.0,11.882444444444443,0.0,179.72768233110827,1.0112643615771593,96.2374185291732,1209.0,1435.0,1000.0,1528.0,1173.0,1011.0,94.0,292.63,1649151925.2085805,1649151926.319996,6dcb29be-b75f-49a5-9cf6-e3eb9604faa5
-0.8402631796893409,-1.145418313503026,-0.3851472036529552,0.8262158671565465,-0.2472831021233449,0.4945268871830526,-0.59859004418798,-0.6247428098652815,-22.36052574913555,34.687352498084735,14.816738927962014,-0.5505975805245096,-4.3946260247897415,1.5737439598027194,-1.0,11.889222222222225,0.0,179.7127591266817,1.0063624083292386,96.08819710964622,1209.0,1435.0,1000.0,1528.0,1173.0,1011.0,94.0,292.63,1649151926.4303122,1649151927.546159,6dcb29be-b75f-49a5-9cf6-e3eb9604faa5
-0.8459094518786464,-1.1934187627402857,-0.3707482828454265,0.8542171090362505,-0.2268111275796301,0.5041331046538473,-0.5858938782138486,-0.6138759571511697,-22.767234716410183,35.58697809751917,13.258458530534115,-0.5859474974875241,-4.560486787874466,1.499742437893386,-1.0,11.728777777777776,0.0,179.7336746837401,1.0155604794172934,95.69884521164926,1074.0,1435.0,1000.0,1528.0,1047.0,1011.0,94.0,292.63,1649151929.478699,1649151930.6161191,69dff7d6-0afc-441a-a072-dba96a281d57
-0.8519222441788976,-1.206211358859415,-0.3589007575993603,0.8662152933221092,-0.2140322370903934,0.5035852423610725,-0.57295062643059,-0.5902767789584852,-22.576631670709205,35.76826971293863,13.06168142003442,-0.6123872723966576,-4.608794900872141,1.4460978601815435,-1.0,11.743444444444444,0.0,179.71430123161431,0.9997300574858102,95.32921434651588,1074.0,1435.0,1000.0,1528.0,1047.0,1011.0,94.0,292.63,1649151930.7243598,1649151931.85085,69dff7d6-0afc-441a-a072-dba96a281d57
-0.8573186910386204,-1.209073941973153,-0.3631192983668977,0.8684478321740525,-0.2163606522764411,0.505064470549932,-0.5765939120676861,-0.5923312633264016,-22.664805596202864,35.713355010128275,13.136304121145898,-0.6147058904055589,-4.620111871358127,1.4599461705952492,-1.0,11.744444444444444,0.0,179.7147869339553,1.0004622988251113,95.07760687351058,1074.0,1435.0,1000.0,1528.0,1047.0,1011.0,94.0,292.63,1649151931.9650033,1649151933.0739634,69dff7d6-0afc-441a-a072-dba96a281d57
-0.1478230668988753,0.0469967897416875,-0.3178247714800372,-0.0723687211678609,-0.4679116899903338,0.1739912787545177,-0.6857007352885637,-0.7109435033775174,-21.466329819147948,28.63534668093249,17.702634444407064,0.7202456593073108,0.1605493178136953,2.0500902162411627,-1.0,11.990444444444446,0.0,179.32624175719033,1.1143769052806225,94.63260411197618,1553.0,1435.0,1000.0,1528.0,1471.0,1011.0,94.0,292.63,1649151935.0090292,1649151936.1470096,6ff6266b-a039-4d51-9e4c-fbcb4c06f7b7
-0.1431717152553996,0.0421197191435288,-0.3153407632237471,-0.0711037070316728,-0.4645390485870944,0.1762101211049218,-0.6806510861276024,-0.7115110892813266,-21.34090396616717,28.5733558787872,17.533513662520075,0.7221270522316785,0.1428691889434354,2.034216546834005,-1.0,11.991333333333335,0.0,179.33478708275194,1.1219062402031763,94.94021685944584,1553.0,1435.0,1000.0,1528.0,1471.0,1011.0,94.0,292.63,1649151936.2586577,1649151937.3769743,6ff6266b-a039-4d51-9e4c-fbcb4c06f7b7
-0.1384820132861601,0.0477774935786509,-0.3134418721438431,-0.0691774228355528,-0.4631452865340026,0.1702384218448772,-0.6824820429221922,-0.7069030167966509,-21.512002249526383,28.633476515752008,17.72515635879004,0.7048001429363744,0.1634859825407502,2.033164135802181,-1.0,11.991666666666667,0.0,179.34222136420854,1.1325237692679615,95.2454739505618,1553.0,1435.0,1000.0,1528.0,1471.0,1011.0,94.0,292.63,1649151937.485092,1649151938.813858,6ff6266b-a039-4d51-9e4c-fbcb4c06f7b7
-0.1473710804516168,0.0314374991092789,-0.3516278836222433,-0.4021408011964344,-0.5313678623071884,0.5090090790623728,-0.6243264341095021,-0.6455150179345771,-21.45121378947576,27.907432827459782,20.10545416184203,2.2108424410286114,0.1192361193745335,2.0941373895961832,-1.0,11.980777777777778,0.0,179.3228054131279,1.2438866715962058,95.731501104981,1553.0,1537.0,1000.0,1528.0,1471.0,1011.0,94.0,292.63,1649151940.9524028,1649151942.0817688,844adcdc-67f2-440f-b291-34489eb3d44f
-0.1362631706208702,0.0316977337294221,-0.3505869449841389,-0.4028941120942992,-0.5307926066833749,0.5114881559399514,-0.6220117149386332,-0.6372149006204318,-21.3523506573611,27.88616904510292,20.40797576595673,2.218121403095703,0.1169895651656092,2.0891687175793288,-1.0,11.982444444444443,0.0,179.32123598743863,1.249888842624962,95.79327788929406,1553.0,1537.0,1000.0,1528.0,1471.0,1011.0,94.0,292.63,1649151942.190624,1649151943.3133743,844adcdc-67f2-440f-b291-34489eb3d44f
-0.1378793646290899,0.0319990580173108,-0.3562436246920444,-0.4043459475831543,-0.5354768310569717,0.5115292456114315,-0.6276683955591449,-0.6584856637273998,-21.44334298106919,27.81923617402103,20.22358118602328,2.220688154481273,0.1202170338131083,2.111040881061049,-1.0,11.980666666666666,0.0,179.3406595276183,1.2592509568327703,95.92303326968651,1553.0,1537.0,1000.0,1528.0,1471.0,1011.0,94.0,292.63,1649151943.4217708,1649151944.542451,844adcdc-67f2-440f-b291-34489eb3d44f
-0.1389378347758827,0.019517110132039,-0.3995318801530603,-0.7435018795011977,-0.6120806109012346,0.8533021790130114,-0.5766054171296938,-0.6068342793880351,-21.387494123598,27.31330239582504,22.70779155211135,3.7486650069649503,0.0899938916246367,2.200948247474513,-1.0,11.964,0.0,179.33888823189358,1.360844684651421,96.02384230837644,1553.0,1645.0,1000.0,1528.0,1471.0,1011.0,94.0,292.63,1649151945.4542434,1649151946.594834,5dc71a1c-d7d2-48e3-b6c3-c4394102e688
-0.1364790283978259,0.0154541629459203,-0.4062245678914921,-0.7420423736343751,-0.617300645054553,0.8568128806036346,-0.5831929159787124,-0.6014696097020152,-21.5114414380993,27.34853986926673,22.7810574346602,3.753111363926668,0.0743799048572728,2.2260835612136463,-1.0,11.97422222222222,0.0,179.32335486390113,1.3610636657337174,96.04307080870984,1553.0,1645.0,1000.0,1528.0,1471.0,1011.0,94.0,292.63,1649151946.7038748,1649151947.8200607,5dc71a1c-d7d2-48e3-b6c3-c4394102e688
-0.1481287741234513,0.0072493763682588,-0.4048176571346186,-0.7383344396593502,-0.6147892432482768,0.8604945152263416,-0.5794455364272596,-0.6055457073736399,-21.397198469123737,27.376914448360967,22.665935340514515,3.7533176070542,0.0434518531057007,2.2143553062443853,-1.0,11.968333333333334,0.0,179.33220375342586,1.3724112542718183,96.06212324194463,1553.0,1645.0,1000.0,1528.0,1471.0,1011.0,94.0,292.63,1649151947.9285228,1649151949.0493686,5dc71a1c-d7d2-48e3-b6c3-c4394102e688
-0.1265660064979512,0.0157275462513604,-0.390033040989844,-0.9744106362141852,-0.6346262497306239,1.0800322544260534,-0.5091931279660525,-0.5321896570615018,-21.13431903953921,27.675196047576705,24.473701959062605,4.782312295825955,0.0873757161897583,2.1227635405097653,-1.0,11.947,0.0,179.34237769964955,1.4562228691775565,96.0512503396959,1553.0,1761.0,1000.0,1528.0,1471.0,1011.0,94.0,292.63,1649151949.959431,1649151951.0945556,814bcbfa-64d3-40d2-9c33-eb681cd8ee5a
-0.1235116737021984,0.0071261073429217,-0.4044829132333616,-0.9784100337206124,-0.6457478592785777,1.094290371199093,-0.5212050131263889,-0.5526523212600533,-21.459515507199395,27.66789847347899,24.67879156492052,4.822474962089198,0.0551752901303283,2.1736997023671205,-1.0,11.953666666666669,0.0,179.3331964075852,1.4384180601152137,96.01668882358572,1553.0,1761.0,1000.0,1528.0,1471.0,1011.0,94.0,292.63,1649151951.2045414,1649151952.3358305,814bcbfa-64d3-40d2-9c33-eb681cd8ee5a
-0.1245800053661299,0.0084272804255799,-0.3963334591944656,-0.9704934182168172,-0.6375573142952438,1.084154918387752,-0.5152333119224274,-0.5367095221537382,-21.39084376732407,27.676840503196647,24.50951577551836,4.782313951583348,0.0606118044201534,2.142965311925322,-1.0,11.948333333333332,0.0,179.32759565246585,1.428899231011449,96.00161914954694,1553.0,1761.0,1000.0,1528.0,1471.0,1011.0,94.0,292.63,1649151952.4443066,1649151953.562666,814bcbfa-64d3-40d2-9c33-eb681cd8ee5a
-0.1206216996871865,0.0094320599763244,-0.3503031523306866,-0.98850166513331,-0.6060059113323821,1.0982492244628723,-0.4696407440883582,-0.4929402398035671,-20.848449158314192,28.57592972219979,24.63468910497439,4.863153086251274,0.064582519482321,1.9724832163725827,-1.0,11.855666666666666,0.0,179.33152073450887,1.4658997531275832,95.92413748360234,1553.0,1887.0,1000.0,1528.0,1471.0,1011.0,94.0,292.63,1649151954.4649465,1649151955.5978005,502dfc59-4656-407b-a0e5-de0da2ff5c76
-0.1094590037208214,0.0149331458382649,-0.3390270477059356,-0.973410786644324,-0.5945364095104017,1.0769642254464105,-0.4644053702769533,-0.4861555109896998,-20.847797013445657,28.606583721105164,24.41390409405199,4.7820113445129655,0.0860244869874668,1.934511139113259,-1.0,11.872333333333334,0.0,179.33205804272356,1.4586042573203633,95.73606063570696,1553.0,1887.0,1000.0,1528.0,1471.0,1011.0,94.0,292.63,1649151955.7064342,1649151957.0324008,502dfc59-4656-407b-a0e5-de0da2ff5c76
-0.1181102985004629,0.0090901938636678,-0.3401918033054285,-0.9727495172449376,-0.5941063375055614,1.0806168237261824,-0.4639473573250272,-0.4952412624275401,-20.890401246222936,28.587157987776024,24.20371569498538,4.788485835079539,0.0661187162031143,1.9338414693289443,-1.0,11.87022222222222,0.0,179.3294079293256,1.445341381760472,95.5902770780622,1553.0,1887.0,1000.0,1528.0,1471.0,1011.0,94.0,292.63,1649151957.1431446,1649151958.2697074,502dfc59-4656-407b-a0e5-de0da2ff5c76
-0.14464546509366,0.0545983797648776,-0.2694074299244984,0.240789392119089,-0.3947035683649463,-0.13789306119485,-0.7280231181284482,-0.7457053836891477,-21.372023382383684,29.743712824095848,15.42952092038673,-0.6775645979832762,0.1730707040376517,1.9447086205655488,-1.0,11.983,0.0,179.30780328207095,1.0959119394622507,95.32428674448468,1553.0,1335.0,1000.0,1528.0,1471.0,1011.0,94.0,292.63,1649151960.4046338,1649151961.5408316,1db5784e-81f5-4c37-aadd-c6a6b1ec4581
-0.1489176959586835,0.0506137769357488,-0.2736199440488817,0.2326048769641638,-0.3980986719989527,-0.1263282341972752,-0.7282493853432197,-0.7551384809510409,-21.406438323682195,29.65800434913431,15.431269698017996,-0.6339095983418979,0.1590932864365543,1.954856826908084,-1.0,11.98311111111111,0.0,179.30060122704612,1.0567766393494356,95.6069806851324,1553.0,1335.0,1000.0,1528.0,1471.0,1011.0,94.0,292.63,1649151961.649924,1649151962.770705,1db5784e-81f5-4c37-aadd-c6a6b1ec4581
-0.1531647251807853,0.0546257728809832,-0.2759543857995355,0.2305443668275671,-0.4018805665038885,-0.127757607135332,-0.7318444595403477,-0.7643601041905986,-21.387011150075523,29.70300302346418,15.493660881926234,-0.6322717974514381,0.1735567031464304,1.968859124701292,-1.0,11.984777777777778,0.0,179.30995251492973,1.06752411987796,95.80816618386486,1553.0,1335.0,1000.0,1528.0,1471.0,1011.0,94.0,292.63,1649151962.8793752,1649151963.9984686,1db5784e-81f5-4c37-aadd-c6a6b1ec4581
-0.1572408213456358,0.056727920687196,-0.2453765409213893,0.5673180628416613,-0.3425585688335114,-0.4571494795827175,-0.7994101606495556,-0.8162273511518465,-21.5152671626062,30.98808383857964,12.890475628662852,-2.122576259224158,0.1659169814377692,1.941497159318086,-1.0,11.964,0.0,179.3108707959182,0.9756925940841252,96.06679281460724,1553.0,1236.0,1000.0,1528.0,1471.0,1011.0,94.0,292.63,1649151964.9101684,1649151966.04345,77b3daea-ce8e-47f2-a0af-58c96552deea
-0.1683646192615571,0.0618953583095844,-0.2414976750952067,0.5662793159371289,-0.3401523570408145,-0.4623300671071956,-0.7969907994818203,-0.8200010291333902,-21.464471885247008,30.98591857876668,12.761890657477949,-2.131690712878921,0.1864518978325272,1.9299590418853512,-1.0,11.966666666666669,0.0,179.31175872051028,0.9590204106272744,96.18944707499256,1553.0,1236.0,1000.0,1528.0,1471.0,1011.0,94.0,292.63,1649151966.1518717,1649151967.2835572,77b3daea-ce8e-47f2-a0af-58c96552deea
-0.1569909960817628,0.0653140193174507,-0.236987671746075,0.5658191116110638,-0.3364838701654399,-0.4650781452836801,-0.7933880550045194,-0.8207899510538701,-21.45628044401664,30.98364244179907,12.818356406288494,-2.1366052996622984,0.1990580561904469,1.9141811844626928,-1.0,11.967777777777776,0.0,179.30005025845307,0.9618028115085387,96.3003018041318,1553.0,1236.0,1000.0,1528.0,1471.0,1011.0,94.0,292.63,1649151967.41611,1649151968.4024508,77b3daea-ce8e-47f2-a0af-58c96552deea
-0.1628618894606643,0.0723491196355759,-0.203225651357331,0.7319890314993828,-0.2965266198281554,-0.6329552690613117,-0.8156811324342467,-0.8407732410009227,-21.457937401444145,32.295032118886674,11.714698884393464,-2.8784885191561123,0.2169408745371285,1.8456894592196391,-1.0,11.962,0.0,179.30612609117472,0.9106191051316904,96.58933416032932,1553.0,1133.0,1000.0,1528.0,1471.0,1011.0,94.0,292.63,1649151970.5420835,1649151971.8843143,3cc5d7ee-2ab2-4457-8fd9-997e16c30e91
-0.1585474731238941,0.0686647453911188,-0.2047322728796785,0.7247709458189444,-0.2969923028275197,-0.6225595775726828,-0.8135992544156436,-0.8383352525715276,-21.527653843200056,32.20409498777945,11.738117847963698,-2.8395549927569763,0.2041997520307288,1.844925776344452,-1.0,11.950444444444445,0.0,179.30270188967086,0.8899343396910319,96.68243343326613,1553.0,1133.0,1000.0,1528.0,1471.0,1011.0,94.0,292.63,1649151971.9938507,1649151973.1122825,3cc5d7ee-2ab2-4457-8fd9-997e16c30e91
-0.162081185556582,0.0702946358608447,-0.2081290197100417,0.7288662164672385,-0.299868580499855,-0.6265589743811346,-0.818612197182726,-0.8511552370028284,-21.56594300456075,32.20176023554354,11.900446164398767,-2.857958109014858,0.2084255310516973,1.86104712882812,-1.0,11.94988888888889,0.0,179.32170651158145,0.8878687825785175,96.75826522907124,1553.0,1133.0,1000.0,1528.0,1471.0,1011.0,94.0,292.63,1649151973.221117,1649151974.3413174,3cc5d7ee-2ab2-4457-8fd9-997e16c30e91
-0.1575169440026265,0.0768191284666781,-0.1819998185087531,0.8007205474778448,-0.27460609651298,-0.7038453954561495,-0.8196460140036451,-0.8422354863407995,-21.476721643679547,33.0031831184357,11.315292889381404,-3.187151359133184,0.230274294554855,1.7928213282744965,-1.0,11.943666666666664,0.0,179.2986660067813,0.8488885076013173,96.87292513248806,1553.0,1026.0,1000.0,1528.0,1471.0,1011.0,94.0,292.63,1649151976.4838746,1649151977.6218822,e021b68f-549e-446d-a9ae-652c99de84ce
-0.147313554916222,0.0898231889219275,-0.1691535411473303,0.7918451783291514,-0.26632241675468,-0.7087630097939775,-0.8090350111224032,-0.8343199665918867,-21.4040585713746,33.03600150515833,11.355228069434595,-3.177281078302296,0.2800868817807164,1.7505093030746457,-1.0,11.931333333333336,0.0,179.31131551712414,0.8633186340312425,96.89590947795506,1553.0,1026.0,1000.0,1528.0,1471.0,1011.0,94.0,292.63,1649151977.7306526,1649151978.8491356,e021b68f-549e-446d-a9ae-652c99de84ce
-0.1509321859711639,0.080539661608463,-0.1748737723914638,0.8126343609500108,-0.2688595676099746,-0.719969538897166,-0.8180369417943494,-0.8387735421155126,-21.39700004752179,33.17073291136571,11.132225794417929,-3.2487826214588256,0.2442745745048321,1.7732732189308795,-1.0,11.934222222222225,0.0,179.31646092629887,0.8623512254842682,96.92803792890088,1553.0,1026.0,1000.0,1528.0,1471.0,1011.0,94.0,292.63,1649151978.957042,1649151980.0760212,e021b68f-549e-446d-a9ae-652c99de84ce
-0.1391350652306899,0.0402526042634908,-0.3140916369003753,-0.0876316190179702,-0.4642892233115341,0.1934875073624634,-0.6739320998719904,-0.7025962690057073,-21.34645597006844,28.49969532766766,17.59753351793806,0.7978158700025872,0.1374511407439929,2.022352978304523,-1.0,11.988444444444443,0.0,179.3156716599948,1.0978999276816128,96.94364111660482,1553.0,1435.0,1000.0,1528.0,1471.0,1011.0,94.0,292.63,1649151982.0130315,1649151983.1447418,1dceb50c-e757-470d-8b93-1d2dad2c3786
-0.1361125084550401,0.0420386355154959,-0.3132638167641317,-0.0890100407267044,-0.4639122939234663,0.1938923776076438,-0.6725246409595682,-0.6919326723365553,-21.28917406477905,28.45886763667016,17.73213361796128,0.801655907668445,0.1427729594898353,2.019157935746754,-1.0,11.991333333333335,0.0,179.32371762283705,1.1300564108621638,96.944437972008,1553.0,1435.0,1000.0,1528.0,1471.0,1011.0,94.0,292.63,1649151983.25323,1649151984.5830204,1dceb50c-e757-470d-8b93-1d2dad2c3786
-0.1505897719615233,0.037135267520066,-0.3207147458004544,-0.0858461353806244,-0.4696100636599194,0.1965084202559216,-0.6804138616457568,-0.6964799315041889,-21.43805890267628,28.520407857585585,17.77617165338042,0.8003665356194234,0.1241849606133967,2.047674678991448,-1.0,11.990333333333334,0.0,179.33538206811963,1.1395282705574177,96.9584284761579,1553.0,1435.0,1000.0,1528.0,1471.0,1011.0,94.0,292.63,1649151984.692004,1649151985.8145788,1dceb50c-e757-470d-8b93-1d2dad2c3786
-0.0886966633346964,0.0628026183413643,-0.1550581375239258,-0.103370609124537,-0.3199296589256281,0.1783270612079888,-0.5073643629777502,-0.5301642086489526,-20.165841204351043,28.28126697376432,17.77285863789371,0.8063446866569818,0.2241333786280953,1.3755460141193618,-1.0,11.990111111111112,0.0,179.3272996776018,1.1220074360961922,96.89028975008796,1553.0,1435.0,1000.0,1435.0,1471.0,1011.0,94.0,292.63,1649151987.9503405,1649151989.0888207,d5663159-36e2-4c26-ae9f-efc338d7a1e2
-0.0879997824129068,0.0662870228377259,-0.1482471123436621,-0.1012931150420162,-0.3148805587814195,0.172673122015754,-0.5032488200142378,-0.527205751397995,-20.14791756989756,28.401941364181862,17.766926983274505,0.7901003981613204,0.2373057722645013,1.353919594176492,-1.0,11.992,0.0,179.32525669213004,1.1381064409872257,96.87887953962448,1553.0,1435.0,1000.0,1435.0,1471.0,1011.0,94.0,292.63,1649151989.196843,1649151990.316331,d5663159-36e2-4c26-ae9f-efc338d7a1e2
-0.0923125550010861,0.0637361757753801,-0.1510872309464169,-0.1048432632604413,-0.3167608226370938,0.1778800055238991,-0.5037221731856193,-0.529072866587038,-20.160162453588605,28.314756180705288,17.67550051587041,0.809069107497886,0.2288910938836089,1.360584419380784,-1.0,11.990666666666666,0.0,179.3256740925793,1.1334915928437914,96.88937071018962,1553.0,1435.0,1000.0,1435.0,1471.0,1011.0,94.0,292.63,1649151990.425279,1649151991.5459423,d5663159-36e2-4c26-ae9f-efc338d7a1e2
-0.0275683720866592,0.0912826942022283,0.041028377349449,-0.1065525938127431,-0.1436450683033723,0.1421287015827736,-0.3103968526707722,-0.3333018857082991,-18.716180123289405,28.410175175363765,17.681492937993106,0.7435134227661512,0.3343252020398286,0.5919629636942748,-1.0,11.989777777777778,0.0,179.30809925693495,1.1304359606797918,96.82885219850368,1553.0,1435.0,1000.0,1330.0,1471.0,1011.0,94.0,292.63,1649151993.4799817,1649151994.6140358,9b497237-451f-4e28-9512-46727a19a9ec
-0.0311420782718233,0.0956195724616264,0.0412990213443217,-0.1046104216754836,-0.1432347193824983,0.1367229439807312,-0.3122776643758985,-0.3337264792385335,-18.8051639340326,28.381523929064773,17.7659146544554,0.7267771079555835,0.3502502588264691,0.5943234029269985,-1.0,11.991666666666667,0.0,179.30684705558713,1.128139060554061,96.8520224768981,1553.0,1435.0,1000.0,1330.0,1471.0,1011.0,94.0,292.63,1649151994.7230115,1649151995.8466876,9b497237-451f-4e28-9512-46727a19a9ec
-0.0275398832716448,0.0948388686309474,0.0403402622423544,-0.1051993737135835,-0.1448646099636318,0.1380515101246011,-0.3131268511422634,-0.3325622712646323,-18.7573501491518,28.439870301566696,17.76102462125351,0.7314534390701,0.3470397927264563,0.5989622927345092,-1.0,11.992,0.0,179.2994325057881,1.1369157231998872,96.8511057137295,1553.0,1435.0,1000.0,1330.0,1471.0,1011.0,94.0,292.63,1649151995.955303,1649151997.0754464,9b497237-451f-4e28-9512-46727a19a9ec
0.0269855696298585,0.1231025385881894,0.2034279213792273,-0.0984661451060716,0.0018715595099437,0.0944383812533129,-0.1542823643774674,-0.1783707781489628,-17.62075079763069,28.604419791364307,17.610847250615407,0.6280200921703435,0.4558448607209511,-0.0453703603016681,-1.0,11.99,0.0,179.28545452365168,1.1138643816998366,96.7953269738726,1553.0,1435.0,1000.0,1210.0,1471.0,1011.0,94.0,292.63,1649151997.8621566,1649151998.9211566,4d805426-fb5b-4877-8717-b1bb853242d3
0.0251233854842066,0.1256424283603403,0.2049318034400604,-0.1002549159451301,0.0018392356238846,0.093592481695876,-0.1530414561207596,-0.1777363537623763,-17.52596752394233,28.637852085354933,17.619872240173823,0.630499931803919,0.4649362917114844,-0.0487861449902835,-1.0,11.991444444444449,0.0,179.2862532763296,1.1209894058867755,96.7882209209511,1553.0,1435.0,1000.0,1210.0,1471.0,1011.0,94.0,292.63,1649151999.0546238,1649152000.14916,4d805426-fb5b-4877-8717-b1bb853242d3
0.0158091777018085,0.1154237001337487,0.1993255283115493,-0.0961256770968736,-0.0005740980468474,0.0991193170389077,-0.1565833864145027,-0.169889868354625,-17.62155096133661,28.62521830215833,17.488246703933193,0.6331729155150974,0.427588937912993,-0.0342617396047758,-1.0,11.990111111111112,0.0,179.28387788831827,1.1257207941329233,96.80334903105276,1553.0,1435.0,1000.0,1210.0,1471.0,1011.0,94.0,292.63,1649152000.2570174,1649152001.3759787,4d805426-fb5b-4877-8717-b1bb853242d3
0.0666650477952164,0.1438725473972595,0.3459926521793476,-0.0796963802990687,0.1288200298476276,0.0498593704511496,-0.0189247476683573,-0.0401681110089639,-16.466996249262525,29.06403322384121,17.681991372839274,0.4962428280329425,0.5316831608631077,-0.6019342873281787,-1.0,11.973888888888888,0.0,179.27529309944148,1.1256685835028613,96.78593584321877,1553.0,1435.0,1000.0,1071.0,1471.0,1011.0,94.0,292.63,1649152003.5182464,1649152004.655388,f9dbe422-8918-4060-af3d-f524014b28e3
0.0687058350305669,0.1431740229288373,0.3494852743807395,-0.079764863126442,0.1323537418937745,0.0497224048540325,-0.0166648154085004,-0.044907120386906,-16.599662005445968,29.139799036027554,17.578265609997256,0.4966823834702875,0.5311526940994639,-0.6150811114948159,-1.0,11.97177777777778,0.0,179.2786975692878,1.1283804057627025,96.78878023755313,1553.0,1435.0,1000.0,1071.0,1471.0,1011.0,94.0,292.63,1649152004.7635503,1649152005.8087409,f9dbe422-8918-4060-af3d-f524014b28e3
0.05832384359982,0.1434205609744174,0.3433218234514291,-0.0785732625336511,0.1269299048150003,0.0482568730549347,-0.0224310667532218,-0.0548508222062548,-16.555571329707757,29.0596190422132,17.51509207614183,0.4898748811659379,0.531786402875545,-0.5910673544424616,-1.0,11.974666666666666,0.0,179.27343680580705,1.1169088896082546,96.78236441319277,1553.0,1435.0,1000.0,1071.0,1471.0,1011.0,94.0,292.63,1649152005.9189155,1649152007.1150892,f9dbe422-8918-4060-af3d-f524014b28e3
-0.2071269793440536,-0.0011000458906035,-0.5144778095599578,-0.0404277974714606,-0.6427959758584292,0.2017317395946645,-0.8891895036810249,-0.913869620310004,-22.948931175377712,29.11420614983586,17.589603619104775,0.7031493678494399,-0.0247390253707959,2.839140889243532,-1.0,11.985666666666669,0.0,179.35285824547594,1.1279005138257052,96.85005158786758,1553.0,1435.0,1000.0,1613.0,1471.0,1011.0,94.0,292.63,1649152008.0211174,1649152009.363492,485fc256-7568-4a6f-bd41-e84af54c9bba
-0.2186189411035169,0.0088666660341518,-0.5029069537779768,-0.044017391608205,-0.6346700787112876,0.1923830169575098,-0.8797487346958115,-0.9008524040261916,-22.79235059450296,29.10834416825164,17.259307472885354,0.6908022438833973,0.0156367586195868,2.79967968210698,-1.0,11.988333333333337,0.0,179.35681368391533,1.1387025172879168,96.81388497730246,1553.0,1435.0,1000.0,1613.0,1471.0,1011.0,94.0,292.63,1649152009.4714756,1649152010.5992882,485fc256-7568-4a6f-bd41-e84af54c9bba
-0.2108349121050334,0.0097739260880693,-0.5059048573329978,-0.0415454366702846,-0.6381150383562332,0.1927643290996133,-0.884166699034889,-0.9149346652318918,-22.824275429894737,29.206488486701616,17.733628108536163,0.6866438527384255,0.0145688625427284,2.8154863883708576,-1.0,11.986,0.0,179.35289922661096,1.1271976802453303,96.78381924348598,1553.0,1435.0,1000.0,1613.0,1471.0,1011.0,94.0,292.63,1649152010.7172632,1649152011.761943,485fc256-7568-4a6f-bd41-e84af54c9bba
-0.2668352159633439,-0.0165629129926631,-0.6766275835883964,0.0251973468661187,-0.7909292477006032,0.162206760128333,-1.0796221892527365,-1.0995950735834183,-24.104692592059667,29.926652816102425,17.04687590549281,0.4629407502737895,-0.0880893135042484,3.529864554145885,-1.0,11.970222222222224,0.0,179.35996771349204,1.109265824921239,96.76522974529492,1553.0,1435.0,1000.0,1685.0,1471.0,1011.0,94.0,292.63,1649152012.3587904,1649152013.4554098,103d0086-2542-4537-88df-7a33818b0577
-0.2631754950527393,-0.0125284545988567,-0.6669912292199697,0.0277805178960181,-0.7818369200736615,0.1557063736545423,-1.070779684863976,-1.102268095901228,-24.02449097348008,29.86168824456323,17.094374177128145,0.4426036240287352,-0.0736545168387389,3.4924157824037168,-1.0,11.96188888888889,0.0,179.3613944641187,1.1120513325899388,96.73709619610364,1553.0,1435.0,1000.0,1694.0,1471.0,1011.0,94.0,292.63,1649152013.5636451,1649152014.694347,103d0086-2542-4537-88df-7a33818b0577
-0.2668187801047406,-0.0126791167550363,-0.670415370197622,0.0249453302004975,-0.7852884544678252,0.1578704297984432,-1.073902502420314,-1.103514483700063,-24.064147777148595,29.86148136601754,16.984960262560353,0.4536527617310322,-0.0728371811525925,3.506005548852356,-1.0,11.964777777777776,0.0,179.35957308034,1.1109136792063086,96.70496395060827,1553.0,1435.0,1000.0,1694.0,1471.0,1011.0,94.0,292.63,1649152014.803405,1649152015.916605,103d0086-2542-4537-88df-7a33818b0577
-0.2857824897711379,-0.0193241392734085,-0.762685835514083,0.0867989887998943,-0.868283065623411,0.1106901695561232,-1.1902028082368916,-1.2055210521263269,-24.70502152634236,30.45667793453506,16.64271136006929,0.2070797386232525,-0.1036456361224253,3.908971985888864,-1.0,11.911333333333332,0.0,179.35275806936815,1.0994155300572843,96.63624086390934,1553.0,1435.0,1000.0,1774.0,1471.0,1011.0,94.0,292.63,1649152017.032677,1649152018.1783743,60564a90-5a77-4281-aa6e-b154d6880e5c
-0.2919930582464189,-0.0248690541913758,-0.7588129949472839,0.092510453653707,-0.863591717973453,0.1112610420835764,-1.1870224648484744,-1.2191957082361309,-24.76591554781592,30.58616172260801,16.725045182212913,0.1965125772905369,-0.1251966581894348,3.892174502224544,-1.0,11.900444444444444,0.0,179.3553672016311,1.106958679511754,96.53773208114988,1553.0,1435.0,1000.0,1774.0,1471.0,1011.0,94.0,292.63,1649152018.2915573,1649152019.3994713,60564a90-5a77-4281-aa6e-b154d6880e5c
-0.305899997932317,-0.0285939703687192,-0.7707854360168875,0.0939387307775301,-0.8737660748431925,0.1135434365828003,-1.1983155604502622,-1.2214835827172328,-24.82091741879091,30.55037522964572,16.628837945696386,0.1975431760685451,-0.1388608338756627,3.937833400554828,-1.0,11.914444444444444,0.0,179.35080615308533,1.1041747489527065,96.418209083044,1553.0,1435.0,1000.0,1774.0,1471.0,1011.0,94.0,292.63,1649152019.5078704,1649152020.6305163,60564a90-5a77-4281-aa6e-b154d6880e5c
-0.31847015353065716,-0.02092828024920731,-0.8379358592280383,0.13823668753348353,-0.9387206700714918,0.06760189237817839,-1.2915661946052177,-1.3157861163028506,-25.461560661394106,31.320316482868584,16.34121733900906,-0.004226886404915213,-0.1127242933550466,4.250752638830368,-1.0,11.880777777777777,0.0,179.35233004418015,1.0841705122559142,96.2157121879909,1553.0,1435.0,1000.0,1856.0,1471.0,1011.0,94.0,292.63,1649152022.568188,1649152023.7018778,a7e2f0d0-751a-4071-a9df-1495e633fb37
-0.32341296835499284,-0.024759481720160573,-0.832253976081874,0.14159891868669264,-0.9327182868127929,0.06628154417469811,-1.284213327401816,-1.3092095711385687,-25.282894349057532,31.28667457815116,16.109779366845462,-0.014665307728301743,-0.12636128762222873,4.223741462106845,-1.0,11.887333333333332,0.0,179.36009672817636,1.078707013108106,96.12580564903611,1553.0,1435.0,1000.0,1856.0,1471.0,1011.0,94.0,292.63,1649152023.810737,1649152024.930298,a7e2f0d0-751a-4071-a9df-1495e633fb37
-0.3167016536062449,-0.023567881090578956,-0.8324320314363236,0.140612766499177,-0.9326361074162021,0.06836342108577324,-1.2843092034078538,-1.3159208903518473,-25.354457906265683,31.265546616092664,16.44200192791124,-0.007894525461704925,-0.12422026132009528,4.224571479796407,-1.0,11.883222222222223,0.0,179.37208750471927,1.0664106211737385,96.02137129771671,1553.0,1435.0,1000.0,1856.0,1471.0,1011.0,94.0,292.63,1649152025.0384073,1649152026.1575744,a7e2f0d0-751a-4071-a9df-1495e633fb37
