raw_voltage_G-,raw_voltage_G0,raw_voltage_G1,raw_voltage_G2,raw_voltage_G3,raw_voltage_G4,raw_voltage_G5,raw_voltage_G6,load_x,load_y,load_z,load_l,load_m,load_n,rpm,voltage,current,roll,pitch,yaw,aileron1_pwm,elevator_pwm,throttle_pwm,rudder_pwm,aileron2_pwm,pbaro,pdiff,Tt,sample_start_time,sample_end_time,uid
-0.0127497910483154,0.1264686047559665,0.0077884729241464,-0.0880918232214959,-0.1983436493501825,0.0856550522623526,-0.3541557209138349,-0.3835299145206813,-16.170604229506626,28.904304909021874,16.655588543214467,0.5777049800794005,0.452997595269925,0.778627160994926,-1.0,11.990333333333334,0.0,179.28583587588037,1.135515569993937,95.89469481482011,1553.0,1435.0,1000.0,1528.0,1471.0,1011.0,94.0,292.63,1649150832.9598875,1649150834.106821,ea5c6aa7-ced3-4876-8f01-69e70d68658a
-0.02118467990314,0.1280667191781946,0.0073315557197112,-0.0905851448703602,-0.1986920898407963,0.0869496509731231,-0.3549287548185014,-0.3702689036166126,-16.276837445217218,28.889049048185026,16.731809016260254,0.586073229530831,0.4593456048728628,0.7810361959892113,-1.0,11.992,0.0,179.27802821074908,1.1289958816979118,96.06730128424545,1553.0,1435.0,1000.0,1528.0,1471.0,1011.0,94.0,292.63,1649150834.21993,1649150835.323541,ea5c6aa7-ced3-4876-8f01-69e70d68658a
-0.0248202945056781,0.1259821030079594,0.007301971158726,-0.0902876556454528,-0.1981464188865383,0.0876273566655371,-0.3537349625575987,-0.3768635236801196,-16.224575060494765,28.840431532937792,16.581605902067146,0.5866036617165326,0.4524490455828738,0.7782286168864218,-1.0,11.985666666666669,0.0,179.2718021138657,1.123544453960824,96.22062688855368,1553.0,1435.0,1000.0,1528.0,1471.0,1011.0,94.0,292.63,1649150835.4332726,1649150836.4815383,ea5c6aa7-ced3-4876-8f01-69e70d68658a
0.1744087498489466,0.4848100015444956,0.0222651876753382,-0.2830607092121404,-0.2696358885337394,-0.0787168023413516,-0.413022445233711,-0.4279199218562049,-15.866078885199697,28.02054223847308,17.517411975941158,0.6432944588126358,1.8121096295613155,0.9832511258607496,-1.0,11.968,0.0,179.13203822960946,1.1260391271943182,96.44186809941904,1663.0,1435.0,1000.0,1528.0,1555.0,1011.0,94.0,292.63,1649150837.4632556,1649150838.607786,3362b003-882d-402d-8bb3-1d02167b9b0a
0.1743035602708208,0.4878079040194528,0.0218970241775121,-0.2824953152055196,-0.2702538773380579,-0.0819645304646991,-0.4150867909687832,-0.4362036018497211,-15.932512469027602,28.033013624594613,17.538138924958727,0.6347551949817473,1.823547344500708,0.9878792451771254,-1.0,11.960444444444445,0.0,179.14093720718807,1.136149236050998,96.51671558907373,1663.0,1435.0,1000.0,1528.0,1555.0,1011.0,94.0,292.63,1649150838.7169957,1649150839.8324125,3362b003-882d-402d-8bb3-1d02167b9b0a
0.1800363916273124,0.4888992457098389,0.0282609932152613,-0.2804704157027513,-0.2642449223763136,-0.0855541247184887,-0.4098273113930819,-0.4318119363014815,-15.936560419967504,28.060016337372502,17.489409310748147,0.6226073022263329,1.8282556702935429,0.9635988275996328,-1.0,11.96388888888889,0.0,179.13015461521834,1.1344579934635446,96.57275046102453,1663.0,1435.0,1000.0,1528.0,1555.0,1011.0,94.0,292.63,1649150839.9410846,1649150841.0595038,3362b003-882d-402d-8bb3-1d02167b9b0a
0.3869590558625033,0.8739812413592839,0.0470652725311648,-0.4797318228979947,-0.3416841803805175,-0.2720782591869981,-0.478595008252866,-0.5022900617566658,-15.67266620348871,27.73325010975369,18.33696002253561,0.6519856791574342,3.288887576410801,1.1877140143008094,-1.0,11.935666666666666,0.0,178.92009897748378,1.1226463908066728,96.64924478517912,1779.0,1435.0,1000.0,1528.0,1638.0,1011.0,94.0,292.63,1649150842.9932144,1649150844.1321728,11e1ad4a-3150-4558-923c-5193cda041f7
0.3953725771969648,0.8747345520203998,0.0482470116092806,-0.4831839043772307,-0.3398630856486214,-0.2712663270801286,-0.4747029932078103,-0.4964640917189964,-15.572788042469606,27.53355318608344,18.126948538350565,0.6603490758244607,3.2933639171594966,1.1779978631904957,-1.0,11.938555555555556,0.0,178.92465547257007,1.1198693615845992,96.66952513464472,1779.0,1435.0,1000.0,1528.0,1638.0,1011.0,94.0,292.63,1649150844.2410562,1649150845.3600512,11e1ad4a-3150-4558-923c-5193cda041f7
0.3963061345690278,0.8772853988730188,0.0500615316803371,-0.4846039639298379,-0.3391793533458426,-0.272489155999384,-0.4744005731431169,-0.5014868951507104,-15.6190761746452,27.60849025810443,18.130022409287907,0.6613688300179058,3.3035226576450265,1.1744000337213991,-1.0,11.938666666666666,0.0,178.92071673014868,1.1165636804639536,96.70117850798826,1779.0,1435.0,1000.0,1528.0,1638.0,1011.0,94.0,292.63,1649150845.46873,1649150846.5947616,11e1ad4a-3150-4558-923c-5193cda041f7
0.4623783276961233,0.9878922231011338,0.0823284321320397,-0.5652580888224558,-0.3462139070478895,-0.3300410079531889,-0.472993662334902,-0.5022100737271408,-15.439410540702802,28.31643609397966,14.919086638208558,0.7198564116899425,3.757540115244082,1.1459774746361016,-1.0,11.884333333333334,0.0,178.70657663929043,1.1279863892249573,96.69139995382652,1904.0,1435.0,1000.0,1528.0,1723.0,1011.0,94.0,292.63,1649150848.5224774,1649150849.8831005,fcf1326e-23b0-4122-96d8-833043272fef
0.4473099231030094,0.9806604406836944,0.0843533313439024,-0.565560509036764,-0.3426111636316301,-0.3235192536034513,-0.4675106546490696,-0.4913360982625694,-15.395448954362651,28.256248188023875,14.828753125625768,0.7349034134428608,3.7310705901001104,1.1295539527816951,-1.0,11.890444444444446,0.0,178.68650347222967,1.1162186373311949,96.62572085476768,1904.0,1435.0,1000.0,1528.0,1723.0,1011.0,94.0,292.63,1649150849.9923534,1649150851.0939672,fcf1326e-23b0-4122-96d8-833043272fef
0.4508995168789451,0.9843157779947248,0.0871671523012556,-0.5658760777388107,-0.3404416283974674,-0.3269773613287211,-0.4664061639200727,-0.4890087787340152,-15.455554449931372,28.273317580522075,14.820204720320492,0.7280660756493933,3.7454990276571927,1.121569293870032,-1.0,11.886222222222225,0.0,178.67487241898309,1.1135835479778102,96.55410783913992,1904.0,1435.0,1000.0,1528.0,1723.0,1011.0,94.0,292.63,1649150851.2024806,1649150852.476574,fcf1326e-23b0-4122-96d8-833043272fef
0.5185281863879091,1.1024809128200148,0.1244234346372862,-0.5986727716244052,-0.3375752121428319,-0.4019901391795334,-0.4669392341086762,-0.4911136663752731,-15.247463734188836,28.952111177864804,16.453640144153116,0.6402036996350088,4.179151551698905,1.0838208748264313,-1.0,11.791444444444444,0.0,178.61511737066436,1.1136356163122645,96.35861644144556,2045.0,1435.0,1000.0,1528.0,1813.0,1011.0,94.0,292.63,1649150854.5646212,1649150855.7034194,6332e9d9-b0fb-412b-bd05-a902979353d7
0.5308687845489634,1.0991115595174257,0.1266422770809393,-0.5960019417208776,-0.3359864111009014,-0.402154497783352,-0.4658709023228892,-0.48401884753896,-15.246882632976115,29.122139018836,16.321269026172512,0.6350264364319219,4.167498227264622,1.0764709190414312,-1.0,11.803555555555556,0.0,178.62402697298168,1.1105843834541362,96.14955269896043,2045.0,1435.0,1000.0,1528.0,1813.0,1011.0,94.0,292.63,1649150855.8120277,1649150857.1546962,6332e9d9-b0fb-412b-bd05-a902979353d7
0.5317113967516086,1.096750272944209,0.1237599733490317,-0.5963284677301931,-0.3369703720229489,-0.3996633671625884,-0.4666954353201101,-0.4960301842973912,-15.273112185754533,28.97894786326919,16.291365319505708,0.6402501811696246,4.158947700314462,1.0826236358314123,-1.0,11.799555555555555,0.0,178.6281736567178,1.1101201677499215,95.98924057004116,2045.0,1435.0,1000.0,1528.0,1813.0,1011.0,94.0,292.63,1649150857.267522,1649150858.3827431,6332e9d9-b0fb-412b-bd05-a902979353d7
-0.2596560268597011,-0.3156431832631029,-0.0139331736925282,0.1497680939004131,-0.1178604732146923,0.2921290216155147,-0.287452374370645,-0.3072806113525598,-16.474503748816282,30.33358794142162,15.720933651229844,0.5132171933028941,-1.2253941065068223,0.5501164373045114,-1.0,11.979777777777777,0.0,179.3764117733738,1.0674039986691195,95.77519534292138,1444.0,1435.0,1000.0,1528.0,1381.0,1011.0,94.0,292.63,1649150859.4850938,1649150860.6181767,0f8b9d10-7f94-449a-8bb2-6ad8c1583485
-0.2621148333534018,-0.3218625175614973,-0.016641805178053,0.152779145265311,-0.1192805324926971,0.2976383250002388,-0.2879651735934758,-0.304874399684014,-16.415215888524422,30.33940104289096,16.019025625215452,0.518786165025846,-1.2523243370723087,0.5562062582355008,-1.0,11.980777777777778,0.0,179.37689595789496,1.0840552290977354,95.80625828435672,1444.0,1435.0,1000.0,1528.0,1381.0,1011.0,94.0,292.63,1649150860.7267046,1649150861.8436806,0f8b9d10-7f94-449a-8bb2-6ad8c1583485
-0.2728836170144239,-0.3190486961236175,-0.0171940504285459,0.148703049534613,-0.1203587256481729,0.2977566632521784,-0.2884253780192909,-0.3124611984761468,-16.433190924697577,30.293515374044567,15.891032413215004,0.5278856293953547,-1.2400431053611738,0.5592132723129138,-1.0,11.980666666666666,0.0,179.38556574468143,1.0896580712193922,95.80926508541133,1444.0,1435.0,1000.0,1528.0,1381.0,1011.0,94.0,292.63,1649150861.9530468,1649150863.0757504,0f8b9d10-7f94-449a-8bb2-6ad8c1583485
-0.4980167333208831,-0.7173397980144648,-0.0368535433045182,0.3752758923081274,-0.0499885434310538,0.4822733991192215,-0.2350290636237585,-0.2638329303136999,-16.858348749627723,32.08422230029897,16.41335723360723,0.4421876983763221,-2.764608989852237,0.3676373967228599,-1.0,11.944666666666668,0.0,179.5319260738561,1.1033983129692446,95.7640074930609,1331.0,1435.0,1000.0,1528.0,1283.0,1011.0,94.0,292.63,1649150865.0097573,1649150866.1520464,40df8312-1e76-4b9e-8e3d-6743a45c7cd2
-0.4875361240514425,-0.7196501344452041,-0.0410589347892004,0.368891105033638,-0.054102441924632,0.4905165352031879,-0.2368561847523942,-0.2557903101512527,-16.881657424965134,32.06209919798778,16.40474847228302,0.4747444791903731,-2.7725137544474308,0.3812196220376035,-1.0,11.945777777777778,0.0,179.5246375031018,1.1125425370277489,95.65641607652516,1331.0,1435.0,1000.0,1528.0,1283.0,1011.0,94.0,292.63,1649150866.2602367,1649150867.4302328,40df8312-1e76-4b9e-8e3d-6743a45c7cd2
-0.4841558125539558,-0.7131486493887268,-0.0357715151490463,0.360387734224422,-0.0511390544018172,0.4933813071333159,-0.2297558879734265,-0.2505335704205044,-16.73354322622178,31.968162248860125,16.65234256969448,0.5001181090947787,-2.7499914206882123,0.3610702013228896,-1.0,11.943888888888887,0.0,179.52184016118173,1.121486527450273,95.59646750617992,1331.0,1435.0,1000.0,1528.0,1283.0,1011.0,94.0,292.63,1649150867.5401375,1649150868.6132288,40df8312-1e76-4b9e-8e3d-6743a45c7cd2
-0.6439004668733118,-1.0052794110584289,-0.0537605758208684,0.5204298164215841,-0.0099491186575534,0.6347314219894024,-0.1964765343173548,-0.22650815991509,-16.787315657856592,33.82408443614347,17.042356146813884,0.4681774636820861,-3.869549024557709,0.2479125631032848,-1.0,11.873111111111111,0.0,179.640339389822,1.1137085902430846,95.37457363279393,1209.0,1435.0,1000.0,1528.0,1173.0,1011.0,94.0,292.63,1649150870.5379658,1649150871.6805637,a9b055a3-9fcc-44dd-a98d-4697aedbbdaa
-0.6523222097461852,-1.0112544015495326,-0.0595487417320452,0.5186514554207959,-0.0141035589162313,0.644591299627447,-0.2013355259570981,-0.2168811223993287,-17.020968505641243,33.9024124000392,17.338097425101974,0.4945060334584933,-3.893072937893405,0.2678621403702899,-1.0,11.879,0.0,179.62946724648313,1.0996095501183951,95.16980683820668,1209.0,1435.0,1000.0,1528.0,1173.0,1011.0,94.0,292.63,1649150871.7905684,1649150872.91063,a9b055a3-9fcc-44dd-a98d-4697aedbbdaa
-0.6608414722601924,-1.0080220115602203,-0.0631920264495983,0.5187473313183898,-0.0180755609905976,0.6386880834491211,-0.2064169496621666,-0.2317555860609101,-17.002594172152456,33.86680908127537,16.928684870790075,0.4805510024460238,-3.87769431904073,0.2853151952774238,-1.0,11.881333333333332,0.0,179.63861969997097,1.1102071933720028,95.01058146827532,1209.0,1435.0,1000.0,1528.0,1173.0,1011.0,94.0,292.63,1649150873.018535,1649150874.344045,a9b055a3-9fcc-44dd-a98d-4697aedbbdaa
-0.7009997972939388,-1.1016654465542246,-0.0434141951180745,0.5755195613319842,0.0201378381369822,0.6682178608916284,-0.1772569736803087,-0.2000480496083509,-17.37908804589996,34.71490203943671,15.69570595928179,0.4250649668526223,-4.221043227450057,0.1516067570014634,-1.0,11.726125,0.0,179.66096807893524,1.1147272933921455,94.8101717651961,1074.0,1435.0,1000.0,1528.0,1047.0,1011.0,94.0,292.63,1649150874.906489,1649150875.973594,f87cde4c-adbb-4986-aacc-dd7466722d7e
-0.6999796772649526,-1.095821394690318,-0.0305925723153668,0.5762854728146725,0.0296547549847141,0.659437819830248,-0.1667604781937117,-0.1947014605926477,-17.185145443200543,34.81570412339855,15.449510036891716,0.4049723747234225,-4.19759489766647,0.1066831824113581,-1.0,11.7375,0.0,179.65439743695367,1.1068711084231766,94.49458458214296,1074.0,1435.0,1000.0,1528.0,1047.0,1011.0,94.0,292.63,1649150876.0819175,1649150877.203963,f87cde4c-adbb-4986-aacc-dd7466722d7e
-0.7019311636915847,-1.0934201122749807,-0.0334841898246774,0.5757387062538512,0.0272189590000763,0.6592466158889198,-0.1695321139927686,-0.2005274291989196,-17.212639566522572,34.73363824598781,15.6644297044707,0.4051084970730232,-4.19041624583473,0.1184919770003043,-1.0,11.743000000000002,0.0,179.64035912147958,1.0987295703643905,94.1818571613498,1074.0,1435.0,1000.0,1528.0,1047.0,1011.0,94.0,292.63,1649150877.3136077,1649150878.4430835,f87cde4c-adbb-4986-aacc-dd7466722d7e
-0.0201262098492235,0.1411031033248331,0.0057635736678968,-0.1218839745326927,-0.2043920502254588,0.1035898736994557,-0.3498297991082496,-0.3691846837363953,-16.134470745021673,28.56957015696183,16.832637986528404,0.6919603205819337,0.5100874263487629,0.7853531174048914,-1.0,11.991666666666667,0.0,179.2534334584578,1.1434392297613865,93.86297991411897,1553.0,1435.0,1000.0,1528.0,1471.0,1011.0,94.0,292.63,1649150879.553738,1649150880.690839,f6cdd283-06f2-4c1f-b1ca-bc1b376862af
-0.0129864675804941,0.1440352625077879,0.0064999006578703,-0.1186493950489519,-0.2038529536377856,0.0993822909687313,-0.351184115056136,-0.381334081621042,-16.18270114171211,28.602565935744263,17.063680762146465,0.6754768503149982,0.5190274354472381,0.7862051583323421,-1.0,11.988888888888887,0.0,179.24487599033768,1.1294027522722194,94.17208164282768,1553.0,1435.0,1000.0,1528.0,1471.0,1011.0,94.0,292.63,1649150880.7993984,1649150881.9198897,f6cdd283-06f2-4c1f-b1ca-bc1b376862af
-0.0029671608433191,0.1427466903104258,0.007223078979134,-0.1176237966626906,-0.2034716413919403,0.0996058187998541,-0.3500927730712476,-0.3729715088201205,-16.10351724769643,28.63334201855657,17.056424828866376,0.6739443788524152,0.5136184657576152,0.7830317726054626,-1.0,11.989333333333333,0.0,179.26315509437643,1.1401096192627107,94.46851261171616,1553.0,1435.0,1000.0,1528.0,1471.0,1011.0,94.0,292.63,1649150882.0280964,1649150883.3619585,f6cdd283-06f2-4c1f-b1ca-bc1b376862af
-0.0015712075697204,0.1335453424865286,-0.0125558477219571,-0.3960321348110413,-0.250273335138978,0.3795081285861555,-0.2915410716109198,-0.3062374814885253,-16.084971525946546,28.13066546651893,19.274008352401804,1.9269889115269112,0.4923377900823138,0.7901655875590335,-1.0,11.984222222222222,0.0,179.2780767809832,1.2268227364733653,94.98948832629851,1553.0,1537.0,1000.0,1528.0,1471.0,1011.0,94.0,292.63,1649150885.48991,1649150886.6294498,913172db-96cd-4dca-bf79-f5a12612e249
-0.0140624692565607,0.1286830643020202,-0.019472609970658,-0.3980729224404201,-0.2554917246034615,0.387164504249017,-0.296060936592985,-0.3177699855337162,-16.15463486842931,28.078866429017257,19.374909551762755,1.9480905536558728,0.4735119661949822,0.812645479955839,-1.0,11.985888888888889,0.0,179.27823311642422,1.2370127265268225,95.10047814140133,1553.0,1537.0,1000.0,1528.0,1471.0,1011.0,94.0,292.63,1649150886.7376728,1649150887.860629,913172db-96cd-4dca-bf79-f5a12612e249
-0.0138159312113385,0.1261902906915374,-0.0168017809849869,-0.3965252110374763,-0.2524784813451204,0.3868905730893392,-0.292773762061645,-0.3200299183369863,-16.1100646171917,28.078411736701145,19.21415601283603,1.9441105217582213,0.4652505990439146,0.7997370352611767,-1.0,11.986333333333333,0.0,179.28370789249894,1.247337494236714,95.2354563397791,1553.0,1537.0,1000.0,1528.0,1471.0,1011.0,94.0,292.63,1649150887.9688818,1649150889.2928743,913172db-96cd-4dca-bf79-f5a12612e249
0.007196781533822,0.1261004412670423,-0.0372852588446543,-0.7331275536559511,-0.3107913136049224,0.713636740481149,-0.2240230557690171,-0.2543045073728052,-15.921053572967914,27.703963335983648,21.776124992054896,3.434646536537701,0.4810072282701849,0.8101331584298207,-1.0,11.972888888888887,0.0,179.26454541732753,1.3491854568744708,95.43282755731504,1553.0,1645.0,1000.0,1528.0,1471.0,1011.0,94.0,292.63,1649150890.9045885,1649150891.8594477,36f07cf8-2a6c-485c-8a2d-7f2112a9123f
0.0012502835535462,0.1277653948944696,-0.0380862336217771,-0.7377202856013364,-0.3122776643755939,0.7158681835908332,-0.2255510440166774,-0.2549849522440726,-16.04020959722094,27.75447797146361,21.715141405595705,3.4502462483767165,0.4891512124625909,0.8153960856641452,-1.0,11.974333333333334,0.0,179.26884084740556,1.3557236673154327,95.41535517450824,1553.0,1645.0,1000.0,1528.0,1471.0,1011.0,94.0,292.63,1649150891.970296,1649150893.1796658,36f07cf8-2a6c-485c-8a2d-7f2112a9123f
0.0024238046922584,0.1235890403430869,-0.0363254039902689,-0.7304057724184247,-0.3087532653797544,0.7142284317548163,-0.2234182156814178,-0.2428782886592008,-16.019652694701012,27.73016342539896,21.872896887581675,3.4300237458367104,0.4711543058515084,0.8049644793839102,-1.0,11.974625,0.0,179.2875684671998,1.3708990744019611,95.44406625413936,1553.0,1645.0,1000.0,1528.0,1471.0,1011.0,94.0,292.63,1649150893.2874012,1649150894.4122565,36f07cf8-2a6c-485c-8a2d-7f2112a9123f
0.01709720207687,0.1199583566606545,-0.0534811660358114,-0.9626726782541128,-0.3567777905935667,0.9431214635466136,-0.184283308887964,-0.1997878150333184,-15.9447149622127,28.122245176532,23.579760471232248,4.470368904978496,0.4693948480342394,0.8378640599951487,-1.0,11.955,0.0,179.27670618968978,1.4284537746115171,95.46190443152172,1553.0,1761.0,1000.0,1528.0,1471.0,1011.0,94.0,292.63,1649150896.5510497,1649150897.6892707,d79dc58d-1dd1-4504-9097-457bb314cc08
0.0111118058672342,0.1183010731091039,-0.0380862336444728,-0.9411964615070368,-0.3396023031593189,0.921809620030079,-0.1728466814210672,-0.1903508851923282,-15.804334764885894,28.118291686406867,23.233421229927945,4.374789075741417,0.463586754142722,0.7768012039104132,-1.0,11.952,0.0,179.2827395234566,1.452835664531661,95.39122108053095,1553.0,1761.0,1000.0,1528.0,1471.0,1011.0,94.0,292.63,1649150897.7982464,1649150898.915639,d79dc58d-1dd1-4504-9097-457bb314cc08
0.0153226759416441,0.120275568949863,-0.0437412689359462,-0.9683972952582848,-0.34788379174105,0.9479464868380636,-0.1716912396758109,-0.1973049027311363,-15.843495723916648,28.044248702013533,23.64681886507985,4.494154284463042,0.4705948028965616,0.7947307015610073,-1.0,11.952333333333334,0.0,179.2852879429269,1.4245874962283689,95.34573126174875,1553.0,1761.0,1000.0,1528.0,1471.0,1011.0,94.0,292.63,1649150899.030997,1649150900.1461709,d79dc58d-1dd1-4504-9097-457bb314cc08
0.0113386209187714,0.1145164401046747,-0.0342084638669269,-0.9679370911104718,-0.3442678996876732,0.9540869275761308,-0.1666552885974321,-0.1922820999392476,-15.818774863715523,28.794786046171748,23.824604471324346,4.512405423568024,0.447804287342164,0.7689085261952304,-1.0,11.88411111111111,0.0,179.26512826013666,1.4564867445240843,95.27725102622033,1553.0,1887.0,1000.0,1528.0,1471.0,1011.0,94.0,292.63,1649150901.0290906,1649150902.1940606,4a5efa46-aedd-4e96-a654-da5a008e34d1
0.0085642459757681,0.1139247487862704,-0.0405724330627753,-0.9677924552087044,-0.3503951931900175,0.9530744780472236,-0.1736372469346515,-0.2025512329684482,-15.842708881754602,28.81270940351744,23.56587846359932,4.509552693859753,0.4476266208087148,0.7954104025339475,-1.0,11.889,0.0,179.27073205089573,1.4309122513998007,95.1337912507132,1553.0,1887.0,1000.0,1528.0,1471.0,1011.0,94.0,292.63,1649150902.3023598,1649150903.428135,4a5efa46-aedd-4e96-a654-da5a008e34d1
0.0063552649545447,0.1090071364749501,-0.0433336593568816,-0.9575233178302784,-0.3523674979699393,0.9486565165659376,-0.1781998448739023,-0.201814905741565,-15.798668283288016,28.95134568484329,23.567033459456624,4.477264185595312,0.4274235930752669,0.8078273135554095,-1.0,11.885444444444444,0.0,179.27577880178245,1.4154630868332378,94.9953691191739,1553.0,1887.0,1000.0,1528.0,1471.0,1011.0,94.0,292.63,1649150903.5413504,1649150904.6574605,4a5efa46-aedd-4e96-a654-da5a008e34d1
-0.0338140029950882,0.1433778277159646,0.0324159812670286,0.2438470117340607,-0.1461827668569412,-0.248716310184598,-0.4309309733224018,-0.4539937926680675,-16.469020294756046,30.07051129766772,14.71767048594824,-0.9139467253617488,0.4964175519054902,0.7848596528863934,-1.0,11.99,0.0,179.26319607551147,1.0399864454019248,94.87836266632225,1553.0,1335.0,1000.0,1528.0,1471.0,1011.0,94.0,292.63,1649150905.5609348,1649150906.698449,ffe8e417-ddc1-4fc4-a75d-81d811ab3862
-0.033867693512343,0.1417358843138684,0.0321223270364634,0.2458297254566531,-0.1462616590501275,-0.2493830587329675,-0.4322047535616612,-0.4660626546200211,-16.52742408450127,30.142830480508348,14.647176601643514,-0.9194933602987888,0.4910359149153354,0.7868297411795915,-1.0,11.993000000000002,0.0,179.27167461700117,1.0556420216054363,95.12898962772668,1553.0,1335.0,1000.0,1528.0,1471.0,1011.0,94.0,292.63,1649150906.807277,1649150907.9270704,ffe8e417-ddc1-4fc4-a75d-81d811ab3862
-0.0328541481399347,0.142790519301329,0.0315059818978789,0.2464871602382554,-0.1462342659293491,-0.2515197221163419,-0.432410201980927,-0.445956101887782,-16.502304071072093,30.043433316805505,14.574336483581684,-0.926466312049468,0.4953375211805142,0.7880140940989101,-1.0,11.991666666666667,0.0,179.2787006049274,1.064097333337187,95.33078073656552,1553.0,1335.0,1000.0,1528.0,1471.0,1011.0,94.0,292.63,1649150908.0359075,1649150909.0008996,ffe8e417-ddc1-4fc4-a75d-81d811ab3862
-0.0424280428938972,0.1462831416444844,0.054283358917992,0.5613299279991434,-0.0970225277428508,-0.5585555388953481,-0.5033583924377539,-0.5303132277468796,-16.744787552969026,31.354523986691834,12.429022295028124,-2.317263431329552,0.491869398359337,0.7904026930428922,-1.0,11.967,0.0,179.2839568149487,0.9741082629299306,95.61341927679004,1553.0,1236.0,1000.0,1528.0,1471.0,1011.0,94.0,292.63,1649150910.067248,1649150911.2045083,adc21f41-c08c-44a2-b6f0-adfb579dc650
-0.0384560408322826,0.1521726616695867,0.0605700793000913,0.5598917894813876,-0.0929272565083557,-0.5642396124323436,-0.4991946375540541,-0.5291216266272202,-16.697445148257568,31.40681424797613,12.292513832962031,-2.3261304694813743,0.5154099693956886,0.7708461303359616,-1.0,11.965,0.0,179.27507605120783,0.9512766125079684,95.72894206077196,1553.0,1236.0,1000.0,1528.0,1471.0,1011.0,94.0,292.63,1649150911.3124197,1649150912.637967,adc21f41-c08c-44a2-b6f0-adfb579dc650
-0.0486051910312018,0.149994908919038,0.0541190002102006,0.5616038591450487,-0.0971868864598573,-0.5624727558184573,-0.5048787108460783,-0.5206297579325758,-16.800559747739484,31.31260128363337,12.419351722678249,-2.326999572820281,0.506226377062888,0.7934312936487045,-1.0,11.971,0.0,179.28402359902057,0.957277906047144,95.8233307216421,1553.0,1236.0,1000.0,1528.0,1471.0,1011.0,94.0,292.63,1649150912.746446,1649150913.8669548,adc21f41-c08c-44a2-b6f0-adfb579dc650
-0.0477012181587832,0.1528985792511149,0.0852649742406043,0.7369745783646934,-0.0573162026103068,-0.7356658012917778,-0.5298749371070578,-0.5611304931900754,-16.777082103781456,32.54528652825351,11.169377516524984,-3.1022458016832104,0.5084327321284855,0.731896424433024,-1.0,11.955,0.0,179.27486507425348,0.8755720111891961,96.01753880268242,1553.0,1133.0,1000.0,1528.0,1471.0,1011.0,94.0,292.63,1649150916.0059,1649150917.159405,9b1bbfe0-f70d-4476-9957-13918123b2f5
-0.0498789710487937,0.152268537574733,0.0834296354192207,0.7373580819862898,-0.0593295967910955,-0.7352549046425212,-0.5315322211197501,-0.5643080957669665,-16.732904108868563,32.5633864110521,11.176328764654604,-3.1021356074235378,0.5055321418186365,0.739460526063468,-1.0,11.95422222222222,0.0,179.27278414328637,0.8940305737052212,96.09124185619622,1553.0,1133.0,1000.0,1528.0,1471.0,1011.0,94.0,292.63,1649150917.2684703,1649150918.3695557,9b1bbfe0-f70d-4476-9957-13918123b2f5
-0.0598484224112038,0.1576310140313111,0.0885872114952048,0.7293625797213856,-0.0552463785488463,-0.7344424246747578,-0.525101959048524,-0.5475467899865772,-16.708355859835475,32.429046597715114,11.038302406467707,-3.0829173494859274,0.5280033685176054,0.718169751827967,-1.0,11.956333333333331,0.0,179.28696058036368,0.8820752050526948,96.1708052120179,1553.0,1133.0,1000.0,1528.0,1471.0,1011.0,94.0,292.63,1649150918.478652,1649150919.8050718,9b1bbfe0-f70d-4476-9957-13918123b2f5
-0.0470941866214776,0.1590642218808497,0.0922425489596467,0.8389701014086276,-0.0475280936296415,-0.8412098865116705,-0.5594858096065581,-0.5763292946972235,-16.765862232644814,33.45320955822429,10.278373913187655,-3.563264579822934,0.5272750784519358,0.7512319224133727,-1.0,11.94025,0.0,179.2774563721336,0.8516903051526077,96.3019294761565,1553.0,1026.0,1000.0,1528.0,1471.0,1011.0,94.0,292.63,1649150921.9458668,1649150923.0796592,695350ef-3fa1-4442-a43b-9271b5cd5830
-0.045384856073918,0.1705298846305275,0.0921768054517893,0.8467541289438002,-0.0484485024098237,-0.8589606358508561,-0.5663757287488518,-0.5953554648842853,-16.87473438019682,33.47663719584135,10.344461968476892,-3.620603980324051,0.5695009674885498,0.7638480016706316,-1.0,11.942222222222224,0.0,179.27307556469097,0.8413472198477154,96.31242690772837,1553.0,1026.0,1000.0,1528.0,1471.0,1011.0,94.0,292.63,1649150923.1889086,1649150924.319578,695350ef-3fa1-4442-a43b-9271b5cd5830
-0.0429523471719368,0.1669271419735699,0.0962134552073278,0.8355514407346424,-0.0455820864813214,-0.8459828661866592,-0.557329422715818,-0.5772497037773185,-16.748318174156307,33.443934977892965,10.271176951102518,-3.566134515245725,0.557377910668139,0.7410257363100641,-1.0,11.94022222222222,0.0,179.264886926786,0.8331266010049453,96.309006500774,1553.0,1026.0,1000.0,1528.0,1471.0,1011.0,94.0,292.63,1649150924.4325116,1649150925.5401757,695350ef-3fa1-4442-a43b-9271b5cd5830
-0.0051049197458628,0.1434068644154092,0.0156864565796344,-0.1013232473927548,-0.1944598528233257,0.0843746979830521,-0.3479572052789663,-0.3646533134932952,-16.22190149263801,28.82611808856682,17.156035030267404,0.6046036135772783,0.5145824277699379,0.7563816714489926,-1.0,11.987333333333334,0.0,179.26680241539327,1.0973173338897522,96.33112493003624,1553.0,1435.0,1000.0,1528.0,1471.0,1011.0,94.0,292.63,1649150927.4745266,1649150928.6143427,5c2c03e3-1231-4e08-91a8-a734ebb6150f
-0.018198830075131,0.1381610826167394,0.014878359615002,-0.0960637686191548,-0.1940215629016527,0.0842240358332079,-0.3481215640047326,-0.3778704949383577,-16.1740759426484,28.84320968396101,17.088259121541096,0.5924872947852436,0.4944712617125495,0.7564624560194205,-1.0,11.991222222222222,0.0,179.274465887642,1.107353122936322,96.34725252448646,1553.0,1435.0,1000.0,1528.0,1471.0,1011.0,94.0,292.63,1649150928.722356,1649150930.045614,5c2c03e3-1231-4e08-91a8-a734ebb6150f
-0.0163497946061391,0.1416126152922727,0.0147413940182113,-0.0995837843464431,-0.1949255358630354,0.0823476073301244,-0.3493953441871305,-0.3728849469658826,-16.23939830780503,28.84348101483506,16.836552812455107,0.5961329761228032,0.5105345210608327,0.7596799601965368,-1.0,11.986333333333334,0.0,179.2646668429128,1.1139255910448398,96.34439446977376,1553.0,1435.0,1000.0,1528.0,1471.0,1011.0,94.0,292.63,1649150930.1546214,1649150931.2070148,5c2c03e3-1231-4e08-91a8-a734ebb6150f
0.0234091241968749,0.1530552678788941,0.1322671796613452,-0.109695132337545,-0.0865665743818304,0.074149943140813,-0.2242991784383392,-0.2559875408136031,-15.3635669712765,28.62283025803708,16.873491740560038,0.6053564923264912,0.555616807041765,0.2758313223399893,-1.0,11.99025,0.0,179.25102524759296,1.115997161629026,96.30371215552988,1553.0,1435.0,1000.0,1435.0,1471.0,1011.0,94.0,292.63,1649150933.0058014,1649150934.1420152,ffc88710-6094-46b2-bee4-16dd8f8364fa
0.0188640581376897,0.1556515874486095,0.1343945290982814,-0.1059389879029583,-0.0853256660995179,0.0698015597449983,-0.2247292504059209,-0.2565463601682657,-15.38268594439439,28.72608621729644,17.113922177089062,0.587931278672963,0.5630331264637735,0.2724841263640083,-1.0,11.991,0.0,179.2539297855375,1.1105764860479084,96.28685695620555,1553.0,1435.0,1000.0,1435.0,1471.0,1011.0,94.0,292.63,1649150934.2507904,1649150935.3674605,ffc88710-6094-46b2-bee4-16dd8f8364fa
0.0264464730720042,0.1557901966186682,0.1329903579397073,-0.1084197087307096,-0.0868295483153895,0.0721250439285889,-0.224759382842786,-0.2493868941077912,-15.325603790531163,28.67125008795456,17.133613526725245,0.5983467952191419,0.5631899406199683,0.27657462846645,-1.0,11.989,0.0,179.25237250240673,1.100468019519701,96.2820485030299,1553.0,1435.0,1000.0,1435.0,1471.0,1011.0,94.0,292.63,1649150935.4751396,1649150936.600089,ffc88710-6094-46b2-bee4-16dd8f8364fa
0.078224943176108,0.1884411475843716,0.3034785372154416,-0.1244430397115288,0.0642544535486905,0.0450107887150424,-0.0521115101051007,-0.0834081483110093,-14.053582641366177,28.67271318069163,17.04388405149963,0.5826870241294203,0.6902239567176057,-0.4028425098918952,-1.0,11.982777777777777,0.0,179.2500138104134,1.11155073664202,96.22796099390246,1553.0,1435.0,1000.0,1330.0,1471.0,1011.0,94.0,292.63,1649150938.5339448,1649150939.6720111,35474fc1-54f6-467e-8a81-b5199ca26b8e
0.0719930090545062,0.1850307046262348,0.3019856124217704,-0.118991809011174,0.0634326600302143,0.043367201700961,-0.0548508219246926,-0.0808879812996251,-14.091569379351997,28.771120976306825,17.031518190167475,0.5672539504854861,0.6770470434863555,-0.3962372416546747,-1.0,11.986,0.0,179.24462706788793,1.1063882994262213,96.21624646056596,1553.0,1435.0,1000.0,1330.0,1471.0,1011.0,94.0,292.63,1649150939.7805989,1649150940.8969193,35474fc1-54f6-467e-8a81-b5199ca26b8e
0.0856895675495604,0.1866468984758094,0.3059165244909133,-0.1201697131309569,0.0676375035087042,0.0431069670895815,-0.0500159365508421,-0.0715606245629077,-14.076580584212254,28.67031139794104,17.100291139827608,0.5688721937587742,0.6827856475435774,-0.4138724169457579,-1.0,11.975888888888887,0.0,179.25149975601278,1.1018180253819017,96.2254482431978,1553.0,1435.0,1000.0,1330.0,1471.0,1011.0,94.0,292.63,1649150941.005643,1649150942.1409032,35474fc1-54f6-467e-8a81-b5199ca26b8e
0.138512810200276,0.2074251248753381,0.4699388274050248,-0.1158355738600565,0.2156693570464691,0.0089718556050708,0.112833407015038,0.0894550253519697,-12.89563206340314,28.89196863563702,16.958877789031163,0.492597809674257,0.7634797824694095,-1.0678527612707471,-1.0,11.979666666666668,0.0,179.23899899201186,1.1046531823597248,96.1492058771326,1553.0,1435.0,1000.0,1210.0,1471.0,1011.0,94.0,292.63,1649150943.0400703,1649150944.179922,fbd2b18b-5fce-47bb-b8fa-e790ca6e103f
0.1288222212813319,0.2047822370445201,0.4702018013083321,-0.1124563587158333,0.2153800857470431,0.0083012720885669,0.1122022696093123,0.0924266306386316,-12.84821427498012,29.027090112986013,16.93449452573277,0.4843970505391353,0.7530507520412928,-1.0672654673249986,-1.0,11.982333333333337,0.0,179.23406455979148,1.1128875327286385,96.13405120518414,1553.0,1435.0,1000.0,1210.0,1471.0,1011.0,94.0,292.63,1649150944.2883115,1649150945.6116035,fbd2b18b-5fce-47bb-b8fa-e790ca6e103f
0.1345156066388662,0.2169053344478818,0.4788404939777003,-0.1212396883657974,0.2209814300918063,0.0046590831612045,0.1204202045998663,0.0991456143546255,-12.75437899590213,28.90972938011073,17.021333423671216,0.4957388331239014,0.7987130166535293,-1.096744628371449,-1.0,11.97977777777778,0.0,179.2341055409265,1.101929976451267,96.1150534134627,1553.0,1435.0,1000.0,1210.0,1471.0,1011.0,94.0,292.63,1649150945.7196562,1649150946.83988,fbd2b18b-5fce-47bb-b8fa-e790ca6e103f
0.1638695223035803,0.2310785326036152,0.6023511170320682,-0.0793676628404583,0.3336794468531873,-0.0560150294421298,0.2285446693069645,0.2051235550309309,-12.000921095963884,29.57509640304045,16.73142612091456,0.2758368313236572,0.851793634805596,-1.5706211357365325,-1.0,11.974444444444446,0.0,179.21677203863285,1.0870519034482746,96.08837090001512,1553.0,1435.0,1000.0,1071.0,1471.0,1011.0,94.0,292.63,1649150947.4036686,1649150948.476696,df378ecd-1b4c-47a6-899e-6c5ee44564c0
0.1615685005170141,0.2311333188273453,0.5951193347874634,-0.0794635387534392,0.3266394161768998,-0.0544536217032304,0.2207239346344234,0.1904408447287035,-12.061998706817327,29.61066715728403,16.89032139718215,0.2794320878306649,0.8505770751464143,-1.5398670000858363,-1.0,11.969666666666669,0.0,179.22315902441667,1.0927556805876664,96.11144176121158,1553.0,1435.0,1000.0,1071.0,1471.0,1011.0,94.0,292.63,1649150948.5849526,1649150949.7066796,df378ecd-1b4c-47a6-899e-6c5ee44564c0
0.1624724733537449,0.2213813695879154,0.5854221722511918,-0.0753271778611927,0.3206677170992707,-0.0488791221511046,0.2118759583215929,0.1912489416089385,-12.29844197436323,29.624214580002445,16.795657151744283,0.282100959886334,0.8153900373039152,-1.5073655420971823,-1.0,11.973,0.0,179.21718488562266,1.1023105104801811,96.11068057457408,1553.0,1435.0,1000.0,1071.0,1471.0,1011.0,94.0,292.63,1649150949.814957,1649150950.935878,df378ecd-1b4c-47a6-899e-6c5ee44564c0
-0.0842847276742553,0.1039881696371579,-0.1576708932267604,-0.0692322090261422,-0.3483817986719268,0.1028513552817767,-0.5292448951236509,-0.5503786913687686,-17.556360012584516,29.22821719132336,17.129758054049606,0.5670912131234466,0.3614820115818244,1.4548255212399237,-1.0,11.988444444444443,0.0,179.28683308349918,1.1296659754305458,96.24704454244348,1553.0,1435.0,1000.0,1613.0,1471.0,1011.0,94.0,292.63,1649150953.075343,1649150954.212155,4b8fc784-c6ab-45b8-ab6a-52d5282de3c8
-0.0675667074642033,0.1030507771830923,-0.1545453383117444,-0.0695127145486282,-0.3461744609042502,0.1011573649464,-0.5251545537554964,-0.556382716850689,-17.37219888665841,29.224612688495725,16.74872694720646,0.5640810429305704,0.360272460477595,1.4412117702302094,-1.0,11.990111111111112,0.0,179.29519171722347,1.1235639247431457,96.22232305219757,1553.0,1435.0,1000.0,1613.0,1471.0,1011.0,94.0,292.63,1649150954.320818,1649150955.383867,4b8fc784-c6ab-45b8-ab6a-52d5282de3c8
-0.08292438540196,0.1028798441319269,-0.1532041712068806,-0.0684082240148384,-0.344977929362337,0.1015912719180471,-0.5240500629804616,-0.5419191466621676,-17.37389935295897,29.25888915760322,16.940081257900516,0.5628882808246167,0.3578970423880626,1.4364249659594668,-1.0,11.989,0.0,179.2937725556959,1.123440815326543,96.2186279198566,1553.0,1435.0,1000.0,1613.0,1471.0,1011.0,94.0,292.63,1649150955.4919343,1649150956.676769,4b8fc784-c6ab-45b8-ab6a-52d5282de3c8
-0.1146258937852172,0.0841823983081008,-0.2958149463903536,-0.0361807683294647,-0.4729542162047779,0.0969497822068046,-0.6802434763867733,-0.7093415536250147,-18.55728083638684,29.577335537007244,16.746790874977197,0.474144448769097,0.2848558119698937,2.0243029179206187,-1.0,11.975,0.0,179.30848933662753,1.109489205309407,96.1896838548838,1553.0,1435.0,1000.0,1694.0,1471.0,1011.0,94.0,292.63,1649150958.3998487,1649150959.543033,64f264be-186c-42ac-bf74-6e1f4bb66810
-0.1204299478199982,0.084265125517989,-0.2960198469289701,-0.0362235015907445,-0.4740203565714934,0.0961263451165028,-0.6811397795153334,-0.6963566624557105,-18.522584388256966,29.65017666318011,16.630430368324042,0.4728620581656722,0.2859453237243352,2.0271503740952213,-1.0,11.972333333333331,0.0,179.30082131091933,1.1060382047993889,96.12790934730047,1553.0,1435.0,1000.0,1694.0,1471.0,1011.0,94.0,292.63,1649150959.651315,1649150960.9724257,64f264be-186c-42ac-bf74-6e1f4bb66810
-0.1218680866038655,0.08270371784752,-0.2999507598135916,-0.0354838874042019,-0.4770336001962771,0.0972631594554458,-0.684440651396685,-0.7069167141809625,-18.53653316442959,29.61079656041601,16.644065142138885,0.4732866067030003,0.279726047870913,2.0411557188142457,-1.0,11.976111111111113,0.0,179.28550802680022,1.108300254359198,96.10433456992524,1553.0,1435.0,1000.0,1694.0,1471.0,1011.0,94.0,292.63,1649150961.0801735,1649150962.1998312,64f264be-186c-42ac-bf74-6e1f4bb66810
-0.1712836300754364,0.0583452103313017,-0.4400824680342278,0.0168873708041028,-0.6025215057162532,0.0795409085282571,-0.8434057196410905,-0.8633128562436992,-19.61391746445513,30.253421813381426,16.43404801823884,0.3120322262383939,0.1825329451258853,2.625620529676539,-1.0,11.957,0.0,179.3146592741778,1.1104491433369763,96.09101038867436,1553.0,1435.0,1000.0,1774.0,1471.0,1011.0,94.0,292.63,1649150963.1105242,1649150964.2486231,a54d6ea9-7bc4-4773-acab-4dca4219e794
-0.1738739234802301,0.0602386225824351,-0.4408056464048422,0.0145732002811724,-0.6033761711449412,0.0801194511853454,-0.8438659241828043,-0.8696242336457245,-19.62799942771665,30.20725508498765,16.47314084597924,0.3182095794079504,0.1896258774947359,2.628698668849739,-1.0,11.955333333333334,0.0,179.3266470150811,1.0993552797253874,96.01829240022084,1553.0,1435.0,1000.0,1774.0,1471.0,1011.0,94.0,292.63,1649150964.3565743,1649150965.4502685,a54d6ea9-7bc4-4773-acab-4dca4219e794
-0.173637246905684,0.0567542180793153,-0.4403848880624453,0.0148361742090458,-0.6013381225966402,0.0838142348002426,-0.8417884291648613,-0.8639176964004407,-19.689412586133223,30.13975475735165,16.558173138663566,0.3254751707223198,0.1762314216359409,2.6220767015814226,-1.0,11.96,0.0,179.31688895148687,1.0903842768533334,95.97872890890852,1553.0,1435.0,1000.0,1774.0,1471.0,1011.0,94.0,292.63,1649150965.5675385,1649150966.7021892,a54d6ea9-7bc4-4773-acab-4dca4219e794
-0.20169163653412725,0.054516200408367764,-0.5331758086795246,0.05396833803797604,-0.6893303247801509,0.054173786421719494,-0.9552217457986737,-0.9792318289682597,-20.30481566579059,30.820845020710255,16.35662635166903,0.1701493067295786,0.16329056478931112,3.0289925260789,-1.0,11.916666666666666,0.0,179.3365432002785,1.093267790621842,95.86567789449617,1553.0,1435.0,1000.0,1856.0,1471.0,1011.0,94.0,292.63,1649150968.440093,1649150969.5716941,1110c4cd-cbfe-49f0-9070-ac7607ac510c
-0.21344328501210152,0.0478048867005407,-0.5505293532987251,0.05495449026802099,-0.7035610546570187,0.06162471429674506,-0.9717808949805827,-0.9937775825130061,-20.53986661449793,30.81898455481094,16.4807430148422,0.18369306104089334,0.13746107772558375,3.094814805717167,-1.0,11.913444444444444,0.0,179.34874950723525,1.0771844263896893,95.7509041545932,1553.0,1435.0,1000.0,1856.0,1471.0,1011.0,94.0,292.63,1649150969.6800108,1649150970.8012838,1110c4cd-cbfe-49f0-9070-ac7607ac510c
-0.19834967593557803,0.05042092939283845,-0.538010695214809,0.03806663349944236,-0.6945213224973233,0.07351332709620928,-0.9540164478982319,-0.9687265614822212,-20.30838881730462,30.748285138035374,16.440723129084677,0.24876803996178118,0.14886085444366468,3.0404481841673476,-1.0,11.910555555555554,0.0,179.32825135062615,1.0862854162993851,95.65043966100137,1553.0,1435.0,1000.0,1856.0,1471.0,1011.0,94.0,292.63,1649150970.9093192,1649150972.0344894,1110c4cd-cbfe-49f0-9070-ac7607ac510c
