raw_voltage_G-,raw_voltage_G0,raw_voltage_G1,raw_voltage_G2,raw_voltage_G3,raw_voltage_G4,raw_voltage_G5,raw_voltage_G6,load_x,load_y,load_z,load_l,load_m,load_n,rpm,voltage,current,roll,pitch,yaw,aileron1_pwm,elevator_pwm,throttle_pwm,rudder_pwm,aileron2_pwm,pbaro,pdiff,Tt,sample_start_time,sample_end_time,uid
-0.0806825325926618,0.0813340619990982,-0.1576298035593739,-0.1113491289458169,-0.3384654885839322,0.1636914670431863,-0.5147265391047217,-0.5385448615003962,-18.96596185617614,28.85979138763051,17.177853383111582,0.7956703362232821,0.2912477329122569,1.4167149332727835,-1.0,11.987000000000002,0.0,179.27645119596076,1.1338456361737377,96.24651254659813,1553.0,1435.0,1000.0,1528.0,1471.0,1011.0,94.0,292.63,1649151525.5033486,1649151526.6423132,0b773518-bbb3-4b80-804a-2c426785f91b
-0.0937901398040125,0.0814710275903688,-0.1659025256198723,-0.1130064126477348,-0.3465601560832183,0.1652528746699197,-0.5222459518117398,-0.5431058173356688,-18.926945437407213,28.81555749132544,17.141495819258623,0.8022261397326552,0.2914863751570451,1.4497190373774929,-1.0,11.988666666666669,0.0,179.27531738455855,1.1255955028503355,96.53096108695266,1553.0,1435.0,1000.0,1528.0,1471.0,1011.0,94.0,292.63,1649151526.7513993,1649151527.8767498,0b773518-bbb3-4b80-804a-2c426785f91b
-0.0934203327131252,0.0780331914125885,-0.1647246214998198,-0.1110341080689899,-0.344738513490548,0.1661157578479707,-0.5201640743538756,-0.5394488349705701,-18.88756447082536,28.81567825585309,17.055879968259294,0.7997817455731226,0.2789043236098814,1.4421761831304316,-1.0,11.987333333333332,0.0,179.28059636187703,1.1007142857847754,96.8249885881632,1553.0,1435.0,1000.0,1528.0,1471.0,1011.0,94.0,292.63,1649151527.9911652,1649151529.041334,0b773518-bbb3-4b80-804a-2c426785f91b
0.1081787685650285,0.4311370281190831,-0.1530463868356595,-0.3417039034832775,-0.4203068244919141,0.042448436522361,-0.5691895501933996,-0.5979063117713963,-18.61199562437549,27.751931533156515,18.330402977176327,1.0360909795108393,1.6191346091898748,1.6421160288364502,-1.0,11.965555555555556,0.0,179.16746717974422,1.114947475093632,97.15387585707764,1663.0,1435.0,1000.0,1528.0,1555.0,1011.0,94.0,292.63,1649151530.0091312,1649151531.1494775,48d35518-97b1-49d1-922a-5e9caadef430
0.1110188869184926,0.4396310851783064,-0.1464325921119694,-0.3460955688096099,-0.4161255381967975,0.0382277049875615,-0.564285085015802,-0.5876108795171563,-18.587753956615785,27.750520751802178,18.38284199882841,1.036853485506247,1.6513161086076174,1.6215034897643334,-1.0,11.965,0.0,179.14419596633206,1.098668691560226,97.32798952157978,1663.0,1435.0,1000.0,1528.0,1555.0,1011.0,94.0,292.63,1649151531.2588446,1649151532.3744247,48d35518-97b1-49d1-922a-5e9caadef430
0.107876348580115,0.4291121290654184,-0.1462090642718405,-0.3386797029233174,-0.4137193263066147,0.0404629833276192,-0.5631937428873958,-0.580668366138415,-18.609660729019527,27.840971128846707,18.2103866583319,1.0257202968354142,1.6126497984268695,1.6148641632076683,-1.0,11.966333333333331,0.0,179.13364711861394,1.1086876660091518,97.4259359520976,1663.0,1435.0,1000.0,1528.0,1555.0,1011.0,94.0,292.63,1649151532.482793,1649151533.6077,48d35518-97b1-49d1-922a-5e9caadef430
0.3267078990275316,0.8155928172640414,-0.1125270329966046,-0.5814561921160772,-0.4809782100825678,-0.104802173602403,-0.6039870379157789,-0.6265726711983336,-18.278530166867096,27.33917135062556,19.58813254913821,1.2456713244219684,3.079650502855818,1.7656580591465492,-1.0,11.939333333333334,0.0,178.98404927977268,1.119872420940165,97.5228988353749,1779.0,1435.0,1000.0,1528.0,1638.0,1011.0,94.0,292.63,1649151534.514434,1649151535.6520307,850c52e3-f42a-43e5-8d84-8446a9de2caf
0.3298444107026398,0.8211399229873053,-0.1125407295375931,-0.5838256972653256,-0.4827313699905626,-0.1078702028041496,-0.6048499213578284,-0.6271479267752017,-18.18607533679432,27.329591221153795,19.61069755046873,1.244108022806729,3.0998918623737786,1.7700439963927923,-1.0,11.938,0.0,178.9812580091319,1.096842327435286,97.5786134473446,1779.0,1435.0,1000.0,1528.0,1638.0,1011.0,94.0,292.63,1649151535.7616606,1649151536.8815572,850c52e3-f42a-43e5-8d84-8446a9de2caf
0.3263243953864462,0.8170172592267253,-0.1121572258771165,-0.5810726881411611,-0.4803892578793838,-0.1082263133552737,-0.6040007344726356,-0.6219021429154279,-18.273457387196785,27.28257647134497,19.352144443001578,1.2367199094626808,3.087023945452166,1.764240953033967,-1.0,11.93588888888889,0.0,178.98982306635105,1.1159678057487064,97.58722859261772,1779.0,1435.0,1000.0,1528.0,1638.0,1011.0,94.0,292.63,1649151536.9908402,1649151538.040663,850c52e3-f42a-43e5-8d84-8446a9de2caf
0.4038195181487621,0.9237545311826856,-0.0726700454165525,-0.6779895700176924,-0.4820465418981205,-0.1480969981643227,-0.589509770833191,-0.6151086480713059,-18.01367564107441,27.987511005643327,16.06469273241032,1.3719919206798152,3.529099315710715,1.699361952869835,-1.0,11.887333333333334,0.0,178.834232874878,1.122311818259048,97.59254779216134,1904.0,1435.0,1000.0,1528.0,1723.0,1011.0,94.0,292.63,1649151539.0191145,1649151540.1571517,0b06777a-72c9-4190-a62c-a4076ec4b53e
0.3972922866968334,0.9287888378613656,-0.0688026849381098,-0.6759569998884172,-0.4786870491758283,-0.1563730072747447,-0.5879264481085289,-0.6037048893271691,-18.02225316273726,27.956329183011103,15.877014140232754,1.3487612688527058,3.549699515126656,1.6876293185146511,-1.0,11.881333333333332,0.0,178.80108824356566,1.123743406936335,97.54001908398452,1904.0,1435.0,1000.0,1528.0,1723.0,1011.0,94.0,292.63,1649151540.2660573,1649151541.383962,0b06777a-72c9-4190-a62c-a4076ec4b53e
0.4043268385957475,0.928460120485429,-0.0732469444983862,-0.6769037063753405,-0.4819873727817375,-0.1542166209748695,-0.5916738278188574,-0.61396087561941,-18.09891261352178,27.882017774896667,15.983546760348224,1.3550069744268944,3.547898563132833,1.70359703201295,-1.0,11.887666666666668,0.0,178.7961568469849,1.117932943665064,97.43450859841586,1904.0,1435.0,1000.0,1528.0,1723.0,1011.0,94.0,292.63,1649151541.492092,1649151542.624049,0b06777a-72c9-4190-a62c-a4076ec4b53e
0.4636049913820956,1.034381627113513,-0.0275398832642726,-0.6991233679038945,-0.46922655998808,-0.2274685624626391,-0.5823464685238379,-0.5977961917977996,-17.768627842446545,28.7065073378991,17.61456434647123,1.2486899917077914,3.934022553275554,1.6254471016225152,-1.0,11.795444444444446,0.0,178.77083354118213,1.1326686024806745,97.19492074052998,2045.0,1435.0,1000.0,1528.0,1813.0,1011.0,94.0,292.63,1649151544.371894,1649151545.4859345,7092b3bb-7350-487c-81f0-835c20ffe9b9
0.4717007525183625,1.0364635038965653,-0.02178294556597,-0.6946807505223508,-0.4640525467278567,-0.2319254231401163,-0.5772760008999119,-0.6037706334180317,-17.651978191117554,28.7057407867735,17.893435538287743,1.229038121957013,3.938351575951706,1.604099377541612,-1.0,11.800000000000002,0.0,178.75755717125546,1.1063086850337085,97.0148458387022,2045.0,1435.0,1000.0,1528.0,1813.0,1011.0,94.0,292.63,1649151545.5946786,1649151546.7129593,7092b3bb-7350-487c-81f0-835c20ffe9b9
0.4673485344490246,1.0376600351828855,-0.0202445481127413,-0.6981388590024119,-0.4633556657217812,-0.2320043153773046,-0.5759742796742653,-0.6074522688060425,-17.66379203086944,28.726180384606533,17.607126870127278,1.2368219984984608,3.945984097724856,1.5988938174498608,-1.0,11.797666666666666,0.0,178.75578283989103,1.1103953437392953,96.85216059850131,2045.0,1435.0,1000.0,1528.0,1813.0,1011.0,94.0,292.63,1649151546.8218596,1649151547.940074,7092b3bb-7350-487c-81f0-835c20ffe9b9
-0.3322368406315965,-0.3635570403872472,-0.1804745694889029,0.1890432482483343,-0.2526083247416504,0.3117731725516892,-0.4645127511848382,-0.4799887704841317,-19.152508246321528,30.40118569740765,15.671501510032035,0.4595646426728259,-1.4011001309491535,1.2053349175596704,-1.0,11.973333333333334,0.0,179.41317033366698,1.043600516678377,96.58595321669016,1444.0,1435.0,1000.0,1528.0,1381.0,1011.0,94.0,292.63,1649151550.079644,1649151551.2208898,ff672057-1c64-479e-b98e-81449ad05847
-0.3397710448664925,-0.3671992299022079,-0.1804088259948789,0.1894377091281233,-0.2515564289034442,0.3159544576875626,-0.4626850819557715,-0.4924011427567178,-19.14707417501164,30.37195116091586,15.8177451115265,0.4679062633274867,-1.4161400650231326,1.200995185867813,-1.0,11.974333333333332,0.0,179.41248579693016,1.0604351424293947,96.6482399884612,1444.0,1435.0,1000.0,1528.0,1381.0,1011.0,94.0,292.63,1649151551.330156,1649151552.6497276,ff672057-1c64-479e-b98e-81449ad05847
-0.3463585427637485,-0.36489820764929,-0.1793700789012249,0.188477854348715,-0.251398644528969,0.3142977220722831,-0.4618830113007919,-0.4773984767634601,-19.081560188648947,30.366492451646955,15.783910382501922,0.4663916752533322,-1.4074897109866935,1.1984927162949106,-1.0,11.978,0.0,179.4140977215743,1.0656436597061565,96.62733505614152,1444.0,1435.0,1000.0,1528.0,1381.0,1011.0,94.0,292.63,1649151552.7588603,1649151553.8796434,ff672057-1c64-479e-b98e-81449ad05847
-0.5623905765714786,-0.7607989966918628,-0.2090877788470511,0.4692616695992439,-0.185570785464134,0.4434847485656184,-0.4363685082785504,-0.4588171739750389,-19.67964148513592,32.353258956117905,15.722943367803774,0.1346926730915737,-2.9240057010521503,1.0662523282310687,-1.0,11.941666666666666,0.0,179.56386859187452,1.0488204176037554,96.59941627845416,1331.0,1435.0,1000.0,1528.0,1283.0,1011.0,94.0,292.63,1649151554.9968784,1649151556.13235,3608ca0b-4f57-44d9-a5b7-622ca7e17470
-0.5640752538233342,-0.7652366836163281,-0.2051568661454598,0.4692890627093269,-0.1810509207326151,0.4459638254623648,-0.4306981317986427,-0.4594609117418661,-19.63558405705433,32.341526613295066,15.497832250190037,0.1403059492092605,-2.9387207713461527,1.045845840267049,-1.0,11.943888888888887,0.0,179.55389651568632,1.0405315324431872,96.50181059848497,1331.0,1435.0,1000.0,1528.0,1283.0,1011.0,94.0,292.63,1649151556.2410152,1649151557.565602,3608ca0b-4f57-44d9-a5b7-622ca7e17470
-0.5677957880690951,-0.7615813444577106,-0.2100591388935361,0.4690578648042553,-0.185786643260967,0.4438649649876597,-0.4370845645261261,-0.4528761526881006,-19.73336748119276,32.31596259060418,15.635633623683738,0.1356702325097258,-2.925823016222316,1.0686480579495767,-1.0,11.948444444444442,0.0,179.5551350566558,1.034154614073563,96.40886462534952,1331.0,1435.0,1000.0,1528.0,1283.0,1011.0,94.0,292.63,1649151557.6749015,1649151558.792219,3608ca0b-4f57-44d9-a5b7-622ca7e17470
-0.7505232863992048,-1.0887605395989437,-0.2323461814396475,0.6976742247948025,-0.1359662291627836,0.5553133043010087,-0.4158362668307318,-0.4457101120460378,-19.910665829036773,34.48774907009492,15.803802260736225,-0.1163681164203604,-4.1827031363420994,0.9625551664776814,-1.0,11.847666666666663,0.0,179.68396001350135,1.0190431169840926,96.27812417989678,1209.0,1435.0,1000.0,1528.0,1173.0,1011.0,94.0,292.63,1649151559.3908794,1649151560.6399882,67f5b15a-c077-4078-b111-a747edbf5f67
-0.7438015602952674,-1.0813808286014082,-0.225153843823617,0.6934743124729955,-0.1316885196876131,0.5520162690243932,-0.4101806827489,-0.4264658948161477,-19.83793849522529,34.53641104811461,15.861690699201866,-0.1135764683341897,-4.155078663004798,0.939841132269742,-1.0,11.849666666666668,0.0,179.6509185939364,1.0331993718010477,96.05923634865546,1209.0,1435.0,1000.0,1528.0,1173.0,1011.0,94.0,292.63,1649151560.7484534,1649151561.8677056,67f5b15a-c077-4078-b111-a747edbf5f67
-0.7465956595982602,-1.0941323338928606,-0.2347277393088756,0.7030071163234298,-0.1366466742163705,0.5548377598286015,-0.4181520814391974,-0.4393406631184215,-19.94370065748621,34.50908297733159,15.66797999327921,-0.1294818654478657,-4.202220238596012,0.9691988577475869,-1.0,11.858111111111112,0.0,179.65653300943418,1.0283577281748608,95.81458124931532,1209.0,1435.0,1000.0,1528.0,1173.0,1011.0,94.0,292.63,1649151561.976237,1649151563.1014392,67f5b15a-c077-4078-b111-a747edbf5f67
-0.7820560653793902,-1.1424127384971532,-0.2119914495758489,0.7121016303443245,-0.1096507554974531,0.5833813852199329,-0.3882935777125911,-0.4193847724904334,-20.08493614196201,35.18185293182975,14.387148044533726,-0.0805388010665098,-4.370616458882129,0.8509816480443826,-1.0,11.735666666666669,0.0,179.67008865820694,1.044999875400518,95.45956395336611,1074.0,1435.0,1000.0,1528.0,1047.0,1011.0,94.0,292.63,1649151564.006603,1649151565.1499157,bc995de3-29dc-4688-8e95-743d24dea0a6
-0.7693182600398846,-1.144439830682346,-0.216237383227685,0.7175939498091598,-0.1119791706212836,0.5807790393335902,-0.3941009197153746,-0.4209461810967599,-20.241960507929505,35.19068171592131,14.415829928408746,-0.0990033089116483,-4.378307355896207,0.8679390238519048,-1.0,11.749000000000002,0.0,179.67884951418233,1.0367275202463786,95.12985706175128,1074.0,1435.0,1000.0,1528.0,1047.0,1011.0,94.0,292.63,1649151565.2629178,1649151566.5817509,bc995de3-29dc-4688-8e95-743d24dea0a6
-0.7731806913214956,-1.1380298363558576,-0.2072250467246908,0.7095951603678374,-0.1059526844815618,0.5825321986657245,-0.3837737125505195,-0.4092630142649121,-20.067048457692103,35.15182363538447,14.58471471349523,-0.076714289780548,-4.355445288754551,0.8338241238293377,-1.0,11.74,0.0,179.66770264545687,1.0591851822373806,94.82124862448258,1074.0,1435.0,1000.0,1528.0,1047.0,1011.0,94.0,292.63,1649151566.689963,1649151568.0108411,bc995de3-29dc-4688-8e95-743d24dea0a6
-0.0850807716978805,0.0835907069755244,-0.1673521695086627,-0.1100107011054771,-0.3447675501885006,0.1612600540496511,-0.5215518100068028,-0.5477308718123219,-18.91867701227017,28.44924109788216,17.262670435224553,0.7840190872141524,0.2978370237714762,1.4488749370782272,-1.0,11.991111111111111,0.0,179.29532832100688,1.126000072978986,94.55386493231435,1553.0,1435.0,1000.0,1528.0,1471.0,1011.0,94.0,292.63,1649151568.9202106,1649151570.059674,dbb3776b-3f6f-4895-9d2a-fdf238225a90
-0.0887624068053131,0.0868910297032512,-0.1701396933507543,-0.1137712285025324,-0.3488830928165867,0.1610759722960602,-0.5257856913954704,-0.5427738117494513,-18.97633244019267,28.51770901831199,17.176435232257997,0.7923605727839219,0.3116750603897949,1.4644846209817173,-1.0,11.990222222222222,0.0,179.29471512180135,1.1337366970280696,94.88248430603136,1553.0,1435.0,1000.0,1528.0,1471.0,1011.0,94.0,292.63,1649151570.1680024,1649151571.2879894,dbb3776b-3f6f-4895-9d2a-fdf238225a90
-0.0975983311836101,0.0806322503465435,-0.1756358488433942,-0.1117463290934539,-0.3528014049650732,0.1669139932766182,-0.5297960448161251,-0.5521751325835481,-19.01783086717661,28.544811452199,17.362821802647208,0.8008265237736609,0.2862453329205514,1.4825064366813252,-1.0,11.991222222222223,0.0,179.29641963345426,1.1598745621792064,95.13377759033486,1553.0,1435.0,1000.0,1528.0,1471.0,1011.0,94.0,292.63,1649151571.3979657,1649151572.5158226,dbb3776b-3f6f-4895-9d2a-fdf238225a90
-0.0851202177960581,0.0743351206180795,-0.2045816106344448,-0.4050033825475806,-0.410290255187701,0.4603452107363885,-0.4780060561078805,-0.5009477983009043,-19.08839996977421,28.031837654686267,19.90348536383445,2.117249315995424,0.2748714150271056,1.5269379863257413,-1.0,11.98911111111111,0.0,179.32697789980088,1.2531441392425116,95.56327885809294,1553.0,1537.0,1000.0,1528.0,1471.0,1011.0,94.0,292.63,1649151574.454744,1649151575.4869187,63a11f30-e20b-4a8b-bc6a-a6f238441792
-0.0832163960395845,0.0718286504192276,-0.2032119546269935,-0.4041678922845415,-0.4090438680819351,0.4593590586061314,-0.476800758672407,-0.5025502960446322,-19.063508337768685,28.086982555810284,19.532880440473665,2.113535854331257,0.268564010468123,1.5208333951538506,-1.0,11.990333333333334,0.0,179.3154288088243,1.2587147869829245,95.67797291245562,1553.0,1537.0,1000.0,1528.0,1471.0,1011.0,94.0,292.63,1649151575.5954082,1649151576.720759,63a11f30-e20b-4a8b-bc6a-a6f238441792
-0.0844079967232165,0.0738968307440973,-0.1960349572271718,-0.4040172300572888,-0.4021818908424059,0.4560170986060525,-0.467336434377766,-0.4991124587418961,-18.80788847873836,27.907096899867625,19.43052626283018,2.10496340639982,0.2758522749773053,1.4885887144398122,-1.0,11.991555555555555,0.0,179.32873249950768,1.2556462652084597,95.77564082303726,1553.0,1537.0,1000.0,1528.0,1471.0,1011.0,94.0,292.63,1649151576.8303125,1649151577.950923,63a11f30-e20b-4a8b-bc6a-a6f238441792
-0.0744566246309011,0.0607645704333824,-0.2259164682430117,-0.7182563721602585,-0.4639342083966327,0.773989250480562,-0.409827311384577,-0.4331794011737963,-18.73718618015436,27.54284506360805,21.77714649946836,3.5248428889443955,0.2420889234450912,1.5307130121027266,-1.0,11.972666666666669,0.0,179.32750458327686,1.3476680520877682,96.0407933200766,1553.0,1645.0,1000.0,1528.0,1471.0,1011.0,94.0,292.63,1649151580.0831764,1649151581.2205267,15e560ff-d342-49b3-a319-f1268efb6474
-0.0790192224213248,0.0538089101273534,-0.2307420403103113,-0.7126024305086611,-0.4663535690926344,0.7775262494392341,-0.4145345456320505,-0.4367164011663281,-18.88031557796785,27.600025804920847,22.01446376304781,3.5201416495510904,0.2139095990405325,1.5467072452118662,-1.0,11.970666666666666,0.0,179.31465472071835,1.3487542893251463,96.0510287380028,1553.0,1645.0,1000.0,1528.0,1471.0,1011.0,94.0,292.63,1649151581.3289592,1649151582.6549883,15e560ff-d342-49b3-a319-f1268efb6474
-0.0626096487793851,0.0603701095459536,-0.2306631481222826,-0.7170861377180167,-0.4675369520308514,0.7742259269896955,-0.4156784824499071,-0.4405426726519441,-18.90438434383212,27.552884239044523,21.868950445846217,3.5224956391910944,0.2405343618836968,1.5503921135501144,-1.0,11.96888888888889,0.0,179.3187847084365,1.3400522607255636,96.06734605993,1553.0,1645.0,1000.0,1528.0,1471.0,1011.0,94.0,292.63,1649151582.7634947,1649151583.8888004,15e560ff-d342-49b3-a319-f1268efb6474
-0.059562438318357,0.0554612629551809,-0.2281670870524557,-0.9178712098316008,-0.4924011428595325,0.9744317942866084,-0.3627768842998966,-0.3801167310111237,-18.746996372128542,27.90164735043645,23.56954379008996,4.428093474487861,0.2308220250651265,1.5055460205641644,-1.0,11.955,0.0,179.3213422348257,1.4074092384427024,96.05480203806432,1553.0,1761.0,1000.0,1528.0,1471.0,1011.0,94.0,292.63,1649151586.022703,1649151587.1596425,22c8376e-4209-46ce-9510-6b338b586da4
-0.0690952435020273,0.0560228218466365,-0.2171550527299166,-0.911022926512964,-0.4825944044100369,0.9655838180187716,-0.3536686712476653,-0.3694471098785074,-18.588776957580137,27.98954761006932,23.36211412065029,4.393940446451009,0.2335032428686626,1.464120123203557,-1.0,11.950444444444445,0.0,179.31881658265263,1.413003602117733,96.00298746411067,1553.0,1761.0,1000.0,1528.0,1471.0,1011.0,94.0,292.63,1649151587.2679565,1649151588.3942268,22c8376e-4209-46ce-9510-6b338b586da4
-0.0640297080769738,0.0536248283771252,-0.2223663199286874,-0.9222453443622846,-0.4864316332263624,0.9787012850991916,-0.3544581410242149,-0.3787700848690157,-18.71592849825915,27.824415021153587,23.403319324217755,4.447320564916324,0.2260926088066122,1.4772225481405712,-1.0,11.958444444444446,0.0,179.33684524642183,1.4068056204748025,95.96687777178865,1553.0,1761.0,1000.0,1528.0,1471.0,1011.0,94.0,292.63,1649151588.5026245,1649151589.6164818,22c8376e-4209-46ce-9510-6b338b586da4
-0.0611764408227539,0.05074526388365,-0.207403102104363,-0.9504493157027312,-0.4835520681459334,1.007943983888527,-0.3371018590808723,-0.3551418739284549,-18.41746987256844,28.635657013052256,23.580241178823727,4.582955391341963,0.2160468793815601,1.427721896617678,-1.0,11.899555555555557,0.0,179.31336760951478,1.4153891049751963,95.89263285660068,1553.0,1887.0,1000.0,1528.0,1471.0,1011.0,94.0,292.63,1649151590.5286603,1649151591.6660528,9d419979-d85f-44ad-9d40-fd4009c9edc3
-0.0693417815452039,0.0503376543141535,-0.211111034747869,-0.977325266716634,-0.4900475256235744,1.0370157493795933,-0.3346430524543999,-0.3512893048206744,-18.55053160620488,28.68595293185544,24.13301878909881,4.709079014459904,0.2136354145479186,1.438503424923803,-1.0,11.907555555555556,0.0,179.30143906358433,1.4053896013085925,95.77242608066793,1553.0,1887.0,1000.0,1528.0,1471.0,1011.0,94.0,292.63,1649151591.7750237,1649151592.895528,9d419979-d85f-44ad-9d40-fd4009c9edc3
-0.0611632921631715,0.0480366324539105,-0.2193552681897345,-0.9864373181663758,-0.4985152881689264,1.0500987013077667,-0.3409281303226321,-0.3633729589582738,-18.691239895419034,28.746596959337808,24.423450373430605,4.758999686217549,0.2040272710501695,1.4701512518310578,-1.0,11.908888888888889,0.0,179.30572386892362,1.3953283176323077,95.6685381444821,1553.0,1887.0,1000.0,1528.0,1471.0,1011.0,94.0,292.63,1649151593.003682,1649151594.1250143,9d419979-d85f-44ad-9d40-fd4009c9edc3
-0.1097055418001217,0.084662325714052,-0.1431525400833028,0.2532943494834385,-0.2892126563954592,-0.188501849303476,-0.604986887052828,-0.6298735426462034,-19.295402612800387,29.995623007644586,15.005580239449728,-0.8105630892857346,0.2813568754251263,1.4582477913756688,-1.0,11.988,0.0,179.31340707282996,1.0415045616666658,95.53376940523889,1553.0,1335.0,1000.0,1528.0,1471.0,1011.0,94.0,292.63,1649151596.0581572,1649151597.1982005,e29422fd-a5ec-449b-9fcd-0793e12792a0
-0.0955843890766076,0.0848266844121589,-0.1394544689367996,0.2507057000278518,-0.2855967643565862,-0.1862556135338348,-0.599768496448643,-0.6228882953475162,-19.255046981519147,29.931668207838644,15.04378792731876,-0.7998895589577214,0.2819011309761424,1.4409576097076258,-1.0,11.98688888888889,0.0,179.3135102845774,1.0549809755018589,95.79555841356692,1553.0,1335.0,1000.0,1528.0,1471.0,1011.0,94.0,292.63,1649151597.306982,1649151598.4296684,e29422fd-a5ec-449b-9fcd-0793e12792a0
-0.1107875700035679,0.082553055708468,-0.143412774661984,0.2554310124946976,-0.28877436640601,-0.1877348419573106,-0.6051375491675746,-0.6323663174236024,-19.32274591647277,30.0094269154435,15.09885726960099,-0.813579654831118,0.2725333153663685,1.4580903480811225,-1.0,11.987444444444444,0.0,179.32604899407374,1.0612071079591812,95.97303329005064,1553.0,1335.0,1000.0,1528.0,1471.0,1011.0,94.0,292.63,1649151598.5382698,1649151599.6577244,e29422fd-a5ec-449b-9fcd-0793e12792a0
-0.1084986009520404,0.0991719118466364,-0.1049747501585272,0.5805982447790342,-0.2268237284278944,-0.5189483675070209,-0.6667266117222411,-0.6968502870883694,-19.35905805163418,31.33949452880641,12.79146224973336,-2.281013235511728,0.3179957989809849,1.4100421075161895,-1.0,11.969666666666669,0.0,179.3148368590962,0.978827224026338,96.18087746431394,1553.0,1236.0,1000.0,1528.0,1471.0,1011.0,94.0,292.63,1649151600.5639553,1649151601.515313,10daefa6-c717-44c3-a65a-24eedb2122a5
-0.1203614650202955,0.0917571429863866,-0.1127735710463411,0.5746018920034324,-0.2323993240982317,-0.5067140502179975,-0.6710317155084998,-0.6932612392099354,-19.521443251672952,31.28365325952116,12.667925395288467,-2.240854729060496,0.2926730628470066,1.4331818284116205,-1.0,11.969333333333331,0.0,179.29779781384676,0.956637718108063,96.26452679107906,1553.0,1236.0,1000.0,1528.0,1471.0,1011.0,94.0,292.63,1649151601.6234615,1649151602.7246048,10daefa6-c717-44c3-a65a-24eedb2122a5
-0.1086919963906071,0.0985780290723354,-0.1024052756107061,0.5709723043215965,-0.2248662160639696,-0.509439666116818,-0.6604442718419637,-0.6887824626574407,-19.312834234414822,31.25491013750168,12.835221147110138,-2.2383346847200256,0.316399998473765,1.394901212344548,-1.0,11.958555555555556,0.0,179.30619894652588,0.9548209470786762,96.39754168952544,1553.0,1236.0,1000.0,1528.0,1471.0,1011.0,94.0,292.63,1649151602.8335145,1649151603.9635704,10daefa6-c717-44c3-a65a-24eedb2122a5
-0.1092124656493985,0.1007694784071613,-0.0748477983749669,0.7601491532822248,-0.1869678346573379,-0.6958772824368458,-0.6931242730541239,-0.7088479291632911,-19.320571613480208,32.53656557208552,11.366819070405157,-3.0743910642842542,0.3161654536019018,1.3515691385014648,-1.0,11.957333333333333,0.0,179.30815693408795,0.9035600690505804,96.49031007774246,1553.0,1133.0,1000.0,1528.0,1471.0,1011.0,94.0,292.63,1649151605.0724428,1649151606.2069986,7f9cdf4f-cdf2-49b5-b5b2-fa12be8a823f
-0.118279587976694,0.1045360319717169,-0.0800935805266671,0.7553964479416289,-0.1926108173012709,-0.6954389928308405,-0.6999862515926388,-0.7161071080280842,-19.499572395365885,32.556221182395895,11.28576858134516,-3.0629191600537644,0.3325305299688708,1.3763421787699022,-1.0,11.950888888888889,0.0,179.30968082518277,0.8851143249972167,96.56882006661212,1553.0,1133.0,1000.0,1528.0,1471.0,1011.0,94.0,292.63,1649151606.3148153,1649151607.431528,7f9cdf4f-cdf2-49b5-b5b2-fa12be8a823f
-0.1151019862423672,0.1023445826286628,-0.0799977046251842,0.7518627361681739,-0.1919670789744472,-0.6899055811447634,-0.6975071736822058,-0.7296393134295478,-19.49209225627208,32.48888038951487,11.315226803458946,-3.0429468323151947,0.3244372439972273,1.3715832834351185,-1.0,11.951444444444444,0.0,179.31803035198814,0.8906015637955775,96.61811126512238,1553.0,1133.0,1000.0,1528.0,1471.0,1011.0,94.0,292.63,1649151607.5394394,1649151608.5844223,7f9cdf4f-cdf2-49b5-b5b2-fa12be8a823f
-0.1133110240976713,0.1092043669215937,-0.0580207536668459,0.8224290430235096,-0.1708102769928633,-0.7684581159555885,-0.703030176174662,-0.7256327941351008,-19.417993718759057,33.27753221396679,10.395345576890325,-3.372432127370768,0.350512412427681,1.320553026492197,-1.0,11.939444444444442,0.0,179.31146122782644,0.8660876709833498,96.70580937624554,1553.0,1026.0,1000.0,1528.0,1471.0,1011.0,94.0,292.63,1649151609.5755184,1649151610.6025422,62464fef-1cb6-4481-9862-56d138afd98b
-0.1072363260791592,0.113977343567583,-0.0610712512847292,0.8316725756745035,-0.1740711539073041,-0.779581918297248,-0.709880649568431,-0.7330618106179247,-19.37526590447073,33.312894695664085,10.649932124407597,-3.4181353230796163,0.3645243034067785,1.3399392551098503,-1.0,11.942111111111112,0.0,179.29034380073256,0.862199811099699,96.7412011397948,1553.0,1026.0,1000.0,1528.0,1471.0,1011.0,94.0,292.63,1649151610.7114625,1649151611.9419916,62464fef-1cb6-4481-9862-56d138afd98b
-0.1114307604531764,0.1133330574524828,-0.061492009636314,0.8177481075905624,-0.1750573062575593,-0.7651183457648933,-0.7068170021579324,-0.7293407281268736,-19.50031494996526,33.2766881423887,10.804706970516444,-3.3545227989803124,0.3633082517841536,1.3374396456663529,-1.0,11.940333333333331,0.0,179.28878044632253,0.8663125751203169,96.77483299126794,1553.0,1026.0,1000.0,1528.0,1471.0,1011.0,94.0,292.63,1649151612.0502386,1649151613.1783264,62464fef-1cb6-4481-9862-56d138afd98b
-0.0978032317090146,0.0703631186499498,-0.1747231101019917,-0.1022957031330427,-0.3492994682607485,0.1683346002772825,-0.5292996813943225,-0.547748951625052,-19.148653048653102,28.6766061414187,17.376047127355623,0.7835559074893569,0.2474350805840793,1.4744991662123623,-1.0,11.988888888888887,0.0,179.30831934080825,1.118876280538401,96.79434835954652,1553.0,1435.0,1000.0,1528.0,1471.0,1011.0,94.0,292.63,1649151614.899226,1649151616.037777,8d7d620d-5250-4c75-a8e7-4f3eeaf3839e
-0.0876951709669658,0.0752801831537923,-0.1713674529713622,-0.1013506405661477,-0.3480393846645245,0.1627601010899807,-0.5282313495866132,-0.5504745680642117,-19.06669260207832,28.761786209420347,17.40774979548666,0.7696755025610007,0.265113804119976,1.4673580028480495,-1.0,11.991,0.0,179.30401783945092,1.1220731173771172,96.78693153301778,1553.0,1435.0,1000.0,1528.0,1471.0,1011.0,94.0,292.63,1649151616.1467345,1649151617.2663898,8d7d620d-5250-4c75-a8e7-4f3eeaf3839e
-0.0970362243858763,0.0698152563119574,-0.1765721456671128,-0.0974745142333672,-0.3506417312275487,0.1644036881052386,-0.532395104499907,-0.5547478956270498,-19.14544593483068,28.700638537090764,17.35271277979837,0.7639123407925736,0.2448539733220465,1.4831904885258382,-1.0,11.989777777777778,0.0,179.30367936563206,1.1359953314932936,96.80224785277656,1553.0,1435.0,1000.0,1528.0,1471.0,1011.0,94.0,292.63,1649151617.3746245,1649151618.4953587,8d7d620d-5250-4c75-a8e7-4f3eeaf3839e
-0.0532483245649473,0.0943868821987953,-0.0334841897967614,-0.1127461780166197,-0.2217297037594296,0.1481458735158539,-0.3844722371085189,-0.4043459479312221,-18.14713995224803,28.54547673520607,17.581806339879094,0.7684632717702219,0.3388649456965539,0.9058765703148256,-1.0,11.98977777777778,0.0,179.3105125904417,1.1330965090889886,96.71949707534225,1553.0,1435.0,1000.0,1435.0,1471.0,1011.0,94.0,292.63,1649151620.430055,1649151621.7726028,64bc191b-7f45-428a-be02-e1b64ac6a6f1
-0.0489065153406398,0.0974138216117667,-0.0258278133353005,-0.1089522310506994,-0.2154566792606719,0.1394759521544454,-0.3789251298396874,-0.3957855972799093,-18.03423920576876,28.59523103022975,17.317369263094193,0.7411483282374239,0.3517815254340051,0.8790831960543057,-1.0,11.985333333333331,0.0,179.29622535251784,1.1439478179792713,96.7224105304782,1553.0,1435.0,1000.0,1435.0,1471.0,1011.0,94.0,292.63,1649151621.8810053,1649151623.2141478,64bc191b-7f45-428a-be02-e1b64ac6a6f1
-0.0390734816595665,0.0979885292016549,-0.026029974537918,-0.1151255442766564,-0.216370513742869,0.144916225107963,-0.377507809679909,-0.4074079513825773,-18.02295743519354,28.57303397593336,17.36753704527152,0.7671552928861171,0.3541594175306126,0.8786886461331983,-1.0,11.990111111111112,0.0,179.30665125683092,1.1473499043741395,96.6820304521051,1553.0,1435.0,1000.0,1435.0,1471.0,1011.0,94.0,292.63,1649151623.3258247,1649151624.4347754,64bc191b-7f45-428a-be02-e1b64ac6a6f1
0.0199597828627333,0.1280941122930187,0.1517891580360822,-0.1161018349783358,-0.0561109053563897,0.1055769704053181,-0.2005411254324357,-0.2236746155033744,-16.757225709596145,28.60826366689182,17.199639740394392,0.6906551283622676,0.4709967743074026,0.170327474766297,-1.0,11.983,0.0,179.2801744079683,1.1218528674923185,96.65023060914932,1553.0,1435.0,1000.0,1330.0,1471.0,1011.0,94.0,292.63,1649151626.5744512,1649151627.7111971,34a74056-e8c4-46ce-8eb7-799992f68303
0.0062237779763559,0.1282568274052487,0.1465861095021329,-0.1180182576573901,-0.0611238460026612,0.1086784190368705,-0.2052467155899015,-0.2249171679572301,-16.7900131275072,28.59435448373009,17.374418529220872,0.701607551250028,0.4701959274239671,0.1911795415873548,-1.0,11.983222222222222,0.0,179.2798966469421,1.1285121714954407,96.63883785361377,1553.0,1435.0,1000.0,1330.0,1471.0,1011.0,94.0,292.63,1649151627.82035,1649151628.936232,34a74056-e8c4-46ce-8eb7-799992f68303
0.0128923585169401,0.1223278612506785,0.1489402739323087,-0.1149102343166625,-0.0573025059936073,0.1117404216589526,-0.2018286020640517,-0.2339881255213965,-16.83524054641873,28.61857652544734,17.412866818535736,0.7017384958619702,0.4477050299621043,0.1772215917870218,-1.0,11.98311111111111,0.0,179.29518261030455,1.1318134533102149,96.629750666378,1553.0,1435.0,1000.0,1330.0,1471.0,1011.0,94.0,292.63,1649151629.0447614,1649151630.177968,34a74056-e8c4-46ce-8eb7-799992f68303
0.0652219784016051,0.1478746817050574,0.3168091228850987,-0.1141656893904735,0.0923477385678844,0.0759513144882737,-0.035760010049257,-0.0522879219283332,-15.560508583278542,28.872521393336733,17.2569705887559,0.6302950784669609,0.5464352310956291,-0.4882124159176533,-1.0,11.983333333333333,0.0,179.2609147923287,1.121567090480171,96.53233016042628,1553.0,1435.0,1000.0,1210.0,1471.0,1011.0,94.0,292.63,1649151631.9019587,1649151633.0361154,caa732ff-4093-4878-8da6-c73d8f0a4994
0.0706129438349488,0.1537915948481797,0.3155994429121918,-0.1142314328378228,0.0902702445897161,0.0714807578047907,-0.03810047805384,-0.0607819801673493,-15.506102809127462,28.816674350751573,17.423618620137354,0.6200209421523598,0.5666956448793183,-0.4793901583673863,-1.0,11.983,0.0,179.27541756066637,1.1259176956800898,96.55113746576087,1553.0,1435.0,1000.0,1210.0,1471.0,1011.0,94.0,292.63,1649151633.1441677,1649151634.265304,caa732ff-4093-4878-8da6-c73d8f0a4994
0.0578061137447748,0.1510961121921478,0.3096956786827063,-0.1188729229608113,0.084984468751633,0.0774634145412057,-0.0415980313767475,-0.0641086003120008,-15.497999533486109,28.752156748111688,17.25569207936396,0.6431904826968174,0.5582130272135309,-0.4597350396210961,-1.0,11.979222222222225,0.0,179.2726080761878,1.126904266702235,96.55051060617706,1553.0,1435.0,1000.0,1210.0,1471.0,1011.0,94.0,292.63,1649151634.373518,1649151635.4956603,caa732ff-4093-4878-8da6-c73d8f0a4994
0.1068644468447116,0.180729985388525,0.4617559561471496,-0.0920095871314857,0.2207787210100143,0.0159603876861928,0.0951538894334013,0.0711849117488665,-14.645335711380298,29.35481414761888,17.256943433336975,0.4563839493217274,0.6696546131072306,-1.0425002604791134,-1.0,11.974333333333334,0.0,179.2500062213143,1.1114188286136744,96.52647744721747,1553.0,1435.0,1000.0,1071.0,1471.0,1011.0,94.0,292.63,1649151636.6100004,1649151637.7478364,68758775-6691-4276-bb91-0a4dcf5dd5ec
0.1118226009494378,0.1726079264290233,0.4640843708993194,-0.093762746664636,0.2231208324132313,0.0253425304802202,0.1003448850346016,0.0787180190489559,-14.579520541862747,29.45626077296133,17.257249085367594,0.4822431951327763,0.6390886022725927,-1.0572483783575282,-1.0,11.974444444444444,0.0,179.25847565588506,1.1076369078099624,96.55173093330876,1553.0,1435.0,1000.0,1071.0,1471.0,1011.0,94.0,292.63,1649151637.855685,1649151638.9714222,68758775-6691-4276-bb91-0a4dcf5dd5ec
0.1055769703428512,0.17289555415216,0.4584550858137823,-0.0884210886282133,0.2195186376781088,0.0211650800127197,0.0938527163760549,0.0776222942757182,-14.655490338595444,29.35882640766778,17.357552462190913,0.4598579770167355,0.6387998988410314,-1.0352152892396014,-1.0,11.972,0.0,179.2699367133124,1.127569759543554,96.5670009595632,1553.0,1435.0,1000.0,1071.0,1471.0,1011.0,94.0,292.63,1649151639.0802257,1649151640.2075603,68758775-6691-4276-bb91-0a4dcf5dd5ec
-0.1463849281560986,0.0493252047050143,-0.3506691244025463,-0.0756695919162112,-0.5108641085840631,0.1738954028480107,-0.7192299239656101,-0.7393912682077056,-20.43539120339443,29.158630246082566,17.314115627926387,0.7297666656081443,0.1637621175215536,2.201312871534037,-1.0,11.985,0.0,179.32441733777202,1.127646302722534,96.69012498518148,1553.0,1435.0,1000.0,1613.0,1471.0,1011.0,94.0,292.63,1649151641.870836,1649151642.8593018,5640a9ae-524b-4b32-8185-ca8aad0e095e
-0.1603439139005458,0.0396346155425331,-0.3660947392828027,-0.0726026584169259,-0.5229587209526358,0.1801547298821035,-0.7321545497887658,-0.7558222138550649,-20.484084548051747,29.10603929426364,17.147444796144566,0.7357461549480634,0.1278819564386261,2.25582168141429,-1.0,11.984777777777776,0.0,179.3329125752797,1.12308948747111,96.66802249302732,1553.0,1435.0,1000.0,1613.0,1471.0,1011.0,94.0,292.63,1649151642.967057,1649151644.0955803,5640a9ae-524b-4b32-8185-ca8aad0e095e
-0.1631221240626117,0.0444355332771322,-0.3558464244641303,-0.0738068598559188,-0.5148908979103352,0.1764292660947533,-0.7221883818060765,-0.7425414768164456,-20.319694418723675,29.105072951590767,17.205851201025865,0.7306868755793126,0.1450050845557711,2.2174418225344312,-1.0,11.987,0.0,179.3364111499546,1.1260752524917252,96.66602580105992,1553.0,1435.0,1000.0,1613.0,1471.0,1011.0,94.0,292.63,1649151644.204264,1649151645.326395,5640a9ae-524b-4b32-8185-ca8aad0e095e
-0.2029791131801508,0.0212198663111313,-0.5085630861576513,-0.0261702273690253,-0.6525550512860433,0.1632531771840431,-0.8936145902544613,-0.9185286451788685,-21.52213964398679,29.725340139593808,17.08596023834045,0.589505036987099,0.0519694289525885,2.8535334118142472,-1.0,11.967555555555556,0.0,179.34223047112744,1.1157047841758243,96.64040652039311,1553.0,1435.0,1000.0,1694.0,1471.0,1011.0,94.0,292.63,1649151647.464187,1649151648.601673,0ae51d10-1e20-4bd9-968a-fbacae1f5b4d
-0.2089940944316922,0.0201876936510079,-0.5056418833425314,-0.0303295983455619,-0.6492388392907129,0.1669534393654255,-0.8886635555910393,-0.9138827694502304,-21.52916425101329,29.64007402868144,16.95518059625712,0.6067583760540938,0.050002819249723,2.8376697381810105,-1.0,11.965222222222222,0.0,179.3429377751615,1.1218176493294107,96.5900247683454,1553.0,1435.0,1000.0,1694.0,1471.0,1011.0,94.0,292.63,1649151648.7105205,1649151649.8979084,0ae51d10-1e20-4bd9-968a-fbacae1f5b4d
-0.205732121741013,0.0234524053857382,-0.4974140845622448,-0.0345799145922379,-0.6425291668212875,0.1668553719862493,-0.8796714862076364,-0.9066948118127276,-21.437879881768986,29.60376237681894,16.905872194459853,0.6163327429811849,0.0630826916299208,2.8048796939173144,-1.0,11.966666666666669,0.0,179.33656141411632,1.131336454717241,96.53646166596424,1553.0,1435.0,1000.0,1694.0,1471.0,1011.0,94.0,292.63,1649151650.01072,1649151651.2707164,0ae51d10-1e20-4bd9-968a-fbacae1f5b4d
-0.2554747409306319,-0.002257131174659,-0.6560630151161662,0.0256706999982842,-0.784512681011788,0.1438643294531415,-1.06058286391319,-1.093231100270052,-22.68676059258608,30.311748290556935,16.63449218025256,0.4248799278783358,-0.0395628263658792,3.467972309527456,-1.0,11.937444444444443,0.0,179.3446984461475,1.101302772986389,96.38809553790333,1553.0,1435.0,1000.0,1774.0,1471.0,1011.0,94.0,292.63,1649151652.3816292,1649151653.5185978,1f5eddae-56d1-456a-ba90-bca2f7661996
-0.2553038078309773,0.0026867786914605,-0.6487786348048675,0.0198195301038893,-0.7795819177273947,0.1440221137710813,-1.0522860309113502,-1.075296265671146,-22.522891111885656,30.27218581875703,16.63920109104681,0.4386169834976358,-0.021040197186456,3.440198483656104,-1.0,11.938333333333334,0.0,179.3605126108058,1.107531537912454,96.32164993983764,1553.0,1435.0,1000.0,1774.0,1471.0,1011.0,94.0,292.63,1649151653.6272042,1649151654.7470386,1f5eddae-56d1-456a-ba90-bca2f7661996
-0.2637321232561007,-0.0014550606907915,-0.6705528837280894,0.0261834991711963,-0.7988710639759219,0.1460338642624184,-1.0766374332078683,-1.1057881141839905,-22.79143168892439,30.3964239372274,17.00347456533901,0.4284443685136287,-0.0400643005931567,3.5306525305247805,-1.0,11.941666666666666,0.0,179.35689716400515,1.105826409645282,96.26210207392371,1553.0,1435.0,1000.0,1774.0,1471.0,1011.0,94.0,292.63,1649151654.855586,1649151656.180446,1f5eddae-56d1-456a-ba90-bca2f7661996
-0.27896762923133117,-0.001091827955159854,-0.7287490361674894,0.10591938433155286,-0.8503334425628317,0.07208888500894649,-1.1662721620717216,-1.1996507026918581,-23.272984067888682,31.17277403210447,16.404437095347678,0.08432635279588115,-0.04347774712923443,3.8069374712745234,-1.0,11.882222222222222,0.0,179.34767944426528,1.0897447885343234,96.08568815349109,1553.0,1435.0,1000.0,1856.0,1471.0,1011.0,94.0,292.63,1649151657.9087303,1649151658.9846547,e4d5fc19-c7a5-4ba2-b622-41a56251449a
-0.28233698301952287,0.0021405599350926376,-0.7276670075246722,0.09941351909537995,-0.8509908776177958,0.0750473416146125,-1.1662584655136994,-1.1828176182939367,-23.38070435714971,31.270594516354368,16.427198313318186,0.10630178406622155,-0.02992237656008936,3.8065891956549245,-1.0,11.889,0.0,179.3565784218439,1.0846811756180783,95.94271332141504,1553.0,1435.0,1000.0,1856.0,1471.0,1011.0,94.0,292.63,1649151659.0997689,1649151660.2743795,e4d5fc19-c7a5-4ba2-b622-41a56251449a
-0.27283157013986103,0.006824783047316005,-0.7219692369531151,0.10149539596680808,-0.8458272725775249,0.06811688301115339,-1.1626836610295392,-1.1969935682570763,-23.403436603971443,31.255374121072375,16.402991318404123,0.0861994255814975,-0.011873626125007192,3.7872409838125507,-1.0,11.883000000000001,0.0,179.3469023205197,1.0964665958831314,95.8370958295494,1553.0,1435.0,1000.0,1856.0,1471.0,1011.0,94.0,292.63,1649151660.384085,1649151661.5038764,e4d5fc19-c7a5-4ba2-b622-41a56251449a
