raw_voltage_G-,raw_voltage_G0,raw_voltage_G1,raw_voltage_G2,raw_voltage_G3,raw_voltage_G4,raw_voltage_G5,raw_voltage_G6,load_x,load_y,load_z,load_l,load_m,load_n,rpm,voltage,current,roll,pitch,yaw,aileron1_pwm,elevator_pwm,throttle_pwm,rudder_pwm,aileron2_pwm,pbaro,pdiff,Tt,sample_start_time,sample_end_time,uid
0.2602434350564068,0.3271834435362326,0.6995807855585277,-0.2243780706911514,0.3719416023271884,-0.0117373414209259,0.3994223753478031,0.369311863147106,-3.671263541698488,26.981135701117594,18.44769133299358,0.6945548902486902,1.1620527339835318,-1.978896140126721,-1.0,11.977666666666666,0.0,179.1264420279495,1.2838664249929674,90.17340507039673,1553.0,1435.0,1000.0,1528.0,1471.0,1011.0,94.0,292.63,1649152465.9653924,1649152467.0994978,68cf93b5-4e78-48dc-b8ff-c4add11d1150
0.2728398853434152,0.3325086651437212,0.7025129445378604,-0.2221690895054211,0.3741374344271322,-0.0188376376452893,0.399764241421314,0.3823290714554171,-3.697542788285197,26.987728272782075,18.48188986197952,0.6737985842692541,1.181822472251572,-1.9856796712216656,-1.0,11.979555555555557,0.0,179.1355656428608,1.2842668922649283,90.06571347775314,1553.0,1435.0,1000.0,1528.0,1471.0,1011.0,94.0,292.63,1649152467.2087803,1649152468.3285296,68cf93b5-4e78-48dc-b8ff-c4add11d1150
0.2748384870656583,0.3310228625676542,0.6986077821313098,-0.2188030229254819,0.3709948962642873,-0.0204417786286202,0.3950438598374201,0.3673921537407558,-3.73351261669506,27.01233978608829,18.45422856872513,0.6625470297916349,1.176087972257318,-1.9695799745019007,-1.0,11.976666666666668,0.0,179.155018021617,1.3104591261961775,90.04247945092646,1553.0,1435.0,1000.0,1528.0,1471.0,1011.0,94.0,292.63,1649152468.436922,1649152469.557494,68cf93b5-4e78-48dc-b8ff-c4add11d1150
0.4583866030224484,0.6732992836323269,0.7597245599929995,-0.2690924091392554,0.3604699135653595,-0.314017127775291,0.3491702535396536,0.3233796353069148,-3.250398307665788,26.60049748794572,17.87413219306933,0.1167483276442237,2.471613861877369,-1.93257597578648,-1.0,11.972,0.0,178.843244171123,1.2687471965088113,90.01177775060725,1663.0,1435.0,1000.0,1528.0,1555.0,1011.0,94.0,292.63,1649152471.4913952,1649152472.4557712,dc3affc7-c7b7-4d12-8554-c06d52eef654
0.4602493348225971,0.6740115046092755,0.7508765839838306,-0.2686815122486316,0.3518684753997776,-0.3140993069914772,0.3400620427363185,0.3101761538212497,-3.2420312886766323,26.58571345145832,17.946399619009558,0.1151139335496463,2.472973644063215,-1.8956279619993903,-1.0,11.963666666666668,0.0,178.83591765487324,1.2568566553635636,90.0526860302762,1663.0,1435.0,1000.0,1528.0,1555.0,1011.0,94.0,292.63,1649152472.5646813,1649152473.6523888,dc3affc7-c7b7-4d12-8554-c06d52eef654
0.4609204661372752,0.6751209257469362,0.7594780219653057,-0.2818302102896628,0.3587441472955959,-0.3036625277984706,0.3527724481777606,0.3248588636264902,-3.167118768746331,26.50614255317497,17.945985119312738,0.1681654633376782,2.478770931146669,-1.934711079632626,-1.0,11.958333333333334,0.0,178.83887892133342,1.2533956230132022,90.09917381558712,1663.0,1435.0,1000.0,1528.0,1555.0,1011.0,94.0,292.63,1649152473.7613096,1649152474.8845232,dc3affc7-c7b7-4d12-8554-c06d52eef654
0.6524295654135357,1.037147236048949,0.8229418420916701,-0.3183386666783484,0.3454469813119448,-0.6329870453592512,0.2943117050308114,0.2627022409810152,-2.726320459100296,26.446827614992948,16.795714099994996,-0.4867111713163402,3.852181900130952,-1.877677029446392,-1.0,11.95622222222222,0.0,178.47770155366277,1.2166744864648362,90.28345687285352,1779.0,1435.0,1000.0,1528.0,1638.0,1011.0,94.0,292.63,1649152477.019861,1649152478.1604755,2b2b563b-428f-424d-941b-17ac2279991a
0.664684149119198,1.0352801213008351,0.82625531325986,-0.3145123953764452,0.3494573333687036,-0.634591186696885,0.2955608310647436,0.2648060322531092,-2.899372537664122,26.55312919999618,16.82567275684312,-0.49815968133852,3.845879145194328,-1.8897491547330143,-1.0,11.94488888888889,0.0,178.48374399434854,1.2193386871279643,90.42063818669358,1779.0,1435.0,1000.0,1528.0,1638.0,1011.0,94.0,292.63,1649152478.268329,1649152479.389117,2b2b563b-428f-424d-941b-17ac2279991a
0.6509043167974832,1.0333341143707813,0.8169854832221886,-0.3198902129936603,0.3412525475306875,-0.628529635676987,0.289472985106001,0.2584946582177442,-2.861687907351455,26.40514227835724,16.654882983738485,-0.4738583820994129,3.839899375844598,-1.857706759402124,-1.0,11.943444444444443,0.0,178.48353908867344,1.2157640317348477,90.50648531655166,1779.0,1435.0,1000.0,1528.0,1638.0,1011.0,94.0,292.63,1649152479.4975731,1649152480.5436108,2b2b563b-428f-424d-941b-17ac2279991a
0.7756065399909666,1.247710450405887,0.8824922822155615,-0.3773500262212541,0.3505223776485431,-0.8036440438417297,0.2847394546090014,0.2696710493647951,-2.522624183788906,26.93870800161276,14.326847748494304,-0.7311501313358145,4.673410847119817,-1.9307156546291853,-1.0,11.936333333333332,0.0,178.38585827662334,1.1526806535779233,90.70530225746194,1904.0,1435.0,1000.0,1528.0,1723.0,1011.0,94.0,292.63,1649152482.3462832,1649152483.482234,c035a3d9-9da7-4129-85ff-c23e0797b442
0.7663235613174568,1.237914671935108,0.8673581341731617,-0.3761271971682099,0.3379916709719186,-0.7963070676087657,0.2718537329934323,0.2451881785275426,-2.5772196773828635,26.94600589665729,14.057963759559598,-0.7181969133889055,4.638330390615888,-1.8762673280739983,-1.0,11.906333333333333,0.0,178.41704492037363,1.1637697502866542,90.76790473575464,1904.0,1435.0,1000.0,1528.0,1723.0,1011.0,94.0,292.63,1649152483.591519,1649152484.7086964,c035a3d9-9da7-4129-85ff-c23e0797b442
0.8000746178509388,1.2616486163515084,0.8806377685442204,-0.3701319403300611,0.3474444870473963,-0.8216939257705552,0.2762908692637753,0.2537600319815399,-2.5738839702359946,26.91720887561406,14.607937461960892,-0.7882087176674365,4.722552325120796,-1.909847327656724,-1.0,11.907666666666668,0.0,178.38065822593524,1.1594089590928165,90.84143399889956,1904.0,1435.0,1000.0,1528.0,1723.0,1011.0,94.0,292.63,1649152484.8168662,1649152486.1451828,c035a3d9-9da7-4129-85ff-c23e0797b442
0.8116865591374196,1.3036844504008611,0.8846223708026557,-0.381149999886811,0.333836683315709,-0.8669418984656023,0.2550759976415395,0.2317370630294276,-2.672002938519816,27.86359934043148,12.512492775550967,-0.8589441842662171,4.901103807363834,-1.864961741909701,-1.0,11.903,0.0,178.3699803635328,1.1219836490137702,90.93315660926363,2045.0,1435.0,1000.0,1528.0,1813.0,1011.0,94.0,292.63,1649152486.8519938,1649152487.989988,a8f502fc-e1c9-456d-8c0c-c9afabc7824f
0.814697610297489,1.289996657520401,0.890631324520025,-0.3784019215243683,0.3424490787017935,-0.8539115336196339,0.2671333513723999,0.2419535994394427,-2.559638361292917,27.82097981163996,12.887270886226258,-0.8357292270808442,4.845691189717653,-1.903057570118433,-1.0,11.812888888888889,0.0,178.3772583095484,1.148068995227695,90.827012433922,2045.0,1435.0,1000.0,1528.0,1813.0,1011.0,94.0,292.63,1649152488.1012096,1649152489.218457,a8f502fc-e1c9-456d-8c0c-c9afabc7824f
0.8068478393691335,1.2968865744153424,0.8827815536641446,-0.380637200229004,0.3343757796099335,-0.8579744827374792,0.2571271937828874,0.2359446454007622,-2.6724013036040084,27.759184186109,12.90936325473947,-0.8406707323223102,4.871911400413044,-1.8663229616818688,-1.0,11.825,0.0,178.37641440173095,1.1462900511140242,90.79772761840064,2045.0,1435.0,1000.0,1528.0,1813.0,1011.0,94.0,292.63,1649152489.3266666,1649152490.4466083,a8f502fc-e1c9-456d-8c0c-c9afabc7824f
0.038381654293712,-0.0853256661054281,0.6353872131518444,-0.1662997258929845,0.3892737740970389,0.3472664320372884,0.4643035158275196,0.4434847484552768,-3.9612641680350698,27.787823233984778,19.621053515083457,1.3724660671576523,-0.4046606935321929,-2.0556605673847943,-1.0,11.839,0.0,179.27686252513075,1.271744025012926,90.78511681246306,1444.0,1435.0,1000.0,1528.0,1381.0,1011.0,94.0,292.63,1649152491.357726,1649152492.3921416,94aa3fdd-28ce-4dd8-b567-f1b0894157f2
0.0409976969849609,-0.0911193106797437,0.6374964829700223,-0.1656012013360686,0.3925335547883198,0.3510603785074111,0.4686864141955602,0.4440189142116015,-3.9213770627458113,27.759987570791694,19.47004543081753,1.3793323793626149,-0.4252870724168124,-2.07008455904038,-1.0,11.97411111111111,0.0,179.24816814151762,1.2585590207243529,90.78097088763688,1444.0,1435.0,1000.0,1528.0,1381.0,1011.0,94.0,292.63,1649152492.500703,1649152493.6219978,94aa3fdd-28ce-4dd8-b567-f1b0894157f2
0.0308896366993227,-0.0910097382094736,0.6389209249247011,-0.166190153392047,0.393957996773602,0.3517999926117761,0.4695356007520233,0.4439778245482937,-4.004668942490753,27.79508500868469,19.522097832800068,1.38259288585291,-0.4245845188522172,-2.075166575455996,-1.0,11.972,0.0,179.2561427668286,1.2620337964588255,90.7636176536856,1444.0,1435.0,1000.0,1528.0,1381.0,1011.0,94.0,292.63,1649152493.7312393,1649152494.850978,94aa3fdd-28ce-4dd8-b567-f1b0894157f2
-0.1880745166462933,-0.479173551021929,0.5954036753279114,-0.0659625665871928,0.4296249281536899,0.6485638490913164,0.5349196783449395,0.5067946195563612,-4.220002527326873,28.817954405429383,20.83461403093089,1.828086701529092,-1.9056251138756115,-2.202328679585237,-1.0,11.975,0.0,179.39019205947926,1.2695114662178144,90.80131346771488,1331.0,1435.0,1000.0,1528.0,1283.0,1011.0,94.0,292.63,1649152496.8302667,1649152497.7747386,12a9b630-8721-42c9-86f4-2f1ab880e36a
-0.1771474012765823,-0.4856761307906994,0.5897502843532003,-0.0644110202040505,0.4239123679881147,0.6535488480722541,0.5302935291511895,0.5001474063191722,-4.137873635008575,28.95199999727359,20.79902407470917,1.8364315229822448,-1.9308267468554228,-2.181076106478561,-1.0,11.944,0.0,179.39486846233098,1.2673333117767167,90.7379702933522,1331.0,1435.0,1000.0,1528.0,1283.0,1011.0,94.0,292.63,1649152497.8841114,1649152498.945296,12a9b630-8721-42c9-86f4-2f1ab880e36a
-0.1758462281354388,-0.4770746898701493,0.5997898608296562,-0.0652739034754137,0.4323768404860946,0.6443721547113157,0.5382375323858816,0.5162956475141337,-4.1019546205380815,28.880854527590905,20.64961675554708,1.8177792572545768,-1.896754657992012,-2.2167238378372023,-1.0,11.941666666666666,0.0,179.39980896583063,1.2604938022443992,90.702676429181,1331.0,1435.0,1000.0,1528.0,1283.0,1011.0,94.0,292.63,1649152499.0534537,1649152500.1743555,12a9b630-8721-42c9-86f4-2f1ab880e36a
-0.4077103709507136,-0.8976046737750027,0.544768050897823,0.0391481136799589,0.45802610961114,0.9723241678820612,0.5964687196155607,0.5688038653334933,-4.412028679795712,30.5773708001778,22.35689147355033,2.3278034911784764,-3.503250585415803,-2.3080408421827765,-1.0,11.933,0.0,179.5387213531704,1.2915417077771616,90.64040787124776,1209.0,1435.0,1000.0,1528.0,1173.0,1011.0,94.0,292.63,1649152500.8299406,1649152501.815183,845e3f1d-939f-4e5b-be62-85807a5ae2d1
-0.4067110698455565,-0.8994717896827035,0.5446760100242829,0.0372547013030567,0.4584205704581379,0.9745331487620504,0.5980860090937108,0.5832805785288792,-4.372959549052215,30.51166515029467,22.16955592130678,2.336588090919764,-3.5086434063318706,-2.3112077802033744,-1.0,11.880000000000004,0.0,179.54133503889273,1.287291088957592,90.46118826088605,1209.0,1435.0,1000.0,1528.0,1173.0,1011.0,94.0,292.63,1649152501.9240906,1649152503.0384834,845e3f1d-939f-4e5b-be62-85807a5ae2d1
-0.3973743979971864,-0.8922449335914621,0.5507150960664112,0.0352588388314352,0.4629475566060694,0.9721170759493712,0.601844344403285,0.5818062810982398,-4.471533658582509,30.545667761688723,22.6090258167082,2.336207577389365,-3.4841064734742155,-2.329562813295532,-1.0,11.881999999999998,0.0,179.54655937469792,1.2960752102648554,90.33378018883836,1209.0,1435.0,1000.0,1528.0,1173.0,1011.0,94.0,292.63,1649152503.1466684,1649152504.273887,845e3f1d-939f-4e5b-be62-85807a5ae2d1
-0.4121546312445235,-0.9298452950469948,0.5564177946727396,0.0638150677511525,0.4751720080124149,0.977636240828867,0.6060278208633563,0.590696442523276,-4.79255760540157,31.16788078486716,21.92711292388492,2.288332407164447,-3.619958594406006,-2.36568365254569,-1.0,11.832666666666668,0.0,179.55218137929472,1.3047755550330804,90.01834839258883,1074.0,1435.0,1000.0,1528.0,1047.0,1011.0,94.0,292.63,1649152505.386512,1649152506.5241597,78d11847-2a4f-4dca-81ef-451c81df37d1
-0.4266970923814897,-0.932698563749354,0.5486995106964766,0.0681935835965835,0.46866340393619,0.9754141113567812,0.5960479613645259,0.5770612458047976,-4.951530337834292,31.26690763714154,21.71859960981367,2.273621007435043,-3.6287135762859455,-2.332841394477556,-1.0,11.734,0.0,179.54351614596771,1.3035121479061378,89.69301965223195,1074.0,1435.0,1000.0,1528.0,1047.0,1011.0,94.0,292.63,1649152506.6325965,1649152507.9633975,78d11847-2a4f-4dca-81ef-451c81df37d1
-0.4205172037666138,-0.9293982391406128,0.5457016082293153,0.0595680390111049,0.4640219145652337,0.9806735894194674,0.5949697683812034,0.5707104261235888,-4.853148903537259,31.214856749988844,21.781222981364245,2.3044620503014044,-3.616715646011808,-2.3203957320890187,-1.0,11.739666666666668,0.0,179.55516389523228,1.2803978272594625,89.48556403984142,1074.0,1435.0,1000.0,1528.0,1047.0,1011.0,94.0,292.63,1649152508.0721357,1649152509.1927595,78d11847-2a4f-4dca-81ef-451c81df37d1
0.2611287805351368,0.3156821701244597,0.690913056266381,-0.2185657984483212,0.3659896262447437,-0.0082551282956838,0.3915337060604819,0.3649075980984727,-3.753698022823657,27.07011085808965,18.037430631859824,0.6893201645970519,1.121871953233546,-1.949755974928502,-1.0,11.79888888888889,0.0,179.07475570977027,1.1832190815452523,89.27405660745328,1553.0,1435.0,1000.0,1528.0,1471.0,1011.0,94.0,292.63,1649152509.8302224,1649152511.0261304,27f16598-1cb1-4555-8e26-0a3f259aa00c
0.2651281754254423,0.32169495894001,0.6918855118309789,-0.2241539949945379,0.3657156951018287,-0.0082962180259724,0.3910543265342854,0.3692767999171799,-3.879486332574663,27.07810096809575,18.140000937416264,0.7018878536469316,1.1451545983491702,-1.949293929954228,-1.0,11.984444444444444,0.0,179.0661405644972,1.2019991135550252,89.6647047235727,1553.0,1435.0,1000.0,1528.0,1471.0,1011.0,94.0,292.63,1649152511.1392252,1649152512.2578926,27f16598-1cb1-4555-8e26-0a3f259aa00c
0.2609370287463785,0.323146794056057,0.6958027272074437,-0.225085361074242,0.3695370346588742,-0.008309914555101,0.3956426733040311,0.3779330243400241,-3.8492478535021895,27.017152309105555,18.25161176471353,0.7037820372476644,1.1497586062918153,-1.9660000723950168,-1.0,11.987666666666666,0.0,179.0665822500635,1.207827423067097,89.95701936512137,1553.0,1435.0,1000.0,1528.0,1471.0,1011.0,94.0,292.63,1649152512.3665593,1649152513.487771,27f16598-1cb1-4555-8e26-0a3f259aa00c
0.2843449938879365,0.3179136133068995,0.6892853573989661,-0.5439703434025549,0.3300630077985771,0.3058299622348965,0.4788667913576861,0.4552122888458901,-3.617259769492774,26.38022103598877,20.73684076085045,2.1249887988041176,1.145300118509972,-2.0213449287081064,-1.0,11.983555555555556,0.0,179.0726307620285,1.301142012974307,90.52911145654218,1553.0,1537.0,1000.0,1528.0,1471.0,1011.0,94.0,292.63,1649152515.4224465,1649152516.555455,2f93102c-9c53-4e6f-bb36-7a0ee20e57fa
0.2728398853535236,0.3202672297753565,0.6894825878235115,-0.5440492357883514,0.3289848147827062,0.3029898439534309,0.4780647209556133,0.4607873355687193,-3.542198760746385,26.426042655942503,20.647376204993424,2.119121736146216,1.1544122637904002,-2.0188116601121413,-1.0,11.981,0.0,179.0609632811063,1.3084292971391651,90.67104639231712,1553.0,1537.0,1000.0,1528.0,1471.0,1011.0,94.0,292.63,1649152516.6646144,1649152517.7883558,2f93102c-9c53-4e6f-bb36-7a0ee20e57fa
0.279030181600721,0.3270503129911575,0.6924333741190446,-0.5500499736648498,0.3302416109155316,0.3019582192659112,0.4801367361600131,0.4577428647906261,-3.5752419498822827,26.40075115424338,20.67981234885704,2.1303075386348227,1.1807247952360582,-2.0266946573091817,-1.0,11.980333333333334,0.0,179.06955565908217,1.2915875269628438,90.79334036022377,1553.0,1537.0,1000.0,1528.0,1471.0,1011.0,94.0,292.63,1649152517.896908,1649152519.016568,2f93102c-9c53-4e6f-bb36-7a0ee20e57fa
0.3031772129069058,0.3244753601470956,0.6817500594588074,-0.8604141149841155,0.2829884868229096,0.6070079464997947,0.5536735524675813,0.5330739301814503,-3.1664612423957537,26.13820945244248,23.29962020827561,3.514251473717691,1.182485367294081,-2.051416659072124,-1.0,11.968777777777778,0.0,179.06726526898052,1.3851831032634094,90.93024770758711,1553.0,1645.0,1000.0,1528.0,1471.0,1011.0,94.0,292.63,1649152519.9208934,1649152521.0646336,d0d38ef3-1e03-4223-8960-32476122e30b
0.2903024486386784,0.3196952615257717,0.6855987920527591,-0.862454903041435,0.2869878816156012,0.6133905421898102,0.5582618991436682,0.5432367757514368,-3.273620829682875,26.246803085206988,23.30573336474915,3.534056090878103,1.16575845514405,-2.069350225854032,-1.0,11.965555555555556,0.0,179.05028086524442,1.3566491223740678,90.98214120817116,1553.0,1645.0,1000.0,1528.0,1471.0,1011.0,94.0,292.63,1649152521.1736305,1649152522.4985476,d0d38ef3-1e03-4223-8960-32476122e30b
0.3043178622502111,0.3316277025576574,0.6911787694767085,-0.8626554207948375,0.2901961633458031,0.6007157480963256,0.5609935405370216,0.5354193287229034,-3.138020616790899,26.15788664851103,23.17215889207772,3.5057618280792764,1.2111134069630234,-2.083830425447529,-1.0,11.963888888888889,0.0,179.05274125116546,1.369556152192982,91.01286947033714,1553.0,1645.0,1000.0,1528.0,1471.0,1011.0,94.0,292.63,1649152522.607236,1649152523.735309,d0d38ef3-1e03-4223-8960-32476122e30b
0.3130222985904921,0.3283668261095401,0.6852487080491911,-1.1376605774002733,0.2497244785368345,0.8708425383327666,0.6228055556466019,0.6015309671794578,-3.2083648589729443,26.42778131387637,25.330100631856222,4.734919516085072,1.2137428976845623,-2.10855255412926,-1.0,11.961111111111112,0.0,179.05952287010135,1.4740467102774295,91.01894985651828,1553.0,1761.0,1000.0,1528.0,1471.0,1011.0,94.0,292.63,1649152524.8429592,1649152525.9795544,265f944a-2e30-40ac-ab92-765c1554a49d
0.3200042558365493,0.3252505853197076,0.6894562904373758,-1.1401982772252466,0.2532088829187495,0.8782058075460891,0.6320753856038914,0.6104720797631592,-2.868833013008269,26.331891873267928,25.66162006707671,4.756987798855776,1.197291285965469,-2.13188703924749,-1.0,11.948,0.0,179.04090073878425,1.471119760774667,90.97859102762258,1553.0,1761.0,1000.0,1528.0,1471.0,1011.0,94.0,292.63,1649152526.087938,1649152527.213601,265f944a-2e30-40ac-ab92-765c1554a49d
0.30396284747733,0.3258685739972954,0.6813829917279091,-1.129758204664309,0.246634535080572,0.8660958593530093,0.6175855237330592,0.5967316935078459,-3.157396336231642,26.483063767828824,25.30589549059518,4.706623062849454,1.203009640747958,-2.0918965140387256,-1.0,11.953,0.0,179.0344211659916,1.4709161357600364,90.96200049812862,1553.0,1761.0,1000.0,1528.0,1471.0,1011.0,94.0,292.63,1649152527.3223274,1649152528.4432538,265f944a-2e30-40ac-ab92-765c1554a49d
0.2960823960008008,0.3196541718446599,0.6379073796866132,-1.1886660533535047,0.1923446665962892,0.9326435970501156,0.5789847903257049,0.5503863786920619,-3.627560423007356,27.43576606368085,25.86396489567875,4.993049463455355,1.1825962573849012,-1.9049316349417176,-1.0,11.934888888888889,0.0,179.04848983786204,1.498617224883558,90.93171240370914,1553.0,1887.0,1000.0,1528.0,1471.0,1011.0,94.0,292.63,1649152529.3470986,1649152530.4858894,ed6ee17f-2a4b-4127-b537-293bbb4ef3f7
0.293685498413097,0.3202020341588252,0.6330998880889958,-1.1723808327030587,0.1892081547847809,0.91738563205698,0.5721912979187501,0.5481127501878054,-3.3885437097927373,27.33272618006952,25.858351378303137,4.92122428622866,1.1806975490334344,-1.8840233625722809,-1.0,11.884333333333332,0.0,179.0364550445445,1.4837111552197495,90.78727742897053,1553.0,1887.0,1000.0,1528.0,1471.0,1011.0,94.0,292.63,1649152530.5941527,1649152531.7168195,ed6ee17f-2a4b-4127-b537-293bbb4ef3f7
0.2940553054620222,0.3155589011065591,0.633551874475827,-1.1829545840495197,0.1908791348343965,0.9330134041277912,0.5763276582036135,0.5638637910356946,-3.625869055712677,27.29163321937683,26.068367272197307,4.979857879096403,1.1644311537020038,-1.8933121250281963,-1.0,11.892888888888889,0.0,179.0314917737476,1.4703861913430278,90.6769865698928,1553.0,1887.0,1000.0,1528.0,1471.0,1011.0,94.0,292.63,1649152531.8251088,1649152532.9431045,ed6ee17f-2a4b-4127-b537-293bbb4ef3f7
0.2419946892153299,0.3286802033508316,0.7011717776500825,0.0842240357991313,0.4006145237103093,-0.3069223092637989,0.3089434637157816,0.288535592433478,-4.023330539091045,28.3100516910172,16.735476879247795,-0.6564572835370237,1.1474615238190478,-1.891615289437711,-1.0,11.90422222222222,0.0,179.04357058383982,1.1012332734399906,90.56798509874837,1553.0,1335.0,1000.0,1528.0,1471.0,1011.0,94.0,292.63,1649152533.8543284,1649152534.997687,da058a28-ce2a-4dfc-83e9-7a387f4dad6e
0.2519931764529164,0.3381171315587194,0.7072530490765349,0.0796630816750354,0.4049152427523665,-0.312578989133333,0.3125319618096827,0.2970000652344191,-4.110336541928574,28.27915300989216,16.686849279786863,-0.6588337759319834,1.1848490817242328,-1.9098865938072445,-1.0,11.982555555555557,0.0,179.0405258372898,1.0920488745882428,90.82701243392202,1553.0,1335.0,1000.0,1528.0,1471.0,1011.0,94.0,292.63,1649152535.1061103,1649152536.2194023,da058a28-ce2a-4dfc-83e9-7a387f4dad6e
0.2533535185990134,0.3266969417996488,0.7040644905422602,0.0814080232703202,0.404247946490203,-0.3053346041635031,0.3143634655376819,0.2922868058649532,-3.956959591439082,28.17831071214174,16.34977253727252,-0.6472946269790506,1.1434996775371151,-1.908932340585439,-1.0,11.987555555555556,0.0,179.0421544579519,1.0724215196664342,91.05555435810018,1553.0,1335.0,1000.0,1528.0,1471.0,1011.0,94.0,292.63,1649152536.3279426,1649152537.6542196,da058a28-ce2a-4dfc-83e9-7a387f4dad6e
0.2314214943678789,0.3315751077788633,0.7109412580181254,0.3778453664888924,0.4374352530636522,-0.5956841814002796,0.2307640595819501,0.2102126482601373,-4.426850178781664,29.404589072625186,14.252451930322673,-1.96053820534697,1.1476690009320931,-1.845081231703425,-1.0,11.983444444444444,0.0,179.06211378852652,1.0031997698682418,91.28843952368057,1553.0,1236.0,1000.0,1528.0,1471.0,1011.0,94.0,292.63,1649152538.359687,1649152539.4984214,aeb2c68a-c605-4b80-aa6c-5413012a39e0
0.2264901856478855,0.3244342704775269,0.708978815290798,0.3829733576154684,0.4364995042703845,-0.5917286141030295,0.2300375941633654,0.2079587424266097,-4.367182788708815,29.48488390470468,14.479624073478568,-1.962716193895992,1.1176963752434486,-1.840587251311539,-1.0,11.973777777777778,0.0,179.05645080279464,1.019774789140963,91.45168787503306,1553.0,1236.0,1000.0,1528.0,1471.0,1011.0,94.0,292.63,1649152539.6063166,1649152540.726688,aeb2c68a-c605-4b80-aa6c-5413012a39e0
0.2209019900243027,0.3257902296880605,0.7016100674826293,0.3779467210013708,0.4303634465387025,-0.5891262670952584,0.2222990389491277,0.2072602181122841,-4.617600967247037,29.41698883135485,14.3245121201023,-1.9464972909948752,1.1260797941189178,-1.811413283321296,-1.0,11.969333333333337,0.0,179.05546725555416,1.004410776637646,91.59351371750871,1553.0,1236.0,1000.0,1528.0,1471.0,1011.0,94.0,292.63,1649152540.8357918,1649152541.954424,aeb2c68a-c605-4b80-aa6c-5413012a39e0
0.2213495935444436,0.3363086381014573,0.7013295619916101,0.599808488138446,0.4440884928072402,-0.8141498563157288,0.149715499081622,0.1323592202493923,-4.685004663283694,30.671764256043453,12.54929697867829,-2.9446339501059,1.154428539971596,-1.7262293088512877,-1.0,11.965333333333332,0.0,179.05559475241867,0.9149003530808192,91.83011526490752,1553.0,1133.0,1000.0,1528.0,1471.0,1011.0,94.0,292.63,1649152542.8663752,1649152544.003217,8b05b192-b052-403d-8f59-9ffaae84808a
0.2021130517657114,0.3229890097138714,0.6937427650007879,0.6094464815617839,0.4422739728493521,-0.8108758293301602,0.1418525788569409,0.1133988004182995,-5.088679608334594,30.69810379348009,12.36356218922766,-2.9594536969036342,1.1073079509764925,-1.7043033465752182,-1.0,11.951555555555554,0.0,179.05478271881734,0.9212719590810888,91.90626580287388,1553.0,1133.0,1000.0,1528.0,1471.0,1011.0,94.0,292.63,1649152544.1119678,1649152545.2300656,8b05b192-b052-403d-8f59-9ffaae84808a
0.2074251248354162,0.3236464444787986,0.6994098525243028,0.6036610557713051,0.4464947040252013,-0.8041831398776986,0.1520822643649385,0.1236679323918967,-4.785424284744831,30.57587424549415,12.710062174731467,-2.931684033145597,1.1056258437441528,-1.7315621224109785,-1.0,11.955222222222222,0.0,179.04689309141608,0.9205087447311766,91.98682484849456,1553.0,1133.0,1000.0,1528.0,1471.0,1011.0,94.0,292.63,1649152545.3382704,1649152546.4678338,8b05b192-b052-403d-8f59-9ffaae84808a
0.1933171221957716,0.3193665441364697,0.6623694309426084,0.6851057159905789,0.4141193293572676,-0.8757953581417971,0.0795809023985535,0.0636381081266729,-5.548354505254956,31.809224390488826,12.162978709505282,-3.2704650352931246,1.087467405486252,-1.535364120662009,-1.0,11.95588888888889,0.0,179.05438656784548,0.8566627806966074,92.1619038463994,1553.0,1026.0,1000.0,1528.0,1471.0,1011.0,94.0,292.63,1649152548.3972466,1649152549.5320003,f9a214ec-151c-4385-abd2-e636a66ca627
0.1804149645089683,0.3061904556414356,0.6556855110029898,0.6865986407379472,0.4103116863659776,-0.8654407546654346,0.0780468877184874,0.0630080663473256,-5.4534931334953685,31.74910779244067,11.963798816884298,-3.2512798655833834,1.0385344281164006,-1.5206540764235708,-1.0,11.937,0.0,179.06623163368607,0.8623539646747165,92.20422293958688,1553.0,1026.0,1000.0,1528.0,1471.0,1011.0,94.0,292.63,1649152549.6414096,1649152550.761617,f9a214ec-151c-4385-abd2-e636a66ca627
0.1889479201813276,0.3206540205652301,0.6659579289450412,0.6897214558031716,0.4170777857947309,-0.8816163991846567,0.0837446561889264,0.0609809756379032,-5.273672281056453,31.74271403073364,12.148216244595847,-3.2940839770635204,1.0901409982694616,-1.5498186374503,-1.0,11.934666666666669,0.0,179.05065424891905,0.8562952133549451,92.23973764654124,1553.0,1026.0,1000.0,1528.0,1471.0,1011.0,94.0,292.63,1649152550.8698056,1649152551.9901135,f9a214ec-151c-4385-abd2-e636a66ca627
0.2652530880399669,0.3217661810472252,0.6878521496485368,-0.2586567258463085,0.3574648888281826,0.0264859191555271,0.3949912650543304,0.3750578429924704,-3.945439664083519,27.13426097873294,18.576946582369747,0.8580855770873681,1.1460091712386222,-1.9379102823359664,-1.0,11.949222222222222,0.0,179.04581543934702,1.1471362949510346,92.28028089054452,1553.0,1435.0,1000.0,1528.0,1471.0,1011.0,94.0,292.63,1649152553.925399,1649152555.0629892,c2f7d8c4-fd59-4ed4-909b-7953cf5ab754
0.2637859127548346,0.323886408166683,0.690954145937845,-0.2584501817366331,0.3594974579559766,0.0273011382807746,0.3977930328475665,0.3687152410954186,-3.898942657455185,27.180832058050296,19.036844307409098,0.8600114701864774,1.149728165545464,-1.947975790994252,-1.0,11.982333333333331,0.0,179.03745376998313,1.1494718164762905,92.25496593275074,1553.0,1435.0,1000.0,1528.0,1471.0,1011.0,94.0,292.63,1649152555.1776743,1649152556.2917254,c2f7d8c4-fd59-4ed4-909b-7953cf5ab754
0.2630572558876783,0.3187551298083155,0.6927040180919876,-0.2583543057874207,0.3618828504351524,0.0318242898668309,0.4021704526268532,0.3799360089597492,-3.7994549651895193,27.15575332451739,19.00104411160333,0.8699245778979231,1.1301946015770894,-1.9604332338761,-1.0,11.981666666666667,0.0,179.03079205881264,1.1449341518420708,92.215570160528,1553.0,1435.0,1000.0,1528.0,1471.0,1011.0,94.0,292.63,1649152556.399696,1649152557.526122,c2f7d8c4-fd59-4ed4-909b-7953cf5ab754
0.3166272325801254,0.3522656755850413,0.8759946353129847,-0.2528893781978178,0.5265954586737066,-0.0174318227119008,0.5814775637575063,0.55720726422121,-2.468043228950411,27.2647975835786,18.76972627959516,0.7573948203906705,1.2594549291448671,-2.68525539135916,-1.0,11.978,0.0,179.04085975764923,1.160062783694303,92.16686635828638,1553.0,1435.0,1000.0,1435.0,1471.0,1011.0,94.0,292.63,1649152559.4544315,1649152560.5921695,cb2e982c-63ca-4c8a-bb25-8de17f614377
0.3185710480240331,0.3480767204053404,0.8729594781913071,-0.2497550573389735,0.5254131718437359,-0.0151297051064175,0.5792044831104368,0.5494752837187739,-2.5377679357963694,27.240893495016884,18.90395040022206,0.755174430896418,1.242468949538284,-2.6766004583748355,-1.0,11.971222222222222,0.0,179.02001098466272,1.1361511926156038,92.14919589999364,1553.0,1435.0,1000.0,1435.0,1471.0,1011.0,94.0,292.63,1649152560.699786,1649152561.8173656,cb2e982c-63ca-4c8a-bb25-8de17f614377
0.3152438802478132,0.3473349148451127,0.8693244118562626,-0.249615900440335,0.522404312130499,-0.0161991325257274,0.5739170641338763,0.5496467645881712,-2.706868824009168,27.29553755123409,18.63286936211973,0.7525102878739102,1.2430395163040548,-2.6606306866675027,-1.0,11.972555555555555,0.0,179.028468276675,1.1495724787607768,92.12711162167729,1553.0,1435.0,1000.0,1435.0,1471.0,1011.0,94.0,292.63,1649152561.9255478,1649152563.054149,cb2e982c-63ca-4c8a-bb25-8de17f614377
0.3730855387906007,0.3720862379796934,1.0545692576352006,-0.2354361255302176,0.6904161451693708,-0.0638061802512387,0.7554232931596794,0.7343985298701002,-1.3509822112602388,27.54091886244441,18.57083972830795,0.625068046746483,1.3368270248318896,-3.396524939106016,-1.0,11.963333333333331,0.0,179.0210840832723,1.144201720775293,92.01186887545128,1553.0,1435.0,1000.0,1330.0,1471.0,1011.0,94.0,292.63,1649152564.9842272,1649152566.1177828,998e7915-f6bb-4a4b-8b6d-2f94d3167618
0.36461777905156,0.3696405806616213,1.0488758724424327,-0.2281911930682588,0.685998183658179,-0.066843529234036,0.749006729989322,0.723038057400437,-1.322177742011063,27.550557360829124,18.69982496821938,0.6017153880404945,1.325054486006751,-3.3736452767238694,-1.0,11.956,0.0,179.00817957920043,1.1231999562945614,91.93343098302284,1553.0,1435.0,1000.0,1330.0,1471.0,1011.0,94.0,292.63,1649152566.2262096,1649152567.3573463,998e7915-f6bb-4a4b-8b6d-2f94d3167618
0.3748343152689745,0.3737692709754595,1.0519526671956991,-0.2350022185364642,0.6879178931237513,-0.0666331500675827,0.7522544576578797,0.7336359055532733,-1.3448464892780374,27.500368738424463,18.438454274576227,0.617319565388965,1.3440493348229412,-3.3850021150748666,-1.0,11.955,0.0,179.01550457763034,1.1305169743124472,91.87897767931987,1553.0,1435.0,1000.0,1330.0,1471.0,1011.0,94.0,292.63,1649152567.4725714,1649152568.586397,998e7915-f6bb-4a4b-8b6d-2f94d3167618
0.4019567863338429,0.3797546666208771,1.1800308247585285,-0.1856118754570366,0.806333944524399,-0.1237719086093105,0.8657359138421002,0.8379592954941488,-0.5673819348079524,28.290499955992043,18.53118049987368,0.3895300817896673,1.3622255383529744,-3.880939608972695,-1.0,11.955,0.0,179.00021557862817,1.1288472420776925,91.79496255797918,1553.0,1435.0,1000.0,1210.0,1471.0,1011.0,94.0,292.63,1649152569.3273804,1649152570.2821949,1d95d522-a2e4-4ccf-8256-195f804577f5
0.4043262907720133,0.3843156202814279,1.1687448608153213,-0.183173887606156,0.7956232367023217,-0.1308804227779473,0.8506560041612107,0.8218110543620281,-0.7473546363007445,28.30016449719746,18.37451586580644,0.3674433328595041,1.3809787303383176,-3.829274183302853,-1.0,11.942666666666668,0.0,178.9834861686211,1.1048339689293185,91.77801230518894,1553.0,1435.0,1000.0,1210.0,1471.0,1011.0,94.0,292.63,1649152570.3902788,1649152571.4472485,1d95d522-a2e4-4ccf-8256-195f804577f5
0.4145850123404084,0.3912871680597818,1.1834138746496992,-0.1887757806878528,0.8069228964912774,-0.1323596512636954,0.8670918730337308,0.838986537366225,-0.4272881657380652,28.222372180789574,18.520880052767595,0.377154976160626,1.4051820301706337,-3.8868047527913374,-1.0,11.937222222222225,0.0,178.96611168519243,1.132089340777627,91.76366739011208,1553.0,1435.0,1000.0,1210.0,1471.0,1011.0,94.0,292.63,1649152571.5554712,1649152572.6758764,1d95d522-a2e4-4ccf-8256-195f804577f5
0.4067505814578934,0.3827953023959993,1.2395834604790632,-0.1245389156510149,0.8618597880892865,-0.1909398369901969,0.9024974740022376,0.8787750365250551,-0.3202961882199696,29.17772345438861,17.760288842038328,0.1096774714658528,1.374984330064733,-4.090460445887878,-1.0,11.944,0.0,178.9685371612577,1.108431699926819,91.69822658876429,1553.0,1435.0,1000.0,1071.0,1471.0,1011.0,94.0,292.63,1649152574.3292868,1649152575.3407776,01fb05af-84bd-45a0-9cce-91b172a2f4aa
0.395293685041739,0.373453702280066,1.2129715953924574,-0.1075518950519246,0.8418233682275479,-0.1960557764024286,0.8735906156418456,0.8602052440730981,-0.6110269239206889,29.12217853502162,17.74398596013066,0.0580204634708606,1.3383704045194549,-3.986922912101944,-1.0,11.943666666666664,0.0,178.9622655297798,1.0907651310473652,91.69066177480354,1553.0,1435.0,1000.0,1071.0,1471.0,1011.0,94.0,292.63,1649152575.4490798,1649152576.5631616,01fb05af-84bd-45a0-9cce-91b172a2f4aa
0.4016445048186643,0.3841698889108624,1.2149701972146227,-0.1106812847148619,0.8398510639837922,-0.2025906787391086,0.8732750469475273,0.8514087670047892,-0.4087438275749195,29.17324864844004,17.90269231929588,0.0509599915905252,1.3762371609487456,-3.984898010578745,-1.0,11.947,0.0,178.95231014960953,1.0985386808066495,91.67300877143867,1553.0,1435.0,1000.0,1071.0,1471.0,1011.0,94.0,292.63,1649152576.6721427,1649152577.801494,01fb05af-84bd-45a0-9cce-91b172a2f4aa
0.1917420180225177,0.2871933300649359,0.4786027217324791,-0.2442194556619973,0.1674580205521191,0.0585429885523154,0.1810039165247925,0.1588154922757212,-5.336004574872032,27.35451582525049,18.583629563364283,0.8878971097952787,1.0110837059076094,-1.0943218232559204,-1.0,11.952555555555556,0.0,179.02020678341893,1.1571648269216115,91.75857738136062,1553.0,1435.0,1000.0,1613.0,1471.0,1011.0,94.0,292.63,1649152579.9350388,1649152581.074875,6bdfb7b4-346b-4651-bac8-13c1b4d4cc1e
0.199507966436098,0.2930280636688102,0.4838485032026036,-0.2488214998351319,0.1701562424901393,0.0590360646876368,0.1861675189002959,0.1621985420699462,-5.225714142683144,27.37632986278287,18.90304760201512,0.8998984491177348,1.0302554364906935,-1.1113150071596214,-1.0,11.988333333333332,0.0,179.02603672933049,1.1500864149219183,91.78543747972664,1553.0,1435.0,1000.0,1613.0,1471.0,1011.0,94.0,292.63,1649152581.1834972,1649152582.308056,6bdfb7b4-346b-4651-bac8-13c1b4d4cc1e
0.1936847378103024,0.2934044450736037,0.486861197962549,-0.2444166862602551,0.1736987202914832,0.0547556161106277,0.1884515569213084,0.1652309600678858,-5.206995775802613,27.349617407276977,18.944175013803648,0.8803324396778528,1.0308183093101235,-1.1233323839647855,-1.0,11.989222222222224,0.0,179.03108196239742,1.1623767948668602,91.82199416998436,1553.0,1435.0,1000.0,1613.0,1471.0,1011.0,94.0,292.63,1649152582.439263,1649152583.5305436,6bdfb7b4-346b-4651-bac8-13c1b4d4cc1e
0.1507936921460043,0.2655160619869299,0.339083012796838,-0.2123207150033272,0.0423695443429654,0.0579113032790042,0.0313114907411497,0.0011089346490087,-6.277055302787403,27.60442364720354,18.538646796338988,0.808750532580293,0.9240719927501324,-0.5238033274840109,-1.0,11.988111111111111,0.0,179.04984069749787,1.1583248088576843,91.91360218495238,1553.0,1435.0,1000.0,1694.0,1471.0,1011.0,94.0,292.63,1649152585.447965,1649152586.6043656,002d918c-0813-4f09-851f-0ba198add2de
0.1402878841480475,0.2683167341296607,0.3411342092646412,-0.2117421723474266,0.0425010312970798,0.0556365787965491,0.0324817246877613,0.017308129056859,-6.137181716624548,27.68116197559983,18.691756241843205,0.8030395313260911,0.9322893254355136,-0.5278183640030935,-1.0,11.991111111111111,0.0,179.04962364926425,1.1420351752841909,91.91963779544896,1553.0,1435.0,1000.0,1694.0,1471.0,1011.0,94.0,292.63,1649152586.712777,1649152587.83237,002d918c-0813-4f09-851f-0ba198add2de
0.1483085886315407,0.2691188045525796,0.343238000528366,-0.2145822909571631,0.0450913244969815,0.0562414188625803,0.0350983152962385,0.0131925869241081,-6.212217239666894,27.606882941221105,18.537236194319696,0.8103552471705128,0.9376799562598452,-0.5381073809315313,-1.0,11.990444444444444,0.0,179.06361643014392,1.1520568652076306,91.9313189367495,1553.0,1435.0,1000.0,1694.0,1471.0,1011.0,94.0,292.63,1649152587.9400723,1649152589.059487,002d918c-0813-4f09-851f-0ba198add2de
0.1034950934739689,0.248473161131157,0.2006310842111713,-0.1747505033042571,-0.0838053480653057,0.048517107677987,-0.1238129979754247,-0.1440291207648148,-7.359591133596367,28.15618321532445,18.616193094563727,0.6991224673926184,0.8537319304221725,0.0550339783131789,-1.0,11.985111111111111,0.0,179.06736696290815,1.1542119084704427,91.96237277126592,1553.0,1435.0,1000.0,1774.0,1471.0,1011.0,94.0,292.63,1649152589.8284075,1649152590.9033003,587e53ae-3fca-4cfa-868f-8d542f9c2942
0.0974686078078695,0.2423644963122,0.2018911675483828,-0.1713126669101422,-0.0808194981538519,0.050927701923006,-0.1212380448028431,-0.1510280620759174,-7.383854837174958,28.14966898789112,18.573031020282126,0.6967849440207123,0.8310315010624659,0.0447991490984057,-1.0,11.98311111111111,0.0,179.04977391342598,1.1522612017003,91.94468637586512,1553.0,1435.0,1000.0,1774.0,1471.0,1011.0,94.0,292.63,1649152591.0117896,1649152592.132198,587e53ae-3fca-4cfa-868f-8d542f9c2942
0.1100853294974657,0.2474629030206609,0.2007981822240655,-0.1710995483823123,-0.0829375340644744,0.0451702165389807,-0.1245400113546755,-0.1543349596620938,-7.384706622417378,28.161571364544287,18.47561301581257,0.6833748835869244,0.8509277410296323,0.0543510429420169,-1.0,11.982,0.0,179.05418773344965,1.1376395098084973,91.92296713321436,1553.0,1435.0,1000.0,1774.0,1471.0,1011.0,94.0,292.63,1649152592.2407792,1649152593.3580096,587e53ae-3fca-4cfa-868f-8d542f9c2942
0.055728619743417064,0.22847618659965463,0.07854160759551225,-0.13386243770315664,-0.19312361653947807,0.03433569084814284,-0.2618518594270797,-0.28701846759454874,-8.367305572129492,28.661249140926767,18.165308355881105,0.5717112426699358,0.777094200755548,0.5632796680096925,-1.0,11.975999999999999,0.0,179.07524900121032,1.1306081146491844,91.91098091013093,1553.0,1435.0,1000.0,1856.0,1471.0,1011.0,94.0,292.63,1649152595.5001287,1649152596.6423805,d8588a8c-ae0a-48b5-8eb9-7a56892858fd
0.058378629864582955,0.22590123370334322,0.08727836831165799,-0.1310721746184144,-0.18406416397686712,0.03408093484096472,-0.2503829076940942,-0.27173584553980584,-8.139281747727159,28.558125886228044,18.213475195272125,0.56471849730369,0.7656043378103855,0.522684473037231,-1.0,11.964,0.0,179.08133090521127,1.1406356149766057,91.88580407394035,1553.0,1435.0,1000.0,1856.0,1471.0,1011.0,94.0,292.63,1649152596.750684,1649152597.8626926,d8588a8c-ae0a-48b5-8eb9-7a56892858fd
0.05033765426655894,0.2289626883313005,0.08173674079192039,-0.13231089149310285,-0.19007311866402116,0.03388863508728512,-0.25771001957494305,-0.27317288901421555,-8.249518286880656,28.612276526731808,18.40069205358979,0.5671380041317667,0.7760097041322296,0.5493792934964548,-1.0,11.971333333333336,0.0,179.10510451698235,1.1313392294815914,91.84520011714443,1553.0,1435.0,1000.0,1856.0,1471.0,1011.0,94.0,292.63,1649152597.9713018,1649152599.1010435,d8588a8c-ae0a-48b5-8eb9-7a56892858fd
