raw_voltage_G-,raw_voltage_G0,raw_voltage_G1,raw_voltage_G2,raw_voltage_G3,raw_voltage_G4,raw_voltage_G5,raw_voltage_G6,load_x,load_y,load_z,load_l,load_m,load_n,rpm,voltage,current,roll,pitch,yaw,aileron1_pwm,elevator_pwm,throttle_pwm,rudder_pwm,aileron2_pwm,pbaro,pdiff,Tt,sample_start_time,sample_end_time,uid
-0.2737081499769181,-0.0445373129344253,-0.638666735987506,-0.0965979346581247,-0.7401171844641402,0.300985763650264,-0.998735739103686,-1.0169658715317962,-26.19275831188665,28.541085936304217,17.420448211376737,1.041249593376888,-0.1641638445770527,3.2889293038395286,-1.0,11.991222222222223,0.0,179.29728630856894,1.0837254827428056,96.2908215015638,1553.0,1435.0,1000.0,1528.0,1471.0,1011.0,94.0,292.63,1649152643.4383657,1649152644.5571682,23bd06bc-4e40-46bb-8857-ce662f69c561
-0.2681199533562267,-0.0492763223577847,-0.6409129724117381,-0.0929820427903871,-0.7399254325995411,0.3037387717921903,-1.001201121117253,-1.0262795378409322,-26.41041325261237,28.555370913595286,17.60778823744718,1.0391825544970954,-0.1826452437993723,3.2948046133385027,-1.0,11.99177777777778,0.0,179.29090235842466,1.058553508318827,96.77910337731905,1553.0,1435.0,1000.0,1528.0,1471.0,1011.0,94.0,292.63,1649152644.6696403,1649152645.7889192,23bd06bc-4e40-46bb-8857-ce662f69c561
-0.2748175713683516,-0.0433731054126943,-0.6370094519165318,-0.0923246080405376,-0.7377202857749131,0.2947127402164489,-1.0001190925427403,-1.023937423404754,-26.366415924428853,28.5871148812002,17.251779370134376,1.0177870457663944,-0.1574936393415643,3.285175292650578,-1.0,11.990000000000002,0.0,179.27822249168554,1.0336726469922866,97.14409350836635,1553.0,1435.0,1000.0,1528.0,1471.0,1011.0,94.0,292.63,1649152645.8974354,1649152647.02546,23bd06bc-4e40-46bb-8857-ce662f69c561
-0.0625965001069009,0.2971386745781563,-0.6051249483823752,-0.3748517726048239,-0.7975035988838112,0.2347218169799427,-1.0083956539672647,-1.0323131485187234,-25.91666869669945,27.42465647589304,19.270575111181785,1.5147212520522544,1.1353435631460218,3.3772879811213823,-1.0,11.977333333333332,0.0,179.18661903017696,1.0510867834636648,97.63876768227482,1663.0,1435.0,1000.0,1528.0,1555.0,1011.0,94.0,292.63,1649152647.9300263,1649152649.0726273,887d51b5-4bde-420f-8915-3c4214df0c42
-0.064999972287366,0.2985614729914054,-0.6036172306732758,-0.3559423004733477,-0.7937803246106986,0.2167245398424643,-1.0123775200314744,-1.0439344122823524,-25.989152531164084,27.44390596242721,19.37620744464408,1.4318068643435211,1.138024475270025,3.3762592444372816,-1.0,11.964000000000002,0.0,179.18733240549025,1.0523349886765174,97.84364983116804,1663.0,1435.0,1000.0,1528.0,1555.0,1011.0,94.0,292.63,1649152649.2070138,1649152650.2976916,887d51b5-4bde-420f-8915-3c4214df0c42
-0.0727796179156201,0.3001913633634555,-0.6050142801507584,-0.3607908830270281,-0.7970675002584674,0.2186968442003496,-1.0124870925966665,-1.04471511654189,-25.80615161914751,27.44946123908099,19.242146994944395,1.4472141207642082,1.1445389870631784,3.3828881572938685,-1.0,11.960777777777778,0.0,179.1690472301722,1.0511204363748878,97.99873307082274,1663.0,1435.0,1000.0,1528.0,1555.0,1011.0,94.0,292.63,1649152650.4057944,1649152651.5286686,887d51b5-4bde-420f-8915-3c4214df0c42
0.1509125782294128,0.6749017808306945,-0.5548026808096885,-0.6371464178195816,-0.8485117992350072,0.1175066725899109,-1.021389861436152,-1.046358704613421,-25.44501907092213,26.757771083163693,21.038658214568752,1.8415997370407573,2.568649132053956,3.443176000980517,-1.0,11.953666666666669,0.0,179.0265451989687,1.073080324614191,98.21606361893328,1779.0,1435.0,1000.0,1528.0,1638.0,1011.0,94.0,292.63,1649152652.4339244,1649152653.572476,371b3f8b-34af-499c-b1fe-46985c3fdb14
0.157349960614807,0.68587272319194,-0.5444891692239242,-0.650308814857323,-0.8434577665773765,0.1177395141993104,-1.0116789951191725,-1.028265538928966,-25.30588495111075,26.82016537201007,20.95253417333835,1.8727975773408896,2.6118508469017936,3.4095698674359656,-1.0,11.944111111111113,0.0,179.0420846382404,1.0465800918400563,98.25185456909404,1779.0,1435.0,1000.0,1528.0,1638.0,1011.0,94.0,292.63,1649152653.6807992,1649152654.802283,371b3f8b-34af-499c-b1fe-46985c3fdb14
0.1572677812259369,0.6773671611365751,-0.5370656324065821,-0.6372422935696108,-0.8337469017494232,0.1133703120099064,-1.003748682811028,-1.0362780309802726,-25.197414701434763,26.836624751702328,20.915507302553944,1.834031978578923,2.578372383659141,3.3740354177245613,-1.0,11.941,0.0,179.03880614743878,1.0572660769501163,98.2965983794369,1779.0,1435.0,1000.0,1528.0,1638.0,1011.0,94.0,292.63,1649152654.9105003,1649152656.2365062,371b3f8b-34af-499c-b1fe-46985c3fdb14
0.2960210353985915,0.9072907212496388,-0.4975554334008008,-0.817055720333074,-0.865087931248355,0.0486283236150713,-1.0082510186892029,-1.0391899208956026,-25.04765313349129,27.21700747450809,20.32928822386165,2.098634009010908,3.4695112643095354,3.394642608466216,-1.0,11.942,0.0,178.90246191122702,1.0847147218075956,98.30437872381144,1904.0,1435.0,1000.0,1528.0,1723.0,1011.0,94.0,292.63,1649152656.8265078,1649152657.8734615,88799f81-8825-4cca-9013-3de6dae698d4
0.2808181091850099,0.8584251129086238,-0.495182598858081,-0.8042782158523879,-0.8528272712791148,0.0766846069271797,-0.991584024456995,-1.015947056653752,-24.89605249069185,27.212971430686803,19.257050196827056,2.1328540910038565,3.293242921806843,3.343773131120749,-1.0,11.906222222222222,0.0,178.91425992465332,1.067627331625418,98.28905026149413,1904.0,1435.0,1000.0,1528.0,1723.0,1011.0,94.0,292.63,1649152657.9820864,1649152659.0323813,88799f81-8825-4cca-9013-3de6dae698d4
0.2927733076045519,0.8907496627125238,-0.4915201800896537,-0.8046959395509442,-0.8549502808728218,0.0508898993437457,-0.9989022895285852,-1.013102890347774,-24.96691594723084,27.20848800813774,20.02382590913756,2.0760714216965623,3.408468809578601,3.357033481463273,-1.0,11.906555555555556,0.0,178.92398004275216,1.0912529559644923,98.22536026530356,1904.0,1435.0,1000.0,1528.0,1723.0,1011.0,94.0,292.63,1649152659.1409872,1649152660.3311796,88799f81-8825-4cca-9013-3de6dae698d4
0.3043962065125516,0.9199057985257384,-0.4625837276100866,-0.8371710432870304,-0.8458546657440053,0.0453395059737284,-0.979218131158443,-1.004748533626122,-24.58242727170184,28.044804353820524,19.22036564144774,2.1439051741161066,3.528068757945995,3.2792108907830424,-1.0,11.874333333333333,0.0,178.91862213880324,1.0936831515007437,98.06491001478108,2045.0,1435.0,1000.0,1528.0,1813.0,1011.0,94.0,292.63,1649152662.4712174,1649152663.608578,91e7d6be-c74d-4bef-87da-0656bb1c90ce
0.3080394908902633,0.9315889620956636,-0.467062503473038,-0.8493472898879065,-0.8530727559043255,0.0441889950769834,-0.9852857105950577,-1.0088712002906377,-24.655870329306367,27.991603762526523,19.05076003531345,2.168146759883849,3.575125070574439,3.3048243571043634,-1.0,11.819,0.0,178.93467308335278,1.1468645340562458,97.81050823549532,2045.0,1435.0,1000.0,1528.0,1813.0,1011.0,94.0,292.63,1649152663.7175276,1649152664.8363016,91e7d6be-c74d-4bef-87da-0656bb1c90ce
0.318887164592423,0.9313972103073426,-0.4569681373585597,-0.8477721853633446,-0.8442658642422751,0.0412579313795644,-0.9755885411546904,-1.0069673772892307,-24.543446835584746,28.0630170640617,18.88840359199968,2.1590139685005023,3.5754963510207745,3.265073547371538,-1.0,11.826,0.0,178.91692218060982,1.1116345487549602,97.65242198933558,2045.0,1435.0,1000.0,1528.0,1813.0,1011.0,94.0,292.63,1649152664.9444587,1649152666.001496,91e7d6be-c74d-4bef-87da-0656bb1c90ce
-0.5145484839006572,-0.4702127123808491,-0.6791126884703905,0.2494730096667055,-0.6682787064773553,0.387739759590441,-0.988970087211884,-1.0101860697148937,-26.856863518593737,30.22666158280383,15.629464351096834,0.4640863026734895,-1.7852757948038651,3.180156151707005,-1.0,11.871,0.0,179.40809170856414,1.0179352863882445,97.36960358746296,1444.0,1435.0,1000.0,1528.0,1381.0,1011.0,94.0,292.63,1649152668.0007336,1649152669.1430194,4acf804b-6114-4dd7-b61c-76eac580e0db
-0.5129131143318516,-0.4738877738499902,-0.6832545290710903,0.2625707540804381,-0.67007953045403,0.378371314256192,-0.9957728976448612,-1.028105563576348,-26.899618080419845,30.2567916186616,15.458154755414636,0.413433523020734,-1.7991132631326598,3.1973267534159,-1.0,11.974666666666666,0.0,179.4486068729008,1.022567115140865,97.41394365773486,1444.0,1435.0,1000.0,1528.0,1381.0,1011.0,94.0,292.63,1649152669.2517836,1649152670.373655,4acf804b-6114-4dd7-b61c-76eac580e0db
-0.5226957470436504,-0.4751237516545734,-0.6844247638051562,0.2624392669821703,-0.6711577242582654,0.3802515775970508,-0.9969036864366104,-1.012445456286179,-26.931172100277827,30.29388866923439,15.526898825241288,0.4181380541493313,-1.804192245353107,3.2019094127258847,-1.0,11.973666666666666,0.0,179.430534192357,1.0422504871002416,97.39893090193917,1444.0,1435.0,1000.0,1528.0,1381.0,1011.0,94.0,292.63,1649152670.482692,1649152671.5916412,4acf804b-6114-4dd7-b61c-76eac580e0db
-0.7545122737572619,-0.864166973637679,-0.7285709809471742,0.6161161570687707,-0.6120406171524889,0.429254025320906,-1.0107065391327756,-1.0423182173597496,-27.776617268545408,32.4405633354991,14.357438846793736,-0.2581349310175807,-3.2932995405610765,3.154123356932294,-1.0,11.966,0.0,179.56148865040373,0.9863581123426098,97.38176587764502,1331.0,1435.0,1000.0,1528.0,1283.0,1011.0,94.0,292.63,1649152672.5061677,1649152673.4496577,2263675c-be51-4816-a7d7-eadb43d6dabe
-0.7495541173549282,-0.8550450609708825,-0.7189149031679114,0.6037618623811126,-0.6066578678761374,0.4306647706792663,-0.9971195441969,-1.0137471773776223,-27.32077815041857,32.25858967816937,14.30062081966375,-0.2276016523090021,-3.2596794266681246,3.1155933317023394,-1.0,11.944333333333333,0.0,179.57529929290547,0.9955270365470194,97.310615797061,1331.0,1435.0,1000.0,1528.0,1283.0,1011.0,94.0,292.63,1649152673.5593612,1649152674.6708138,2263675c-be51-4816-a7d7-eadb43d6dabe
-0.7483406017643729,-0.8651010794395079,-0.7184667515424457,0.6130755213459167,-0.6028107772337252,0.4316629758362255,-0.9964829276852502,-1.018322926330358,-27.468138705916303,32.30383072322115,14.26546374908183,-0.2461254432822473,-3.2971585650036093,3.107529846175086,-1.0,11.943444444444443,0.0,179.57230311658958,1.027072644683677,97.19155118053942,1331.0,1435.0,1000.0,1528.0,1283.0,1011.0,94.0,292.63,1649152674.7835057,1649152675.8954515,2263675c-be51-4816-a7d7-eadb43d6dabe
-0.9718948504652098,-1.2343298695058973,-0.7647633307904528,0.9651449803818098,-0.5550284003537894,0.4642585910766568,-1.0233851779320635,-1.0410964841589063,-28.185405243988125,34.968786432657964,13.247446934091654,-0.9522234643366316,-4.714128769837644,3.099238011621789,-1.0,11.916333333333332,0.0,179.7174400829929,0.9730818965694956,97.01547649283556,1209.0,1435.0,1000.0,1528.0,1173.0,1011.0,94.0,292.63,1649152677.0117085,1649152678.1568325,1bbbf8aa-f3c5-4508-8dd2-41675f1862b0
-0.9667011123472424,-1.2254676406303937,-0.7547177223469805,0.955467540623506,-0.547389005598331,0.4633513311177338,-1.0120509941551197,-1.0369940874107575,-28.06339002582086,34.81500961281876,13.169629940214543,-0.9329024515052712,-4.679238197006075,3.0600283119457323,-1.0,11.881666666666668,0.0,179.7254587250785,0.9569649980057928,96.80101765981608,1209.0,1435.0,1000.0,1528.0,1173.0,1011.0,94.0,292.63,1649152678.2721837,1649152679.377671,1bbbf8aa-f3c5-4508-8dd2-41675f1862b0
-0.9689889868995653,-1.226519537195507,-0.7623702668805205,0.9669726489214476,-0.5529772030891639,0.4546994897580565,-1.022727742423437,-1.0545081632527895,-28.138055796622893,34.83075788111548,13.228860798893802,-0.9786017913659876,-4.68508133283178,3.0932707733466303,-1.0,11.883555555555557,0.0,179.7226386158612,0.9806709719313532,96.60100771253076,1209.0,1435.0,1000.0,1528.0,1173.0,1011.0,94.0,292.63,1649152679.486575,1649152680.6060398,1bbbf8aa-f3c5-4508-8dd2-41675f1862b0
-1.0005025965383034,-1.2796797631664092,-0.7697565504574556,0.982800391008644,-0.5618016245633566,0.4806572051929152,-1.0303611134987938,-1.052083871376656,-28.060773241380275,36.29295792310813,11.51139508969829,-0.9468844059471307,-4.872181819912552,3.1169645497836727,-1.0,11.814444444444444,0.0,179.72054857797517,0.9676189428881838,96.2425791165461,1074.0,1435.0,1000.0,1528.0,1047.0,1011.0,94.0,292.63,1649152682.5415256,1649152683.6746414,843f0057-9b3e-4b70-bb80-c886fb007564
-0.9997903748784316,-1.2806248265440467,-0.764442284276627,0.98245797702106,-0.5571310972977682,0.4829719234057927,-1.024759218614832,-1.0481392601243638,-28.045365051354555,36.35793295263757,11.70503651714828,-0.9401765570413536,-4.877171520076428,3.0955231557553606,-1.0,11.748555555555557,0.0,179.71841907677396,0.951080766319892,95.9087521030419,1074.0,1435.0,1000.0,1528.0,1047.0,1011.0,94.0,292.63,1649152683.7825086,1649152684.9127295,843f0057-9b3e-4b70-bb80-c886fb007564
-0.9916573532646642,-1.262113088998725,-0.7614630068047273,0.9590965804815496,-0.5589730105924573,0.4833504963451414,-1.0221886458741634,-1.0417539184586666,-28.090006381404123,36.19799459712445,11.303007784528656,-0.8876267256480891,-4.800799672569499,3.09181336132223,-1.0,11.759888888888888,0.0,179.7277900963152,0.9682825621706672,95.63531382762945,1074.0,1435.0,1000.0,1528.0,1047.0,1011.0,94.0,292.63,1649152685.0204966,1649152686.3410504,843f0057-9b3e-4b70-bb80-c886fb007564
-0.2611621006735046,-0.0334978863513522,-0.6361191751223575,-0.0699444301898624,-0.733515440385661,0.2680592388032898,-1.0068167136120023,-1.0314705365703851,-26.53359987939885,28.41347996566329,17.74828828976592,0.90629714445598,-0.1263748077227098,3.28981634457382,-1.0,11.830666666666666,0.0,179.3244127843126,1.0787470218898063,95.38880774702425,1553.0,1435.0,1000.0,1528.0,1471.0,1011.0,94.0,292.63,1649152687.457288,1649152688.59469,97f58334-e417-4448-ab84-a800f8240812
-0.2679145049235974,-0.0365522190184875,-0.6372833830718385,-0.0703142373072397,-0.7339537305158879,0.2706615847906082,-1.0069673759251596,-1.0287723116411562,-26.55224485301729,28.405162573790268,17.639587818178228,0.91283933794637,-0.136763452628273,3.2916790114264347,-1.0,11.984,0.0,179.33248910355118,1.115549836116997,95.6597370662816,1553.0,1435.0,1000.0,1528.0,1471.0,1011.0,94.0,292.63,1649152688.7049763,1649152689.828467,97f58334-e417-4448-ab84-a800f8240812
-0.2646919781814068,-0.0368382031642165,-0.6398769642858531,-0.0686186032213541,-0.7358756323934006,0.2674883662882505,-1.0109859488001498,-1.0366522208543123,-26.647358147617027,28.41929412595152,17.345679177481074,0.9017535656021608,-0.1349309220733695,3.3030470557529834,-1.0,11.983888888888892,0.0,179.3318121559134,1.1260075197824555,95.85859195268723,1553.0,1435.0,1000.0,1528.0,1471.0,1011.0,94.0,292.63,1649152689.942042,1649152691.0515938,97f58334-e417-4448-ab84-a800f8240812
-0.2612864654219933,-0.0453191125306302,-0.6762462713420728,-0.3674359067780503,-0.800777625836359,0.5681332819161962,-0.964439535281444,-0.9890144651138808,-26.701674222786707,27.88755896598781,19.83118753803595,2.246434437729917,-0.1539078826833315,3.3747887018613723,-1.0,11.97877777777778,0.0,179.3269991492783,1.211379109577536,96.08279139437312,1553.0,1537.0,1000.0,1528.0,1471.0,1011.0,94.0,292.63,1649152691.9629953,1649152693.1005287,b79d7e94-3e1c-45cf-92fb-8ce4cab67d53
-0.2583017109902841,-0.0467523204638688,-0.6821368894255317,-0.3691452375310212,-0.8058924709967744,0.5724854999655717,-0.9691336225914888,-1.0004406880669814,-26.73920203450417,27.849406081635472,19.98631237751801,2.2595298879133683,-0.1605561643502142,3.396488045471288,-1.0,11.973,0.0,179.32985587589866,1.195899942871435,96.12961490245448,1553.0,1537.0,1000.0,1528.0,1471.0,1011.0,94.0,292.63,1649152693.2091217,1649152694.324818,b79d7e94-3e1c-45cf-92fb-8ce4cab67d53
-0.2605868451314821,-0.0446468854049642,-0.6770308104889079,-0.3665297421268244,-0.8027515747546161,0.5662606886179301,-0.9658776747179774,-0.9913258969921936,-26.594409167985443,27.95720163549712,19.767309372898897,2.2406488019207687,-0.1517397901428715,3.38063992974988,-1.0,11.975555555555555,0.0,179.34598403953132,1.2233615736853636,96.22723547603064,1553.0,1537.0,1000.0,1528.0,1471.0,1011.0,94.0,292.63,1649152694.4333096,1649152695.5633,b79d7e94-3e1c-45cf-92fb-8ce4cab67d53
-0.2615888854423582,-0.0491190858736981,-0.6917617388360904,-0.6742082226830272,-0.8504139783267468,0.8700536165736067,-0.8961451679215168,-0.9263740375687616,-26.420545307759056,27.51318242564325,22.26903054790468,3.614168693200333,-0.1549761043820662,3.3669468794328536,-1.0,11.97,0.0,179.34706169160037,1.3115663283197578,96.32033854351695,1553.0,1645.0,1000.0,1528.0,1471.0,1011.0,94.0,292.63,1649152696.468606,1649152697.6051943,fa25be5d-1940-4ef3-b498-68ab9a365953
-0.2445613217130577,-0.0539972523561025,-0.6997035544450726,-0.6875015597193079,-0.8571592629294983,0.8875808271978994,-0.8987486111620133,-0.925900684049478,-26.54173240415558,27.396909588666823,22.30244715466849,3.682319275434824,-0.1715793790102506,3.3899698050352898,-1.0,11.965,0.0,179.3558771890891,1.3193939385520042,96.32125378886576,1553.0,1645.0,1000.0,1528.0,1471.0,1011.0,94.0,292.63,1649152697.7138855,1649152698.8376896,fa25be5d-1940-4ef3-b498-68ab9a365953
-0.252608324858479,-0.0496318850435648,-0.6979416285652872,-0.6830835960516286,-0.8567385045110938,0.8786002684078811,-0.9007209167919394,-0.9276100158330344,-26.533551008176424,27.50341381216694,22.21009429732281,3.6529560753408337,-0.1548764252739748,3.390201862497297,-1.0,11.965,0.0,179.35112034178715,1.3215857059395724,96.31830770060375,1553.0,1645.0,1000.0,1528.0,1471.0,1011.0,94.0,292.63,1649152698.9464962,1649152700.063347,fa25be5d-1940-4ef3-b498-68ab9a365953
-0.2421923646851196,-0.0596446176195726,-0.6985070229765983,-0.9629876991270968,-0.891519016050089,1.1609789122444771,-0.825665928797911,-0.8586883481367509,-26.237631336512493,27.584469179724938,24.59979132566301,4.919932734407678,-0.1812768134862328,3.3313609277488534,-1.0,11.963666666666668,0.0,179.342892240567,1.432396762185188,96.30833107095609,1553.0,1761.0,1000.0,1528.0,1471.0,1011.0,94.0,292.63,1649152700.9740088,1649152702.1104138,2b72d72c-5163-4821-8d13-ff0fe811acd1
-0.2461095809336846,-0.0582475685810567,-0.6998355893190293,-0.9561120228116712,-0.8927654032059621,1.1523911703312966,-0.8291722490049404,-0.8492377188542171,-26.16697302920851,27.59995996852369,24.45453866410861,4.885174040511976,-0.1761802658768236,3.3399293060787465,-1.0,11.949,0.0,179.33787281043695,1.442558897873436,96.24815710436827,1553.0,1761.0,1000.0,1528.0,1471.0,1011.0,94.0,292.63,1649152702.2186315,1649152703.3515456,2b72d72c-5163-4821-8d13-ff0fe811acd1
-0.2422208535340031,-0.0580470509607314,-0.7000322722731969,-0.9549461709613928,-0.8924372337154095,1.1510017914593809,-0.8290867828515779,-0.8545295230051295,-26.14653396048257,27.541169609548025,24.43775347110876,4.879030135494065,-0.1755811058618616,3.339677975396149,-1.0,11.95175,0.0,179.35391009460812,1.4354082767818146,96.20978851670571,1553.0,1761.0,1000.0,1528.0,1471.0,1011.0,94.0,292.63,1649152703.465708,1649152704.5659792,2b72d72c-5163-4821-8d13-ff0fe811acd1
-0.2198806682413654,-0.0522210825787321,-0.67246985502578,-1.0470024436959784,-0.8844241948494574,1.2338993888306358,-0.789096099875693,-0.8208447381830668,-26.36926267557336,28.40907312198929,25.233546916682982,5.280109102553914,-0.1461107335103547,3.234763324482128,-1.0,11.926333333333336,0.0,179.3402679301059,1.4606953268495433,96.08301906734545,1553.0,1887.0,1000.0,1528.0,1471.0,1011.0,94.0,292.63,1649152706.4043777,1649152707.470175,c7be95ec-f86c-47c8-b3e0-84f40a9bc52f
-0.2292902050150636,-0.0470711763618147,-0.6653750348783946,-1.0616166816928876,-0.8823012268835022,1.2419392686485813,-0.7770705157814698,-0.7944103678242905,-25.88947027357457,28.3533669568086,25.25244881832626,5.331370446544235,-0.1281106793065569,3.2059589279572265,-1.0,11.890666666666666,0.0,179.3525850379092,1.4500745605596832,95.93080374823224,1553.0,1887.0,1000.0,1528.0,1471.0,1011.0,94.0,292.63,1649152707.5801065,1649152708.6658432,c7be95ec-f86c-47c8-b3e0-84f40a9bc52f
-0.2294403193057333,-0.05767888746484,-0.6681861176767322,-1.045119987794877,-0.8803404266342421,1.2357977319788935,-0.7810940186168277,-0.8118619832947058,-26.02632611621017,28.3559050079004,25.035846191786653,5.2801305283297095,-0.1672169304815429,3.2113075364233965,-1.0,11.890999999999998,0.0,179.35959451954488,1.4666334070472402,95.82114563029012,1553.0,1887.0,1000.0,1528.0,1471.0,1011.0,94.0,292.63,1649152708.77468,1649152709.8945382,c7be95ec-f86c-47c8-b3e0-84f40a9bc52f
-0.2761576428202935,-0.0339191925076164,-0.6042702828478059,0.2483307169168951,-0.6720912817120664,-0.0392575633577897,-1.065171762057619,-1.0995819252669512,-26.73673832966054,29.45200302492852,15.553685191842897,-0.4942172277388688,-0.1442163064043933,3.244902134243247,-1.0,11.944444444444445,0.0,179.3119454123476,1.051448297313016,95.6730832559198,1553.0,1335.0,1000.0,1528.0,1471.0,1011.0,94.0,292.63,1649152711.0094078,1649152712.153718,1599447b-0738-4e86-ab5f-d190d94d00d3
-0.2772281660160557,-0.0334157070007232,-0.596673073328471,0.2422686203792817,-0.6661283458048545,-0.0349771147673774,-1.0549738454683462,-1.0800248699055697,-26.5677178527764,29.41877021305148,15.50679688364318,-0.470688291330828,-0.1418812123270396,3.211978383188085,-1.0,11.992,0.0,179.3167569011629,1.0500850698172657,95.8983034314316,1553.0,1335.0,1000.0,1528.0,1471.0,1011.0,94.0,292.63,1649152712.2846324,1649152713.371318,1599447b-0738-4e86-ab5f-d190d94d00d3
-0.2766835907286336,-0.027936535546605,-0.5849811393367432,0.2292519595954087,-0.6581010638010926,-0.0298430966005178,-1.0388480543824137,-1.055454869728178,-26.20633468940447,29.286000071689067,15.402721055848351,-0.4299217176386055,-0.1206247636960077,3.162857125826236,-1.0,11.989333333333336,0.0,179.32735431911513,1.0531116143874564,96.10934716986613,1553.0,1335.0,1000.0,1528.0,1471.0,1011.0,94.0,292.63,1649152713.4817955,1649152714.4318707,1599447b-0738-4e86-ab5f-d190d94d00d3
-0.26349051592632,-0.0119668956873716,-0.5318198490243615,0.5219523257383867,-0.5864554373919952,-0.3304256073992022,-1.0762446156996726,-1.0965292338584425,-26.087372927222333,30.616468259905748,13.258167913087805,-1.7544461280039452,-0.0752087402928744,3.047064430277579,-1.0,11.983111111111112,0.0,179.32633737983872,0.9629854421621724,96.46889667578456,1553.0,1236.0,1000.0,1528.0,1471.0,1011.0,94.0,292.63,1649152716.5400712,1649152717.6756809,12ca9e13-53d0-405e-891e-54f98dc5342c
-0.2725023047832572,-0.0202051019536167,-0.5404464918214044,0.5236118006087316,-0.592068288783329,-0.3244528112461968,-1.0834747600265902,-1.1046178790676362,-26.265139412832955,30.60540153235424,13.11709902944899,-1.7453827084899398,-0.1043499328506908,3.075461572494757,-1.0,11.967555555555556,0.0,179.33281998827093,0.954036755984594,96.5655400579907,1553.0,1236.0,1000.0,1528.0,1471.0,1011.0,94.0,292.63,1649152717.784506,1649152718.9123695,12ca9e13-53d0-405e-891e-54f98dc5342c
-0.2695438477671298,-0.013288887562732,-0.5395786776717709,0.5274512195482156,-0.5918184635034949,-0.3354582717979579,-1.0856048503728877,-1.111823369701574,-26.23494779521671,30.558372279234177,13.014150219893388,-1.77904400048163,-0.0781296774534474,3.077736912230617,-1.0,11.963666666666668,0.0,179.3406777414561,0.9586655372396164,96.62168421296822,1553.0,1236.0,1000.0,1528.0,1471.0,1011.0,94.0,292.63,1649152719.0243037,1649152720.137036,12ca9e13-53d0-405e-891e-54f98dc5342c
-0.2624495773383497,-0.008761900919066,-0.4891002715085285,0.7431106360106554,-0.5298749371955308,-0.5502691186944147,-1.1028707445708328,-1.127250637344625,-26.195905846474272,31.928854628037573,11.45061329062091,-2.736858465567535,-0.0708984519801565,2.948841208779919,-1.0,11.962555555555555,0.0,179.3236538744048,0.8786336731295727,96.7603006254439,1553.0,1133.0,1000.0,1528.0,1471.0,1011.0,94.0,292.63,1649152721.8621502,1649152723.0076475,856ffa11-db79-4161-97a2-97c988c831db
-0.2802277127358201,-0.0113779436690643,-0.4975784439332565,0.7400973934292656,-0.5373121709992065,-0.5421196641194518,-1.1103901619163423,-1.1372902226032304,-26.35310695143373,31.948836896362565,11.78908857772406,-2.712063283617317,-0.0827636073668996,2.981250012572829,-1.0,11.944222222222225,0.0,179.3421955612717,0.8834903823032261,96.79852615858884,1553.0,1133.0,1000.0,1528.0,1471.0,1011.0,94.0,292.63,1649152723.121896,1649152724.2303154,856ffa11-db79-4161-97a2-97c988c831db
-0.2677819222019995,-0.0072404871682784,-0.4910731243257855,0.7389742757180088,-0.5313870376603503,-0.5456007822729799,-1.1052621656282575,-1.136319409626889,-26.42425909581797,31.932811527533705,11.768879378851606,-2.7171736927848773,-0.0660125083059669,2.957430226451957,-1.0,11.9485,0.0,179.35273530207093,0.8845991837701473,96.8425662697197,1553.0,1133.0,1000.0,1528.0,1471.0,1011.0,94.0,292.63,1649152724.3396847,1649152725.4565856,856ffa11-db79-4161-97a2-97c988c831db
-0.2614634250054231,-0.0023930010544312,-0.4436276861589104,0.8207153297950381,-0.4863335659820961,-0.632489586511653,-1.0872840500125232,-1.1135266765048544,-26.16674714209704,32.91103596368212,11.031633848136892,-3.087952891021113,-0.0501596014074822,2.805837450985484,-1.0,11.948333333333332,0.0,179.3358556279021,0.8281892695115579,96.8929201318283,1553.0,1026.0,1000.0,1528.0,1471.0,1011.0,94.0,292.63,1649152726.3690844,1649152727.5047894,c0471f26-23c8-43b5-ab9e-94ef8c615c45
-0.2724206733269176,-0.0035709051094695,-0.4540096800350136,0.8086897524477149,-0.4968251325936033,-0.6174644566140947,-1.092502442739163,-1.1194298965307867,-26.10380703022099,32.78227729141194,11.370245161169724,-3.0283475134673736,-0.0572037766848265,2.842035497791357,-1.0,11.938222222222224,0.0,179.341230227869,0.8285768234571198,96.88834162835468,1553.0,1026.0,1000.0,1528.0,1471.0,1011.0,94.0,292.63,1649152727.6154487,1649152728.7350004,c0471f26-23c8-43b5-ab9e-94ef8c615c45
-0.2606964176264841,-0.0056253889329532,-0.449763745671716,0.8236600896207046,-0.4914149903807944,-0.629147624951888,-1.0939405819257215,-1.1194709859138336,-26.281198472102705,32.992008791586386,11.392130271045136,-3.086854616675403,-0.0654182167214481,2.830630020150533,-1.0,11.929333333333334,0.0,179.35301458091695,0.8571369926672635,96.8994740777919,1553.0,1026.0,1000.0,1528.0,1471.0,1011.0,94.0,292.63,1649152728.846831,1649152729.96584,c0471f26-23c8-43b5-ab9e-94ef8c615c45
-0.2574366362407084,-0.0349497216008868,-0.6287641208022356,-0.0749710674606823,-0.7258590611519361,0.2722777786021433,-0.99639362616211,-1.0213898624992166,-26.485426937175266,28.289302744390792,17.55755042556878,0.9266525199141624,-0.1293874720837591,3.2541179629142056,-1.0,11.960444444444445,0.0,179.35145274432676,1.10599682049348,96.91036974733788,1553.0,1435.0,1000.0,1528.0,1471.0,1011.0,94.0,292.63,1649152732.513644,1649152733.6507418,dc8ef784-1cc7-4995-80c0-54c105c789a1
-0.2713057732747868,-0.0347081143125281,-0.6294631933232904,-0.0709327738923668,-0.727052853600543,0.26781708366317,-0.997613716299258,-1.0212287902582895,-26.332219259524795,28.305526525891217,17.477358742948486,0.907656419970211,-0.1293961699751361,3.258486035186562,-1.0,11.977888888888888,0.0,179.35899023753083,1.1186636316106475,96.90579124386424,1553.0,1435.0,1000.0,1528.0,1471.0,1011.0,94.0,292.63,1649152733.7584667,1649152734.8832855,dc8ef784-1cc7-4995-80c0-54c105c789a1
-0.2624632738735559,-0.0397024275826272,-0.6338318491242135,-0.0675612288391366,-0.7292832021068052,0.2701137224903232,-1.001146334824995,-1.025019452087616,-26.410113315221384,28.27766524213027,17.51984260671403,0.904777231041113,-0.1486456310423451,3.271950636247852,-1.0,11.989555555555556,0.0,179.35956549124091,1.1256625715134354,96.90501487902858,1553.0,1435.0,1000.0,1528.0,1471.0,1011.0,94.0,292.63,1649152734.9924104,1649152736.1126645,dc8ef784-1cc7-4995-80c0-54c105c789a1
-0.209322811871143,-0.0105013638828449,-0.4554927435670044,-0.0984266991242946,-0.5695577138994727,0.2592704315729772,-0.8129796218156795,-0.846140650578141,-25.10310213135331,28.017083601825515,17.412671579712104,0.957829349511996,-0.0323232087523508,2.5475261261071824,-1.0,11.988666666666669,0.0,179.35433811979613,1.1037240631891914,96.88246235329912,1553.0,1435.0,1000.0,1435.0,1471.0,1011.0,94.0,292.63,1649152737.0208118,1649152738.1694365,7697b6c5-775c-4c12-8fe5-4c126a9f4eea
-0.2083498082669145,-0.0071352976095549,-0.452968193401249,-0.0956786215514691,-0.5676643011588545,0.254234481179197,-0.8119540231687702,-0.8286528752794983,-25.06083701635165,28.02286405638436,17.538664305330737,0.9405192910714592,-0.021292432236209,2.5406820317927274,-1.0,11.989111111111113,0.0,179.35825409492028,1.0983968595176332,96.9062245814216,1553.0,1435.0,1000.0,1435.0,1471.0,1011.0,94.0,292.63,1649152738.2772305,1649152739.4025943,7697b6c5-775c-4c12-8fe5-4c126a9f4eea
-0.2097830163146931,-0.0100674569149969,-0.457491345819655,-0.0967173685009438,-0.5715563163064624,0.2592967289739104,-0.8157408492167814,-0.8447994828430416,-25.13129341618625,28.05709263101484,17.681789154646154,0.9542270279475464,-0.0332179224875624,2.557314930862027,-1.0,11.991666666666667,0.0,179.3683339363154,1.1071417428110708,96.92501898528776,1553.0,1435.0,1000.0,1435.0,1471.0,1011.0,94.0,292.63,1649152739.5160065,1649152740.6139183,7697b6c5-775c-4c12-8fe5-4c126a9f4eea
-0.138988785994283,0.0200008725788278,-0.2430415514999883,-0.1069936231421467,-0.3774185082666922,0.2272434963020907,-0.5958101899606368,-0.6209570807979582,-23.51620408450109,27.960835492949425,17.633152267752653,0.9162251567606,0.0834150246328861,1.692087691210417,-1.0,11.989333333333336,0.0,179.3287537489851,1.1105052433803158,96.86893630201276,1553.0,1435.0,1000.0,1330.0,1471.0,1011.0,94.0,292.63,1649152742.3439534,1649152743.4807255,0e83df8c-519d-4816-9045-f69143c15ba8
-0.1269330742608103,0.0245267634502978,-0.2345157166598935,-0.1047380738912057,-0.370026200214221,0.2215073777759621,-0.5883340580917098,-0.6160252214237129,-23.415787078079006,27.939910763557847,17.804612540868177,0.8986110622535263,0.0984219233647473,1.6606410818507376,-1.0,11.99088888888889,0.0,179.33072539692546,1.1340720284856023,96.88760320901442,1553.0,1435.0,1000.0,1330.0,1471.0,1011.0,94.0,292.63,1649152743.5894814,1649152744.751804,0e83df8c-519d-4816-9045-f69143c15ba8
-0.1293190149387802,0.0289995116582396,-0.2400967909788246,-0.1133625232421443,-0.3775143841108237,0.2255177300054543,-0.5940707263295506,-0.616615269522721,-23.44659435359097,27.97575785547789,17.82488936332183,0.9270249630257728,0.1159444338136607,1.6870735960160057,-1.0,11.988666666666669,0.0,179.32597917436226,1.1215477619934568,96.913249051528,1553.0,1435.0,1000.0,1330.0,1471.0,1011.0,94.0,292.63,1649152744.8613768,1649152745.9382951,0e83df8c-519d-4816-9045-f69143c15ba8
-0.0907478600461276,0.0495224351440906,-0.0597300841597432,-0.0973616546104337,-0.2121629305130201,0.1800100942730297,-0.4155469955072038,-0.4302209438407351,-22.10340181815711,28.108519836600244,17.68193165810507,0.7991836835233537,0.1941446082630957,0.96512629148197,-1.0,11.99,0.0,179.32708111154832,1.1100677436764483,96.87660964009032,1553.0,1435.0,1000.0,1210.0,1471.0,1011.0,94.0,292.63,1649152747.8244858,1649152748.8112965,09295cb3-8645-46d1-af9f-c309dc01c331
-0.077230999659249,0.0505578949739779,-0.0604938043309715,-0.1033503384169089,-0.2148129409746806,0.1834282072267343,-0.4155086452227333,-0.4439701006999716,-22.01270053507908,28.162913069145787,17.52428867469081,0.82071672181304,0.1994732784248911,0.9696136790333488,-1.0,11.992111111111113,0.0,179.3234687003873,1.123981171038849,96.89354775032206,1553.0,1435.0,1000.0,1210.0,1471.0,1011.0,94.0,292.63,1649152748.9242263,1649152750.0434072,09295cb3-8645-46d1-af9f-c309dc01c331
-0.083421844465603,0.0511468469995852,-0.0613155978743844,-0.0960363756625849,-0.2144294373061449,0.1745939272531509,-0.4195491308600365,-0.4481612481793225,-22.13450903436761,28.1865505984202,17.289680829455374,0.7843834701594942,0.2036714588134476,0.9756739330533506,-1.0,11.97122222222222,0.0,179.3226900588219,1.1221300000462984,96.8965750419442,1553.0,1435.0,1000.0,1210.0,1471.0,1011.0,94.0,292.63,1649152750.157652,1649152751.264099,09295cb3-8645-46d1-af9f-c309dc01c331
-0.0420034495843865,0.0722258506040256,0.0858402296666075,-0.0726837420121309,-0.0813947536679324,0.125888966351047,-0.2804605543342217,-0.3004164436586806,-21.075089567467,28.577700821659665,17.45056224777755,0.6327383897872348,0.2802666591451881,0.3994163671945861,-1.0,11.99,0.0,179.31991244855942,1.097224367426049,96.86630743809222,1553.0,1435.0,1000.0,1071.0,1471.0,1011.0,94.0,292.63,1649152753.403514,1649152754.540325,9c4e4af3-770c-4c94-8db8-7de11ebb135c
-0.0454505995469102,0.0736502926875469,0.0852737400456419,-0.0762579961919041,-0.081688407872999,0.128861667309746,-0.281969367364883,-0.3002592065462005,-21.301305882408226,28.60484982293196,17.596481788719633,0.6475422429910843,0.286321620469307,0.4029142347466573,-1.0,11.975,0.0,179.333214621423,1.0987559899155552,96.8336340898326,1553.0,1435.0,1000.0,1071.0,1471.0,1011.0,94.0,292.63,1649152754.6483028,1649152755.7958937,9c4e4af3-770c-4c94-8db8-7de11ebb135c
-0.0411378270357295,0.0718094752231914,0.0857076470044618,-0.065988863983094,-0.0793347911289556,0.122392508919217,-0.2838233338265782,-0.3101207301790894,-21.39739004175592,28.62647626790024,17.759397938733063,0.6099831074440328,0.2774170982854488,0.4017777245345427,-1.0,11.979555555555557,0.0,179.3312915437167,1.0844596687887451,96.83564140653868,1553.0,1435.0,1000.0,1071.0,1471.0,1011.0,94.0,292.63,1649152755.9052143,1649152757.0062058,9c4e4af3-770c-4c94-8db8-7de11ebb135c
-0.3299752645702742,-0.0685134135917212,-0.8422486337667245,-0.000639841586299,-0.9159471152510854,0.2464373047328828,-1.2382744816795717,-1.259115183808073,-28.32896014373753,29.11522754977385,17.186268929569316,0.6947703703092959,-0.2616045277215502,4.142853126484675,-1.0,11.97411111111111,0.0,179.34937484899925,1.1054139539683712,96.86714223899077,1553.0,1435.0,1000.0,1552.7777777777778,1471.0,1011.0,94.0,292.63,1649152757.908363,1649152759.0559816,b762dda9-c708-44fe-811f-ea0c64e6c4f9
-0.3382194984602389,-0.0671853952202965,-0.8345303453158099,-0.0031380939749805,-0.9110032027785374,0.246766022100186,-1.2288731559411294,-1.2566300782160105,-28.00281078947812,29.14805736027375,17.154739932792545,0.7019055888277967,-0.2578551722048378,4.112521904224322,-1.0,11.958222222222222,0.0,179.39561522968026,1.0905052281198857,96.85200881651976,1553.0,1435.0,1000.0,1613.0,1471.0,1011.0,94.0,292.63,1649152759.16834,1649152760.2763643,b762dda9-c708-44fe-811f-ea0c64e6c4f9
-0.321704733292037,-0.0647791836971,-0.8327421216990827,-0.004334625344007,-0.9092807225557572,0.2462926690596117,-1.227176972670968,-1.245309041167445,-28.03152363263233,29.1010797616582,17.280036965408893,0.7033241241372171,-0.2494778122673843,4.10577985655161,-1.0,11.956666666666669,0.0,179.37184161790915,1.104183749149894,96.78920598601138,1553.0,1435.0,1000.0,1613.0,1471.0,1011.0,94.0,292.63,1649152760.384156,1649152761.508935,b762dda9-c708-44fe-811f-ea0c64e6c4f9
-0.3721590287408407,-0.0783815105618828,-0.9528796328701432,0.0534341721240346,-1.01767809164866,0.2112322200416019,-1.3711180741361837,-1.4055512583118193,-29.009666095714525,29.79429323748194,16.943810767462764,0.4922937416881195,-0.3053086885443092,4.619540978174823,-1.0,11.947222222222225,0.0,179.36457733227186,1.0864157827919807,96.61409663171024,1553.0,1435.0,1000.0,1694.0,1471.0,1011.0,94.0,292.63,1649152763.64297,1649152764.7773144,991294cf-19e6-4039-b8ea-a156ef12e16a
-0.3804180550950948,-0.0832985753471204,-0.9576734311517784,0.0540368207602457,-1.0208283021028817,0.2148481113783645,-1.3746106999884151,-1.4072496337286955,-29.06820782190597,29.77021769539544,16.82060317573334,0.4986122974063365,-0.3226228498160682,4.634544395170862,-1.0,11.930333333333332,0.0,179.36739744148923,1.0839603416433286,96.5412678424102,1553.0,1435.0,1000.0,1694.0,1471.0,1011.0,94.0,292.63,1649152764.8856328,1649152766.0093734,991294cf-19e6-4039-b8ea-a156ef12e16a
-0.3586679161051061,-0.071300389465469,-0.9438262027943766,0.0523658405659343,-1.0097203864395403,0.2055481484709707,-1.3627220759450382,-1.3913479123756616,-28.945135940792465,29.68822210004308,17.05030443853111,0.4817278687042612,-0.2794470836651262,4.5854936719088775,-1.0,11.932444444444444,0.0,179.35054357025723,1.0737189828754887,96.48750970018276,1553.0,1435.0,1000.0,1694.0,1471.0,1011.0,94.0,292.63,1649152766.1176045,1649152767.2379763,991294cf-19e6-4039-b8ea-a156ef12e16a
-0.4019249434106796,-0.08689529181002,-1.0339698848743455,0.1052597580412078,-1.0901411538283905,0.1740537350726299,-1.4728606010978698,-1.489848735857343,-29.691737852964938,30.35526477041788,16.550128578917178,0.2911177994516332,-0.3404358277959934,4.971794674773011,-1.0,11.919666666666666,0.0,179.36630612904185,1.0592150761729666,96.37388646769996,1553.0,1435.0,1000.0,1774.0,1471.0,1011.0,94.0,292.63,1649152768.82397,1649152769.8959775,46a90dd9-2b92-4137-8343-6d3dcfc924a6
-0.4027708430322925,-0.0867911979786624,-1.0242387477246688,0.0987697807426025,-1.0828189685154868,0.1800040677090302,-1.4602279774698186,-1.4914424699976,-29.467631159708787,30.37438225613846,16.645564313217665,0.3198680905137425,-0.3410611476858432,4.930809989542813,-1.0,11.895777777777775,0.0,179.37394835181314,1.056829419161928,96.27466810417673,1553.0,1435.0,1000.0,1774.0,1471.0,1011.0,94.0,292.63,1649152770.004783,1649152771.130546,46a90dd9-2b92-4137-8343-6d3dcfc924a6
-0.3965865716976071,-0.0883679458641915,-1.0305775192849398,0.1000923204858411,-1.087235290155219,0.1811934768481148,-1.4657997436199728,-1.4801055415796986,-29.543490878373017,30.275212179441827,16.723844299617316,0.3185587795327405,-0.3476981471414818,4.953317497692735,-1.0,11.88811111111111,0.0,179.3728767710234,1.062887322637037,96.16175293463787,1553.0,1435.0,1000.0,1774.0,1471.0,1011.0,94.0,292.63,1649152771.2384682,1649152772.3592594,46a90dd9-2b92-4137-8343-6d3dcfc924a6
-0.40676366468510694,-0.08828905370727501,-1.0692873069719382,0.1603001992393424,-1.1229866209480883,0.12631082034124627,-1.5306886330859675,-1.556078796581193,-29.96706796156832,31.125093314710274,16.40768558746074,0.06285875915127173,-0.35145463168978436,5.146612272527139,-1.0,11.890625,0.0,179.40042539040323,1.053441006485613,95.94481047408144,1553.0,1435.0,1000.0,1856.0,1471.0,1011.0,94.0,292.63,1649152774.5003614,1649152775.635606,c585823a-2e36-4cbc-93f2-02369d234e43
-0.4155360382882988,-0.08339445125217337,-1.0681088543072452,0.15951401675082766,-1.1237854049526133,0.12015010840844938,-1.529929843040559,-1.5464890023857125,-29.737014423049427,31.08913311295683,16.117583519265448,0.05067810562253624,-0.3319830980249361,5.145365360565049,-1.0,11.865777777777778,0.0,179.3777034380368,1.0310535540368018,95.85028947829613,1553.0,1435.0,1000.0,1856.0,1471.0,1011.0,94.0,292.63,1649152775.7437918,1649152777.0767076,c585823a-2e36-4cbc-93f2-02369d234e43
-0.4153990727352301,-0.08336705813321481,-1.0689580421147031,0.1640612740062914,-1.1241004266101478,0.11673966535434015,-1.5338881536635707,-1.5490502621792288,-29.925389015986042,31.205484068813472,16.21287403203924,0.033406273973124075,-0.3320033709640287,5.152585855566581,-1.0,11.865666666666666,0.0,179.36597979778148,1.0283716850023836,95.78564021998214,1553.0,1435.0,1000.0,1856.0,1471.0,1011.0,94.0,292.63,1649152777.1914608,1649152778.2977772,c585823a-2e36-4cbc-93f2-02369d234e43
