raw_voltage_G-,raw_voltage_G0,raw_voltage_G1,raw_voltage_G2,raw_voltage_G3,raw_voltage_G4,raw_voltage_G5,raw_voltage_G6,load_x,load_y,load_z,load_l,load_m,load_n,rpm,voltage,current,roll,pitch,yaw,aileron1_pwm,elevator_pwm,throttle_pwm,rudder_pwm,aileron2_pwm,pbaro,pdiff,Tt,sample_start_time,sample_end_time,uid
0.2160944981721235,0.3050536413551492,0.5480853570920418,-0.2077866057385968,0.240268922949017,0.003633484776596,0.231626394903106,0.2007543529140405,-6.1740272339675455,27.38490501687841,18.501382722730185,0.6855508149414774,1.0846506825919595,-1.3585149853177552,-1.0,11.988111111111111,0.0,179.18060694588752,1.2540394632062142,91.7503333430324,1553.0,1435.0,1000.0,1528.0,1471.0,1011.0,94.0,292.63,1649152077.3820426,1649152078.328037,2ebfa930-7fb2-48d4-9fa2-0c753392c434
0.2057672934505496,0.3027252265436432,0.5430176308936249,-0.2081153231280373,0.2361188659158499,0.0078520249282513,0.2268873858738671,0.2084244254990555,-6.279777953930871,27.40696002529569,18.696150798870843,0.6956436251481213,1.0746595438057376,-1.339300173123447,-1.0,11.988666666666669,0.0,179.18985805766334,1.2675207862398732,91.62253215565248,1553.0,1435.0,1000.0,1528.0,1471.0,1011.0,94.0,292.63,1649152078.4395075,1649152079.6111796,2ebfa930-7fb2-48d4-9fa2-0c753392c434
0.2163267917960979,0.3038050631537047,0.5429009362247953,-0.2125047967086774,0.2364311474353872,0.0083801642051005,0.2268720457253859,0.2030071630070009,-6.4019038251221385,27.34404258208497,18.348148291775374,0.7061921549791101,1.0831902752546194,-1.3400028399583344,-1.0,11.987333333333332,0.0,179.20121438552334,1.2743319789462566,91.49224857396422,1553.0,1435.0,1000.0,1528.0,1471.0,1011.0,94.0,292.63,1649152079.7200973,1649152080.8367443,2ebfa930-7fb2-48d4-9fa2-0c753392c434
0.3822501793852947,0.6451320397088074,0.5723014182462204,-0.2794316686133211,0.1946708900405779,-0.26832101880982,0.1515957626287436,0.1318858673354821,-6.17176785192265,26.913256566522094,17.623024975904602,0.2339867477545862,2.3782685245796444,-1.1759937672190568,-1.0,11.95077777777778,0.0,178.9580308124944,1.2522051186692753,91.22648135989958,1663.0,1435.0,1000.0,1528.0,1555.0,1011.0,94.0,292.63,1649152082.979192,1649152084.1164963,5ef5a6fe-1745-40f3-8b28-d4df086de6e1
0.3942286407305352,0.6421735833419226,0.5769297588817773,-0.2750531521186686,0.200692992671632,-0.2690836432581009,0.1567369027043954,0.1338713204881284,-6.188257267180513,26.87684131589097,17.713782528169002,0.2223913946171917,2.366238546048576,-1.198013077205249,-1.0,11.967333333333332,0.0,178.94694465656156,1.2543764073473007,91.20339076704548,1663.0,1435.0,1000.0,1528.0,1555.0,1011.0,94.0,292.63,1649152084.225295,1649152085.345574,5ef5a6fe-1745-40f3-8b28-d4df086de6e1
0.3947940346282487,0.6455527979476627,0.5741948303226331,-0.2802205904782297,0.1963539230851509,-0.2685971414421331,0.1539362304780255,0.1327010863385404,-6.131414043895217,26.88685054216985,17.55554966584337,0.2350746654508233,2.380375758999892,-1.1842114912922828,-1.0,11.966,0.0,178.95646594026454,1.2515962713377922,91.23182939801968,1663.0,1435.0,1000.0,1528.0,1555.0,1011.0,94.0,292.63,1649152085.4546297,1649152086.5760815,5ef5a6fe-1745-40f3-8b28-d4df086de6e1
0.6135883204796655,1.0209611919577046,0.643790872822177,-0.3372596434301816,0.1850328960563411,-0.5890703851306948,0.104207862422899,0.0896917017109613,-5.628573490307229,26.679597618362457,16.89837604006664,-0.3541655011340415,3.802082245759941,-1.1484221555637937,-1.0,11.947,0.0,178.56099343386137,1.2164122949496656,91.34519460113384,1779.0,1435.0,1000.0,1528.0,1638.0,1011.0,94.0,292.63,1649152088.7182286,1649152090.055735,f3480df8-597b-4bf5-9dc3-8d6831505687
0.6136935100362387,1.0261417779604995,0.6438829136865164,-0.3444125354558974,0.1823374134194949,-0.5876503256031205,0.1035767249743869,0.074005307286154,-5.586702782930724,26.758898279050527,16.88226076075126,-0.3342904813642328,3.8222469256764096,-1.1434395275846887,-1.0,11.944,0.0,178.56187225153457,1.205717748387209,91.4408741677571,1779.0,1435.0,1000.0,1528.0,1638.0,1011.0,94.0,292.63,1649152090.1645012,1649152091.2847264,f3480df8-597b-4bf5-9dc3-8d6831505687
0.6168097507457477,1.0325320439418617,0.6510489524425206,-0.3450962676884802,0.188596192611084,-0.5935672406385397,0.1089939877748786,0.0866280556570055,-5.617279146888043,26.71210118570197,16.890888986426752,-0.3460116657586982,3.8468919256663865,-1.168668117923914,-1.0,11.941,0.0,178.54589416233617,1.2025638018162497,91.5326741869318,1779.0,1435.0,1000.0,1528.0,1638.0,1011.0,94.0,292.63,1649152091.3933074,1649152092.4411075,f3480df8-597b-4bf5-9dc3-8d6831505687
0.7563552069162397,1.2647166454524978,0.7059244830336069,-0.4215488292879946,0.179935584916855,-0.7663734987537952,0.0923597912789164,0.0704179045809848,-5.0397500290895225,27.31949648256808,14.796193324121454,-0.5551564145098611,4.745105037841966,-1.1833656666676824,-1.0,11.925666666666665,0.0,178.4902873155734,1.1921181895615112,91.78987937941686,1834.555555555556,1435.0,1000.0,1528.0,1675.7777777777778,1011.0,94.0,292.63,1649152094.4483569,1649152095.5855472,cf5c9dca-4178-4480-9d88-328cb32effc3
0.7588551025546256,1.2773739092107186,0.706930906066172,-0.4228445241841154,0.1792080237034993,-0.7781750069233263,0.0895076199110371,0.0654718031047222,-5.06841545727735,27.23975872471657,14.705993460834764,-0.5792604948002963,4.793801775781946,-1.178280053138013,-1.0,11.898444444444443,0.0,178.4159703039442,1.1622049017727485,91.84688110259016,1904.0,1435.0,1000.0,1528.0,1723.0,1011.0,94.0,292.63,1649152095.694526,1649152096.820618,cf5c9dca-4178-4480-9d88-328cb32effc3
0.751479232530682,1.2681270886266407,0.7098280018511277,-0.4238909413038461,0.1827159862186288,-0.7664282850859419,0.0953319445520515,0.0794028469292642,-5.0831538801161225,27.35706338160757,14.982990929456598,-0.5495449629121706,4.757084356109197,-1.1960954944031,-1.0,11.899555555555557,0.0,178.40616215229608,1.168440449456114,91.84524337500918,1904.0,1435.0,1000.0,1528.0,1723.0,1011.0,94.0,292.63,1649152096.9339745,1649152098.043452,cf5c9dca-4178-4480-9d88-328cb32effc3
0.7669941447578149,1.2992007449314256,0.7147280821670385,-0.4296161035533039,0.1734620437614638,-0.8036834890637854,0.0785153102072259,0.0483784981722089,-5.226719435741257,28.251658356469857,13.2108552228424,-0.6145282037487879,4.89138267636614,-1.1654846164825208,-1.0,11.883,0.0,178.41420659731855,1.1481259846185825,91.97949909115476,2045.0,1435.0,1000.0,1528.0,1813.0,1011.0,94.0,292.63,1649152099.9779005,1649152101.121976,e814cbc3-798d-49dd-b639-61288ced6200
0.7700446420011431,1.2974125222173571,0.7145702978350142,-0.4270389584546435,0.1739222480351054,-0.8034731098547602,0.0788703249419814,0.0550580361194015,-5.193231778603924,28.237844452310284,13.329716507204662,-0.6199324881505345,4.883057733305856,-1.1663988661813578,-1.0,11.818,0.0,178.40331168668249,1.156404067170932,91.92552845415314,2045.0,1435.0,1000.0,1528.0,1813.0,1011.0,94.0,292.63,1649152101.2347617,1649152102.3446257,e814cbc3-798d-49dd-b639-61288ced6200
0.7674357217503373,1.298451269231012,0.7174980739076354,-0.4236444027774051,0.1774291148641658,-0.8081206284561494,0.0800739785535368,0.0577896776336668,-5.2822173687287295,28.240254554078906,13.27447153583952,-0.6379252078215782,4.887840822882985,-1.1768656577205527,-1.0,11.814666666666666,0.0,178.3862529097754,1.1362501592107652,91.86127990027047,2045.0,1435.0,1000.0,1528.0,1813.0,1011.0,94.0,292.63,1649152102.4529102,1649152103.5801651,e814cbc3-798d-49dd-b639-61288ced6200
-0.0202944035849159,-0.1289629043186729,0.5061738916996147,-0.1163209799321773,0.28539908099773,0.3507179645653897,0.3173394536016523,0.2905626829997093,-6.409521267592555,28.38618268791389,19.5185629376363,1.2637662240868135,-0.5644250759072662,-1.5357461379494828,-1.0,11.858555555555554,0.0,179.3088338817257,1.244624818203227,91.8109057373218,1444.0,1435.0,1000.0,1528.0,1381.0,1011.0,94.0,292.63,1649152105.3403466,1649152106.439162,ce77f20d-35ff-49a0-a561-fab1e5b2fbe0
-0.0272659520999385,-0.1332362308896538,0.5023251590850104,-0.116896235422841,0.2824269279613769,0.3529642000205228,0.3150384319110272,0.2991915144310825,-6.37584852211834,28.357991811664828,19.1440560674192,1.2696901800532123,-0.577545372142078,-1.524190754806834,-1.0,11.977777777777778,0.0,179.3180652618439,1.2411991700273153,91.82903988956818,1444.0,1435.0,1000.0,1528.0,1381.0,1011.0,94.0,292.63,1649152106.5478172,1649152107.6686182,ce77f20d-35ff-49a0-a561-fab1e5b2fbe0
-0.0288273598028444,-0.1336334311144094,0.5098993552933854,-0.1102534041335881,0.2901928762077828,0.3464994248170134,0.3203937859527479,0.2981916658640655,-6.405446519650281,28.4297866696753,19.08839730116936,1.2410076770789418,-0.5786688183586319,-1.552836085933534,-1.0,11.977333333333334,0.0,179.3199291445774,1.250311863750745,91.87385200180272,1444.0,1435.0,1000.0,1528.0,1381.0,1011.0,94.0,292.63,1649152107.7770593,1649152108.9085948,ce77f20d-35ff-49a0-a561-fab1e5b2fbe0
-0.2377371476211608,-0.5275870632083282,0.4599195217354953,-0.0083318289611995,0.3210035567030968,0.6496946368613967,0.3812771759480995,0.3529943324370754,-6.6333313188152205,29.4491615835556,20.68819495348492,1.6968269021891706,-2.084500408591589,-1.6584544410015984,-1.0,11.954444444444444,0.0,179.45245151049363,1.2653923522557025,91.90164100589588,1331.0,1435.0,1000.0,1528.0,1283.0,1011.0,94.0,292.63,1649152110.0135272,1649152111.1576023,4c8915ae-b309-4530-ba30-c9a2a926b22f
-0.2348312853925497,-0.5236556019539702,0.4641534015653418,-0.0077269889394713,0.3236990392633239,0.645447608387748,0.3833415211094579,0.3606731704477964,-6.626652329602947,29.530157123298768,20.734446303053605,1.6866773741675494,-2.070016925084045,-1.670318544939619,-1.0,11.937111111111111,0.0,179.4443296566606,1.2577764660297597,91.8418024774873,1331.0,1435.0,1000.0,1528.0,1283.0,1011.0,94.0,292.63,1649152111.270726,1649152112.3773396,4c8915ae-b309-4530-ba30-c9a2a926b22f
-0.24523190530441,-0.5297434499944468,0.4592489382877902,-0.0015865476959049,0.3213848688738159,0.6451451884031482,0.3787789238573989,0.3678392092933494,-6.694182144497683,29.50615801171669,20.61156620516137,1.671689581928412,-2.092350357555586,-1.654878548938668,-1.0,11.935333333333334,0.0,179.45437307038014,1.2465194130720627,91.71887273280544,1331.0,1435.0,1000.0,1528.0,1283.0,1011.0,94.0,292.63,1649152112.4855976,1649152113.6089926,4c8915ae-b309-4530-ba30-c9a2a926b22f
-0.4863609590691951,-0.957714520772012,0.4092159617979922,0.1457489758275129,0.3559911392162251,0.9404369382580894,0.4319385506290462,0.4091063891522217,-6.981504785459556,31.47306962966967,22.253385637126726,2.0135613993599244,-3.731298505278752,-1.758686306614112,-1.0,11.916,0.0,179.60858963492012,1.2741147647010895,91.6053269091332,1209.0,1435.0,1000.0,1528.0,1173.0,1011.0,94.0,292.63,1649152114.5190551,1649152115.6587183,ccf6ab8a-1e79-46dc-b4f6-e95899ba4216
-0.4767733656567959,-0.9516058520436133,0.4058329120965577,0.1371201441621164,0.3516356338951559,0.942998194515761,0.4278843696181962,0.3968890599463003,-7.139056628621266,31.4379931668102,22.31140367345562,2.038310375743056,-3.706939051001117,-1.741720655140745,-1.0,11.872333333333334,0.0,179.6243977282992,1.2578873973139355,91.42655429670722,1209.0,1435.0,1000.0,1528.0,1173.0,1011.0,94.0,292.63,1649152115.768173,1649152116.895457,ccf6ab8a-1e79-46dc-b4f6-e95899ba4216
-0.4807453685609245,-0.9495102773108656,0.4010665100968441,0.1338055770433253,0.3467596594012372,0.9435871464798526,0.4235836505901544,0.4045180425310075,-7.133700133081763,31.37040164532444,22.21905882604003,2.0464132494515543,-3.698194050181789,-1.7223332186834124,-1.0,11.870777777777777,0.0,179.61621819731317,1.2703504292628969,91.27890230286953,1209.0,1435.0,1000.0,1528.0,1173.0,1011.0,94.0,292.63,1649152117.0033886,1649152118.1174724,ccf6ab8a-1e79-46dc-b4f6-e95899ba4216
-0.5131514346546117,-1.0046389594239102,0.4128592460679094,0.1699918836941147,0.3690165654475075,0.9610639539844308,0.4368008284919109,0.4155574678659395,-7.6414404390443424,32.123512203387634,21.85177401029241,2.00932405688505,-3.901806168979901,-1.7950766513801788,-1.0,11.774333333333333,0.0,179.6336473222552,1.237289550773652,90.94124127651122,1074.0,1435.0,1000.0,1528.0,1047.0,1011.0,94.0,292.63,1649152120.0518415,1649152121.185838,414309ed-d2e3-437a-9d2c-ddfd0f4b67c7
-0.5197805707670043,-1.0139800184257013,0.4048056703006509,0.1729366437317343,0.3640310185341477,0.966939777175928,0.4304593224328001,0.407942181881479,-7.772356267313772,32.11812037477396,21.71685885260392,2.0153609956357545,-3.935591688055903,-1.769663367330519,-1.0,11.730555555555556,0.0,179.62653937205894,1.247999666847186,90.64573617771026,1074.0,1435.0,1000.0,1528.0,1047.0,1011.0,94.0,292.63,1649152121.2946796,1649152122.4155943,414309ed-d2e3-437a-9d2c-ddfd0f4b67c7
-0.504371938318934,-1.002762529760686,0.4174749859489967,0.1625957423689845,0.3710710490947115,0.9669123840322854,0.4435943209810106,0.4231453606519911,-7.457763689038614,32.149611829822966,22.018883290083323,2.039672089852877,-3.896345841865041,-1.8133235508916377,-1.0,11.735555555555557,0.0,179.62570912461982,1.251178396569821,90.3815399071547,1074.0,1435.0,1000.0,1528.0,1047.0,1011.0,94.0,292.63,1649152122.524079,1649152123.8497307,414309ed-d2e3-437a-9d2c-ddfd0f4b67c7
0.1999188631768576,0.2942470573109408,0.5388264843584849,-0.1995549731825237,0.2350094447254021,0.0033321604920855,0.2219566250179324,0.1940567361547005,-6.378024166851915,27.420123459764643,17.958973745642737,0.6658884400331723,1.0487707632644334,-1.3271203875305793,-1.0,11.743000000000002,0.0,179.16971355307123,1.1538367698166536,90.07023050952424,1553.0,1435.0,1000.0,1528.0,1471.0,1011.0,94.0,292.63,1649152124.8369606,1649152125.7857282,8c7a5e3a-25e2-40a7-8dac-533a936bf682
0.2048085343977594,0.2986299557835752,0.5464965564456661,-0.2005685185556286,0.2407619990341322,-0.0003522137854149,0.22887338676648,0.214765931938862,-6.264496634104101,27.438240543538388,17.968357663873757,0.6604561305668021,1.0649339459718756,-1.3546520855246111,-1.0,11.985666666666669,0.0,179.14508389092418,1.1572658449451174,90.49297292564364,1553.0,1435.0,1000.0,1528.0,1471.0,1011.0,94.0,292.63,1649152125.894397,1649152127.1254137,8c7a5e3a-25e2-40a7-8dac-533a936bf682
0.2064521213511384,0.2941648779636887,0.5380183874734915,-0.2010752912890835,0.2340643822175726,0.0057427548858505,0.2211348315246089,0.1990970696153356,-6.430084133083194,27.451094561873514,18.08474925457779,0.6748937497025144,1.0478527431442128,-1.3234565910263736,-1.0,11.987111111111112,0.0,179.13302177684994,1.172921871751387,90.85154116105134,1553.0,1435.0,1000.0,1528.0,1471.0,1011.0,94.0,292.63,1649152127.233352,1649152128.5584462,8c7a5e3a-25e2-40a7-8dac-533a936bf682
0.2246367674391757,0.297625176311323,0.5384961233936526,-0.5367517070970497,0.1983788222249868,0.3264602652777481,0.3140478968555079,0.2974410944320212,-6.111012249710663,26.68731682778741,20.58316555925843,2.14831205917678,1.077775537093742,-1.4062553292646944,-1.0,11.984777777777778,0.0,179.14956449501972,1.2958795775201908,91.30297113059471,1553.0,1537.0,1000.0,1528.0,1471.0,1011.0,94.0,292.63,1649152129.4696538,1649152130.6087615,71ffb8a2-2232-4c16-8dee-8120e4cc4791
0.2212312552753675,0.2937331624655926,0.5358795330811255,-0.5320313237983906,0.1960383543766825,0.3268415774533778,0.3106949795180053,0.2833062466838774,-6.105435560812269,26.809367542359954,20.688628775645817,2.139219309141929,1.0614589423965186,-1.395053977663225,-1.0,11.977,0.0,179.13154038470995,1.289914142474158,91.48737105998693,1553.0,1537.0,1000.0,1528.0,1471.0,1011.0,94.0,292.63,1649152130.7165663,1649152131.8387787,71ffb8a2-2232-4c16-8dee-8120e4cc4791
0.2241108196058573,0.2927338616113131,0.5374179304024932,-0.5327019075178742,0.1982999300544126,0.3293924243462978,0.313495651645334,0.294416894479832,-6.123246630190302,26.74826225179764,20.841720733365243,2.1461510409488125,1.0566592219251214,-1.4041171402499883,-1.0,11.977333333333332,0.0,179.13427094255815,1.289430195112341,91.61338121998448,1553.0,1537.0,1000.0,1528.0,1471.0,1011.0,94.0,292.63,1649152131.9501822,1649152133.0643008,71ffb8a2-2232-4c16-8dee-8120e4cc4791
0.2498702099910943,0.297123334433429,0.5430861136743621,-0.8627425308631089,0.162609438970712,0.6433586094751679,0.4054631050588811,0.3839732061445514,-5.670717900472642,26.52836659887997,23.25669464385057,3.595603041316849,1.0895063420593163,-1.4927236958614027,-1.0,11.972666666666669,0.0,179.14005838951485,1.4115172652053802,91.81884165822744,1553.0,1645.0,1000.0,1528.0,1471.0,1011.0,94.0,292.63,1649152133.8356545,1649152134.9079616,303934ed-4c74-4d7d-86d1-d1d3387b8136
0.2521986248353789,0.2996982872848642,0.54290805842422,-0.8648654986115103,0.1614178383872626,0.6443310650389755,0.4043125942263737,0.3714545526138992,-5.7186265067957045,26.589566072103526,23.469970824877493,3.602983888147224,1.0978639376564174,-1.4886847602103312,-1.0,11.964666666666666,0.0,179.13844494705094,1.4012214546516573,91.86037983311982,1553.0,1645.0,1000.0,1528.0,1471.0,1011.0,94.0,292.63,1649152135.0170023,1649152136.135869,303934ed-4c74-4d7d-86d1-d1d3387b8136
0.2493360442417293,0.2959728235849784,0.5405248574562724,-0.8603182387106653,0.1616643764490534,0.6423861539098423,0.4021211450317994,0.3800559907165457,-5.821663047150966,26.50143912226153,23.253952915110148,3.587566736730503,1.0858225704744555,-1.4834033038966157,-1.0,11.964,0.0,179.13285785230983,1.387238634464564,91.9310745677592,1553.0,1645.0,1000.0,1528.0,1471.0,1011.0,94.0,292.63,1649152136.2434988,1649152137.365646,303934ed-4c74-4d7d-86d1-d1d3387b8136
0.2615714532904436,0.294259110273255,0.5396006137669115,-1.1379498486176027,0.1237994194266441,0.913404864513831,0.4712273995051154,0.4524247654384753,-5.544717946622735,26.75230013542817,25.45608174029429,4.824958264266754,1.092045597979419,-1.5284076338594277,-1.0,11.961666666666666,0.0,179.13244804095964,1.4792438794794762,91.97974649578472,1553.0,1761.0,1000.0,1528.0,1471.0,1011.0,94.0,292.63,1649152138.4809198,1649152139.625768,cd1b2903-6e09-42af-8dfa-13d295e3fe2c
0.2603891664150896,0.2990545490746644,0.5392236845116185,-1.136756055605094,0.1219306610253814,0.9073460553195044,0.4682892140141451,0.4371021527299515,-5.512872550779728,26.81548209342463,25.40534033560931,4.809058420427054,1.1100859297414098,-1.520649682398087,-1.0,11.949,0.0,179.1421195888244,1.4707325744260924,91.96741800433284,1553.0,1761.0,1000.0,1528.0,1471.0,1011.0,94.0,292.63,1649152139.7387056,1649152140.7954104,cd1b2903-6e09-42af-8dfa-13d295e3fe2c
0.2670593900938975,0.2909187937758117,0.5370596284586725,-1.1364958210681364,0.1217252126646726,0.9145504445864628,0.4692753661422368,0.442320540944412,-5.511056637042903,26.777007276613265,25.32630417203312,4.824286125208474,1.0800896612420934,-1.5199006365183034,-1.0,11.953666666666669,0.0,179.1220798137996,1.4747455240068863,91.97550950176957,1553.0,1761.0,1000.0,1528.0,1471.0,1011.0,94.0,292.63,1649152140.9081314,1649152142.075404,cd1b2903-6e09-42af-8dfa-13d295e3fe2c
0.2477061538577779,0.2880973028791491,0.481752929934262,-1.139851480462159,0.0614055693595528,0.9262062150303864,0.4031072971732123,0.3802477425955569,-5.967101145582437,27.7905039530665,25.67332335921812,4.861838186400355,1.0665836955129364,-1.268761016251336,-1.0,11.911888888888887,0.0,179.12839090859268,1.4923352651161446,91.94389027937189,1553.0,1887.0,1000.0,1528.0,1471.0,1011.0,94.0,292.63,1649152144.01099,1649152145.1478748,dca80721-4928-467a-8bb3-36755fe2b4c8
0.2424603721798433,0.2841663907991938,0.4786301148453167,-1.1384955200062488,0.0592415130830443,0.9266855945243756,0.3993955300782954,0.3843567098402984,-6.074407235474596,27.85365430218028,25.34513313022876,4.860013506933236,1.055144766491997,-1.2572995819528472,-1.0,11.881222222222222,0.0,179.11964523081542,1.481409156168076,91.80373783324282,1553.0,1887.0,1000.0,1528.0,1471.0,1011.0,94.0,292.63,1649152145.2566469,1649152146.3776038,dca80721-4928-467a-8bb3-36755fe2b4c8
0.234488975484937,0.2854949569081017,0.4718366223817107,-1.1217446161203777,0.0563789323348317,0.9112084845316816,0.3875343112604321,0.3657156950501871,-6.31144970144345,27.7750708292368,25.4530923874156,4.786487117354018,1.0583541865661432,-1.226926137403523,-1.0,11.888333333333334,0.0,179.11121374174,1.469547145292174,91.7283530353734,1553.0,1887.0,1000.0,1528.0,1471.0,1011.0,94.0,292.63,1649152146.485829,1649152147.6115315,dca80721-4928-467a-8bb3-36755fe2b4c8
0.1868474160531198,0.2934833372502851,0.5412704980421154,0.1026563162855359,0.2650558576369961,-0.284875229564779,0.1359751119047578,0.1155288896123472,-6.686157168879406,28.6214348265286,16.10921041553508,-0.6558313098785333,1.0274482767031288,-1.2497168402379253,-1.0,11.942777777777778,0.0,179.11140043357733,1.0962908370916766,91.65444204054488,1553.0,1335.0,1000.0,1528.0,1471.0,1011.0,94.0,292.63,1649152149.5404408,1649152150.678857,8e48179b-606a-44bd-b337-d54048c9697f
0.1887539769319856,0.2950217346145307,0.543584668366218,0.1035109815235469,0.2673963254404135,-0.2856378540935397,0.1388941224028579,0.1157655660780021,-6.6199187116130735,28.554481594858167,16.347417088718288,-0.6597302409611133,1.0306785058967458,-1.2596117493429944,-1.0,11.984333333333334,0.0,179.10040231119376,1.0880288458009657,91.8836146188564,1553.0,1335.0,1000.0,1528.0,1471.0,1011.0,94.0,292.63,1649152150.7875392,1649152151.9092667,8e48179b-606a-44bd-b337-d54048c9697f
0.1844417525681411,0.2924254151287478,0.546619825463342,0.1012625544712529,0.2693330187140282,-0.2823095899119356,0.1434753471818181,0.125327407347673,-6.483808486692741,28.610838238928192,16.192597371939183,-0.6466107255608089,1.0218197358502852,-1.2733897103329677,-1.0,11.975444444444443,0.0,179.10053891497716,1.0911956819823894,92.08570701492866,1553.0,1335.0,1000.0,1528.0,1471.0,1011.0,94.0,292.63,1649152152.0183408,1649152153.1357238,8e48179b-606a-44bd-b337-d54048c9697f
0.1721696365322652,0.2932335120366973,0.5613025348827163,0.4413754787295827,0.3153945424102572,-0.6118077753686652,0.0572418155568669,0.0369298187139352,-6.967766100461105,29.93226356870628,13.699495709052044,-2.14539861027675,1.009450255984213,-1.2346803039971086,-1.0,11.974555555555558,0.0,179.10861523421576,0.9809128744644576,92.29278013672564,1553.0,1236.0,1000.0,1528.0,1471.0,1011.0,94.0,292.63,1649152154.0463088,1649152155.187218,7b21d248-2827-46b5-a675-a292193b5724
0.170950642859427,0.2973835690310005,0.5600013619378332,0.4362529662334153,0.3135729002341462,-0.6106024778681983,0.0550229730357242,0.0390527854693332,-7.113078423782589,29.922735488082083,13.765636455524458,-2.131325568518926,1.0260058159754215,-1.2268135421238766,-1.0,11.970666666666666,0.0,179.10776829075866,0.9788946128545556,92.49216550115683,1553.0,1236.0,1000.0,1528.0,1471.0,1011.0,94.0,292.63,1649152155.2958715,1649152156.4126236,7b21d248-2827-46b5-a675-a292193b5724
0.1623492043397891,0.2897682829270233,0.5579057886748424,0.4386772569134375,0.3131072172742117,-0.6048088316319026,0.0563926289157758,0.0407648552853903,-6.988618042164627,29.869028912070927,13.843007664187184,-2.124160467000176,0.995444982903939,-1.2259548546192744,-1.0,11.96866666666667,0.0,179.1005328436979,0.9784343102795529,92.61973825665451,1553.0,1236.0,1000.0,1528.0,1471.0,1011.0,94.0,292.63,1649152156.520736,1649152157.6454718,7b21d248-2827-46b5-a675-a292193b5724
0.1500573651792301,0.2866986104007445,0.5574696902863063,0.6392808704471638,0.3280775548033413,-0.7946634792417808,-0.0088314794939627,-0.0286202680646887,-7.4739091112792355,31.216571732216263,12.420496575397216,-2.994861544235996,0.9752709039578962,-1.154396590769343,-1.0,11.96411111111111,0.0,179.1151934652964,0.9239761092360812,92.85594517090128,1553.0,1133.0,1000.0,1528.0,1471.0,1011.0,94.0,292.63,1649152159.372262,1649152160.508563,a1f05636-cbd3-43f9-9c68-324a7ca6db02
0.1499401226538814,0.2871659369482786,0.5479483915159339,0.6316891426898972,0.3169696465290109,-0.787726443194105,-0.0163224014931088,-0.0474957700950884,-7.341438696480989,31.23095126441059,12.411577519369382,-2.962461533124234,0.9764964674573346,-1.115559022866182,-1.0,11.961666666666666,0.0,179.1041133806428,0.9279449471784856,92.96926711615066,1553.0,1133.0,1000.0,1528.0,1471.0,1011.0,94.0,292.63,1649152160.6169505,1649152161.737692,a1f05636-cbd3-43f9-9c68-324a7ca6db02
0.1542134488152349,0.2892478137312814,0.5534544075493408,0.6220604629369921,0.3217497451571537,-0.7801933324874364,-0.0086660250745864,-0.0324021618002477,-7.412001492568282,31.16360727001036,12.56378535681806,-2.9239972103876823,0.9849885895811136,-1.1401155937525187,-1.0,11.952111111111112,0.0,179.10177593812685,0.92197674922607,93.0422127775765,1553.0,1133.0,1000.0,1528.0,1471.0,1011.0,94.0,292.63,1649152161.84583,1649152162.9659977,a1f05636-cbd3-43f9-9c68-324a7ca6db02
0.1360244194565416,0.2850566670413003,0.5360597797499888,0.734714646439084,0.310778802383465,-0.8828080003352762,-0.0653697794875695,-0.0970088316736936,-7.706165612256393,32.287195145941574,11.842680581317945,-3.402387067474512,0.9627885834866032,-1.021931195241903,-1.0,11.953,0.0,179.12664238016515,0.8730206212980627,93.1359358744575,1553.0,1026.0,1000.0,1528.0,1471.0,1011.0,94.0,292.63,1649152163.8751917,1649152164.9831417,8f7b3455-6c4d-4434-8328-251ffe887666
0.1287926367146361,0.2813312033407324,0.5322384402775947,0.7218535791257595,0.3064232970815282,-0.8663310312661002,-0.0637809785567161,-0.0795594149739876,-7.651718525484997,32.23160184988175,11.974220699590248,-3.3368601373933005,0.9486049069938142,-1.0133691773335531,-1.0,11.932222222222224,0.0,179.11938416580716,0.8711558610749762,93.13672969422105,1553.0,1026.0,1000.0,1528.0,1471.0,1011.0,94.0,292.63,1649152165.0909512,1649152166.028716,8f7b3455-6c4d-4434-8328-251ffe887666
0.1232471741816143,0.2807685487451411,0.531408976762779,0.7194221662774225,0.3060403413246675,-0.8643253061769982,-0.0638193289592517,-0.0848835414269508,-7.696199429166866,32.187635302212456,11.860188984175148,-3.3272416627936794,0.9480661250432632,-1.0119256185492025,-1.0,11.9395,0.0,179.1137845490526,0.8626552000294979,93.16166121278393,1553.0,1026.0,1000.0,1528.0,1471.0,1011.0,94.0,292.63,1649152166.136696,1649152167.264491,8f7b3455-6c4d-4434-8328-251ffe887666
0.2024680665544646,0.2935622294249405,0.5374968225726218,-0.2203282718103246,0.2304090448440214,0.026854082649237,0.2261751648506959,0.2019421186710362,-6.327685889377884,27.49841130564505,18.49767389105497,0.7661687942703808,1.0435461465047124,-1.3245504484953623,-1.0,11.953333333333331,0.0,179.11637888257235,1.1361529831686674,93.20523497377644,1553.0,1435.0,1000.0,1528.0,1471.0,1011.0,94.0,292.63,1649152169.4063442,1649152170.5430496,4daf7e6a-00a5-4317-85db-58c76fc798e7
0.2168204157426155,0.2969041895104422,0.5393743466481489,-0.2276877074306194,0.2311470153850464,0.0314785887536605,0.2283118278940227,0.1969330132461125,-6.421219330671451,27.50622408830752,18.67295498939986,0.7932878991615486,1.0562142850322715,-1.3306385648101722,-1.0,11.984666666666666,0.0,179.10492541424412,1.1202469666955883,93.1772198145308,1553.0,1435.0,1000.0,1528.0,1471.0,1011.0,94.0,292.63,1649152170.6512356,1649152171.7835677,4daf7e6a-00a5-4317-85db-58c76fc798e7
0.2157482491803062,0.2966653215421082,0.5436767092265764,-0.2255483047317865,0.2348927500368099,0.0277350453382306,0.2325785796038599,0.2073330837953021,-6.291203086882107,27.51028119080201,18.419968404237515,0.7803159322254609,1.0566497850179564,-1.347957631371835,-1.0,11.985111111111111,0.0,179.09181600449716,1.1281808005989893,93.17910798238134,1553.0,1435.0,1000.0,1528.0,1471.0,1011.0,94.0,292.63,1649152171.8948083,1649152173.0072975,4daf7e6a-00a5-4317-85db-58c76fc798e7
0.2694080758097067,0.3319564199462606,0.7355687637048004,-0.2318070848570547,0.4062071020735173,-0.0107248917477582,0.4242602605462651,0.4008292855987499,-4.869837636802005,27.570831064517463,18.517401083181657,0.7186969390108402,1.191025791924608,-2.1104559232059823,-1.0,11.983666666666666,0.0,179.0933520381505,1.128034141259311,93.15161191751258,1553.0,1435.0,1000.0,1435.0,1471.0,1011.0,94.0,292.63,1649152173.90957,1649152175.053984,311c1bca-e4ba-401e-87f2-f26c8e93e40b
0.2633613194762286,0.3249958293445011,0.7239354558220988,-0.2316597098972389,0.3979163018878142,-0.0038996225460001,0.4138043085726452,0.3983682882203854,-5.126720595238201,27.53169895804725,18.45425341705035,0.7327237414606378,1.1665408774127173,-2.06951261478626,-1.0,11.979111111111113,0.0,179.10117791711954,1.1189594523211066,93.1414091327124,1553.0,1435.0,1000.0,1435.0,1471.0,1011.0,94.0,292.63,1649152175.163367,1649152176.2841692,311c1bca-e4ba-401e-87f2-f26c8e93e40b
0.2610602977605756,0.3228317732338324,0.7231821451707457,-0.2231815392357795,0.3982861089458213,-0.0097343566753707,0.4104349554346341,0.380603853084861,-5.212128954694786,27.619733309068824,18.41674801797092,0.7009847484945569,1.1582711528924603,-2.064528489807328,-1.0,11.981333333333334,0.0,179.0941033589592,1.1205404869603894,93.12039264063628,1553.0,1435.0,1000.0,1435.0,1471.0,1011.0,94.0,292.63,1649152176.3930871,1649152177.506489,311c1bca-e4ba-401e-87f2-f26c8e93e40b
0.3268996508262693,0.3472527354995836,0.9354103016303152,-0.200938325718478,0.5921608784321974,-0.0651780275405222,0.6184171787085159,0.596598562969322,-3.659721699191665,27.912646984298828,18.45434999846522,0.5395169187152012,1.2492642722700795,-2.90983722150648,-1.0,11.96788888888889,0.0,179.0893055305222,1.1083978810040531,93.0588268332776,1553.0,1435.0,1000.0,1330.0,1471.0,1011.0,94.0,292.63,1649152178.417797,1649152179.759087,450c0c0d-421e-4af2-913d-f7a22441b0e9
0.326570933450754,0.3458009003941489,0.9266445048241247,-0.1983085861891577,0.5841894820965355,-0.0648082204467408,0.6088432851818385,0.5953521762549173,-3.7187105154674143,27.95285966739841,18.578086870218115,0.5342360040257653,1.2422610394669442,-2.8734358118981613,-1.0,11.960333333333333,0.0,179.0783848169493,1.120046045297504,93.00893078357085,1553.0,1435.0,1000.0,1330.0,1471.0,1011.0,94.0,292.63,1649152179.866891,1649152180.987889,450c0c0d-421e-4af2-913d-f7a22441b0e9
0.3277488374079362,0.3485369247437446,0.926422072718974,-0.1994086939137181,0.5831753889998516,-0.0668040830601723,0.6081447607611693,0.5780473979021068,-3.67412324261454,27.94212684110967,18.52782618178768,0.5321648151572993,1.252773839500387,-2.870470720042961,-1.0,11.961777777777778,0.0,179.07073955853832,1.1159834108336852,92.9897265683545,1553.0,1435.0,1000.0,1330.0,1471.0,1011.0,94.0,292.63,1649152181.0966022,1649152182.2549598,450c0c0d-421e-4af2-913d-f7a22441b0e9
0.3717575205694205,0.3644336973436951,1.078631370400058,-0.160975051324176,0.7218415261471073,-0.1296417058400396,0.7482309569780202,0.7336096082207765,-2.54445535237853,28.518973830963954,17.95311245945819,0.3161434337478163,1.3144216002585427,-3.464266760976419,-1.0,11.965,0.0,179.0624249415887,1.1034981689119538,92.93652622490926,1553.0,1435.0,1000.0,1210.0,1471.0,1011.0,94.0,292.63,1649152183.336274,1649152184.4775913,a779c2e9-1a51-4057-989e-70b807c505f4
0.3686544285006444,0.3642627643040266,1.077750407834969,-0.15713563170863,0.7224726635113627,-0.1297074493225714,0.7453119466993193,0.7227487861265617,-2.799301747833234,28.56406868616122,18.40846869541994,0.3075342857965725,1.3110206284575605,-3.4593110019385,-1.0,11.958666666666666,0.0,179.06225646358914,1.1159874899744395,92.93935392322564,1553.0,1435.0,1000.0,1210.0,1471.0,1011.0,94.0,292.63,1649152184.5906746,1649152185.6973484,a779c2e9-1a51-4057-989e-70b807c505f4
0.3693726759756454,0.3656061226726886,1.0728826511581722,-0.1671626091214999,0.7165393149014316,-0.1227857560078371,0.7427134358510102,0.7229766968315312,-2.766057384150514,28.510827192267385,18.2387988725828,0.3451010212297511,1.318252565799401,-3.4410141281008744,-1.0,11.954555555555554,0.0,179.05235572493226,1.1077392539258066,92.94157752925544,1553.0,1435.0,1000.0,1210.0,1471.0,1011.0,94.0,292.63,1649152185.8061495,1649152186.932958,a779c2e9-1a51-4057-989e-70b807c505f4
0.3867864792429977,0.3625928800043454,1.1453347035559147,-0.100267516649753,0.7867697820361953,-0.1886793567723172,0.7950008651225333,0.773568492266345,-2.4322586864506053,29.317056334502205,17.677789214043784,0.0551611793010367,1.305931272279076,-3.710543617054823,-1.0,11.94788888888889,0.0,179.03193649495356,1.080166539156373,92.8873807371013,1553.0,1435.0,1000.0,1071.0,1471.0,1011.0,94.0,292.63,1649152188.0423648,1649152189.1871336,2c737c02-120a-4e9e-b1f4-f76992f51c93
0.3782924221240421,0.3678786555025706,1.1485561340428092,-0.1106944334220127,0.7879794619804631,-0.1841430561985817,0.8006285066037278,0.7774736546729506,-2.311101104540154,29.207338160847588,17.728695199211614,0.0883775950673299,1.3259335794778264,-3.723845259210815,-1.0,11.94477777777778,0.0,179.04250659214912,1.0886275308544648,92.86450871030064,1553.0,1435.0,1000.0,1071.0,1471.0,1011.0,94.0,292.63,1649152189.2963502,1649152190.408582,2c737c02-120a-4e9e-b1f4-f76992f51c93
0.3797387785963113,0.3675762355103447,1.146439194034952,-0.1030287430211703,0.7857441838324388,-0.1913353936341847,0.7954084746726855,0.7743179678777027,-2.3076449191273407,29.33480399782756,17.63785304309264,0.0556503690187309,1.324504138808635,-3.710630295650578,-1.0,11.943,0.0,179.03177105259363,1.0939772528059426,92.84428831471776,1553.0,1435.0,1000.0,1071.0,1471.0,1011.0,94.0,292.63,1649152190.5167887,1649152191.6375737,2c737c02-120a-4e9e-b1f4-f76992f51c93
0.1444888924683129,0.2637722162472767,0.3556487253031799,-0.2079783575152776,0.0647064399639521,0.0551599386512405,0.0387377648660553,0.0118377233443294,-7.625340275641342,27.79972148307808,18.570255869642864,0.7942184154736852,0.9273130429590108,-0.588532699944347,-1.0,11.952666666666667,0.0,179.1091358464125,1.1409346491962054,92.8826800491325,1553.0,1435.0,1000.0,1613.0,1471.0,1011.0,94.0,292.63,1649152193.368102,1649152194.505832,2227a060-eadf-48f7-8b52-2012634ac531
0.1529533654394605,0.2675250730882903,0.3567307533560082,-0.2077455159866128,0.0638572533455888,0.0519549439402894,0.0375050745970236,0.0189873269229432,-7.600990553792111,27.92302610372332,18.665604241418816,0.7873898660908223,0.9404131444703712,-0.5865388721688728,-1.0,11.990444444444446,0.0,179.11231112546662,1.1434129287898949,92.89025245219231,1553.0,1435.0,1000.0,1613.0,1471.0,1011.0,94.0,292.63,1649152194.615016,1649152195.7347307,2227a060-eadf-48f7-8b52-2012634ac531
0.1519398201313001,0.2672785350504408,0.3610451689900339,-0.205211652415041,0.0675416275792964,0.0483390524590625,0.0420386355015307,0.0253014405456858,-7.435789075487594,27.920949397029272,18.482250411818423,0.7738036926241186,0.9399057847335692,-0.6040428079454824,-1.0,11.991111111111111,0.0,179.11408545683102,1.1409059173414156,92.8874202004165,1553.0,1435.0,1000.0,1613.0,1471.0,1011.0,94.0,292.63,1649152195.843249,1649152196.9614248,2227a060-eadf-48f7-8b52-2012634ac531
0.1073635494114915,0.2448989073898652,0.2169184831261125,-0.1677334817454865,-0.0611895894940285,0.0434740348435119,-0.1143103250231064,-0.1281559035774671,-8.456618180158772,28.21453657091952,18.4245505412296,0.6725763986807526,0.8499588949629842,-0.0129331823349675,-1.0,11.989777777777778,0.0,179.14244743790454,1.1441508975274062,92.87407628750802,1553.0,1435.0,1000.0,1694.0,1471.0,1011.0,94.0,292.63,1649152198.8974257,1649152200.0344455,7e3c82e0-a3c0-4ca7-821e-45321664680e
0.104714087172676,0.2486512163847901,0.2186831476559298,-0.1715181151425681,-0.0604938042865437,0.0443670504690441,-0.1131022884774722,-0.1358933636004628,-8.502527211555211,28.22666699600241,18.590176624098508,0.683291904616075,0.8634673735461452,-0.0173889226825301,-1.0,11.991111111111111,0.0,179.13376702637936,1.152723199964628,92.8086734316556,1553.0,1435.0,1000.0,1694.0,1471.0,1011.0,94.0,292.63,1649152200.142996,1649152201.2638786,7e3c82e0-a3c0-4ca7-821e-45321664680e
0.0974099865285625,0.2436103352262481,0.21710256486975,-0.1737161390459063,-0.0618338756303674,0.0488912976933657,-0.111904113459168,-0.133862437876964,-8.375122288492328,28.20221297568169,18.241810045460667,0.6981844852440798,0.846916836387559,-0.0161365609251401,-1.0,11.990555555555556,0.0,179.11845829571965,1.1452917051303406,92.81554460196064,1553.0,1435.0,1000.0,1694.0,1471.0,1011.0,94.0,292.63,1649152201.3727045,1649152202.4887464,7e3c82e0-a3c0-4ca7-821e-45321664680e
0.0563789323103214,0.2275311241004731,0.0816627793790305,-0.1364549224251175,-0.1836258740015558,0.0382994749732754,-0.2643397026021769,-0.2877471251435212,-9.622435595956334,28.663200126028528,18.26684126690152,0.5860191365023348,0.7820503490162186,0.5487586332881117,-1.0,11.989333333333336,0.0,179.1475260630074,1.1547384377928662,92.82644330714623,1553.0,1435.0,1000.0,1774.0,1471.0,1011.0,94.0,292.63,1649152204.3369758,1649152205.377705,67081d13-87b5-4e05-8b35-73ad8efa1355
0.0600770031323546,0.2277913587034412,0.0868263819411885,-0.132674671992938,-0.1782979122037535,0.0341905073604187,-0.259217189030049,-0.276228317517221,-9.531811896709206,28.621904555049525,18.253443809906884,0.568285260464176,0.7823649308386457,0.5272958920367851,-1.0,11.978777777777776,0.0,179.1376207708911,1.1375125584104866,92.8221349755998,1553.0,1435.0,1000.0,1774.0,1471.0,1011.0,94.0,292.63,1649152205.486915,1649152206.5899124,67081d13-87b5-4e05-8b35-73ad8efa1355
0.0617616798380719,0.2305032771732076,0.0804711787688843,-0.1351537492483883,-0.1856392683270008,0.035354714868584,-0.2660654692637919,-0.2958554886269566,-9.515398651251047,28.65222631350454,18.420776606113083,0.5764130768298307,0.7908398943818383,0.5562498651818663,-1.0,11.979666666666668,0.0,179.1367647205151,1.1392356752140662,92.82278080793132,1553.0,1435.0,1000.0,1774.0,1471.0,1011.0,94.0,292.63,1649152206.6992528,1649152207.823038,67081d13-87b5-4e05-8b35-73ad8efa1355
0.014612646304033052,0.20525559008913447,-0.03760082761928666,-0.09559972919522805,-0.2900821140458497,0.026946123567866697,-0.39790144157328683,-0.42560575037605786,-10.544577083823908,29.154692075814975,17.92406334632135,0.46514813842431324,0.6954857857898298,1.042821592196572,-1.0,11.973666666666666,0.0,179.15565398811975,1.1464300937079441,92.82879516895046,1553.0,1435.0,1000.0,1856.0,1471.0,1011.0,94.0,292.63,1649152209.9576502,1649152211.0956695,643cd7eb-e135-4dfb-a5ec-42c027f5837a
0.02993087762355912,0.2131316587948269,-0.03205207760511308,-0.10164812978990227,-0.28619009937330353,0.024000815584671313,-0.391050969432362,-0.41523142694975335,-10.367455577677177,28.96858779495376,17.859728491691282,0.4712948340472712,0.7254357002896994,1.021212837298607,-1.0,11.964333333333334,0.0,179.15306762315402,1.1396220789367992,92.79863608921534,1553.0,1435.0,1000.0,1856.0,1471.0,1011.0,94.0,292.63,1649152211.2042754,1649152212.3305748,643cd7eb-e135-4dfb-a5ec-42c027f5837a
0.027958573169906444,0.20943687531087968,-0.03414272037344776,-0.09908413392299853,-0.28724199522367444,0.027090759189495016,-0.39345718131796203,-0.41776912584349113,-10.485735622741672,29.04469991876806,18.10223735715483,0.4728341779758767,0.7098188953788491,1.0287247623628955,-1.0,11.966888888888889,0.0,179.16553651293881,1.1307406392918307,92.7605790340699,1553.0,1435.0,1000.0,1856.0,1471.0,1011.0,94.0,292.63,1649152212.4438522,1649152213.4850757,643cd7eb-e135-4dfb-a5ec-42c027f5837a
