raw_voltage_G-,raw_voltage_G0,raw_voltage_G1,raw_voltage_G2,raw_voltage_G3,raw_voltage_G4,raw_voltage_G5,raw_voltage_G6,load_x,load_y,load_z,load_l,load_m,load_n,rpm,voltage,current,roll,pitch,yaw,aileron1_pwm,elevator_pwm,throttle_pwm,rudder_pwm,aileron2_pwm,pbaro,pdiff,Tt,sample_start_time,sample_end_time,uid
0.058621332906047,0.2011006022480815,0.1847830708529131,-0.1466692686638339,-0.0612421842657215,0.0608697599902764,-0.1610670921751583,-0.1836565544651393,-12.5615569363558,28.33980591916075,17.271596697778378,0.6611313993783682,0.7203324249786407,0.087851090334856,-1.0,11.992222222222225,0.0,179.2074738744427,1.1094800153847426,94.98095514329546,1553.0,1435.0,1000.0,1528.0,1471.0,1011.0,94.0,292.63,1649151002.432986,1649151003.5733166,988a9b11-1d34-41e1-bc11-d78513fa3d8e
0.0585818868165268,0.1987864318068763,0.1781298307946813,-0.1438291500828232,-0.0666331499508255,0.0614614513045842,-0.1690220540670013,-0.1915326242059756,-12.720733759892216,28.40096850867489,17.34897862903034,0.656060773907639,0.7113232370906212,0.1153066593130407,-1.0,11.991555555555555,0.0,179.22545700361746,1.1197852767384109,94.7971926982258,1553.0,1435.0,1000.0,1528.0,1471.0,1011.0,94.0,292.63,1649151003.6819756,1649151004.743369,988a9b11-1d34-41e1-bc11-d78513fa3d8e
0.0658399671076332,0.1981026996263025,0.1806149342936991,-0.1423301985697845,-0.0643584254062571,0.0612379234916788,-0.1658400693090871,-0.1834067291695954,-12.618584260067546,28.39305020487252,17.439499423416116,0.6523143088629493,0.7072064081489736,0.1044232326297101,-1.0,11.992222222222225,0.0,179.23476731036607,1.1179795099026866,94.65072460384422,1553.0,1435.0,1000.0,1528.0,1471.0,1011.0,94.0,292.63,1649151004.8520584,1649151006.036477,988a9b11-1d34-41e1-bc11-d78513fa3d8e
0.2690179978520516,0.5648499432223762,0.2109445924098487,-0.275461309625223,-0.116992111338074,-0.1753668484072078,-0.2305639850170609,-0.2495337212274416,-12.300487617014635,27.7932220152036,17.334131035089975,0.4186201700209026,2.099717874823483,0.2704517868072879,-1.0,11.967555555555556,0.0,179.08475966017463,1.1172174339176362,94.47541110277788,1663.0,1435.0,1000.0,1528.0,1555.0,1011.0,94.0,292.63,1649151006.937249,1649151008.082463,2712d4fb-bd7f-4754-9b17-6a47c2918a80
0.2639639680161031,0.5630283011037186,0.2079450462150281,-0.2764337654225191,-0.119293133319109,-0.1728740745354242,-0.2347140427404022,-0.2632713713073004,-12.513625760967791,27.87427950170991,17.280131385122715,0.4266874741041189,2.094803695822688,0.2830959441689498,-1.0,11.969666666666669,0.0,179.11100580042526,1.120594416995711,94.40046571374506,1663.0,1435.0,1000.0,1528.0,1555.0,1011.0,94.0,292.63,1649151008.212905,1649151009.3056457,2712d4fb-bd7f-4754-9b17-6a47c2918a80
0.2579511791146243,0.5600835412864112,0.2129305933179688,-0.2733383427411703,-0.1135816680385111,-0.1722988190112475,-0.2287012528456637,-0.2491913074179602,-12.466905491283535,27.85689924525055,17.399171390914663,0.4211731594901029,2.082307982514723,0.2598384667734996,-1.0,11.970333333333334,0.0,179.10279287740326,1.1374854985290872,94.3608536521986,1663.0,1435.0,1000.0,1528.0,1555.0,1011.0,94.0,292.63,1649151009.4146557,1649151010.5386226,2712d4fb-bd7f-4754-9b17-6a47c2918a80
0.4732062781200056,0.949079466040598,0.2525684319278405,-0.4173713774435502,-0.1656148978588958,-0.4205215865926678,-0.2906370986270003,-0.3170029787099831,-11.980908941475027,27.48470171207752,17.35701464680807,0.1880309710578883,3.558453142764813,0.4111011365573002,-1.0,11.941666666666668,0.0,178.81558645844385,1.1372154688975256,94.27772949108964,1779.0,1435.0,1000.0,1528.0,1638.0,1011.0,94.0,292.63,1649151012.468392,1649151013.6065755,0b01c564-46ee-4184-b7aa-beeac8db98f5
0.4714942084445212,0.9448472297551458,0.2446792145969085,-0.4136322161664407,-0.171668777271789,-0.4201517794102399,-0.2995535595522388,-0.3297955660078333,-12.141170015550289,27.53670609254515,17.245145320231043,0.18028075444095,3.5437458438841247,0.4420252357957162,-1.0,11.943333333333332,0.0,178.823131540747,1.1464654541664596,94.29755145897091,1779.0,1435.0,1000.0,1528.0,1638.0,1011.0,94.0,292.63,1649151013.715453,1649151014.8342984,0b01c564-46ee-4184-b7aa-beeac8db98f5
0.4754481306347916,0.9433049973772358,0.2462006282500703,-0.4128383634432812,-0.1704684107593893,-0.4194258616429556,-0.2968142474283424,-0.3179310570924764,-12.003638913282714,27.530813194991413,17.253177856659555,0.1802284529412212,3.536915540608593,0.4343465189819311,-1.0,11.946333333333332,0.0,178.80689390436018,1.139839115312457,94.2917154417801,1779.0,1435.0,1000.0,1528.0,1638.0,1011.0,94.0,292.63,1649151014.943455,1649151016.060291,0b01c564-46ee-4184-b7aa-beeac8db98f5
0.5674933787606136,1.0947286610289026,0.287754888904892,-0.5078645616089705,-0.1776541739556811,-0.5038240756754463,-0.2968416406771766,-0.3212352154495526,-11.79685587870405,28.188674358217806,14.060504245109144,0.2109555430538357,4.146024604671299,0.4003904645764309,-1.0,11.890333333333334,0.0,178.50673896455424,1.1621461218287972,94.33536793967556,1904.0,1435.0,1000.0,1528.0,1723.0,1011.0,94.0,292.63,1649151016.973231,1649151018.1145215,435d0f46-a5d0-4341-acec-a1dd0cc95d9e
0.5576318575116938,1.0965229101487393,0.2914118698422265,-0.5067277470690991,-0.1751340068951682,-0.5053443942100478,-0.2933216245442984,-0.3173316955698829,-11.675101024265771,28.213323354351587,14.269673524067562,0.2054149347240347,4.150130801713907,0.3875584019559994,-1.0,11.890333333333334,0.0,178.54000198581218,1.1488157981508518,94.30010063735116,1904.0,1435.0,1000.0,1528.0,1723.0,1011.0,94.0,292.63,1649151018.2227776,1649151019.3411863,435d0f46-a5d0-4341-acec-a1dd0cc95d9e
0.5638073612651799,1.1020886433946795,0.290485434676893,-0.5102570770823096,-0.1771479490649387,-0.5084031104522154,-0.2951575115373435,-0.3199822540689813,-11.667542565149038,28.165331485377703,14.138078767160296,0.2061214483271967,4.172493500524677,0.3946600975725088,-1.0,11.886,0.0,178.53392767091034,1.151400740160486,94.323127481773,1904.0,1435.0,1000.0,1528.0,1723.0,1011.0,94.0,292.63,1649151019.4499168,1649151020.5721004,435d0f46-a5d0-4341-acec-a1dd0cc95d9e
0.6206228722877031,1.187371084205065,0.320898367139193,-0.5272714946623703,-0.1747022913480415,-0.5685321153130839,-0.2984841321527045,-0.3211261910964587,-11.595817973821656,29.134470715531528,15.333501484379315,0.11754946702064,4.485291147137982,0.3661176920736108,-1.0,11.796,0.0,178.45840854598725,1.141955454169972,94.3669203780014,2045.0,1435.0,1000.0,1528.0,1813.0,1011.0,94.0,292.63,1649151021.479988,1649151022.6170397,8c64697a-f57a-41d3-a599-d243a308f5ec
0.6148111491049312,1.1788244318513426,0.3210167053946298,-0.5226957473226611,-0.170954912597471,-0.5662573904782089,-0.2959069873758033,-0.3256493431653432,-11.66780266456398,29.01104129541212,15.07779803960945,0.1114499805655403,4.45545382391077,0.3558286583321732,-1.0,11.800777777777776,0.0,178.47708228317802,1.146172704669534,94.2967500501083,2045.0,1435.0,1000.0,1528.0,1813.0,1011.0,94.0,292.63,1649151022.7257922,1649151023.850875,8c64697a-f57a-41d3-a599-d243a308f5ec
0.6129834805082742,1.1865953111437488,0.3200699993309932,-0.5338852906556433,-0.175215090546861,-0.5636013526743868,-0.2960384742766786,-0.3162085774289873,-11.527988533166656,28.98457371239413,15.06844202004472,0.1425056114783022,4.485009905321785,0.3640464571798744,-1.0,11.802,0.0,178.50418902726412,1.1312483737360697,94.24219201683806,2045.0,1435.0,1000.0,1528.0,1813.0,1011.0,94.0,292.63,1649151023.9588168,1649151025.0824325,8c64697a-f57a-41d3-a599-d243a308f5ec
-0.1900084709396042,-0.2615456042611436,0.1586100440056766,0.0309033333245313,0.01189250979498,0.350252281617105,-0.0740944875414144,-0.1062403124720914,-12.794953906516549,29.692383890978416,17.431699451458517,0.9184234759127636,-1.038138475820251,-0.1548305456800432,-1.0,11.982,0.0,179.36833545413523,1.1351160395013928,94.17176138284664,1444.0,1435.0,1000.0,1528.0,1381.0,1011.0,94.0,292.63,1649151025.9857452,1649151027.1224868,afe56939-8294-4b70-acee-ec4196c3563b
-0.1902960987256613,-0.2634220330332906,0.1589524579638276,0.0294241049823316,0.0123034065610437,0.3531285587110382,-0.0733685698955947,-0.0870925225377874,-12.841800502078476,29.73046016028117,17.38950981340355,0.9284627867799516,-1.0442662525522663,-0.157238412910774,-1.0,11.979666666666668,0.0,179.39129399666535,1.1579295472333722,94.21781279496058,1444.0,1435.0,1000.0,1528.0,1381.0,1011.0,94.0,292.63,1649151027.231377,1649151028.35442,afe56939-8294-4b70-acee-ec4196c3563b
-0.1868034759651615,-0.2599020170196777,0.1578430367540658,0.0232058673179549,0.0095914879256267,0.3551830423487989,-0.0728891903242713,-0.0968581696065429,-12.6897453170711,29.66354688282785,17.35546493711439,0.9466786023142024,-1.0311443907324649,-0.1522577716137221,-1.0,11.98,0.0,179.39661243729907,1.1631777294107826,94.23246355073024,1444.0,1435.0,1000.0,1528.0,1381.0,1011.0,94.0,292.63,1649151028.463073,1649151029.5870368,afe56939-8294-4b70-acee-ec4196c3563b
-0.4252112893088713,-0.6829126627031785,0.1360277066951563,0.2011531970276777,0.0780551059013258,0.6094596302621498,0.0040936892122378,-0.0137622408970745,-12.827355519601412,31.127433474662013,18.071000533939355,1.1253292827668653,-2.646326577227282,-0.3746901290256405,-1.0,11.94188888888889,0.0,179.51580227395542,1.1674861676789507,94.2256485397584,1331.0,1435.0,1000.0,1528.0,1283.0,1011.0,94.0,292.63,1649151030.4941924,1649151031.6291978,326b3959-4040-4534-92db-03c78250ff06
-0.4083042539331442,-0.6743051941892233,0.138845910516333,0.1966316892865672,0.0786769296500655,0.6052684837382398,0.0040717747155755,-0.0227597843963458,-12.9109881143928,31.169890190400395,18.092931286787373,1.12649380640913,-2.612909704251737,-0.378390516243061,-1.0,11.940555555555555,0.0,179.52816643417293,1.173892707250913,94.143400160683,1331.0,1435.0,1000.0,1528.0,1283.0,1011.0,94.0,292.63,1649151031.7381537,1649151032.8556087,326b3959-4040-4534-92db-03c78250ff06
-0.4065006907365276,-0.6683701992126119,0.1367377362736179,0.19890477004434,0.0758987197307568,0.5993219864356053,-0.0010605997997942,-0.0206521579351341,-12.974936295211556,31.196880482482864,18.343820309331896,1.108085471879367,-2.592833932378146,-0.3633892879868442,-1.0,11.93911111111111,0.0,179.5347643969112,1.1692394630093323,94.088749540404,1331.0,1435.0,1000.0,1528.0,1283.0,1011.0,94.0,292.63,1649151032.964199,1649151034.0867815,326b3959-4040-4534-92db-03c78250ff06
-0.5792236522741508,-0.9639327625394006,0.1223552542832258,0.3324330601308401,0.1193283149133928,0.7695449915820811,0.0461476030181509,0.02190469400913,-12.947739317620446,32.861255695403784,18.958796743043766,1.1998210990290077,-3.7243399960211954,-0.5045404956149243,-1.0,11.87188888888889,0.0,179.62852923383713,1.1854738147392314,93.94270112320145,1209.0,1435.0,1000.0,1528.0,1173.0,1011.0,94.0,292.63,1649151036.0214603,1649151037.0880668,58cd28bd-9c59-416b-a7a2-0de8766c96e8
-0.5764980362722939,-0.967041883211003,0.1128087531733435,0.3286391136475695,0.1116856354078392,0.7774205120312253,0.0377379160559936,0.0144263729365095,-13.175371545634532,32.82642894556395,19.081076796800385,1.2252753439079396,-3.735612400835823,-0.4695262551296917,-1.0,11.874000000000002,0.0,179.59519335722803,1.1783591766494093,93.74797318887428,1209.0,1435.0,1000.0,1528.0,1173.0,1011.0,94.0,292.63,1649151037.201666,1649151038.3874693,58cd28bd-9c59-416b-a7a2-0de8766c96e8
-0.5817849095839295,-0.9721780957867712,0.1047825699626336,0.3308716525535097,0.1046182112678583,0.7800639475991517,0.0299445741379655,0.0057564510479977,-13.20062999747491,32.89616316146789,18.972143590401355,1.226211982948767,-3.754514583308231,-0.4386653702867817,-1.0,11.875666666666667,0.0,179.62317891898726,1.1780560277151533,93.6054066503286,1209.0,1435.0,1000.0,1528.0,1173.0,1011.0,94.0,292.63,1649151038.4968064,1649151039.8239968,58cd28bd-9c59-416b-a7a2-0de8766c96e8
-0.6232444057711946,-1.0642053323467144,0.125546552418543,0.3949852385640106,0.1427631261528084,0.7996226314368832,0.0570774568184345,0.0291364770807209,-13.453259406816018,33.84937381485526,17.50204239172599,1.1325297613736585,-4.091416416937544,-0.5707696452024952,-1.0,11.732666666666669,0.0,179.62698105762527,1.161252683281897,93.39153976703716,1074.0,1435.0,1000.0,1528.0,1047.0,1011.0,94.0,292.63,1649151040.9344397,1649151042.0816472,68a7e9ed-98a5-4025-8a14-6ef3f6d9b6d6
-0.6291607732952598,-1.0688402511154127,0.121708776677786,0.3953857258953505,0.140511411893548,0.805204252490824,0.0549791439713259,0.0388325447310192,-13.50899492484953,33.822207417925426,17.680004629918166,1.1437981352847335,-4.11027603666352,-0.5598180094815295,-1.0,11.735666666666669,0.0,179.65357781425325,1.1630383864369338,93.08042465034308,1074.0,1435.0,1000.0,1528.0,1047.0,1011.0,94.0,292.63,1649151042.2145083,1649151043.303075,68a7e9ed-98a5-4025-8a14-6ef3f6d9b6d6
-0.6340520899677794,-1.06330464650705,0.1308208230457657,0.3933476780672524,0.1489528746993708,0.8007731422613983,0.0641174878815161,0.044420740796233,-13.460695288402446,33.695535405261,17.625916535356634,1.1380678613734745,-4.08855019111192,-0.5960859457208882,-1.0,11.747222222222222,0.0,179.6720557526879,1.1591789619588904,92.8318224605726,1074.0,1435.0,1000.0,1528.0,1047.0,1011.0,94.0,292.63,1649151043.4114935,1649151044.533437,68a7e9ed-98a5-4025-8a14-6ef3f6d9b6d6
0.0608851000672462,0.1946593849360516,0.1844417526244604,-0.1468780042289937,-0.0598911556718134,0.0650762470528325,-0.1613826609068434,-0.1892003743353525,-12.787338025954217,28.414292514746936,16.943039081862956,0.6713655526003944,0.7006892900441558,0.0854924129541851,-1.0,11.988444444444443,0.0,179.22947770830888,1.1443600127809015,92.47163850597124,1553.0,1435.0,1000.0,1528.0,1471.0,1011.0,94.0,292.63,1649151046.4686267,1649151047.6064763,adab13a6-91a8-461c-852f-bf632735f734
0.058721043838247,0.1966727789701285,0.1882083060930394,-0.1450974514836164,-0.0567957333101154,0.0642818466613128,-0.1586981352117767,-0.177599388062395,-12.797739018250128,28.47111284526396,17.367590164567755,0.6661905964501819,0.7045720908242736,0.0731473472434718,-1.0,11.990666666666666,0.0,179.2549937772282,1.1367314622458722,92.89622734989626,1553.0,1435.0,1000.0,1528.0,1471.0,1011.0,94.0,292.63,1649151047.7147372,1649151048.83181,adab13a6-91a8-461c-852f-bf632735f734
0.0600496100073088,0.1940156467077578,0.1809354337564824,-0.1408378214675434,-0.0626167709359494,0.0623232387914489,-0.1659299187296314,-0.1941859219658788,-12.780573291134052,28.43290224797228,17.221264527070833,0.651550533832204,0.6947954539749409,0.1008231982169457,-1.0,11.992333333333336,0.0,179.26685250344715,1.145757367506567,93.20315631953903,1553.0,1435.0,1000.0,1528.0,1471.0,1011.0,94.0,292.63,1649151048.940292,1649151050.060211,adab13a6-91a8-461c-852f-bf632735f734
0.0740748859621916,0.1922487907229122,0.1707999807611847,-0.4335333200316163,-0.1033366416040919,0.3464035489267639,-0.0952693681538894,-0.1145815174708751,-12.587680355416078,27.842665693259903,19.28204271533882,1.9461744257117684,0.7039233329380172,0.0699988174883255,-1.0,11.98088888888889,0.0,179.24854000737247,1.230363952398671,93.72837585832568,1553.0,1537.0,1000.0,1528.0,1471.0,1011.0,94.0,292.63,1649151052.0023985,1649151053.1364372,f41c8bba-bffe-4239-9856-957a510a6586
0.0807637372535532,0.1963144770140568,0.1738039098856142,-0.4373080923946634,-0.1005830853125211,0.346327943931949,-0.0918786479321077,-0.1146916374688012,-12.617694996483031,27.74257514667196,19.36940072236198,1.9540043728748315,0.7192638037764608,0.0579281758190261,-1.0,11.984,0.0,179.2581432533455,1.235031521064761,93.85994427448784,1553.0,1537.0,1000.0,1528.0,1471.0,1011.0,94.0,292.63,1649151053.244893,1649151054.365477,f41c8bba-bffe-4239-9856-957a510a6586
0.0765539630300322,0.1936595362022783,0.1762786040061358,-0.4372313916611987,-0.0982415215243118,0.3499646539090245,-0.086982949776605,-0.1109793224095092,-12.45522455754436,27.71415162934457,19.55436148218845,1.9620495953224504,0.7066638900322841,0.0444607500382817,-1.0,11.98488888888889,0.0,179.25993579854764,1.2352984794827897,93.97639824092666,1553.0,1537.0,1000.0,1528.0,1471.0,1011.0,94.0,292.63,1649151054.474643,1649151055.7954085,f41c8bba-bffe-4239-9856-957a510a6586
0.0929350469385096,0.1928103496032542,0.1623902940613508,-0.7760295766003266,-0.151288296429568,0.6813939489696484,-0.0125010614930334,-0.0358810881502815,-12.37008559901394,27.520181106365182,22.434508310074097,3.469585743380739,0.7181792364774982,0.0307253077366225,-1.0,11.972,0.0,179.25302820056706,1.3256262727262291,94.0721544574506,1553.0,1645.0,1000.0,1528.0,1471.0,1011.0,94.0,292.63,1649151056.3830185,1649151057.429948,b9077a0b-0e4a-4584-86d4-0560907d9016
0.0870093679196767,0.1884252595773217,0.1610628236461563,-0.7758082401082547,-0.1519418962563853,0.6815670734532613,-0.0119740179053786,-0.0254382834350032,-12.25286019182642,27.468902152869795,21.874541606113564,3.469039209124205,0.7057534854596912,0.0314592099277404,-1.0,11.972333333333331,0.0,179.2527458860814,1.3525323444315154,94.11611810840824,1553.0,1645.0,1000.0,1528.0,1471.0,1011.0,94.0,292.63,1649151057.5379326,1649151058.665911,b9077a0b-0e4a-4584-86d4-0560907d9016
0.0913873358410922,0.1919474664465291,0.165622681780949,-0.7709755442247307,-0.1483298395494962,0.6742854357545814,-0.0104191845371147,-0.0317447274934203,-12.25175742046794,27.553269726200284,21.98508452811869,3.442579528676335,0.7176718516374195,0.0187007352630167,-1.0,11.971555555555556,0.0,179.25667248594422,1.35280950070143,94.13766128396036,1553.0,1645.0,1000.0,1528.0,1471.0,1011.0,94.0,292.63,1649151058.7792385,1649151059.887719,b9077a0b-0e4a-4584-86d4-0560907d9016
0.0903096906425056,0.1833630117126285,0.1488082390991414,-0.9901846983534176,-0.1915720701484952,0.8952333677894115,0.028629156672192,0.0122853270414438,-12.267388949118743,27.7825313864842,23.58528922435076,4.4344909482021055,0.6973302702863369,0.0441127917533695,-1.0,11.957666666666666,0.0,179.25107628428427,1.432489040886787,94.20726091160282,1553.0,1761.0,1000.0,1528.0,1471.0,1011.0,94.0,292.63,1649151061.0051928,1649151062.144677,dc4210ed-cfd9-4e96-90e5-6e3ab56c1857
0.0993691422527034,0.185821817819682,0.1500573651892872,-0.9879099724824602,-0.1907437022469333,0.891052082729535,0.0284187775369581,0.0053296665923218,-12.25686932449619,27.79913312257171,23.63485936394752,4.420149268256536,0.7058378959607987,0.0419692815056413,-1.0,11.956444444444443,0.0,179.23999164617123,1.4226291885011813,94.19258890635572,1553.0,1761.0,1000.0,1528.0,1471.0,1011.0,94.0,292.63,1649151062.253579,1649151063.3742304,dc4210ed-cfd9-4e96-90e5-6e3ab56c1857
0.08754846445903,0.1815090456077152,0.149189551289014,-0.9828082751157688,-0.1904544308581027,0.8896846184348157,0.0279059783956014,0.0011878272695995,-12.209810829084525,27.8040670831003,23.50202814197592,4.405560224528244,0.689823530089849,0.0428547497002237,-1.0,11.954333333333333,0.0,179.25015952111568,1.4306308974094588,94.17126733249664,1553.0,1761.0,1000.0,1528.0,1471.0,1011.0,94.0,292.63,1649151063.4846487,1649151064.6064222,dc4210ed-cfd9-4e96-90e5-6e3ab56c1857
0.096468759025992,0.1926596874626458,0.1437218852334082,-0.9914765584560832,-0.2056773354391937,0.8890611511300412,0.0123034065366471,-0.0035572088680379,-12.319020519129175,28.62487614468336,23.741287457191564,4.428864888837335,0.7310321773706674,0.0944540950348991,-1.0,11.902666666666669,0.0,179.24777047272596,1.4384740534368472,94.09637203151776,1553.0,1887.0,1000.0,1528.0,1471.0,1011.0,94.0,292.63,1649151066.536646,1649151067.6862748,9d6f8cae-b378-46a2-af5d-2bb251499138
0.1083628503170955,0.1921857865511599,0.146060161644065,-1.0107361245307405,-0.2045892807350847,0.9094602561171794,0.0199115709602107,-0.0078190305429589,-12.428891194590392,28.57419277808779,24.09328204430533,4.517930512187033,0.7294313188237883,0.0791666037966671,-1.0,11.90788888888889,0.0,179.25232696781228,1.421318598522316,93.99725308519244,1553.0,1887.0,1000.0,1528.0,1471.0,1011.0,94.0,292.63,1649151067.7940838,1649151068.9030783,9d6f8cae-b378-46a2-af5d-2bb251499138
0.0965920280447597,0.1912489419776471,0.1311758378735409,-0.9947500382271892,-0.2176070392133003,0.8932796908606978,-0.0006946278029887,-0.0217462394433882,-12.48095980624406,28.67244985759137,23.617988353491587,4.445318171027372,0.7275884771274429,0.1458047795847238,-1.0,11.908666666666669,0.0,179.2469265649085,1.4233668489315423,93.92698106337173,1553.0,1887.0,1000.0,1528.0,1471.0,1011.0,94.0,292.63,1649151069.0107348,1649151070.2802992,9d6f8cae-b378-46a2-af5d-2bb251499138
0.0382035990378686,0.192988404856111,0.206643873203622,0.2178339610770442,-0.0043926986322848,-0.2836381562018393,-0.242069095565274,-0.2632713711786791,-12.898804296969892,29.669926228707595,14.642015887107524,-0.9259367521259924,0.6721298817546435,0.0936748277677927,-1.0,11.990111111111112,0.0,179.25247267851455,1.0607087768830183,93.84087362741528,1553.0,1335.0,1000.0,1528.0,1471.0,1011.0,94.0,292.63,1649151072.4798224,1649151073.6138432,0ea60d3f-0364-4771-9558-7ceaf0a87f1e
0.0437370087148137,0.1857297769481207,0.2016659961622944,0.22380839964883,-0.00688547234542,-0.2813250810900591,-0.248650566682005,-0.280207442577551,-13.177944492509058,29.807412696489823,14.697164211523182,-0.9336840049153498,0.6453437009210495,0.1122263176854012,-1.0,11.990333333333334,0.0,179.27362805110383,1.045116628946643,94.09092609401952,1553.0,1335.0,1000.0,1528.0,1471.0,1011.0,94.0,292.63,1649151073.722224,1649151074.8419602,0ea60d3f-0364-4771-9558-7ceaf0a87f1e
0.0357557500858148,0.1978528744123157,0.2084507231368711,0.2122638448752879,-0.004755383506131,-0.2834157240506049,-0.2407350505931649,-0.2614705474020029,-12.853665807994972,29.70139415782108,14.633531484789223,-0.9125521570469062,0.6909311969316816,0.090352933461008,-1.0,11.990111111111112,0.0,179.2694419040525,1.0530208179317708,94.30826802577867,1553.0,1335.0,1000.0,1528.0,1471.0,1011.0,94.0,292.63,1649151074.9504912,1649151076.277114,0ea60d3f-0364-4771-9558-7ceaf0a87f1e
0.0305335261693795,0.2019185606894928,0.2266545443893828,0.5348681792970736,0.0425317116191371,-0.5968511285081445,-0.3199477383886045,-0.344861783462176,-13.413056193410087,31.01163837049103,12.62650451786611,-2.335609020011072,0.6893841968972777,0.1134752727099696,-1.0,11.978555555555554,0.0,179.26026668326742,0.9606893483782192,94.62012459745266,1553.0,1236.0,1000.0,1528.0,1471.0,1011.0,94.0,292.63,1649151077.8828056,1649151078.9335482,b7b586ea-79e4-40fb-900e-f0daa225487b
0.0278665322838231,0.2004563161589265,0.2313426022409342,0.5329999688779126,0.046550829790237,-0.5968807131004671,-0.3131054844990097,-0.3335780081240619,-13.210004461996016,30.95347532137672,12.218320203280737,-2.331576267316414,0.686606696065249,0.0912656877116088,-1.0,11.973333333333333,0.0,179.26584163545002,0.957990498734614,94.75314101371885,1553.0,1236.0,1000.0,1528.0,1471.0,1011.0,94.0,292.63,1649151079.04165,1649151080.1739302,b7b586ea-79e4-40fb-900e-f0daa225487b
0.031149871304033,0.1960838269767826,0.2276817862421118,0.5348544827402913,0.0439150640513058,-0.5919477589669552,-0.3171673365419359,-0.343053837049073,-13.369447581661989,31.065542677700893,12.522885301643589,-2.324145675953491,0.6681778436285307,0.1053882571461021,-1.0,11.974,0.0,179.26278171070183,0.9509794044153344,94.86933315623946,1553.0,1236.0,1000.0,1528.0,1471.0,1011.0,94.0,292.63,1649151080.2871113,1649151081.3934186,b7b586ea-79e4-40fb-900e-f0daa225487b
0.0138894680215337,0.2001933422424462,0.2349584935040715,0.7043406131503092,0.062500198290151,-0.7600429466831096,-0.364385408499209,-0.3858572335306567,-13.512448372668985,32.07155446319457,11.221445202865151,-3.0774453279767084,0.6757487750566433,0.1370190187043495,-1.0,11.955999999999998,0.0,179.2607979202029,0.8953469088692477,95.02499316742406,1553.0,1133.0,1000.0,1528.0,1471.0,1011.0,94.0,292.63,1649151082.51373,1649151083.6482875,4ab5f698-8809-4499-b9a6-9a667f2975b1
0.0073940120185928,0.2001144500648594,0.2401390795759157,0.7228276782921965,0.0691008437939663,-0.7788324420946179,-0.3650559920771139,-0.3866461557226821,-13.55298970669879,32.17192596415048,10.975946674029714,-3.160506330538241,0.6759696406396963,0.121658510428274,-1.0,11.950444444444445,0.0,179.26587047402649,0.8851712432403,95.09291105071084,1553.0,1133.0,1000.0,1528.0,1471.0,1011.0,94.0,292.63,1649151083.756613,1649151084.8785746,4ab5f698-8809-4499-b9a6-9a667f2975b1
0.0029103064879191,0.194710336128809,0.2305273830868226,0.7124139118640048,0.059436552076756,-0.7622782260936785,-0.3698026723214622,-0.3915637689184087,-13.517611388766053,32.16060997651209,11.157864980222776,-3.10032269714444,0.6545108266373483,0.1542224444494973,-1.0,11.957333333333333,0.0,179.26235672115348,0.8656535923030511,95.16474339130195,1553.0,1133.0,1000.0,1528.0,1471.0,1011.0,94.0,292.63,1649151084.9872425,1649151086.113802,4ab5f698-8809-4499-b9a6-9a667f2975b1
0.0041539539793493,0.19333081879744,0.2382555289274079,0.8248106004652006,0.0708424981600323,-0.8703578221548419,-0.4023462496078697,-0.4173302883295184,-13.68553826266354,33.37628520486868,10.205903788322695,-3.588523982852937,0.6456346532553893,0.1733474946013015,-1.0,11.933,0.0,179.2534926534306,0.8204561969236832,95.27424043061616,1553.0,1026.0,1000.0,1528.0,1471.0,1011.0,94.0,292.63,1649151087.8998687,1649151088.9719737,2e37d87d-383f-4bb2-b0be-87d69cf7b45b
0.0122897099502735,0.2099995299088448,0.2407346058760044,0.8302755268337118,0.0714040570164684,-0.8892864760152882,-0.4059621418447667,-0.4213022910271167,-13.668651599955645,33.29824935025707,10.54848036854074,-3.643717489068848,0.7044796745951715,0.1769434798874307,-1.0,11.936,0.0,179.25889760979382,0.8298092042125983,95.28989750092356,1553.0,1026.0,1000.0,1528.0,1471.0,1011.0,94.0,292.63,1649151089.0811024,1649151090.2072592,2e37d87d-383f-4bb2-b0be-87d69cf7b45b
0.0134676139721036,0.2058631693963664,0.2472541674546494,0.8566687930020557,0.0796493852528666,-0.9094889113390896,-0.4069893839159828,-0.4234937408446386,-13.726161187259027,33.5678869390787,10.573588371790072,-3.746564656510051,0.6863186172400303,0.1579041875921484,-1.0,11.932777777777778,0.0,179.24357521875578,0.8253955798454151,95.31903357010304,1553.0,1026.0,1000.0,1528.0,1471.0,1011.0,94.0,292.63,1649151090.3154562,1649151091.4274092,2e37d87d-383f-4bb2-b0be-87d69cf7b45b
0.0708759177625486,0.1941449422201034,0.1884910030439796,-0.1462616590551522,-0.0566664378034051,0.0694821560073858,-0.1566885759854752,-0.190691108092377,-12.733684529993722,28.49055442004657,17.610455565587372,0.6807164674725914,0.6926468843229524,0.0697879903782446,-1.0,11.990666666666666,0.0,179.25002747079168,1.0869601820711392,95.34782433527442,1553.0,1435.0,1000.0,1528.0,1471.0,1011.0,94.0,292.63,1649151093.5394173,1649151094.4758656,c94f5462-446b-43a1-9159-6965a16c281b
0.0675416275345414,0.2036991132343403,0.1961249166400817,-0.1519868209673244,-0.0536044350433562,0.0649803711458324,-0.1504938959846707,-0.1829547429685515,-12.504655553618202,28.56357777853346,17.6029846017034,0.684493213437675,0.7281161165015405,0.0476171780904838,-1.0,11.989666666666668,0.0,179.2456242755068,1.0924600851785864,95.3442885740141,1553.0,1435.0,1000.0,1528.0,1471.0,1011.0,94.0,292.63,1649151094.583989,1649151095.534581,c94f5462-446b-43a1-9159-6965a16c281b
0.0727874094576552,0.20087762228433,0.1937006258666856,-0.15023366132932,-0.054001635261012,0.067048551492024,-0.1515896207536208,-0.1720933710895988,-12.566221908028448,28.465422335018275,17.72137060441703,0.6844024748958523,0.7165491061174624,0.0528610071038336,-1.0,11.991,0.0,179.23710019942257,1.0975568648293947,95.35769623535482,1553.0,1435.0,1000.0,1528.0,1471.0,1011.0,94.0,292.63,1649151095.647074,1649151096.764095,c94f5462-446b-43a1-9159-6965a16c281b
0.1172053483906119,0.2237919637854351,0.3407742637444557,-0.1665736570382474,0.0768963770493339,0.0507633433579865,-0.0003659103440644,-0.0184727615089075,-11.475102321694452,28.483967902639503,17.60155537988218,0.6926428334231534,0.8071668637851394,-0.5379989045389745,-1.0,11.99177777777778,0.0,179.22925155315636,1.112642333680622,95.2882825406398,1553.0,1435.0,1000.0,1435.0,1471.0,1011.0,94.0,292.63,1649151099.1000926,1649151100.239262,83872374-c54a-4699-bf0b-329a6434a745
0.1111240764910153,0.2256683922267363,0.3375007864736286,-0.1673817540741164,0.0734037546371989,0.0500100326291343,-0.0027765046983578,-0.0342511973782868,-11.36245761805597,28.40133482492998,17.628542548619624,0.6921231349759621,0.8130587248174507,-0.5249768290849962,-1.0,11.992333333333336,0.0,179.2303200983065,1.113050010596707,95.27672358383442,1553.0,1435.0,1000.0,1435.0,1471.0,1011.0,94.0,292.63,1649151100.3481493,1649151101.4674222,83872374-c54a-4699-bf0b-329a6434a745
0.1186982732511617,0.2202856449499163,0.3375966623756516,-0.165436842593482,0.074814500162326,0.0542422692283344,-0.0029682565220684,-0.0251566821211062,-11.545091936599258,28.50364807576486,17.734334966231796,0.6978542432573566,0.7929935080825768,-0.5274107519180539,-1.0,11.988888888888887,0.0,179.22219672665364,1.10779044477068,95.2907899789751,1553.0,1435.0,1000.0,1435.0,1471.0,1011.0,94.0,292.63,1649151101.5758102,1649151102.615043,83872374-c54a-4699-bf0b-329a6434a745
0.1862162786696433,0.2492379769227961,0.5370892130293968,-0.1760566071656678,0.2545106038345375,0.0235932059931499,0.2006272491983167,0.1831394836826521,-10.052431947003427,28.48391953848824,17.564224214187313,0.6634641575416973,0.906479312376094,-1.3297481229803407,-1.0,11.973666666666666,0.0,179.212985078193,1.1152302283241162,95.24338391267575,1553.0,1435.0,1000.0,1330.0,1471.0,1011.0,94.0,292.63,1649151103.6086528,1649151104.7505522,c6dd3725-f9e9-464f-bb4f-5b54889f55d5
0.1761969724591706,0.2484096091025028,0.536339737411419,-0.1740317077664244,0.2536164925318492,0.0223572285466605,0.2004168700583182,0.1761706750132952,-9.926523821412305,28.47304753132904,17.533987121289464,0.6560682424925401,0.90245226764033,-1.3272417704119974,-1.0,11.978666666666664,0.0,179.2102757698222,1.1165736055825912,95.19832060126174,1553.0,1435.0,1000.0,1330.0,1471.0,1011.0,94.0,292.63,1649151104.8632758,1649151106.1775043,c6dd3725-f9e9-464f-bb4f-5b54889f55d5
0.1758945524753279,0.2524331099436802,0.537523119964473,-0.1757015923189774,0.2541424403577484,0.0196485970904659,0.1987995804893774,0.1769727454477432,-10.113411240298037,28.54438495201829,17.489266928704716,0.6541790622819219,0.9195437677199229,-1.327019379943608,-1.0,11.978,0.0,179.19583219645736,1.1073190194223412,95.2069494069132,1553.0,1435.0,1000.0,1330.0,1471.0,1011.0,94.0,292.63,1649151106.2858746,1649151107.407698,c6dd3725-f9e9-464f-bb4f-5b54889f55d5
0.2393107117375248,0.2807554000535647,0.7350165185240118,-0.1509294465595056,0.4325570871671884,-0.0414139495989764,0.3875885496352836,0.3691277814272538,-8.679535619476438,28.98321902348609,17.47085016921416,0.4745452525837479,1.0252616728975987,-2.103586219338246,-1.0,11.972111111111111,0.0,179.18486291265032,1.10065856519639,95.14381569168503,1553.0,1435.0,1000.0,1210.0,1471.0,1011.0,94.0,292.63,1649151108.5243466,1649151109.5793316,1d7917db-d486-4dec-98d6-f82014512dff
0.2266545443568813,0.2742911726434558,0.7287977336575184,-0.1508637030999531,0.4276515281540163,-0.0355934598908153,0.3819187226796853,0.3657019983624905,-8.811694128241818,29.0694743118134,17.360444704872336,0.4876543872476969,1.002529926780219,-2.081420292111821,-1.0,11.968444444444444,0.0,179.18702732370735,1.0983270279481503,95.1274907806588,1553.0,1435.0,1000.0,1210.0,1471.0,1011.0,94.0,292.63,1649151109.6886368,1649151110.6391222,1d7917db-d486-4dec-98d6-f82014512dff
0.2264080063160216,0.2827419487980223,0.7357144950764073,-0.1522196624867283,0.433869765244864,-0.0414144974613338,0.3875617043975323,0.3753306784188715,-8.834667056299656,28.945235492692657,17.582385323185083,0.477177079782995,1.0330243444312623,-2.105993858935705,-1.0,11.97,0.0,179.1607523448802,1.0928886439751029,95.10367011647344,1553.0,1435.0,1000.0,1210.0,1471.0,1011.0,94.0,292.63,1649151110.747613,1649151111.9132345,1d7917db-d486-4dec-98d6-f82014512dff
0.261466263729187,0.2916819659747534,0.8553533754702687,-0.0827140062135685,0.5448469430645844,-0.1231725468402371,0.4849414884540296,0.4564219687493164,-8.023458708681721,29.833570715249863,17.124508889535388,0.1488495472378331,1.0639133570034105,-2.557629725013804,-1.0,11.957,0.0,179.1508986586376,1.0870535991376,95.07075998832258,1553.0,1435.0,1000.0,1071.0,1471.0,1011.0,94.0,292.63,1649151114.0502455,1649151115.1949282,56b0b76c-1d85-4b92-9314-5bddb2c89c05
0.2494878021196671,0.280111113977926,0.8298186096075243,-0.0796109137253109,0.525610402262235,-0.1151912877133185,0.4604717669104987,0.4467050830130981,-8.460490998392158,29.74690861346529,16.864624635245594,0.1576773133963999,1.0239098868646406,-2.4637919640826915,-1.0,11.954,0.0,179.16048255240798,1.0857789773380746,95.0665036421048,1553.0,1435.0,1000.0,1071.0,1471.0,1011.0,94.0,292.63,1649151115.3071702,1649151116.6227276,56b0b76c-1d85-4b92-9314-5bddb2c89c05
0.2579648756868199,0.2771811463373799,0.8237148757957814,-0.0829424648082154,0.5198293593411436,-0.1101712247549889,0.4569073748004545,0.4376911047115638,-8.370177701181493,29.690495013378257,16.697109625313917,0.1758140889496321,1.013788477130429,-2.44305667012089,-1.0,11.949666666666666,0.0,179.16015128823324,1.0839569976965473,95.06784805100644,1553.0,1435.0,1000.0,1071.0,1471.0,1011.0,94.0,292.63,1649151116.7309673,1649151117.6806653,56b0b76c-1d85-4b92-9314-5bddb2c89c05
-0.0005215032931408,0.1580649210000065,0.0250790087011166,-0.1183469749992784,-0.2027221656280354,0.0844848183095151,-0.3282659336546221,-0.350513532198448,-13.964169995733387,28.900430165538648,17.083991325084945,0.6453377377720904,0.5569105882573296,0.7298671189137803,-1.0,11.987555555555556,0.0,179.26118344643606,1.111732803872083,95.17573620131616,1553.0,1435.0,1000.0,1613.0,1471.0,1011.0,94.0,292.63,1649151119.581338,1649151120.727577,07182599-c5e4-49b8-933f-41b4c0a44502
0.0086562868302254,0.161260054085403,0.0257101461249001,-0.118136595845052,-0.2029851395812202,0.081171346891398,-0.3279635135921286,-0.3461744613803127,-13.855332634523078,28.869586329881084,17.088926088862493,0.6372998927473474,0.5680938046573022,0.7294185950033375,-1.0,11.987375,0.0,179.2427692564337,1.1162407272420456,95.1474106479182,1553.0,1435.0,1000.0,1613.0,1471.0,1011.0,94.0,292.63,1649151120.8411071,1649151121.948839,07182599-c5e4-49b8-933f-41b4c0a44502
0.0062084378268808,0.1592400856863917,0.0245070404071599,-0.1139377785826818,-0.2024860369365637,0.0799917992777069,-0.3291107375273636,-0.3591199032612981,-13.909012323245928,28.81555170421102,17.181360142594812,0.6247473935757842,0.559484234829806,0.7319195737632201,-1.0,11.992,0.0,179.24813778512134,1.122953073415187,95.12332057071556,1553.0,1435.0,1000.0,1613.0,1471.0,1011.0,94.0,292.63,1649151122.058118,1649151123.388282,07182599-c5e4-49b8-933f-41b4c0a44502
-0.0399149982370514,0.1487687930292364,-0.0922862575603661,-0.0933907480778426,-0.3102390683070304,0.0751886901428882,-0.4566761263992025,-0.4791998486892095,-14.657810656138372,29.09075952960888,16.789832153473967,0.5631746208539316,0.5190512498791439,1.2172354642590837,-1.0,11.977666666666668,0.0,179.26260109014376,1.114897896932313,95.07806146054534,1553.0,1435.0,1000.0,1694.0,1471.0,1011.0,94.0,292.63,1649151125.5228074,1649151126.6557474,aec64029-2b7c-4771-939b-cd642a990b35
-0.0311185201943254,0.145310686008755,-0.0961782718349502,-0.089117421585763,-0.3121587782337244,0.075464812753359,-0.461896160004668,-0.4856821576109941,-14.869919936338272,29.139289779628008,16.872220877169347,0.5541898070265716,0.5060802463364885,1.2321546268773234,-1.0,11.98488888888889,0.0,179.25382657379006,1.1218544327440034,95.04483183132332,1553.0,1435.0,1000.0,1694.0,1471.0,1011.0,94.0,292.63,1649151126.7635431,1649151127.889675,aec64029-2b7c-4771-939b-cd642a990b35
-0.028751754801686,0.1473487338758424,-0.0949422943266287,-0.0922073653709135,-0.3119878451583242,0.0765956006256773,-0.4594636506376059,-0.4793313361177111,-14.743382178549652,29.095510803064084,16.926305168270563,0.5635446390361005,0.5128072642479694,1.2271759122273609,-1.0,11.982555555555557,0.0,179.2724046883325,1.1190843404328057,95.00037261219587,1553.0,1435.0,1000.0,1694.0,1471.0,1011.0,94.0,292.63,1649151127.9977322,1649151129.1158257,aec64029-2b7c-4771-939b-cd642a990b35
-0.0863666046846207,0.1263135597162632,-0.2303037503832928,-0.0504268333229884,-0.4346838311987852,0.0654460541388318,-0.6130952522927321,-0.6361191757169978,-15.913199755295931,29.78534612773713,16.76597621094948,0.4414619665294441,0.4298996714793402,1.79403725630733,-1.0,11.973999999999998,0.0,179.26168888043463,1.1076303622120076,94.9779741451777,1553.0,1435.0,1000.0,1774.0,1471.0,1011.0,94.0,292.63,1649151131.0494287,1649151132.1948082,b5722956-fb13-4670-a1fb-252ac3c8ce92
-0.0808605878806443,0.1206842742503111,-0.2306187713044171,-0.0443866507915229,-0.4340126997309061,0.0658432543244114,-0.6124378173020805,-0.6342427469591086,-15.807584141452956,29.8164960491404,16.829368381185542,0.4289834363858824,0.4067139457305846,1.792138812694372,-1.0,11.975,0.0,179.26869665452307,1.113018385397894,94.94876142609752,1553.0,1435.0,1000.0,1774.0,1471.0,1011.0,94.0,292.63,1649151132.316336,1649151133.4168732,b5722956-fb13-4670-a1fb-252ac3c8ce92
-0.0863939978133594,0.124943903880658,-0.2298517639205945,-0.0462767759481625,-0.434177058435824,0.0628984942288043,-0.6115749338084852,-0.6293941630965877,-15.703366094100623,29.739967020228598,16.76332429121184,0.4262026310992799,0.4228179052203142,1.7905985820453647,-1.0,11.976,0.0,179.2837078924989,1.114045724111648,94.93677292628436,1553.0,1435.0,1000.0,1774.0,1471.0,1011.0,94.0,292.63,1649151133.5249317,1649151134.6462562,b5722956-fb13-4670-a1fb-252ac3c8ce92
-0.12313310079970607,0.10343208936955924,-0.32503135396659866,0.0021476821477853414,-0.5187905831458457,0.04438129490875026,-0.7245546003350891,-0.7468153525841217,-16.598424441230396,30.484825141790385,16.668006468263037,0.27509100091829836,0.33733199070056075,2.1932000736788178,-1.0,11.953444444444445,0.0,179.27935326744807,1.0877332148179835,94.89175970292425,1553.0,1435.0,1000.0,1856.0,1471.0,1011.0,94.0,292.63,1649151136.5828373,1649151137.7208033,420c1246-bd2d-4d96-8243-c619cea8804e
-0.10376507006770988,0.11356973400107073,-0.32014003830495513,-0.002086198140598991,-0.5157795310042882,0.03754397281603241,-0.7200314471772802,-0.7445274785731825,-16.451644533255276,30.320137757019687,16.591355260112266,0.26849071078047276,0.3758233789490483,2.1772431645022596,-1.0,11.952444444444446,0.0,179.2804278838775,1.087893344808525,94.8524291969536,1553.0,1435.0,1000.0,1856.0,1471.0,1011.0,94.0,292.63,1649151137.829317,1649151138.9564104,420c1246-bd2d-4d96-8243-c619cea8804e
-0.11528332865048642,0.1112424148087831,-0.32203345071319484,-0.0018758189787679391,-0.5165947502321969,0.03979239989817027,-0.7214778041001708,-0.7423710917189668,-16.536173964446547,30.307303031973053,16.602095277721784,0.2728484626211325,0.36745145491213543,2.1826752969289633,-1.0,11.953333333333331,0.0,179.29404879890234,1.0909953534826704,94.8025984134989,1553.0,1435.0,1000.0,1856.0,1471.0,1011.0,94.0,292.63,1649151139.0694668,1649151140.182681,420c1246-bd2d-4d96-8243-c619cea8804e
