raw_voltage_G-,raw_voltage_G0,raw_voltage_G1,raw_voltage_G2,raw_voltage_G3,raw_voltage_G4,raw_voltage_G5,raw_voltage_G6,load_x,load_y,load_z,load_l,load_m,load_n,rpm,voltage,current,roll,pitch,yaw,aileron1_pwm,elevator_pwm,throttle_pwm,rudder_pwm,aileron2_pwm,pbaro,pdiff,Tt,sample_start_time,sample_end_time,uid
0.0538089100549084,0.1944999568973847,-0.024557321506831,-0.3741023003125492,-0.1629210597183906,0.3736772289836954,-0.1667867770309175,-0.1807638423458231,-12.803344648586688,14.247615952520505,30.38315579159729,1.775210511661271,0.5955717035483498,0.5411534788569063,-1.0,12.04588888888889,0.04,177.54416799392342,-13.428440483737502,106.9980112184933,1525.0,1435.0,1000.0,1528.0,1475.0,1021.47,62.0,292.98999999999995,1637227417.4123433,1637227418.5501144,ebb555e4-25c9-4639-95e9-1b29093d336c
0.0700344011061794,0.2137627959863044,-0.0267531537356525,-0.3837928930513579,-0.1694033673577277,0.3646572232863188,-0.171638645508974,-0.1993692481087668,-12.667989290982034,14.1141094406638,30.489151355925124,1.7758916196617422,0.6669732650265837,0.5624285898512233,-1.0,12.046,0.04,177.7591019045452,-13.431919611345975,107.79422989624884,1525.0,1435.0,1000.0,1528.0,1475.0,1021.47,62.0,292.98999999999995,1637227418.6579006,1637227419.7785692,ebb555e4-25c9-4639-95e9-1b29093d336c
0.0432373581771467,0.1811934766891212,-0.0297773544067246,-0.3648324701893529,-0.1637888741523193,0.3798702645057665,-0.1682462825112905,-0.1934654840417269,-12.772572703808624,14.169646836621318,30.598477912144343,1.7674896476769282,0.5420645626576165,0.5503573834153493,-1.0,12.047666666666666,0.04,177.92668742602064,-13.561834932001496,108.5183187407294,1525.0,1435.0,1000.0,1528.0,1475.0,1021.47,62.0,292.98999999999995,1637227419.886016,1637227421.099384,ebb555e4-25c9-4639-95e9-1b29093d336c
0.1497812423835687,0.3467092558578505,0.0021345321018642,-0.4768725324401117,-0.1783839280453326,0.315678334211922,-0.1677203347477909,-0.1871278117074079,-12.47606263926258,14.053516059494685,29.98626678915696,1.8768475592934768,1.181992357383852,0.5444247204838042,-1.0,12.043444444444445,0.04,178.15302319909688,-13.58516809143486,109.29628867084244,1644.0,1435.0,1000.0,1528.0,1569.0,1021.47,62.0,292.98999999999995,1637227421.7606084,1637227422.8587534,ffd03cbd-8971-4483-a915-37965c795820
0.1307024847896088,0.3209115157706302,-0.0098176324538121,-0.462264328137153,-0.1834330274611026,0.3290111109279551,-0.1745182103086389,-0.1940703231394921,-12.535724912932176,14.100669590842475,30.12801982788844,1.873565571160804,1.081845582032776,0.574418029822196,-1.0,12.046555555555557,0.04,178.32273670395372,-13.647730916684884,109.71492234872116,1644.0,1435.0,1000.0,1528.0,1569.0,1021.47,62.0,292.98999999999995,1637227422.9713824,1637227424.078925,ffd03cbd-8971-4483-a915-37965c795820
0.143851180703037,0.3381231579643561,0.017413318067769,-0.4407925027160126,-0.1564519003689456,0.2949296924871848,-0.1551896254466648,-0.1838143398813529,-12.430070629419072,13.91917894856518,30.67180158447396,1.7488375575477193,1.13991196361948,0.4762163972089965,-1.0,12.0475,0.04,178.4454846897127,-13.671657116779308,110.07102735229569,1644.0,1435.0,1000.0,1528.0,1569.0,1021.47,62.0,292.98999999999995,1637227424.187752,1637227425.3042028,ffd03cbd-8971-4483-a915-37965c795820
0.2367730134418609,0.5045856388077778,0.0450781755407131,-0.5515308622461059,-0.1796987967802202,0.2208762357321624,-0.1659189624898338,-0.1914011376785172,-12.131049018835617,14.290775338572097,28.895095176063297,1.835936345646964,1.7932723465175149,0.5021672826320004,-1.0,12.039666666666667,0.03,178.7755433360698,-13.750740035197476,110.7756780475808,1763.0,1435.0,1000.0,1528.0,1663.0,1021.47,62.0,292.98999999999995,1637227427.338649,1637227428.4732275,71b12f2d-ce7d-49d0-ad14-cdd8a1f7f79b
0.2357079691297696,0.4986270885789364,0.0212746515046372,-0.5568297749268021,-0.2003630715105893,0.2306539384424766,-0.1869815327042421,-0.2099917530723102,-12.311320374873134,14.166958570160906,28.591350194463555,1.8677159823323053,1.7740334540639229,0.5914771039838861,-1.0,12.04011111111111,0.0322222222222222,178.88571732302174,-13.827591426463693,110.90091260165264,1763.0,1435.0,1000.0,1528.0,1663.0,1021.47,62.0,292.98999999999995,1637227428.5811431,1637227429.700123,71b12f2d-ce7d-49d0-ad14-cdd8a1f7f79b
0.2409400542123662,0.5072559196348223,0.0483527478858393,-0.5430236485226464,-0.1764488780818305,0.2120950991434425,-0.165286182721398,-0.1901317412125388,-12.08571412558302,14.319539544366467,29.146669062771178,1.79743042537395,1.7998976190457758,0.4931486472572415,-1.0,12.037333333333336,0.03,179.04049699871334,-13.799627114181844,110.97816659462492,1763.0,1435.0,1000.0,1528.0,1663.0,1021.47,62.0,292.98999999999995,1637227429.8088932,1637227430.8385687,71b12f2d-ce7d-49d0-ad14-cdd8a1f7f79b
0.2982826110055092,0.6084997755034952,0.0734530619113134,-0.5873084700309137,-0.1825389156090379,0.1456788459722787,-0.1724012701672218,-0.1945568251236112,-11.948050344474396,14.88708558816227,28.07255856038317,1.7529901803094885,2.195222358857356,0.4875700016012406,-1.0,12.032666666666664,0.03,179.21481708671035,-13.793022795573131,111.06639138922408,1881.0,1435.0,1000.0,1528.0,1757.0,1021.47,62.0,292.98999999999995,1637227432.772405,1637227433.8022974,bf3b6e21-bfbe-4889-b9b9-0cee38359a61
0.2908439894521849,0.6165523397463155,0.0842703930121116,-0.5871855823811089,-0.1729889156719827,0.1360433797531495,-0.1635066819973772,-0.1873260531009895,-11.903926785449425,14.799367550824828,27.917335620604337,1.731015401379925,2.2271569553506505,0.4479767131595348,-1.0,12.028666666666666,0.03,179.30280206577868,-13.90637955581456,110.99112725802998,1881.0,1435.0,1000.0,1528.0,1757.0,1021.47,62.0,292.98999999999995,1637227433.9204092,1637227434.9397094,bf3b6e21-bfbe-4889-b9b9-0cee38359a61
0.2764815682596876,0.5991935337803551,0.0645473486943049,-0.5976413183928754,-0.1886156367020272,0.1627832780992316,-0.1736969224618568,-0.192610817695502,-11.948677947744518,14.65080940123053,27.81892724816361,1.812684002793452,2.16327427716903,0.5083530686776565,-1.0,12.02988888888889,0.03,179.3872672206947,-13.851923216471956,110.91327220841072,1881.0,1435.0,1000.0,1528.0,1757.0,1021.47,62.0,292.98999999999995,1637227435.0515068,1637227436.1703255,bf3b6e21-bfbe-4889-b9b9-0cee38359a61
0.2305117057211128,0.5233230349445237,0.0463161748263381,-0.5254246341188897,-0.1839377364094936,0.1905725325283525,-0.1844560975718038,-0.2034332081581376,-12.437746553463016,15.059583384689478,30.539334424876145,1.714216506779714,1.848024138623324,0.5369314420953064,-1.0,12.018111111111113,0.03,179.51921129726117,-13.88166489575782,110.7388003384321,2000.0,1435.0,1000.0,1528.0,1852.0,1021.47,62.0,292.98999999999995,1637227437.2774208,1637227438.2400544,6a3c463e-61ee-447a-a4ab-af22715e39be
0.2479888507512051,0.5340255669799752,0.0412256063811058,-0.5175152129528697,-0.1885084270151506,0.178366486383685,-0.1944779334489126,-0.2203151239116229,-12.571149574217529,14.98470801789293,31.2732708451624,1.6682461828344086,1.8813066708814845,0.566701800920737,-1.0,12.019444444444444,0.03,179.5251444549202,-13.790723962598731,110.58191848229598,2000.0,1435.0,1000.0,1528.0,1852.0,1021.47,62.0,292.98999999999995,1637227438.3478763,1637227439.439407,6a3c463e-61ee-447a-a4ab-af22715e39be
0.2539897131174665,0.5240183986407805,0.0469230382821538,-0.4861934511865516,-0.1796391224354,0.1528458951779447,-0.1948612695102354,-0.2223850328397501,-12.44323062821657,15.166158619782651,30.36972522606385,1.5416506989370082,1.847384313276467,0.5452054278861627,-1.0,12.021,0.03,179.58723998139448,-13.869927500260369,110.4284927018799,2000.0,1435.0,1000.0,1528.0,1852.0,1021.47,62.0,292.98999999999995,1637227439.5479715,1637227440.6683643,6a3c463e-61ee-447a-a4ab-af22715e39be
-0.049960602555503,0.0380962179336563,-0.073365283052751,-0.2713846673538123,-0.1723749722830323,0.4183564958889116,-0.194201810606905,-0.208639080421502,-13.0754506223236,14.844059165651718,28.09761202147571,1.644927259458275,0.0154144173228104,0.6379109698220272,-1.0,12.041999999999998,0.04,179.77224552089308,-13.877127563146686,110.27411448952957,1406.0,1435.0,1000.0,1528.0,1381.0,1021.47,62.0,292.98999999999995,1637227441.24028,1637227442.3071382,fa0710dc-dc18-4fc9-b936-4b1b8e64ddc4
-0.0354707387973716,0.0376228648905882,-0.0676587484821685,-0.2743431251316877,-0.1669314114299488,0.4225246321100114,-0.1854973724670938,-0.20411592811256,-12.932889771983168,14.744597923533302,28.29273792941105,1.660694846437944,0.0116249755031445,0.610657252199775,-1.0,12.042333333333334,0.04,179.69757789288647,-13.803878622348964,110.28128846488778,1406.0,1435.0,1000.0,1528.0,1381.0,1021.47,62.0,292.98999999999995,1637227442.415536,1637227443.4233978,fa0710dc-dc18-4fc9-b936-4b1b8e64ddc4
-0.0713551758636284,-0.0198150241859749,-0.0774775382833048,-0.2443290365096603,-0.1610813373450736,0.455976006922758,-0.1833930335867049,-0.2092795315190815,-13.254501703054297,14.847103579780056,28.946969412608592,1.66829313093178,-0.2116402746382329,0.6070461314141046,-1.0,12.043555555555557,0.04,179.67971770711682,-13.781353512239908,110.27773752542927,1406.0,1435.0,1000.0,1528.0,1381.0,1021.47,62.0,292.98999999999995,1637227443.5314608,1637227444.5593257,fa0710dc-dc18-4fc9-b936-4b1b8e64ddc4
-0.138386137453304,-0.123292528935429,-0.0983100052176773,-0.1922821047981699,-0.162766014404661,0.4995310601516986,-0.1895701822442504,-0.2175522539347417,-13.312294627474904,15.689747088709296,27.425574534135645,1.6530390819623566,-0.5935651706491637,0.6319361293371687,-1.0,12.0335,0.03,179.70559653497213,-13.798616246184682,110.21676139106896,1287.0,1435.0,1000.0,1528.0,1287.0,1021.47,62.0,292.98999999999995,1637227445.3573344,1637227446.4943511,5abfd598-a5dd-48b7-8887-b9aa92e55107
-0.1427279469121823,-0.1229090254329543,-0.1026244213206944,-0.1702991269276967,-0.1637932562963921,0.4799038934868764,-0.2005685195190776,-0.2131693551274824,-13.480132830948646,15.726277209446664,27.507963539809666,1.5593019868618716,-0.5946485600273329,0.6550985720906803,-1.0,12.033,0.03,179.69236782458762,-13.74139889773384,110.12624704116902,1287.0,1435.0,1000.0,1528.0,1287.0,1021.47,62.0,292.98999999999995,1637227446.6029265,1637227447.6314478,5abfd598-a5dd-48b7-8887-b9aa92e55107
-0.1388518204748284,-0.1290039941822938,-0.1053911256559828,-0.1817768404906976,-0.1662175466829881,0.4930799824479022,-0.1986646971532929,-0.2243868370228797,-13.498926837916123,15.674182360818683,27.02728849456233,1.6142321385432623,-0.6118782939756922,0.6579533867100252,-1.0,12.032222222222224,0.03,179.68803080624664,-13.745975124477749,110.0019473882126,1287.0,1435.0,1000.0,1528.0,1287.0,1021.47,62.0,292.98999999999995,1637227447.738718,1637227448.860379,5abfd598-a5dd-48b7-8887-b9aa92e55107
-0.2356317124601829,-0.2967183720501428,-0.1198136030599313,-0.0760804909809143,-0.1424951056410294,0.5635076801507262,-0.1879128978382139,-0.2175796468239089,-13.863472960518124,16.67300218360589,27.48988539266826,1.5398609017814866,-1.2563398490418018,0.6106145979127153,-1.0,12.018999999999998,0.03,179.66635026800122,-13.686351272709338,109.7378604006838,1169.0,1435.0,1000.0,1528.0,1193.0,1021.47,62.0,292.98999999999995,1637227450.7948732,1637227451.9331388,7421ecd6-0e84-4e3f-b7fb-91a9c57ce025
-0.1976730658262994,-0.2364222779845077,-0.1116016941954701,-0.1070522480701086,-0.1487862096862509,0.5254263196971297,-0.1935575248653693,-0.2103352627010864,-13.764167879269769,16.496883697415527,26.432719655228546,1.523274552836139,-1.017195169676599,0.6217012795058576,-1.0,12.0188,0.03,179.6864692732204,-13.754074875059738,109.53370012689484,1169.0,1435.0,1000.0,1528.0,1193.0,1021.47,62.0,292.98999999999995,1637227452.0415566,1637227453.04949,7421ecd6-0e84-4e3f-b7fb-91a9c57ce025
-0.2001302288674113,-0.2422882411307733,-0.1055417880407672,-0.1217448335823522,-0.14441262402179,0.5446338218270221,-0.1823247030117597,-0.2058553920286575,-13.750085801047634,16.58418484466023,26.48823827467811,1.6004756592316651,-1.0375932094992033,0.5907045476031415,-1.0,12.018,0.03,179.67557102338074,-13.743185845975445,109.34695046064616,1169.0,1435.0,1000.0,1528.0,1193.0,1021.47,62.0,292.98999999999995,1637227453.1580372,1637227454.278222,7421ecd6-0e84-4e3f-b7fb-91a9c57ce025
-0.1842559158779288,-0.2277835835357539,-0.0782308487177439,-0.0773131878333188,-0.1168414496084116,0.4931347672659298,-0.1698197427903262,-0.1923231901490067,-13.602948004539536,16.69333266674944,27.15470244400237,1.3867872605768838,-0.9938774526383306,0.5012621313832837,-1.0,11.982444444444443,0.13,179.65397700086476,-13.760835434245712,109.0380710925404,1050.0,1435.0,1000.0,1528.0,1098.0,1021.47,62.0,292.98999999999995,1637227455.301121,1637227456.3314502,601bf1f0-b3a9-4616-8aa9-d257242ebd99
-0.1872828557643377,-0.2242772647101129,-0.0714647483438073,-0.094461281853467,-0.1148691449756639,0.5022292803680591,-0.159533626595425,-0.1956103645815766,-13.32842622080622,16.734763963475668,26.75511652835951,1.446591795305773,-0.97658716828591,0.4745929074615067,-1.0,11.9868,0.124,179.70314313102224,-13.760540161373342,108.61498914012824,1050.0,1435.0,1000.0,1528.0,1098.0,1021.47,62.0,292.98999999999995,1637227456.4699776,1637227457.5542295,601bf1f0-b3a9-4616-8aa9-d257242ebd99
-0.1927340864632398,-0.2321801795439884,-0.0698348579710048,-0.0774364511247882,-0.108911141657989,0.4930525888605632,-0.161766165018506,-0.1774076364463947,-13.6293802958949,16.820624816171748,26.57677328956139,1.3880371152451476,-1.0045085118181147,0.4661306116587999,-1.0,11.987111111111112,0.12,179.71774668259565,-13.73226693481353,108.33580925591748,1050.0,1435.0,1000.0,1528.0,1098.0,1021.47,62.0,292.98999999999995,1637227457.6616995,1637227458.691953,601bf1f0-b3a9-4616-8aa9-d257242ebd99
0.0621040937468067,0.198686172860547,-0.018582334024208,-0.3427388193379333,-0.154657650485351,0.3368433507863386,-0.1695595079280424,-0.1883922775566102,-12.66019992121325,14.221672360021683,29.84785579000984,1.621803797000787,0.611520592374389,0.5258389184282107,-1.0,12.0444,0.04,179.54227305153876,-13.76012317832451,107.94621526565996,1525.0,1435.0,1000.0,1528.0,1475.0,1021.47,62.0,292.98999999999995,1637227459.2438765,1637227460.329161,e7b452a7-d111-4dae-b65b-38ed9bfa3188
0.0399841516070967,0.1756211691057372,-0.0333061352622099,-0.3339456298521548,-0.1638617390597768,0.3517589011471528,-0.1799141078501495,-0.2066223993565848,-12.778910514547,14.327121855738662,29.8093996532834,1.6353857535078744,0.5241795930892128,0.5702938227243057,-1.0,12.047,0.04,179.429135066051,-13.711541238041317,108.19576032509984,1525.0,1435.0,1000.0,1528.0,1475.0,1021.47,62.0,292.98999999999995,1637227460.4367735,1637227461.4450753,e7b452a7-d111-4dae-b65b-38ed9bfa3188
0.0650247477861975,0.2115012202890024,-0.0220327714750046,-0.3431502643029335,-0.1610276468857205,0.3230941975050547,-0.1778711281390306,-0.2011574711247851,-12.592197463396602,14.237555390846053,29.57877495887811,1.5917605522434286,0.6613205513648801,0.5522609228135994,-1.0,12.047199999999998,0.0399999999999999,179.32898263621328,-13.681844941567936,108.40504824957176,1525.0,1435.0,1000.0,1528.0,1475.0,1021.47,62.0,292.98999999999995,1637227461.553098,1637227462.7932556,e7b452a7-d111-4dae-b65b-38ed9bfa3188
0.054310751961672,0.1819900685822907,-0.0397846073057759,-0.5327101430742363,-0.1914740033477658,0.5366487304784587,-0.1331403559844493,-0.1646561395193065,-12.635689027717104,13.796750991219042,31.120819694481906,2.4956645959471184,0.5594825397708733,0.5513330652774047,-1.0,12.045,0.04,179.2354609540218,-13.66646916121786,108.70876490535686,1525.0,1535.0,1000.0,1528.0,1475.0,1021.47,62.0,292.98999999999995,1637227463.7987692,1637227465.0392733,0d6158e8-a946-4cea-83e1-454a4d12d2f8
0.0574335672676585,0.1781687288778373,-0.0353058327939695,-0.5202325678069202,-0.1851461927202843,0.5283623135112693,-0.1306338865035467,-0.1600814887616995,-12.644495139081933,13.83240843894868,31.070482171593422,2.449344491555475,0.54440693877459,0.5325958499027222,-1.0,12.043444444444445,0.04,179.18337393141127,-13.627501034728168,108.7971369284781,1525.0,1535.0,1000.0,1528.0,1475.0,1021.47,62.0,292.98999999999995,1637227465.147338,1637227466.2707758,0d6158e8-a946-4cea-83e1-454a4d12d2f8
0.0825119658925679,0.2109719852635549,-0.0267591799906358,-0.544900068769138,-0.1846668133204636,0.5187062413863867,-0.127908269919906,-0.156356024370279,-12.76951166361025,13.750305305059683,31.082913360257976,2.483110192914856,0.6717912704994619,0.5201289051500496,-1.0,12.047666666666666,0.04,179.14203307309492,-13.590777194563255,108.89575954772371,1525.0,1535.0,1000.0,1528.0,1475.0,1021.47,62.0,292.98999999999995,1637227466.388713,1637227467.4972413,0d6158e8-a946-4cea-83e1-454a4d12d2f8
0.0526123786341892,0.163547926893457,-0.0554173121538774,-0.6989146355105086,-0.2206964359511575,0.7187384343293389,-0.0984004022455244,-0.1232382906892857,-12.758593721275895,13.58135158643902,32.7563715654243,3.277753624440921,0.4961559772408898,0.5616023382836276,-1.0,12.041100000000002,0.0399999999999999,179.11812103615662,-13.536130539588529,109.0606917683796,1525.0,1636.0,1000.0,1528.0,1475.0,1021.47,62.0,292.98999999999995,1637227469.260198,1637227470.2524557,383d6c14-d6ec-407f-b4e1-eb50217ad7ec
0.070902214935879,0.1794578485493356,-0.0470547409171111,-0.7086446775373129,-0.2178694658809727,0.7121509381855798,-0.0941665222036142,-0.1145470021349164,-12.73057556439046,13.68954809392478,32.80930428263864,3.286055421312952,0.5568903634389305,0.5422142877667192,-1.0,12.043555555555557,0.04,179.13123530292702,-13.58234997435606,109.03518951162056,1525.0,1636.0,1000.0,1528.0,1475.0,1021.47,62.0,292.98999999999995,1637227470.3600404,1637227471.4713857,383d6c14-d6ec-407f-b4e1-eb50217ad7ec
0.0743351204189957,0.1857018355890798,-0.0447290660516062,-0.7061771043781989,-0.21653870861686,0.7044726480921534,-0.0937353560764342,-0.1254702834453773,-12.652200481929434,13.650218084451938,32.921117924637635,3.26314739322121,0.5786063473978064,0.5376235223416722,-1.0,12.0466,0.04,179.10644687682722,-13.477768622187522,109.09563365013555,1525.0,1636.0,1000.0,1528.0,1475.0,1021.47,62.0,292.98999999999995,1637227471.5791233,1637227472.7092316,383d6c14-d6ec-407f-b4e1-eb50217ad7ec
0.052050819719896,0.1548845799572148,-0.0716701972162261,-0.8396501404055267,-0.2521223717081131,0.8685163175940481,-0.0779706150736319,-0.1010356204522758,-12.96825101570504,13.736539057282116,34.43313729760337,3.932170566793745,0.4665857679495477,0.5973447784683744,-1.0,12.0385,0.03,179.14722857032356,-13.5372526542918,109.06365470444156,1525.0,1737.0,1000.0,1528.0,1475.0,1021.47,62.0,292.98999999999995,1637227474.7569427,1637227475.9834044,b14a600c-602b-459b-9cfc-1895da8ecd7d
0.0526649734220597,0.1578676903981432,-0.0623861219464455,-0.8448915483861364,-0.2447717025165757,0.8682653976110376,-0.0686317533014708,-0.0914315929451523,-12.922008223136814,13.76027981705431,34.198168583955905,3.944035535743341,0.4807637654850472,0.5613873273479177,-1.0,12.038333333333334,0.03,179.19967835186998,-13.552085880462426,109.01349758972653,1525.0,1737.0,1000.0,1528.0,1475.0,1021.47,62.0,292.98999999999995,1637227476.092666,1637227477.324629,b14a600c-602b-459b-9cfc-1895da8ecd7d
0.0849318738132479,0.1937241837389287,-0.0504339569035377,-0.8766325084495525,-0.2452187578824375,0.8580225618991203,-0.0624781644526949,-0.0898800475757663,-12.767897339206902,13.82034333623846,33.64996876744385,3.993601841199011,0.6236820520042374,0.5403129833992968,-1.0,12.039666666666667,0.0333333333333333,179.16710897426776,-13.494121859526068,108.97139933932218,1525.0,1737.0,1000.0,1528.0,1475.0,1021.47,62.0,292.98999999999995,1637227477.432234,1637227478.5202186,b14a600c-602b-459b-9cfc-1895da8ecd7d
0.0700629851958033,0.1885298773075014,-0.0661260686396774,-0.9157607507959448,-0.2666865797061904,0.9005031367631237,-0.0698134204130116,-0.0969683390530458,-12.792729149286696,14.106188398394432,33.75130325059687,4.178442285932049,0.6073054489232195,0.6004235000400366,-1.0,12.032555555555556,0.03,179.1824404722247,-13.423330079282254,108.86011582608506,1525.0,1837.0,1000.0,1528.0,1475.0,1021.47,62.0,292.98999999999995,1637227479.4677956,1637227480.4924755,7e7b5fa2-00fa-4e74-add2-dd4af66e59b9
0.0810793058425787,0.1859927507424644,-0.0530505477144695,-0.9054413309913754,-0.2522796095018674,0.8979420033242878,-0.05800760706568,-0.0925755308967526,-12.872281909184323,14.16873564071584,34.4797115449728,4.150550768853798,0.5914563098962412,0.5468978897854198,-1.0,12.037,0.03,179.19875096396268,-13.389741485673856,108.77157987842374,1525.0,1837.0,1000.0,1528.0,1475.0,1021.47,62.0,292.98999999999995,1637227480.600254,1637227481.6253595,7e7b5fa2-00fa-4e74-add2-dd4af66e59b9
0.0559501246686762,0.1733907371928238,-0.0669901884282901,-0.928824273255356,-0.2666860302050548,0.9314383039130656,-0.0619582833004697,-0.0851581473091362,-12.82246440442905,14.18038628568826,34.35599151973484,4.277956105335943,0.546930467912515,0.5892718334789868,-1.0,12.033888888888889,0.03,179.20449135850515,-13.409391750188504,108.68546637118804,1525.0,1837.0,1000.0,1528.0,1475.0,1021.47,62.0,292.98999999999995,1637227481.7342925,1637227482.8582408,7e7b5fa2-00fa-4e74-add2-dd4af66e59b9
0.0573327605546719,0.2073593810565814,0.0006881760550503,-0.1620269513270532,-0.1198064811754201,0.1513064888213914,-0.202446044805217,-0.2298479302026655,-12.575118274239804,14.632010986826703,28.27959063740541,0.8007085597859535,0.6363268116298938,0.4992391076840999,-1.0,12.04811111111111,0.04,179.22424578340463,-13.625941380003944,108.48616372793678,1525.0,1334.0,1000.0,1528.0,1475.0,1021.47,62.0,292.98999999999995,1637227484.792301,1637227485.9299653,3c852bb4-336b-4442-a9c7-4c5893c61c41
0.0388336406733442,0.1858935875516323,-0.0204313696009796,-0.176763906833997,-0.1387696418495637,0.1867016792715613,-0.2151964451269481,-0.2479312240773035,-12.749436050915996,14.811042965459508,28.26057408107793,0.9135336735843184,0.5576979608623617,0.5690609547877429,-1.0,12.048222222222222,0.04,179.16913222808188,-13.624709479496142,108.56197427426449,1525.0,1334.0,1000.0,1528.0,1475.0,1021.47,62.0,292.98999999999995,1637227486.0373993,1637227487.1585133,3c852bb4-336b-4442-a9c7-4c5893c61c41
0.0702946357824212,0.2228605977207259,-0.0060636792196906,-0.1695047239732417,-0.130592795319343,0.1418180619663419,-0.2161552048871367,-0.2437263801189313,-12.776249699370409,14.78787375909379,28.031593896529422,0.7968110800343261,0.6985826319978203,0.5439085828060947,-1.0,12.048222222222222,0.04,179.17087468523016,-13.680157524360736,108.57301869015238,1525.0,1334.0,1000.0,1528.0,1475.0,1021.47,62.0,292.98999999999995,1637227487.2666662,1637227488.388921,3c852bb4-336b-4442-a9c7-4c5893c61c41
0.0494347770784052,0.2056988105189581,0.0029897459913795,-0.0166922116758094,-0.1064457612104327,0.0081944361027849,-0.2460821890124624,-0.2707223008774809,-12.74679113437901,15.485496842241028,26.56132965153669,0.1566892504412061,0.6288091891963123,0.5382121849360474,-1.0,12.049444444444449,0.04,179.12158500453972,-13.68573750432142,108.68078845051647,1525.0,1234.0,1000.0,1528.0,1475.0,1021.47,62.0,292.98999999999995,1637227489.298108,1637227490.43628,57860340-920e-43aa-b8ef-cdf9b6fa83c4
0.0611853285329754,0.2138942829179287,-0.0038349759927313,-0.0114743699239861,-0.1140999472594842,-0.0027173388947215,-0.2573418572535701,-0.2865977101245531,-12.7630245005386,15.507862858035558,26.76478968586488,0.1202315651169092,0.6567841284509057,0.5752755129518566,-1.0,12.044111111111112,0.04,179.13328739531767,-13.706171153588375,108.73039231990874,1525.0,1234.0,1000.0,1528.0,1475.0,1021.47,62.0,292.98999999999995,1637227490.5456169,1637227491.6650918,57860340-920e-43aa-b8ef-cdf9b6fa83c4
0.0699029141616082,0.2356159281885997,-0.0033616220105353,-0.0238078455236026,-0.1188466258346113,-0.0121581001861193,-0.2600504882951421,-0.2860454645127988,-12.643968761243514,15.391661201983698,26.82592675489767,0.1261611434582181,0.7384155535559187,0.5876892992078374,-1.0,12.048333333333334,0.04,179.10321938477148,-13.71922933691658,108.7841117577309,1525.0,1234.0,1000.0,1528.0,1475.0,1021.47,62.0,292.98999999999995,1637227491.7732947,1637227492.8941028,57860340-920e-43aa-b8ef-cdf9b6fa83c4
0.0513249020379236,0.2186694507011156,0.0173711319487447,0.1248069348227646,-0.0849558604488859,-0.1374684711604267,-0.2785567340069008,-0.3015669552727257,-12.73162423252848,16.287613724162913,26.10466925922775,-0.4838538913683803,0.6649007308798699,0.5374230339645668,-1.0,12.045,0.04,179.0921499248566,-13.775204919030818,108.83704268815886,1525.0,1133.0,1000.0,1528.0,1475.0,1021.47,62.0,292.98999999999995,1637227494.7590244,1637227495.714247,5a397f46-c569-4e81-9777-4061b6aa5828
0.0555297456348217,0.2306676356815152,0.0098654188830454,0.1039059879185421,-0.0979265008299342,-0.1360577248441277,-0.2864459518016304,-0.3036351355783226,-12.618876851627888,16.303883683691954,25.180898096540755,-0.4338927197530599,0.7193883893242092,0.5765909851898793,-1.0,12.046599999999998,0.0399999999999999,179.0996467404896,-13.710807504969727,108.876764336296,1525.0,1133.0,1000.0,1528.0,1475.0,1021.47,62.0,292.98999999999995,1637227495.8219583,1637227496.8764083,5a397f46-c569-4e81-9777-4061b6aa5828
0.0485308042200194,0.2057262035967912,0.0056331816930372,0.0990847996774138,-0.094954348013595,-0.1057472394764038,-0.2805427349729208,-0.3097164088395415,-12.94066815248804,16.166180362333836,25.39424617871121,-0.3561571542737716,0.6265524706316076,0.5669790876001509,-1.0,12.043666666666669,0.04,179.0992442146745,-13.76916873935182,108.89157719522196,1525.0,1133.0,1000.0,1528.0,1475.0,1021.47,62.0,292.98999999999995,1637227496.9846618,1637227498.1082222,5a397f46-c569-4e81-9777-4061b6aa5828
0.0383816542544542,0.2055070587567539,0.0128786614839086,0.1116582407753709,-0.0915165115197477,-0.1231555655667464,-0.2815288872209173,-0.3056622268287091,-12.834045803963354,16.67404619372118,24.55283888902965,-0.419991563738371,0.6313531471851279,0.552587437951363,-1.0,12.035777777777778,0.04,179.11585978819545,-13.73862365906483,108.90679257996304,1525.0,1033.0,1000.0,1528.0,1475.0,1021.47,62.0,292.98999999999995,1637227498.7589157,1637227499.8565235,c80bc5b6-eb4e-4b6f-8ad8-aa9e795acd2b
0.0239876667962669,0.1869000107314218,0.0079857026862778,0.1266789803251169,-0.0908136043454476,-0.1198722283814453,-0.2844413234512035,-0.3115407903349545,-12.925419529346255,16.713935289797373,24.3641728860608,-0.4465518517091657,0.5617253813441576,0.5599802637275922,-1.0,12.039222222222222,0.0344444444444444,179.1320154623122,-13.705363863173975,108.88711556387412,1525.0,1033.0,1000.0,1528.0,1475.0,1021.47,62.0,292.98999999999995,1637227499.9651792,1637227501.087238,c80bc5b6-eb4e-4b6f-8ad8-aa9e795acd2b
0.0257890381636291,0.19351380469228,-0.0135781592208838,0.1217745181424226,-0.1148625707642387,-0.1224362232871618,-0.3093581057925739,-0.3335122649091028,-12.92760398110578,16.84705259238012,24.098512288153344,-0.4414849586362694,0.5881402020327452,0.6579323464746446,-1.0,12.039333333333332,0.0311111111111111,179.1363655339036,-13.709755485082816,108.85977203989684,1525.0,1033.0,1000.0,1528.0,1475.0,1021.47,62.0,292.98999999999995,1637227501.196037,1637227502.3154223,c80bc5b6-eb4e-4b6f-8ad8-aa9e795acd2b
0.0499415497465119,0.1896053549066446,-0.0359769639668766,-0.3290970451289912,-0.1689979485487577,0.3227906822544127,-0.1918164178978283,-0.2106902775548256,-12.80342287309306,14.374903994559608,28.21830522390862,1.5592708741139265,0.5901386438862725,0.5973302622995544,-1.0,12.047222222222224,0.04,179.11850838377356,-13.65955150768098,108.86670240517468,1525.0,1435.0,1000.0,1528.0,1475.0,1021.47,62.0,292.98999999999995,1637227503.3155005,1637227504.2500336,f5c13d36-d919-47c5-b52d-9cc49a7db114
0.0516399229932045,0.1941526121343952,-0.0296765470303041,-0.3342880401396191,-0.1630536420150281,0.3269133467719564,-0.1848585649763989,-0.2057047289962744,-12.91404232297065,14.300990554867644,28.810404728115405,1.5801071033445655,0.6037660794128952,0.572032024280403,-1.0,12.047111111111112,0.04,179.12076386401947,-13.567505222241207,108.8655526566644,1525.0,1435.0,1000.0,1528.0,1475.0,1021.47,62.0,292.98999999999995,1637227504.357398,1637227505.5903704,f5c13d36-d919-47c5-b52d-9cc49a7db114
0.0486540732203877,0.1826611999597846,-0.0187603895854922,-0.3361918661818527,-0.1505212898518692,0.3438012010503404,-0.1664229965858684,-0.1897071479943067,-12.752487478259532,14.218717392342194,29.47402321011627,1.622536192167064,0.5545662503085352,0.5135098280911792,-1.0,12.04811111111111,0.04,179.13173618346616,-13.64891927473673,108.88546038136526,1525.0,1435.0,1000.0,1528.0,1475.0,1021.47,62.0,292.98999999999995,1637227505.698349,1637227506.7073555,f5c13d36-d919-47c5-b52d-9cc49a7db114
0.0655556265135128,0.1861401256885888,0.0318073057932167,-0.3526414326082441,-0.1064868507614543,0.3509371086778639,-0.1109930189603666,-0.1424266233390696,-12.379110755566924,14.27805692219303,29.225246923271143,1.6787373155929028,0.5724085885729387,0.3058461168139699,-1.0,12.046666666666663,0.04,179.1365006198672,-13.603625539301955,108.8756112485821,1525.0,1435.0,1000.0,1439.0,1475.0,1021.47,62.0,292.98999999999995,1637227508.8465102,1637227509.89264,d9547a15-54d0-46f7-a9e5-26a45f40d1c1
0.0860045883761611,0.2222442526069946,0.0419838486512411,-0.3687896772457475,-0.1049117466672896,0.3302826996017636,-0.1063361887981106,-0.1248950266950265,-12.09680796523648,14.057384164357812,29.26235538251837,1.6679424609945837,0.7081236451907769,0.2877660273712314,-1.0,12.047666666666666,0.04,179.11957996456334,-13.63024013031282,108.8831897229212,1525.0,1435.0,1000.0,1439.0,1475.0,1021.47,62.0,292.98999999999995,1637227510.0010197,1637227511.1274903,d9547a15-54d0-46f7-a9e5-26a45f40d1c1
0.0598967563585238,0.1754080506024816,0.0235537591236435,-0.3291995025849549,-0.1074467063441595,0.3431591045694193,-0.1192016410100359,-0.1427641064722592,-12.4616576043662,14.087571180486904,29.6324388442387,1.6067294832458845,0.5257194318368085,0.3295930152441858,-1.0,12.046333333333331,0.04,179.10690768692322,-13.638858026634344,108.88345610029882,1525.0,1435.0,1000.0,1439.0,1475.0,1021.47,62.0,292.98999999999995,1637227511.2397778,1637227512.3500147,d9547a15-54d0-46f7-a9e5-26a45f40d1c1
0.0943320958147755,0.198467027853607,0.0938390191147422,-0.3478476396849754,-0.0509610000761156,0.3351449768916594,-0.0498652756763935,-0.0725741704552658,-11.82956361534226,14.308389049771623,29.795349082381943,1.636094010657222,0.6130423815169931,0.0613384959352069,-1.0,12.047666666666666,0.04,179.13105923582842,-13.608079866141928,108.84826013550575,1525.0,1435.0,1000.0,1351.0,1475.0,1021.47,62.0,292.98999999999995,1637227514.2841148,1637227515.4226596,7e0e0770-954a-447f-bf49-1d2f8fda42e6
0.0976740561040929,0.212437517115848,0.1108775377893147,-0.3485872502210034,-0.037209654581643,0.3236261728890984,-0.0363467717870412,-0.0704375069527324,-11.760509342796256,14.282077532975372,30.12438773336481,1.6126392932897575,0.6632059666992492,0.0023429363585902,-1.0,12.047,0.04,179.1366554374884,-13.616105907599128,108.8754162087358,1525.0,1435.0,1000.0,1351.0,1475.0,1021.47,62.0,292.98999999999995,1637227515.5313218,1637227516.6521518,7e0e0770-954a-447f-bf49-1d2f8fda42e6
0.1093298272026587,0.2149576836269323,0.1159589606198721,-0.3486557328193734,-0.0307448790571296,0.3190378259106747,-0.0302381070802648,-0.060014426002971,-11.755524192371013,14.051292243783143,29.86018055263,1.601166655558644,0.6752911540897922,-0.0220563934165672,-1.0,12.045,0.04,179.1079473934969,-13.656922359169211,108.87137804911652,1525.0,1435.0,1000.0,1351.0,1475.0,1021.47,62.0,292.98999999999995,1637227516.759616,1637227517.7671957,7e0e0770-954a-447f-bf49-1d2f8fda42e6
0.1091649204976975,0.2064652698435175,0.1625749207347411,-0.352630477760894,0.0104313576497962,0.3250139072269331,0.0185966968726955,-0.015695101303025,-11.442929726237626,14.45745327104866,29.36774283347108,1.628654267773926,0.6490429030532391,-0.2129180218597105,-1.0,12.044333333333334,0.0366666666666666,179.14738338794476,-13.648709531010969,108.83905531723428,1525.0,1435.0,1000.0,1262.0,1475.0,1021.47,62.0,292.98999999999995,1637227519.8140032,1637227520.8793497,1aeda3e0-570d-455b-8a1d-c95f26858593
0.119081776710148,0.2250383503780247,0.1651706943387289,-0.3624070843609153,0.0084683689763885,0.3130661256471655,0.0182340147275885,-0.0070224398816211,-11.285700956275903,14.334712413977252,28.985975860715183,1.6231935137974862,0.7223401979922991,-0.2114828005915332,-1.0,12.046333333333331,0.04,179.1436419620994,-13.631903945421888,108.835659195397,1525.0,1435.0,1000.0,1262.0,1475.0,1021.47,62.0,292.98999999999995,1637227520.9876206,1637227521.9796188,1aeda3e0-570d-455b-8a1d-c95f26858593
0.1023407474797393,0.192067448121452,0.1553168431685464,-0.3443205003835335,0.008117189743195,0.3345335624283986,0.0159143667467517,-0.0099228217035756,-11.45674198616961,14.357923251729511,29.76614042590521,1.6303362849001792,0.5901241423026916,-0.1971295971326103,-1.0,12.046666666666669,0.04,179.15113088506936,-13.65400207384408,108.84574131352184,1525.0,1435.0,1000.0,1262.0,1475.0,1021.47,62.0,292.98999999999995,1637227522.088507,1637227523.2051468,1aeda3e0-570d-455b-8a1d-c95f26858593
0.1401038022626576,0.2432816176547499,0.2287654570475278,-0.3610193491951867,0.0620662904362823,0.2929968324970003,0.0759118663549073,0.0562019716429121,-10.85951052421964,14.648815911431049,29.316390238668063,1.5804807698701544,0.7886846526240114,-0.4504379835719863,-1.0,12.040111111111113,0.0322222222222222,179.12775797772957,-13.609465066451104,108.81583267405624,1525.0,1435.0,1000.0,1173.0,1475.0,1021.47,62.0,292.98999999999995,1637227525.343961,1637227526.4816914,0c8c5f53-a2a4-4cf5-896d-a4c46db12892
0.1355313433198172,0.2219155352200444,0.2229153837865817,-0.3543535059752849,0.0624191143677367,0.3052590874006644,0.0751158235709215,0.0534615647433643,-11.02634496379016,14.610212371609755,28.9320758273347,1.5923067404897313,0.711943608989759,-0.4449805741615955,-1.0,12.044000000000002,0.04,179.16260712069482,-13.652027200536562,108.82121030966276,1525.0,1435.0,1000.0,1173.0,1475.0,1021.47,62.0,292.98999999999995,1637227526.5896351,1637227527.7164147,0c8c5f53-a2a4-4cf5-896d-a4c46db12892
0.1256424282698578,0.2153137943426651,0.2041100095105586,-0.3506006436295463,0.0459558506798886,0.3070396416128616,0.0556119242760848,0.0309992085477219,-11.16717545029131,14.6745149190939,28.609584673736247,1.5872099353845883,0.6893849337918555,-0.3704994501610057,-1.0,12.044000000000002,0.0322222222222222,179.17477699997596,-13.660357185411824,108.77382245720122,1525.0,1435.0,1000.0,1173.0,1475.0,1021.47,62.0,292.98999999999995,1637227527.8520916,1637227528.826047,0c8c5f53-a2a4-4cf5-896d-a4c46db12892
0.02740632786304,0.1696620705979486,-0.1033048659228215,-0.3150777971062975,-0.2275732045135642,0.3378470329801468,-0.259537690106345,-0.2884648250443629,-13.293219831719172,14.507658947334347,28.89662550581332,1.5588696612110275,0.5068018812054246,0.8635773638196522,-1.0,12.047,0.04,179.15850748937297,-13.656798372263031,108.8387540300009,1525.0,1435.0,1000.0,1617.0,1475.0,1021.47,62.0,292.98999999999995,1637227530.7607603,1637227532.0115,4b9688b2-e306-4802-b746-b3a106ebb1b9
0.0500878289498548,0.2148935837504532,-0.0981374288106617,-0.3456222166958271,-0.2352520449119668,0.3202014857301509,-0.2622857678404027,-0.2853485841899997,-13.116631621062384,14.446203344721612,28.699287018112187,1.5880258280033177,0.6810339316848232,0.875980701391679,-1.0,12.0474,0.0399999999999999,179.15478549162123,-13.646702935269303,108.82973984989827,1525.0,1435.0,1000.0,1617.0,1475.0,1021.47,62.0,292.98999999999995,1637227532.1197822,1637227533.3323488,4b9688b2-e306-4802-b746-b3a106ebb1b9
0.0477342123200755,0.1977739820354383,-0.0814254349234725,-0.3253995235884487,-0.2113871584733545,0.3200831464362346,-0.2421288141605903,-0.269649038507973,-13.192072118399196,14.2844415524772,29.08918682780317,1.5419264474629937,0.6124701552982299,0.7906657617931202,-1.0,12.0505,0.04,179.12949739923823,-13.660858160814696,108.82904368286714,1525.0,1435.0,1000.0,1617.0,1475.0,1021.47,62.0,292.98999999999995,1637227533.4406416,1637227534.3900702,4b9688b2-e306-4802-b746-b3a106ebb1b9
-0.0058861715712132,0.1563424417017366,-0.1856025624903858,-0.3318292335410114,-0.3041512221737946,0.36931186266755,-0.33856136595023,-0.3644117069551296,-13.924289119426811,14.536396294672798,28.70350101670868,1.663106649375169,0.4598690979520504,1.1900890323675035,-1.0,12.047,0.04,179.1460628847052,-13.651451377644031,108.83437132528348,1525.0,1435.0,1000.0,1706.0,1475.0,1021.47,62.0,292.98999999999995,1637227536.29076,1637227537.4361095,2362c225-cc3c-4fa7-af1d-6b653b353452
-0.000127042457439,0.156197806035333,-0.1618560150430426,-0.2953547468613828,-0.2755133578100076,0.3399902716568275,-0.3199428091188268,-0.3407571984023292,-13.828664675079825,14.371658937156562,29.45387295801928,1.515197717856456,0.4490111130083283,1.0937003378646912,-1.0,12.046666666666669,0.04,179.16536348147986,-13.618970033591085,108.82965773584628,1525.0,1435.0,1000.0,1706.0,1475.0,1021.47,62.0,292.98999999999995,1637227537.5493724,1637227538.5606391,2362c225-cc3c-4fa7-af1d-6b653b353452
0.0092490737007636,0.1700055800025456,-0.1649026801397133,-0.3102368802607025,-0.285144781315959,0.3391169790789173,-0.3262207666082325,-0.3540110874343174,-13.744019988230828,14.569400784822191,29.266249877159016,1.5479776104289096,0.5035049851972874,1.1211637640284935,-1.0,12.047888888888888,0.04,179.15085767750256,-13.531989092330788,108.84488753987556,1525.0,1435.0,1000.0,1706.0,1475.0,1021.47,62.0,292.98999999999995,1637227538.6692505,1637227539.7935216,2362c225-cc3c-4fa7-af1d-6b653b353452
-0.0078979221415831,0.1716738208189818,-0.2234445155633338,-0.307517290472677,-0.3421641104891769,0.334073359175721,-0.3917872990379048,-0.4182030340105819,-14.07886624236719,14.76492217336403,28.659605285380643,1.528625081424697,0.5134657737255768,1.3710335617509797,-1.0,12.045666666666667,0.04,179.1691443706404,-13.65650163848909,108.8294657316396,1525.0,1435.0,1000.0,1795.0,1475.0,1021.47,62.0,292.98999999999995,1637227540.9088628,1637227541.9344256,fed30f95-4467-4d86-a266-f148afb3b9ca
-0.0248860381165229,0.1518981824658493,-0.2399329806180037,-0.2996149277436868,-0.3523149038285735,0.3484448813368352,-0.4032135171321489,-0.4337316471841581,-14.215694395342055,14.715789992544376,28.87625656491359,1.5419129574290151,0.4363243036142406,1.4215098814984328,-1.0,12.044777777777776,0.04,179.17660749067352,-13.614299986609828,108.82723833106029,1525.0,1435.0,1000.0,1795.0,1475.0,1021.47,62.0,292.98999999999995,1637227542.0429895,1637227543.090535,fed30f95-4467-4d86-a266-f148afb3b9ca
-0.0011657894786112,0.1854668028070357,-0.2300188629753944,-0.3154854017826357,-0.3515522797151467,0.3286692453601983,-0.4017277140554517,-0.4274860150252071,-14.149013924817632,14.739652050860013,28.706594422301443,1.533932725508337,0.565841704678084,1.4085618562862063,-1.0,12.045,0.04,179.15721734252975,-13.659121300627003,108.80484289968167,1525.0,1435.0,1000.0,1795.0,1475.0,1021.47,62.0,292.98999999999995,1637227543.1999118,1637227544.2991643,fed30f95-4467-4d86-a266-f148afb3b9ca
-0.002269732113280626,0.19513876432920743,-0.27370815107192953,-0.29812911898199473,-0.39407352789252764,0.3086147457914184,-0.4553382477190155,-0.48794976181762434,-14.282247499343674,14.853837750910017,29.099400767339205,1.4482931307220304,0.5946743413618849,1.604097090519301,-1.0,12.044666666666666,0.04,179.17632972964725,-13.639446656131566,108.78336878493118,1525.0,1435.0,1000.0,1883.0,1475.0,1021.4699999999999,62.0,292.98999999999995,1637227546.3257492,1637227547.4631147,6ba0d7ff-eff6-48c7-bd17-ae8a38c42908
-0.026516476762753774,0.16095763380461553,-0.29947028981072554,-0.28490153321460193,-0.41283836813281305,0.3287349878424374,-0.47746422755943485,-0.49768692409470944,-14.54283575114389,15.203169115849459,28.743145708235787,1.4645128230990772,0.46822032240508543,1.691426779387014,-1.0,12.043333333333335,0.04,179.1584695438776,-13.629982290671654,108.77684064190447,1525.0,1435.0,1000.0,1883.0,1475.0,1021.4699999999999,62.0,292.98999999999995,1637227547.5711396,1637227548.8080852,6ba0d7ff-eff6-48c7-bd17-ae8a38c42908
-0.023252860461236573,0.17262162263676428,-0.271776937756436,-0.27670770162736186,-0.38530773036151755,0.3117786494058603,-0.45332485466285816,-0.46592569038604803,-14.578399967684097,15.029725878699784,29.231500925959637,1.4082155024189291,0.5086346402968447,1.584028928200155,-1.0,12.044555555555556,0.04,179.14004624695633,-13.653059412874878,108.73575553622702,1525.0,1435.0,1000.0,1883.0,1475.0,1021.4699999999999,62.0,292.98999999999995,1637227548.9209445,1637227550.0333183,6ba0d7ff-eff6-48c7-bd17-ae8a38c42908
