raw_voltage_G-,raw_voltage_G0,raw_voltage_G1,raw_voltage_G2,raw_voltage_G3,raw_voltage_G4,raw_voltage_G5,raw_voltage_G6,load_x,load_y,load_z,load_l,load_m,load_n,rpm,voltage,current,roll,pitch,yaw,aileron1_pwm,elevator_pwm,throttle_pwm,rudder_pwm,aileron2_pwm,pbaro,pdiff,Tt,sample_start_time,sample_end_time,uid
-0.0228348413090183,0.0941491099509448,0.0105496991839008,0.0027262247915874,-0.1147179345972423,-0.0060834018593557,-0.2709113122332982,-0.290134709149069,-13.44952358058698,20.098615751998164,11.426710727794909,0.1089928814214432,0.3477081746305264,0.5374674613195499,-1.0,12.054777777777778,0.04,179.37034201193137,3.379901608421062,78.57723663550367,1525.0,1435.0,1000.0,1528.0,1475.0,1021.47,61.0,292.85,1637225774.2935765,1637225775.4209912,9c9bcea2-c13b-4ade-b9a9-219aa0b54e78
-0.0310462023225488,0.0921269500624799,0.0101256537206794,0.0040306850328203,-0.1150471998891058,-0.0035709051192442,-0.2728589631256164,-0.294006452831476,-13.610589429331355,20.24785900991492,11.66276571932338,0.1126210434007871,0.338986722504617,0.541192794477095,-1.0,12.053333333333333,0.04,179.40637505435274,3.3894295800176217,78.27938195162822,1525.0,1435.0,1000.0,1528.0,1475.0,1021.47,61.0,292.85,1637225775.5287426,1637225776.6489582,9c9bcea2-c13b-4ade-b9a9-219aa0b54e78
-0.0233350396312305,0.0914695152608906,0.0098106328657277,0.0047155129813171,-0.1156498485074116,-0.006967651706944,-0.2733931289818632,-0.304073424861754,-13.53009415475472,20.250866674108888,11.17452356759548,0.1034102390918412,0.340174257775951,0.5424964604756344,-1.0,12.052444444444443,0.04,179.42383453569107,3.396086097398426,77.9597063311744,1525.0,1435.0,1000.0,1528.0,1475.0,1021.47,61.0,292.85,1637225776.7570686,1637225777.8767045,9c9bcea2-c13b-4ade-b9a9-219aa0b54e78
0.1156998227027341,0.3501673629631796,0.014165590698213,-0.1237642382074112,-0.1726773919189024,-0.137412585838839,-0.3268458742216399,-0.3496194201678723,-13.34649926752718,19.758141655411784,11.661766827181106,0.0972224963004453,1.3209169415960498,0.7215328424607904,-1.0,12.045555555555556,0.04,179.36096188547126,3.4120426288122414,77.49016497668185,1644.0,1435.0,1000.0,1528.0,1569.0,1021.47,61.0,292.85,1637225778.9935815,1637225780.1307783,6a12e363-2b3b-40bd-93af-ee122b83b005
0.1168437592940356,0.3525341281175712,0.0138500219859575,-0.125723394062141,-0.1726773919137557,-0.1365579205041276,-0.3274112682537634,-0.3553522526313547,-13.451339951508167,19.71084230603413,11.854089283405733,0.1032110359015076,1.3290516438969788,0.7232545475306001,-1.0,12.048444444444444,0.04,179.3758183058259,3.421640040665364,77.2627257485997,1644.0,1435.0,1000.0,1528.0,1569.0,1021.47,61.0,292.85,1637225780.239277,1637225781.365516,6a12e363-2b3b-40bd-93af-ee122b83b005
0.1175614589252921,0.3547173593983659,0.0148372699422956,-0.1235938529937159,-0.1718057428509379,-0.1410295732757014,-0.3280287092108186,-0.3593938340830663,-13.479435808094388,19.71942584286198,11.802779238772011,0.0884426499524697,1.3376942435317485,0.7217880107018062,-1.0,12.045222222222222,0.04,179.3842255097843,3.432870721503764,77.1020872884201,1644.0,1435.0,1000.0,1528.0,1569.0,1021.47,61.0,292.85,1637225781.4856825,1637225782.5955646,6a12e363-2b3b-40bd-93af-ee122b83b005
0.268698046244211,0.6286830223077096,0.0246188043297847,-0.2569210976543358,-0.2283752747064227,-0.282429571705346,-0.3838191850555655,-0.4089332000020876,-13.472624008447994,19.479754037026503,12.234591051739056,0.0704220759783319,2.3783881697163296,0.8976312098538702,-1.0,12.038555555555554,0.04,179.31965745483043,3.4439820163272983,76.82079277764227,1763.0,1435.0,1000.0,1528.0,1663.0,1021.47,61.0,292.85,1637225784.2729747,1637225785.4558456,39edb9a2-3719-4175-97ad-cfb025f2f90f
0.2690004662638578,0.6260795807041933,0.0203980727863401,-0.256487190609974,-0.2326617501712566,-0.2813513784668751,-0.3871852519587822,-0.4024245943314175,-13.37276086726002,19.499871328933565,12.052156622636067,0.071810515328924,2.369213131860428,0.9135084884915002,-1.0,12.039444444444444,0.0355555555555555,179.33225080584012,3.4487858448957365,76.71050571311406,1763.0,1435.0,1000.0,1528.0,1663.0,1021.47,61.0,292.85,1637225785.563799,1637225786.5718288,39edb9a2-3719-4175-97ad-cfb025f2f90f
0.2640828541443453,0.6268553537073812,0.0227516894475711,-0.2539100458297681,-0.2307288915957728,-0.2840468615698275,-0.3856731515785093,-0.4053699026484504,-13.329538780009566,19.534143943875744,12.128584390330037,0.0603183292973547,2.3709719459068896,0.9057551379101758,-1.0,12.038777777777776,0.0388888888888888,179.33875921720923,3.443138440532932,76.63910367444068,1763.0,1435.0,1000.0,1528.0,1663.0,1021.47,61.0,292.85,1637225786.6800318,1637225787.9140987,39edb9a2-3719-4175-97ad-cfb025f2f90f
0.2995065354626054,0.6827362115806874,0.043750705339877,-0.2944858321558217,-0.2307009506232433,-0.3091822416836043,-0.380007158163418,-0.406715453061269,-13.196525935399125,19.987810921456937,11.124568197518544,0.0993247401732132,2.594850943486411,0.8739225104789489,-1.0,12.025,0.03,179.32532802966136,3.448891783975676,76.49409116926223,1881.0,1435.0,1000.0,1528.0,1757.0,1021.47,61.0,292.85,1637225789.847574,1637225790.8729255,9326bfc8-fa18-4d42-a552-a62d354952de
0.3002461495615374,0.6843250122231849,0.0410250901767268,-0.2908699402399149,-0.2321116963257793,-0.3127707406294436,-0.3844585405478882,-0.4106600628964654,-13.340821176677926,19.951235123223,11.282559317976643,0.0826787049590448,2.599812323351443,0.8862580149863345,-1.0,12.019444444444444,0.03,179.32154258704136,3.459190736890735,76.33079348876575,1881.0,1435.0,1000.0,1528.0,1757.0,1021.47,61.0,292.85,1637225790.981243,1637225792.2136142,9326bfc8-fa18-4d42-a552-a62d354952de
0.2962741478180495,0.6776684853966305,0.0458051891392824,-0.2910342988889618,-0.2275233486720898,-0.3076345303223061,-0.3775143840176031,-0.4089616890164604,-13.232877423280277,20.031929095784808,11.107707223859425,0.0953906189712829,2.5759566483349343,0.8625945936087803,-1.0,12.024555555555557,0.03,179.3077228376207,3.4622503533317515,76.20334595340286,1881.0,1435.0,1000.0,1528.0,1757.0,1021.47,61.0,292.85,1637225792.322235,1637225793.4433277,9326bfc8-fa18-4d42-a552-a62d354952de
0.3630859560503177,0.7890077994962046,0.0694043595547036,-0.3331786161334258,-0.23498797394624,-0.3724740495739702,-0.3860884313234849,-0.4098930551908942,-13.096646842424503,20.42878887652628,11.933658897137995,0.0487609650321481,2.9919538340963263,0.8670008984526434,-1.0,12.000888888888888,0.06,179.28706379211113,3.4682540658962577,76.02852498486665,2000.0,1435.0,1000.0,1528.0,1852.0,1021.47,61.0,292.85,1637225795.2931645,1637225796.402974,db5694d4-d75d-48aa-985a-04706ca4a577
0.3533066139389689,0.7791873679086131,0.0669937652346517,-0.3290833446146691,-0.235659105432529,-0.3667351906855728,-0.3868143491185913,-0.4118242704237496,-13.10819481958876,20.51223603071616,11.904685104906108,0.0528417362363487,2.954804153407874,0.8709989069443855,-1.0,12.004499999999998,0.05,179.28903695787136,3.466124635842833,75.87727499915616,2000.0,1435.0,1000.0,1528.0,1852.0,1021.47,61.0,292.85,1637225796.5116827,1637225797.5387783,db5694d4-d75d-48aa-985a-04706ca4a577
0.349076021234938,0.7833379726377732,0.0676281898417784,-0.3318949744929041,-0.2362381959628934,-0.3706047429519891,-0.3865409657250538,-0.4103401109345324,-13.018445493062012,20.46262074215073,11.568495282434242,0.0501829550655379,2.97310141244556,0.8706201506658691,-1.0,12.00525,0.05,179.28346010841406,3.4573155861237943,75.73885780053126,2000.0,1435.0,1000.0,1528.0,1852.0,1021.47,61.0,292.85,1637225797.6475513,1637225798.7690928,db5694d4-d75d-48aa-985a-04706ca4a577
-0.1763803938677638,-0.2003904632628898,0.0087286047263435,0.1438588508388394,-0.0532072348162521,0.1468857901995398,-0.2103752554743865,-0.2365493821949921,-13.524933962437734,21.23491557079113,10.834165783379175,0.1416840297665998,-0.7686814802857921,0.3342228885944301,-1.0,12.047444444444444,0.04,179.5466580329859,3.462232898403873,75.62405787823647,1406.0,1435.0,1000.0,1528.0,1381.0,1021.47,61.0,292.85,1637225799.8835344,1637225801.10875,7766d843-6a2f-41bb-bfc7-4718ff35a1fb
-0.1892003738693507,-0.2001165320588195,0.0065234587598955,0.1401059938716965,-0.0544262285741888,0.1501866607202873,-0.2120599323615927,-0.2301530885315559,-13.685837294649394,21.16883222126666,10.836976183524309,0.1569386297284107,-0.7662190042040856,0.3412064821659335,-1.0,12.0486,0.0399999999999999,179.5666431664974,3.471626395907961,75.81556560604294,1406.0,1435.0,1000.0,1528.0,1381.0,1021.47,61.0,292.85,1637225801.2165337,1637225802.220869,7766d843-6a2f-41bb-bfc7-4718ff35a1fb
-0.180106405992188,-0.205864704338815,0.0057898710660814,0.1448636303378385,-0.0537211297160348,0.1492026999863485,-0.2110189937999187,-0.2447454040720093,-13.548824770663048,21.112373721043365,10.520555136362187,0.1436032076199807,-0.7865766842472925,0.3387828878346341,-1.0,12.046666666666669,0.04,179.56594193374258,3.467821510964758,76.00393630385462,1406.0,1435.0,1000.0,1528.0,1381.0,1021.47,61.0,292.85,1637225802.329594,1637225803.4851558,7766d843-6a2f-41bb-bfc7-4718ff35a1fb
-0.3250050565672565,-0.4599370037920222,0.0093005730216576,0.2798086939478706,0.0055137484439876,0.2741021601101317,-0.156267817651078,-0.1795804582582496,-13.618012750297762,22.14689890944172,10.763322353565355,0.1269026426036901,-1.757538747106836,0.1456732254018844,-1.0,12.035555555555554,0.03,179.6521343676087,3.459198112546402,76.12671730219455,1287.0,1435.0,1000.0,1528.0,1287.0,1021.47,61.0,292.85,1637225804.3888006,1637225805.5267868,109fb888-bc3e-4350-822f-44bcb06d26d3
-0.3261659770181441,-0.4630494104920992,0.0063591000518034,0.2779481535128442,0.0020994702581371,0.2788247332021307,-0.158259845293672,-0.1827629908444323,-13.579989499399012,22.226657258040344,10.737450965952666,0.1421090961967527,-1.7692080350279775,0.1567338221142096,-1.0,12.037666666666668,0.03,179.68206425655168,3.4556333941298893,76.18053084484528,1287.0,1435.0,1000.0,1528.0,1287.0,1021.47,61.0,292.85,1637225805.6361856,1637225806.6488771,109fb888-bc3e-4350-822f-44bcb06d26d3
-0.3282396362798373,-0.4599107063904798,0.0079725546699893,0.2749568253295759,0.0038964587719348,0.2780073226714205,-0.1563072637482259,-0.1871278108392322,-13.620656496226006,22.117025259203825,10.682160015996883,0.1463442601682819,-1.7561893913719155,0.1495990103319622,-1.0,12.037,0.03,179.6897914772327,3.4549363590955293,76.27483298998592,1287.0,1435.0,1000.0,1528.0,1287.0,1021.47,61.0,292.85,1637225806.7842567,1637225807.7799485,109fb888-bc3e-4350-822f-44bcb06d26d3
-0.3795825648270647,-0.5606785061472843,0.0143031041266465,0.3363639721771183,0.0276024626605516,0.3333918191646427,-0.1330307825102637,-0.1564792929410121,-13.479347511573843,23.07330291402329,12.658585138138264,0.139321824541594,-2.159790056228761,0.0663800200705103,-1.0,12.019444444444446,0.03,179.7081024554876,3.468752171671041,76.32554486784356,1169.0,1435.0,1000.0,1528.0,1193.0,1021.47,61.0,292.85,1637225809.9188926,1637225811.0603037,61fb8be6-39a6-4a9c-ac2d-dde610008bce
-0.3774459013124233,-0.5530495207483038,0.0110159300173072,0.3328987431026733,0.0239454814829208,0.33167974946731,-0.1379067577056539,-0.1671900024501189,-13.614394479455749,22.998793400195705,12.99421322013804,0.142619193097498,-2.1329785656551405,0.0840863274118028,-1.0,12.019333333333332,0.03,179.70014149055498,3.45315560071286,76.25751390698049,1169.0,1435.0,1000.0,1528.0,1193.0,1021.47,61.0,292.85,1637225811.1688137,1637225812.1713674,61fb8be6-39a6-4a9c-ac2d-dde610008bce
-0.369584075180711,-0.5484200826216817,0.013015627605931,0.327447513125143,0.0239317849272346,0.3289267413734703,-0.1362905636949586,-0.1586844394898667,-13.524452695605452,22.98700474595224,12.547945976144694,0.1487250155934939,-2.1114989551926526,0.079028740509445,-1.0,12.021777777777778,0.03,179.68586487736985,3.4589437828635576,76.1975865861127,1169.0,1435.0,1000.0,1528.0,1193.0,1021.47,61.0,292.85,1637225812.280284,1637225813.40083,61fb8be6-39a6-4a9c-ac2d-dde610008bce
-0.4109339936394448,-0.6355302228679167,0.0265478276084471,0.375536126876453,0.0546531659512837,0.3654143708345514,-0.109623362444551,-0.1352770190770143,-13.691260214999632,23.6214288584313,12.044743936058758,0.1269567673904358,-2.4376265629365723,-0.0304346263088877,-1.0,11.9812,0.15,179.70312673856822,3.452209406069401,76.07573160964222,1050.0,1435.0,1000.0,1528.0,1098.0,1021.47,61.0,292.85,1637225815.3359025,1637225816.473904,757b84e4-e3ad-4ceb-9102-c1808c777962
-0.4205489797490694,-0.64065273756702,0.0278490006861959,0.3727831188125581,0.0562967529886324,0.3735501260474607,-0.1056102705256473,-0.1403447456420559,-13.666496835839537,23.637179058110856,12.147485897118989,0.1516470499849328,-2.4575032672740984,-0.0406488827255961,-1.0,11.983555555555556,0.14,179.69791181324592,3.4496127009561963,75.83482840910418,1050.0,1435.0,1000.0,1528.0,1098.0,1021.47,61.0,292.85,1637225816.5822554,1637225817.7015555,757b84e4-e3ad-4ceb-9102-c1808c777962
-0.414652884035597,-0.642743381013982,0.0260388635030014,0.3816584880842237,0.0556497275824869,0.3657617155301915,-0.1105235003053628,-0.1449467898974517,-13.754014938476445,23.72620116138929,11.88459313884185,0.1145388375497364,-2.4636009990149,-0.030948477065998,-1.0,11.986333333333333,0.14,179.68832070983143,3.4372054251695223,75.62138044408181,1050.0,1435.0,1000.0,1528.0,1098.0,1021.47,61.0,292.85,1637225817.8100705,1637225819.0426066,757b84e4-e3ad-4ceb-9102-c1808c777962
-0.0125695443318524,0.1017008443917909,0.0157138497040166,0.0037841469921684,-0.1124585501532581,-0.0145692418815872,-0.2707359962562367,-0.2875005866332941,-13.496346727373824,20.29007775576123,11.429251057812104,0.0890408528894039,0.3765410318508745,0.5279164752267643,-1.0,12.053666666666668,0.04,179.46526039191713,3.4467731446725023,75.40105447856529,1525.0,1435.0,1000.0,1528.0,1475.0,1021.47,61.0,292.85,1637225819.8409262,1637225820.8864682,5bd525ad-c6fa-4d13-8c56-d68c7a3802ab
-0.0255264890542737,0.0951264963609526,0.0081259561379372,0.0034554295842493,-0.1169373250897452,-0.0083236110246724,-0.2748860540597855,-0.2893085325899367,-13.54692770908838,20.12814516401137,11.315440743049557,0.1023222249346763,0.3528066211549912,0.5493408500457925,-1.0,12.053999999999998,0.04,179.4783971224208,3.4448906449303216,75.68609117409834,1525.0,1435.0,1000.0,1528.0,1475.0,1021.47,61.0,292.85,1637225820.993992,1637225822.1157572,5bd525ad-c6fa-4d13-8c56-d68c7a3802ab
-0.0210203211447524,0.0958715891360403,0.0075649450891577,0.0046590831727201,-0.1192542350871465,-0.0086473976744048,-0.2776171482189528,-0.2946578611479225,-13.544535748263254,20.32812599017927,11.515544562776808,0.1002103497129475,0.3536303581729819,0.5574523169531936,-1.0,12.053222222222225,0.04,179.50138602134723,3.4581470460400627,76.0411934679572,1525.0,1435.0,1000.0,1528.0,1475.0,1021.47,61.0,292.85,1637225822.22451,1637225823.3503635,5bd525ad-c6fa-4d13-8c56-d68c7a3802ab
-0.0204587622501564,0.0883603964960781,-0.0070361344850946,-0.2052801352005925,-0.1512609032967791,0.2034388786092812,-0.2299613363702265,-0.2555602077318909,-13.546644966400478,19.638048657820487,13.27152796559117,1.045345181883715,0.3348211884028389,0.5531064964417163,-1.0,12.053777777777778,0.04,179.52366761623966,3.508629306218712,76.59840713063603,1525.0,1535.0,1000.0,1528.0,1475.0,1021.47,61.0,292.85,1637225825.3713934,1637225826.4138992,0744b466-e75a-4260-961f-e32c65ce02d1
-0.0131968467173191,0.0884820219341115,-0.0078716245779508,-0.2069691949627702,-0.1529937920270081,0.2029545683339477,-0.2311759473183366,-0.2556325254787034,-13.5125516841739,19.69183279750133,12.989962031910103,1.0483541952137414,0.3376874715753242,0.5579395168678317,-1.0,12.054333333333334,0.04,179.52655906298827,3.513433229650888,76.74784408057683,1525.0,1535.0,1000.0,1528.0,1475.0,1021.47,61.0,292.85,1637225826.5230863,1637225827.6408968,0744b466-e75a-4260-961f-e32c65ce02d1
-0.0225587186650826,0.0915456681278429,-0.0060439557647718,-0.2066404775194024,-0.1524678441355771,0.1998383274560574,-0.2305185124336893,-0.2552512131349809,-13.448112413588404,19.73401302991521,13.025424360842644,1.041018793407521,0.3484837280933318,0.5542471484558824,-1.0,12.050375,0.04,179.5267104655149,3.5041678023440257,76.87668620775901,1525.0,1535.0,1000.0,1528.0,1475.0,1021.47,61.0,292.85,1637225827.7495587,1637225828.8735,0744b466-e75a-4260-961f-e32c65ce02d1
-0.0098439290942281,0.0885384517562791,-0.0187603889014184,-0.3991823438856195,-0.1861734340860119,0.3907393057630788,-0.1927066931459242,-0.2141007202079261,-13.507809730514143,19.61352701443212,14.637400062896248,1.90312105699022,0.3462382887752469,0.5638824575887138,-1.0,12.047222222222224,0.04,179.54547413352978,3.5565935744711528,77.11674715110865,1525.0,1636.0,1000.0,1528.0,1475.0,1021.47,61.0,292.85,1637225830.8081565,1637225831.945035,6f9bd960-349b-4d65-b662-cd5064913bb6
-0.0009411658370299,0.0919351982447137,-0.0132406756596798,-0.4043596441125245,-0.1814755140632341,0.3936429759507496,-0.1852831576984919,-0.2048007560144282,-13.433724069635312,19.505794494057536,14.896156948559124,1.9209639256257296,0.3571459672530801,0.5402168019255028,-1.0,12.049,0.04,179.5234035155917,3.583296246463187,77.14217822211835,1525.0,1636.0,1000.0,1528.0,1475.0,1021.47,61.0,292.85,1637225832.053355,1637225833.1801784,6f9bd960-349b-4d65-b662-cd5064913bb6
-0.0038722294398194,0.0897848385720493,-0.0170620155994867,-0.4056882105818822,-0.1857899304160337,0.3961220528525458,-0.1893236428594042,-0.2181959916495262,-13.448582932031256,19.606850455524903,14.743824229312002,1.929979535562224,0.3504591357319326,0.5565163288902897,-1.0,12.050222222222224,0.04,179.5109983742392,3.581610399250859,77.19375070381138,1525.0,1636.0,1000.0,1528.0,1475.0,1021.47,61.0,292.85,1637225833.2978668,1637225834.4087229,6f9bd960-349b-4d65-b662-cd5064913bb6
-0.0050183574912268,0.0891131593463409,-0.0207179011365421,-0.5593280250801196,-0.2093228118413807,0.5459645821580499,-0.1542692156995245,-0.1700345041140227,-13.33505114195554,19.70915501613356,15.957699566020633,2.614016284113776,0.3550641547083106,0.5439633738759615,-1.0,12.044333333333334,0.04,179.5145789111841,3.629232683726107,77.23400783877943,1525.0,1737.0,1000.0,1528.0,1475.0,1021.47,61.0,292.85,1637225836.3378508,1637225837.475588,01243501-069c-47b4-95d9-a97e1fa8fcb7
-0.005351457794711,0.0842788220761995,-0.0234993983226033,-0.559979981506059,-0.2113066215832525,0.5521669311638716,-0.1561094854477809,-0.187995076841021,-13.42213431899333,19.77456562307067,16.06251391989429,2.629692431834855,0.3365248840601983,0.5525464479089388,-1.0,12.046333333333331,0.04,179.50098228127632,3.626304050391988,77.19510915254631,1525.0,1737.0,1000.0,1528.0,1475.0,1021.47,61.0,292.85,1637225837.5848472,1637225838.7047832,01243501-069c-47b4-95d9-a97e1fa8fcb7
0.0055236099232094,0.0916475705197634,-0.0198150239600727,-0.5683622779494936,-0.2101835036594685,0.5532489591881486,-0.1524114143537386,-0.1717372604994973,-13.374380424562256,19.75263519669481,16.17380783126025,2.6511121571689187,0.3641030233001678,0.5417467365092143,-1.0,12.047,0.04,179.48768162623253,3.6313840510190536,77.17913637571728,1525.0,1737.0,1000.0,1528.0,1475.0,1021.47,61.0,292.85,1637225838.8137653,1637225839.9328926,01243501-069c-47b4-95d9-a97e1fa8fcb7
0.0010431916016569,0.0907041515753323,-0.0176016600392116,-0.5492035260453281,-0.2099802467136355,0.5335653627551378,-0.1593972076287899,-0.181868331860191,-13.342402605986026,20.22835185970086,15.728190584545318,2.566871894247005,0.3620773228213382,0.547651563688123,-1.0,12.042,0.04,179.5016744071122,3.624404024574124,77.0997285964267,1525.0,1837.0,1000.0,1528.0,1475.0,1021.47,61.0,292.85,1637225841.772026,1637225842.8009102,1f39e479-36d7-4b63-b33a-c5621bd90afb
-0.0078990177414464,0.0848129878606028,-0.0211161970509471,-0.5401747520303571,-0.2104711314149305,0.5303894050452279,-0.1633823586278963,-0.1930901970959917,-13.431959164979904,20.19995299904131,15.610049399411258,2.538941218259764,0.3403278988810134,0.557933605463918,-1.0,12.041666666666666,0.03,179.47955218330043,3.6347895643664745,77.07639742913184,1525.0,1837.0,1000.0,1528.0,1475.0,1021.47,61.0,292.85,1637225842.9109163,1637225844.0348597,1f39e479-36d7-4b63-b33a-c5621bd90afb
-0.0049131679014449,0.0863470024035744,-0.0183631886949024,-0.5371615084174218,-0.2093617100368824,0.5258147548912903,-0.1628071031183152,-0.1895838778437049,-13.355142147405036,20.338692009171947,15.578600717118093,2.5229546829299587,0.3456223071898375,0.5520152983832972,-1.0,12.040666666666668,0.03,179.47815578907014,3.624200399559493,77.04589759884811,1525.0,1837.0,1000.0,1528.0,1475.0,1021.47,61.0,292.85,1637225844.147271,1637225845.144745,1f39e479-36d7-4b63-b33a-c5621bd90afb
-0.0238281157623635,0.1031800726953782,0.0316292509403449,0.2252164057959755,-0.0766283509749869,-0.2305913781624751,-0.3186191719733986,-0.3415746082078855,-13.599316859460288,21.043547849165847,9.781973356868216,-0.8904137488550893,0.3711762946833309,0.5250113824076416,-1.0,12.046555555555557,0.04,179.4905882511794,3.4924472362666776,76.9856743031163,1525.0,1334.0,1000.0,1528.0,1475.0,1021.47,61.0,292.85,1637225846.8750296,1637225847.9212985,2668f32a-2a29-4865-bd8d-3874f69be15f
-0.031302601927397,0.1007366066786075,0.0289578741323905,0.2248471466026373,-0.0791507093257721,-0.2314783673805183,-0.3197324284289352,-0.3488436469904205,-13.44640493047376,20.985086120014195,9.252827780101,-0.8921019172800853,0.3654944635518743,0.5327590645469209,-1.0,12.050333333333334,0.04,179.4939380795123,3.3903986131061177,77.07957498491572,1525.0,1334.0,1000.0,1528.0,1475.0,1021.47,61.0,292.85,1637225848.030428,1637225849.1543255,2668f32a-2a29-4865-bd8d-3874f69be15f
-0.0327024323591909,0.0961547918224816,0.0265552027277888,0.2277428939613364,-0.0805561027359529,-0.2262664258798654,-0.3218726319406745,-0.3354385487001124,-13.535232101921563,21.07553640004124,9.716228434058015,-0.8864129611498682,0.344324149641975,0.5410208949896378,-1.0,12.053777777777778,0.04,179.505107715535,3.3825705997029827,77.2478769173441,1525.0,1334.0,1000.0,1528.0,1475.0,1021.47,61.0,292.85,1637225849.267048,1637225850.3786995,2668f32a-2a29-4865-bd8d-3874f69be15f
-0.0459633987055704,0.1002369562276542,0.0440657261996449,0.4311238794197204,-0.046384156943968,-0.4276569472548205,-0.3642933675064025,-0.3951928098436301,-13.562091870116184,21.84336584651061,8.17504467598797,-1.792039280144356,0.349566870929568,0.5307763740605927,-1.0,12.04977777777778,0.04,179.51700286942952,3.328244318545824,77.40871421191956,1525.0,1234.0,1000.0,1528.0,1475.0,1021.47,61.0,292.85,1637225851.3848124,1637225852.4282944,d55860ac-a82b-43ca-85e0-c9a62df7cd07
-0.0386888822705644,0.1015638788049917,0.0417920974582348,0.4259668516091291,-0.04867367376604,-0.4255482246461599,-0.3661599348649627,-0.3885812063719716,-13.642905836890728,21.79840281196836,7.969720019349547,-1.7761523941702797,0.3574254480208557,0.5394392658487374,-1.0,12.048333333333334,0.04,179.50740721255556,3.3223446715024223,77.48174335343525,1525.0,1234.0,1000.0,1528.0,1475.0,1021.47,61.0,292.85,1637225852.5405362,1637225853.65607,d55860ac-a82b-43ca-85e0-c9a62df7cd07
-0.039586280819561,0.0997373057803673,0.0407128086431606,0.4243654501130102,-0.0493426137064716,-0.4222922780344146,-0.3663971592899366,-0.3847264458300252,-13.682238643964356,21.7957269816147,7.9637013471956335,-1.7653157162874755,0.3510351201746027,0.5418893789891606,-1.0,12.049666666666669,0.04,179.5070778456556,3.3246595364486256,77.55548662917414,1525.0,1234.0,1000.0,1528.0,1475.0,1021.47,61.0,292.85,1637225853.7634797,1637225854.9804597,d55860ac-a82b-43ca-85e0-c9a62df7cd07
-0.0444414370380357,0.104289493910931,0.0589538853607384,0.5513040480255681,-0.0253895234672035,-0.5472832683393692,-0.3904850275460996,-0.408235771279701,-13.746642466387348,22.768620051165744,7.412642763462112,-2.3252920889580326,0.3589924743527449,0.5191380732526556,-1.0,12.049,0.04,179.50929689822593,3.3140338253863977,77.65748867423912,1525.0,1133.0,1000.0,1528.0,1475.0,1021.47,61.0,292.85,1637225855.792619,1637225857.0313065,5a76f8e5-797e-4bf3-882a-7c79a7068e44
-0.0433594088775148,0.1009612302351196,0.053872462135663,0.5354023450184764,-0.0312105610290563,-0.5318335455526988,-0.3894440888517087,-0.4131802299890607,-13.639553306780543,22.652710539900664,7.04922656430404,-2.255729576725281,0.3506061989728953,0.5315787482121621,-1.0,12.042666666666667,0.04,179.50700195466482,3.296781550168787,77.72457023880753,1525.0,1133.0,1000.0,1528.0,1475.0,1021.47,61.0,292.85,1637225857.139825,1637225858.1666963,5a76f8e5-797e-4bf3-882a-7c79a7068e44
-0.047783397468489,0.1001120436143591,0.0532013307203703,0.5389223602380148,-0.0300326570047451,-0.5324088012593305,-0.3897728064537669,-0.4214255600993449,-13.708497774767377,22.557541855559844,7.307461251072406,-2.2656203883916146,0.3451429279587438,0.5316404240488843,-1.0,12.043,0.04,179.48882302673388,3.2762897494301493,77.73770393367155,1525.0,1133.0,1000.0,1528.0,1475.0,1021.47,61.0,292.85,1637225858.275121,1637225859.3928382,5a76f8e5-797e-4bf3-882a-7c79a7068e44
-0.0526319793851419,0.1015090925702512,0.0505578949614576,0.5282253489959845,-0.0371000813903258,-0.5230403524252064,-0.3922107942298887,-0.4160017218419651,-13.603537515835464,22.824615183783195,7.4101646006673905,-2.218730354649249,0.3498835515349492,0.5485248746770783,-1.0,12.036333333333332,0.04,179.49203473346358,3.2662565098465506,77.73799611398606,1525.0,1033.0,1000.0,1528.0,1475.0,1021.47,61.0,292.85,1637225861.3285706,1637225862.46148,e2420e57-f302-44a1-bc60-260264fe9a3e
-0.0434278917062988,0.1019473824385178,0.0512427228916368,0.5223495259016989,-0.0373055297778017,-0.5176986931181194,-0.3912520349509251,-0.4154264663865143,-13.694548612182794,22.8870859074383,7.467427398286755,-2.193060974453481,0.3524319539454661,0.5464991301167123,-1.0,12.038000000000002,0.03,179.4745039145939,3.274608479393203,77.7026567152204,1525.0,1033.0,1000.0,1528.0,1475.0,1021.47,61.0,292.85,1637225862.5702286,1637225863.89519,e2420e57-f302-44a1-bc60-260264fe9a3e
-0.0434782950174282,0.1072715086084394,0.0550974823576549,0.5211003998755709,-0.0340375307765215,-0.5206314010608296,-0.3886579062122562,-0.4100245423350777,-13.753312216850636,22.84802323506305,7.654100767958039,-2.196900271680941,0.371559599974549,0.533971540213866,-1.0,12.042333333333335,0.04,179.4757758475993,3.287610266228884,77.70139313022395,1525.0,1033.0,1000.0,1528.0,1475.0,1021.47,61.0,292.85,1637225864.0028532,1637225865.0114515,e2420e57-f302-44a1-bc60-260264fe9a3e
-0.0267137068098631,0.0927027533823233,0.0083407181829098,-0.0069775132285422,-0.1177684323150511,0.0052507745064036,-0.2699120111818762,-0.2887015009811862,-13.432195890971768,20.089198522960498,11.561507036947324,0.1562093337969735,0.3420206612284249,0.5431566503877941,-1.0,12.05211111111111,0.04,179.49665497698214,3.4252113283957644,77.73253651610949,1525.0,1435.0,1000.0,1528.0,1475.0,1021.47,61.0,292.85,1637225866.8262303,1637225867.7751253,356a4e65-3d04-422d-8020-ae9b162aa5a6
-0.0272659520555222,0.0961674347963971,0.010372191782371,-0.0076250865333881,-0.116362069592326,0.0022364358462752,-0.2696950576638688,-0.2997179185345484,-13.512776383782787,20.11787114540435,11.53957498978512,0.1511436489041307,0.3559890361365963,0.5384776117554358,-1.0,12.052222222222222,0.04,179.4887274040855,3.430393331257624,77.74255412689217,1525.0,1435.0,1000.0,1528.0,1475.0,1021.47,61.0,292.85,1637225867.8832018,1637225868.9029267,356a4e65-3d04-422d-8020-ae9b162aa5a6
-0.0235054248196646,0.1001712127473096,0.0124299627711377,-0.0113691778633502,-0.1159802095172036,0.0012667194745877,-0.2684262083116268,-0.2988785934630102,-13.490733188944173,20.149519559853896,11.481632983615324,0.1577244435833498,0.3719551261791504,0.5337182981891254,-1.0,12.05188888888889,0.04,179.4965320335771,3.433068132943526,77.73616334655877,1525.0,1435.0,1000.0,1528.0,1475.0,1021.47,61.0,292.85,1637225869.010968,1637225870.24487,356a4e65-3d04-422d-8020-ae9b162aa5a6
0.0040169884311628,0.1088641444187792,0.0889767416222934,-0.0181714368762647,-0.0460302378635389,-0.0034339395111979,-0.1880498627963983,-0.2066634880849915,-12.976042821829864,20.082326806750853,11.735866017231425,0.1661713628701745,0.4043518140897839,0.2214017210140613,-1.0,12.053444444444445,0.04,179.49895902746215,3.4361799955885046,77.71537149181535,1525.0,1435.0,1000.0,1439.0,1475.0,1021.47,61.0,292.85,1637225871.3591526,1637225872.3857162,6ce1cb73-d94b-4f04-8003-c372c45ae166
0.0112898611804549,0.1102885864858313,0.0931404953881475,-0.0211572867243646,-0.0431402638965403,-0.0043790020709194,-0.1835299980393183,-0.2082522889561279,-12.883538486960616,20.083400215487227,11.442169606344146,0.1709972171469861,0.412274238848412,0.2051506874196488,-1.0,12.05211111111111,0.04,179.49539670435504,3.434619629386242,77.69932585963517,1525.0,1435.0,1000.0,1439.0,1475.0,1021.47,61.0,292.85,1637225872.493816,1637225873.5210865,6ce1cb73-d94b-4f04-8003-c372c45ae166
0.0046059404669636,0.1102748899262456,0.0938253233060997,-0.0185960301997291,-0.041250138753456,-0.0054747267816696,-0.1831601909275543,-0.2086631861396225,-12.967025700139748,20.033068748103503,11.624778450384648,0.1624449402590582,0.4109225281665566,0.2013568723558039,-1.0,12.053555555555556,0.04,179.49613436478543,3.425840108970294,77.70015534816437,1525.0,1435.0,1000.0,1439.0,1475.0,1021.47,61.0,292.85,1637225873.6286771,1637225874.7498672,6ce1cb73-d94b-4f04-8003-c372c45ae166
0.0386484632832946,0.1277571769609106,0.1815879377885938,-0.0277393051069528,0.036163359722373,-0.0195476671380066,-0.0943900490447465,-0.1287081485504821,-12.302123602096367,20.041184724696585,11.538482632739658,0.1561908850983552,0.47924011000729,-0.1477278549561279,-1.0,12.051,0.0399999999999999,179.50353495064212,3.4446154309954524,77.67911715126488,1525.0,1435.0,1000.0,1351.0,1475.0,1021.47,61.0,292.85,1637225876.889179,1637225878.0264904,67ea0918-9f8f-4b91-8b3e-15091b431e8c
0.0335878587892677,0.1250260832392331,0.1795657779460841,-0.0263071928893964,0.0346151007228148,-0.0198150239454884,-0.0956391752613274,-0.1151293797544471,-12.232565052460496,20.02774256486664,11.294874634591524,0.152165986077904,0.4703588754983305,-0.14169148664507,-1.0,12.04922222222222,0.04,179.49323988239718,3.432262502644549,77.6561787957383,1525.0,1435.0,1000.0,1351.0,1475.0,1021.47,61.0,292.85,1637225878.1353729,1637225879.2565382,67ea0918-9f8f-4b91-8b3e-15091b431e8c
0.0414885816694864,0.127586243914672,0.1826135360501558,-0.0264638815378662,0.0364000362478659,-0.020021020210178,-0.0936405733242873,-0.1162694811786612,-12.224941005067803,20.103058806803705,11.619969788320192,0.1527632344402605,0.4772395439698446,-0.1503813020586422,-1.0,12.050777777777778,0.04,179.50205082642643,3.4373055064136104,77.64530209894,1525.0,1435.0,1000.0,1351.0,1475.0,1021.47,61.0,292.85,1637225879.364606,1637225880.4844773,67ea0918-9f8f-4b91-8b3e-15091b431e8c
0.066788316845827,0.1367777302356576,0.2719079715690182,-0.0248827507617863,0.1173560105636691,-0.0365248259092195,-0.0046666298442641,-0.0257593307447205,-11.635193853323884,20.24716951213782,11.44265974409034,0.1177805292213689,0.5145791791808868,-0.507815115383189,-1.0,12.051,0.04,179.4984095766889,3.4392704664604588,77.66597859937744,1525.0,1435.0,1000.0,1262.0,1475.0,1021.47,61.0,292.85,1637225882.3059757,1637225883.2360487,d9447311-81ea-43f9-a2b9-0de28a738c4d
0.068404510755454,0.1417084911997483,0.2750855729958518,-0.0245403367943103,0.1204651293226875,-0.0403872555467141,-0.0019684077192293,-0.0320460513310831,-11.624231655711084,20.1413326135184,11.64892730474184,0.1078237481686259,0.5313242883214376,-0.5192813107772706,-1.0,12.049,0.04,179.49996078854045,3.429714059458292,77.64781105509512,1525.0,1435.0,1000.0,1262.0,1475.0,1021.47,61.0,292.85,1637225883.344139,1637225884.3861225,d9447311-81ea-43f9-a2b9-0de28a738c4d
0.0619808248013584,0.1365037990703294,0.2734145929450104,-0.025266254404107,0.1187667560912049,-0.0363193775045625,-0.0024614838368764,-0.0181440439665227,-11.580829824476988,20.22141879291924,11.397844925084328,0.1190318262599331,0.5137064806933772,-0.5149810796291587,-1.0,12.049666666666669,0.04,179.49778575274473,3.429853414290108,77.60133768907245,1525.0,1435.0,1000.0,1262.0,1475.0,1021.47,61.0,292.85,1637225884.4946592,1637225885.604483,d9447311-81ea-43f9-a2b9-0de28a738c4d
0.0864976645024872,0.1499949089178396,0.3453215208205358,-0.0101726464962041,0.1837158349766547,-0.0663696281513946,0.0604331135880185,0.0313005332178699,-11.348736849717008,20.56991880015151,11.4944750579504,0.0234803858830739,0.5645132976276961,-0.7890893031624427,-1.0,12.047444444444444,0.04,179.4847871438443,3.4305030886030354,77.62773940585417,1525.0,1435.0,1000.0,1173.0,1475.0,1021.47,61.0,292.85,1637225887.4321172,1637225888.471616,745271f3-2346-444d-abc2-0043f7818da3
0.0873194579996387,0.1515700131120297,0.3513206131023298,-0.0110492262442606,0.1886055062728547,-0.0686843466443919,0.0682538486249002,0.045421685277483,-11.087660112823164,20.47490302465984,11.323127934967196,0.0200292028576485,0.570578329061179,-0.8148988903768094,-1.0,12.045111111111112,0.04,179.46534994328627,3.4212910844033924,77.54966123672203,1525.0,1435.0,1000.0,1173.0,1475.0,1021.47,61.0,292.85,1637225888.5798218,1637225889.797961,745271f3-2346-444d-abc2-0043f7818da3
0.088976741573203,0.1524191997206329,0.3542790695206052,-0.0127886892803304,0.19111197636097,-0.0682186636724603,0.0708972843554744,0.0390253923772439,-11.129305623516364,20.499172908473657,11.301418921671742,0.0252832326517638,0.5746525853625373,-0.826091387513283,-1.0,12.047,0.04,179.46847968774597,3.434419964932692,77.54153938288898,1525.0,1435.0,1000.0,1173.0,1475.0,1021.47,61.0,292.85,1637225889.9312932,1637225890.9296937,745271f3-2346-444d-abc2-0043f7818da3
-0.051440378755347,0.0785536606393289,-0.0822302437124544,0.0074822178693397,-0.2006780910232506,0.0101667433858699,-0.3686664055302671,-0.3919642567502036,-14.225408909611572,20.46537941959701,11.45322142028902,0.1322059363595883,0.2880112216650936,0.9176989200235492,-1.0,12.051666666666668,0.04,179.47022821617344,3.4354799486304475,77.623848474757,1525.0,1435.0,1000.0,1617.0,1475.0,1021.47,61.0,292.85,1637225892.7944667,1637225893.8887017,7bcc1c5f-9214-45aa-a074-087a73004817
-0.0647791837583713,0.0727561813547112,-0.0867901022188248,0.0086825842736838,-0.2033401544119352,0.0146126463505296,-0.3710386499121775,-0.3916295125440815,-14.231351192931813,20.40899597200306,11.408892416906196,0.138877860740306,0.2662642766311611,0.9301833986266168,-1.0,12.053555555555556,0.04,179.47564076163573,3.426711171532882,77.61930032767968,1525.0,1435.0,1000.0,1617.0,1475.0,1021.47,61.0,292.85,1637225893.9963038,1637225895.0259037,7bcc1c5f-9214-45aa-a074-087a73004817
-0.0609731838785864,0.0726778370463993,-0.0868048945084901,0.0106735160698615,-0.2029243268567712,0.0123718893598814,-0.3726384082557477,-0.4037159060392474,-14.34229336825215,20.454085347741824,11.333939772460838,0.1295818992522681,0.2671746632988399,0.9317210778620956,-1.0,12.052,0.04,179.48915694709328,3.42842120899852,77.65101365490595,1525.0,1435.0,1000.0,1617.0,1475.0,1021.47,61.0,292.85,1637225895.133567,1637225896.1406994,7bcc1c5f-9214-45aa-a074-087a73004817
-0.0956391752988178,0.0588711581805468,-0.1850371674931165,0.033139159547519,-0.2920938647945395,0.0103787661177876,-0.4788711309455554,-0.5014605970874677,-14.950371745818495,20.689789519118825,11.281558002607792,0.0707828565635323,0.2111699042633013,1.3362578852946,-1.0,12.050000000000002,0.04,179.50351855818812,3.432980716008524,77.6933881485167,1525.0,1435.0,1000.0,1706.0,1475.0,1021.47,61.0,292.85,1637225896.792178,1637225897.889239,6d386dfd-855f-4951-a0c5-854e294a7f55
-0.0952008854108164,0.0579951262928106,-0.1852146749231749,0.034916425010451,-0.2927326723922178,0.0086053356871992,-0.4794168019783133,-0.5150415604631665,-14.874593642041413,20.738419090542987,11.136394274255778,0.0631171835909626,0.2084052480154118,1.3378847233980071,-1.0,12.051333333333334,0.04,179.49786771501476,3.4264672768612696,77.67399496473331,1525.0,1435.0,1000.0,1706.0,1475.0,1021.47,61.0,292.85,1637225897.9976704,1637225899.0359774,6d386dfd-855f-4951-a0c5-854e294a7f55
-0.0986661149298263,0.0587073473378936,-0.1862282203368193,0.0305061331233411,-0.2936503419335717,0.0133443450290899,-0.4794989813375502,-0.5077275962357006,-14.95553986352388,20.70543421993216,11.328453594702813,0.0834356489273934,0.2104253990589666,1.340908524022624,-1.0,12.049444444444443,0.04,179.4998621302524,3.431760815763637,77.66013802872719,1525.0,1435.0,1000.0,1706.0,1475.0,1021.47,61.0,292.85,1637225899.145216,1637225900.236758,6d386dfd-855f-4951-a0c5-854e294a7f55
-0.1265249168056115,0.0476679211150566,-0.2666544212902131,0.0690071593465639,-0.3659133967682611,-0.0102411293017868,-0.5747311794613102,-0.6040007347908697,-15.535908193374274,21.126617282186142,10.799922749571971,-0.0580019513959714,0.1679811490279352,1.682231176624623,-1.0,12.050111111111113,0.04,179.51903371234278,3.430415576804295,77.66228877940583,1525.0,1435.0,1000.0,1795.0,1475.0,1021.47,61.0,292.85,1637225902.3756778,1637225903.3071816,9938e3f4-61e6-4899-93a5-dd6d8f933fcf
-0.1232788321822545,0.0458325822598152,-0.2674762149301162,0.0712123052707788,-0.3665708317242908,-0.008871473396647,-0.5741148341553585,-0.5928517329231308,-15.397395913286529,21.100968533523787,11.026291499321024,-0.0600035610877638,0.1577868230754984,1.6835932011913972,-1.0,12.0498,0.0399999999999999,179.51119022666384,3.424490492049421,77.61995541871207,1525.0,1435.0,1000.0,1795.0,1475.0,1021.47,61.0,292.85,1637225903.415557,1637225904.6510174,9938e3f4-61e6-4899-93a5-dd6d8f933fcf
-0.1256620335288511,0.0439287606141022,-0.2733931289845519,0.0696372010541846,-0.3716522558523475,-0.0053925474246622,-0.5811274742952435,-0.6060689162952603,-15.630598790639755,21.18107264404565,10.999993262561183,-0.0485180841751772,0.152350154392634,1.708086969865832,-1.0,12.049555555555555,0.04,179.51096346438342,3.428426165628856,77.56213923342574,1525.0,1435.0,1000.0,1795.0,1475.0,1021.47,61.0,292.85,1637225904.7598484,1637225905.8803394,9938e3f4-61e6-4899-93a5-dd6d8f933fcf
-0.14350865063509843,0.03842274403770994,-0.32897377218343066,0.10379641780321906,-0.42224735357350407,-0.027608366012040104,-0.6485419584609888,-0.6740175672005967,-15.878466132168063,21.518673984200916,11.070183443169164,-0.1761379450497369,0.1251079732816792,1.9481661003381283,-1.0,12.041777777777778,0.04,179.54631197006796,3.407380431805342,77.58231788896367,1525.0,1435.0,1000.0,1883.0,1475.0,1021.4699999999999,61.0,292.84999999999997,1637225907.814201,1637225908.9516017,7d4f6b34-4e0e-4727-a799-d9bf1ae859ba
-0.13462506207082015,0.03812251547015644,-0.32354555101806937,0.10479955374631507,-0.4171248393870608,-0.029816799169864013,-0.6444132660869195,-0.6767590712382585,-15.940063640601934,21.590754698096227,10.882103777882417,-0.18267628481620954,0.12630668617905783,1.9275459478704169,-1.0,12.045444444444444,0.04,179.54263125701522,3.399922742721269,77.51263174559176,1525.0,1435.0,1000.0,1883.0,1475.0,1021.4699999999999,61.0,292.84999999999997,1637225909.0605285,1637225910.1809375,7d4f6b34-4e0e-4727-a799-d9bf1ae859ba
-0.14137034372793403,0.03449347528929615,-0.3282264876505215,0.10649573553964307,-0.4204383115620713,-0.028278401658584355,-0.6485682556257971,-0.6769694502079137,-15.989447269482321,21.57972960510148,10.783784978868423,-0.18339216786983265,0.11341073159901648,1.943762546228692,-1.0,12.043444444444443,0.04,179.5389004559086,3.4091490713454218,77.48811288429124,1525.0,1435.0,1000.0,1883.0,1475.0,1021.4699999999999,61.0,292.84999999999997,1637225910.2905042,1637225911.4097912,7d4f6b34-4e0e-4727-a799-d9bf1ae859ba
