raw_voltage_G-,raw_voltage_G0,raw_voltage_G1,raw_voltage_G2,raw_voltage_G3,raw_voltage_G4,raw_voltage_G5,raw_voltage_G6,load_x,load_y,load_z,load_l,load_m,load_n,rpm,voltage,current,roll,pitch,yaw,aileron1_pwm,elevator_pwm,throttle_pwm,rudder_pwm,aileron2_pwm,pbaro,pdiff,Tt,sample_start_time,sample_end_time,uid
0.0064275827749188,0.1280119329435946,-0.0026395390906238,-0.0905577517519082,-0.1111436804496218,0.1474473490869858,-0.2155936448391754,-0.2406446538798525,-13.131082432249016,16.25980443112474,25.95568856488147,0.6407943931217439,0.3542745601603849,0.4973865475191236,-1.0,12.052666666666664,0.04,178.97488316590656,-6.347413327934071,97.9203338827996,1525.0,1435.0,1000.0,1528.0,1475.0,1021.47,61.0,292.85,1637226281.9867916,1637226283.1301863,9a55e2c4-3ae3-4afd-ab7c-0d6c8f4a40ef
0.0085231563017431,0.1289569954645388,-0.0038859259504161,-0.0898318341076208,-0.112020260257266,0.1479815148545132,-0.2156210379646908,-0.239891343008493,-13.046585853948343,16.165839901764958,26.25388382309731,0.6397623460812922,0.3544081922903844,0.5009573963399684,-1.0,12.0522,0.0399999999999999,179.01247440215053,-6.370843708469809,98.37417369486414,1525.0,1435.0,1000.0,1528.0,1475.0,1021.47,61.0,292.85,1637226283.2416382,1637226284.353305,9a55e2c4-3ae3-4afd-ab7c-0d6c8f4a40ef
0.0044141886400979,0.1257520008309946,-0.006625237722158,-0.0859967975090991,-0.113417309316214,0.1485841634229699,-0.2199628474982109,-0.2482462446727812,-13.242785814535887,16.261146591845918,26.36772497555428,0.6328804599051326,0.342122981110864,0.5124060839983341,-1.0,12.052666666666669,0.04,179.068544791085,-6.403561751779807,98.78784683402164,1525.0,1435.0,1000.0,1528.0,1475.0,1021.47,61.0,292.85,1637226284.4609065,1637226285.4688466,9a55e2c4-3ae3-4afd-ab7c-0d6c8f4a40ef
0.1565418636885516,0.3964781633612378,0.0226580049835929,-0.2115120699608865,-0.1496036195861786,0.0009215662029123,-0.2524510882147525,-0.2829670251327695,-12.829107855883072,15.798471133006094,26.64605739649696,0.582838172169882,1.3694180979351078,0.6005623088029313,-1.0,12.049,0.04,179.10619886506936,-6.442903167080387,99.34658211106552,1644.0,1435.0,1000.0,1528.0,1569.0,1021.47,61.0,292.85,1637226286.4928925,1637226287.628909,c18b5846-3a5d-4779-9673-c2d4547409c0
0.1509368106848417,0.3929233798957758,0.0190832031408287,-0.2117522865518457,-0.1515590668854137,0.0041644898961123,-0.2535373308266981,-0.2731845200220573,-12.795100622726354,15.67899976130908,26.5638338287984,0.5897013445264195,1.3563744754920888,0.6091697360042072,-1.0,12.045333333333334,0.04,179.15491480986955,-6.46857514455392,99.56239483936052,1644.0,1435.0,1000.0,1528.0,1569.0,1021.47,61.0,292.85,1637226287.7376795,1637226288.85894,c18b5846-3a5d-4779-9673-c2d4547409c0
0.158117515755729,0.396621703283097,0.0228174329291696,-0.2123338635627288,-0.1489045471780963,0.0007670690126553,-0.250688614840336,-0.2688732642470584,-12.749314983521856,15.67503350012846,26.545031358010387,0.5835584784099254,1.370396290650976,0.5968575791536146,-1.0,12.045555555555556,0.04,179.18846318125284,-6.491285523544212,99.73447841985936,1644.0,1435.0,1000.0,1528.0,1569.0,1021.47,61.0,292.85,1637226288.967316,1637226290.0930166,c18b5846-3a5d-4779-9673-c2d4547409c0
0.2945894712259553,0.6387976559099376,0.0480103350737092,-0.3451904999925128,-0.1875156969664522,-0.1198546922655313,-0.2809536303498178,-0.3137431967038015,-12.45523660011129,15.601422180143048,25.719089223934308,0.6129801284789257,2.301895587400564,0.6854069604871912,-1.0,12.04,0.03,179.20234819692556,-6.503047014431235,99.90840766925392,1763.0,1435.0,1000.0,1528.0,1663.0,1021.47,61.0,292.85,1637226290.7634337,1637226291.7263305,f58f95b6-d028-46d3-9f0d-c43a031bd281
0.3042318478682487,0.6434681819335779,0.0524480200605554,-0.3454918243438613,-0.1845435434765157,-0.1236075495771045,-0.2788169669233158,-0.2990467871012057,-12.494518148942008,15.673342062782927,25.821297969962743,0.6059209229324626,2.319104696010133,0.6729172341395498,-1.0,12.038666666666668,0.04,179.22924548187706,-6.511692184077571,99.9448148542598,1763.0,1435.0,1000.0,1528.0,1663.0,1021.47,61.0,292.85,1637226291.8354332,1637226292.9557269,f58f95b6-d028-46d3-9f0d-c43a031bd281
0.2864400193624854,0.6347434749622453,0.0494758668456621,-0.3431223193391108,-0.1856940545002481,-0.1185809122692552,-0.2801592298423847,-0.2972799307480254,-12.536846506023144,15.718343199069013,25.613988199915656,0.6119673965612269,2.2880393189992776,0.6790713630458557,-1.0,12.039555555555555,0.03,179.2500153282332,-6.521565934000863,99.9898159350614,1763.0,1435.0,1000.0,1528.0,1663.0,1021.47,61.0,292.85,1637226293.0643363,1637226294.1251786,f58f95b6-d028-46d3-9f0d-c43a031bd281
0.3403715849266611,0.7285999553650538,0.0620136965593964,-0.3837402929332822,-0.2017360133230774,-0.1854053310793189,-0.298641916485665,-0.3147753692701959,-12.391482857343936,16.224879991780963,23.84185510790571,0.5572010798306766,2.6605400715002325,0.7185408848349677,-1.0,12.02422222222222,0.03,179.289468018699,-6.524130764897941,99.94851757569988,1881.0,1435.0,1000.0,1528.0,1757.0,1021.47,61.0,292.85,1637226295.76321,1637226296.851773,0e8c2c24-3b60-4468-a3a3-b620505ab6fc
0.3500879228827854,0.7332902044378088,0.0604331137053642,-0.3925532083274874,-0.2055540663817387,-0.183461515316148,-0.299060483368908,-0.3281930682429178,-12.261249383194572,16.180605556648505,23.61011603659253,0.5811052839583123,2.680247601324308,0.7267643166773796,-1.0,12.025555555555556,0.03,179.31608450698462,-6.523633441749,99.82621848515134,1881.0,1435.0,1000.0,1528.0,1757.0,1021.47,61.0,292.85,1637226296.9689353,1637226297.962293,0e8c2c24-3b60-4468-a3a3-b620505ab6fc
0.340595112748676,0.7229854626105433,0.0668787141617435,-0.3859098282384638,-0.1963450473313482,-0.1794621198646473,-0.2907264002100905,-0.3225068042437465,-12.324619670662177,16.199665330044482,23.66994127547045,0.5755315566134609,2.641107841631497,0.6924128925590125,-1.0,12.02811111111111,0.03,179.33456092759943,-6.5404320548533,99.7119653574451,1881.0,1435.0,1000.0,1528.0,1757.0,1021.47,61.0,292.85,1637226298.0716455,1637226299.3042252,0e8c2c24-3b60-4468-a3a3-b620505ab6fc
0.3797820597211636,0.7951986434056447,0.0752117003503903,-0.4019764424707592,-0.2083344680693732,-0.2308653093974839,-0.3095246557145598,-0.3348632936694527,-12.385948786190786,16.74023307336625,24.271112028976983,0.5003274461735955,2.909572664707749,0.7333289291670496,-1.0,12.007666666666664,0.04,179.34338249636744,-6.540398757681096,99.48816434346084,2000.0,1435.0,1000.0,1528.0,1852.0,1021.47,61.0,292.85,1637226300.3063374,1637226301.5549896,8e8925d4-a2a5-4444-a000-fcaa07af146a
0.3787274247653315,0.7971709476583516,0.0734722374263126,-0.397237432269836,-0.2101698070885903,-0.238165575978101,-0.3123461472047665,-0.3287957170055754,-12.258024482421154,16.701575517661,24.1107213360946,0.4729286738547618,2.916791724826157,0.7423763198899693,-1.0,12.005222222222224,0.0477777777777777,179.37044067021938,-6.53838522740015,99.20957914105378,2000.0,1435.0,1000.0,1528.0,1852.0,1021.47,61.0,292.85,1637226301.6630898,1637226302.6093273,8e8925d4-a2a5-4444-a000-fcaa07af146a
0.388356104731055,0.798074920448593,0.0741844584570086,-0.4054553690800183,-0.2105670073492785,-0.2302626607949115,-0.3091411520071794,-0.341067835580104,-12.21346341853378,16.668399279125627,24.299459591372027,0.5090932829563961,2.919250390035909,0.7377315576755575,-1.0,12.005,0.04,179.35767011374625,-6.543131687122748,98.9843479613483,2000.0,1435.0,1000.0,1528.0,1852.0,1021.47,61.0,292.85,1637226302.7174246,1637226303.8974645,8e8925d4-a2a5-4444-a000-fcaa07af146a
-0.1625331719527299,-0.1707785008685081,-0.0259510823475582,0.0626519561983135,-0.0659587313661898,0.288576682399294,-0.1807769895157153,-0.2067045776902221,-13.546585658908713,17.326541531615618,24.49027608177364,0.6177953053603863,-0.7707656168541991,0.3804421827205082,-1.0,12.0485,0.04,179.59019365875557,-6.526635552977551,98.55302236903566,1406.0,1435.0,1000.0,1528.0,1381.0,1021.47,61.0,292.85,1637226305.835618,1637226306.7688372,df183624-c2c5-4b6a-b783-be41f53d485c
-0.1575202311002714,-0.168463782270799,-0.0266496068591921,0.0629395838816768,-0.0666983455688614,0.2881246959693115,-0.1818179280624543,-0.2130734783334399,-13.560093483098331,17.299494851687236,24.779617469661137,0.6159560595470842,-0.7646329896849225,0.3845761522629363,-1.0,12.046333333333331,0.04,179.56089670067567,-6.5239755678218,98.7123937342605,1406.0,1435.0,1000.0,1528.0,1381.0,1021.47,61.0,292.85,1637226306.877899,1637226308.117854,df183624-c2c5-4b6a-b783-be41f53d485c
-0.153972822164499,-0.1722303362021172,-0.0254443096690351,0.0633367841085416,-0.0649862756673351,0.2899052484987076,-0.1788594711433056,-0.2115120705455105,-13.474433604893852,17.271637330806186,24.576120927130148,0.6189472377835453,-0.7775355186910128,0.3757211387319608,-1.0,12.047999999999998,0.04,179.52834857255084,-6.509700804479559,98.84366845228834,1406.0,1435.0,1000.0,1528.0,1381.0,1021.47,61.0,292.85,1637226308.233955,1637226309.2651756,df183624-c2c5-4b6a-b783-be41f53d485c
-0.3054529421885821,-0.4359800737754477,-0.04800144663866,0.188491003035753,-0.0291856617168501,0.4299010507637134,-0.1481682201382874,-0.1785285623961178,-13.896247093639452,18.360403870332647,24.14395405658585,0.6570323931195997,-1.7767623174190847,0.2818417179023048,-1.0,12.038375,0.03,179.58006961085832,-6.494904415084376,98.937577387233,1287.0,1435.0,1000.0,1528.0,1287.0,1021.47,61.0,292.85,1637226310.3436546,1637226311.285329,fbfd42ef-828c-42db-acc3-aeb37c878538
-0.3104697184420046,-0.4343277205911208,-0.0489339083847945,0.1864140569802113,-0.0296354567155703,0.4305551983555277,-0.1486311638559993,-0.1681076719920055,-13.946458703247837,18.27582689404009,24.19110546440795,0.6625625711458977,-1.7704323356224485,0.2846323608936388,-1.0,12.037555555555556,0.03,179.58973831281088,-6.491377778529876,98.8733532133311,1287.0,1435.0,1000.0,1528.0,1287.0,1021.47,61.0,292.85,1637226311.3932438,1637226312.616307,fbfd42ef-828c-42db-acc3-aeb37c878538
-0.2948813888363027,-0.4269206200915054,-0.0442146219932794,0.1795893360148939,-0.0276472642117895,0.4295197386082749,-0.1446312205919816,-0.1695217047770544,-13.890164493100038,18.284167032756685,24.215407205110782,0.6759531409206222,-1.7421254393023724,0.2707030376079135,-1.0,12.037333333333333,0.03,179.5820611801838,-6.4948465185589885,98.78318257372842,1287.0,1435.0,1000.0,1528.0,1287.0,1021.47,61.0,292.85,1637226312.7258008,1637226313.8407197,fbfd42ef-828c-42db-acc3-aeb37c878538
-0.3591883853514754,-0.535422044789118,-0.0506185851583195,0.2438163314294273,-0.0123230062260812,0.4742746095999093,-0.1371945366062823,-0.1513978693568403,-14.140658306793403,19.19585310858937,23.866679640182127,0.6371860669928909,-2.1525062863533333,0.2343651635243763,-1.0,12.018777777777778,0.03,179.61214892238763,-6.482410167036472,98.62253045317046,1169.0,1435.0,1000.0,1528.0,1193.0,1021.47,61.0,292.85,1637226314.959554,1637226315.9849322,113c8c5c-72aa-4587-a5f5-3c3253157f92
-0.3643985571497701,-0.5395129340576126,-0.0499080076706403,0.2478705125747316,-0.0108826760947856,0.4776308140232974,-0.1363869874503914,-0.1610407949251008,-14.183589944389924,19.285062404535225,24.30941598620501,0.6362583923329354,-2.171922306557255,0.2303833622700124,-1.0,12.018999999999998,0.03,179.62712525050773,-6.49649895001944,98.38233394953852,1169.0,1435.0,1000.0,1528.0,1193.0,1021.47,61.0,292.85,1637226316.0940132,1637226317.2141988,113c8c5c-72aa-4587-a5f5-3c3253157f92
-0.3666864307524631,-0.5413537520455398,-0.0507758216451362,0.2434656995242538,-0.0118556796295638,0.4798397947896867,-0.1357558499790146,-0.1555314907390208,-14.148071898390072,19.251080202427577,23.79004298703605,0.6508250504741443,-2.173987955757635,0.231037843700617,-1.0,12.020666666666664,0.03,179.6171501386799,-6.4951405012845145,98.1601843235136,1169.0,1435.0,1000.0,1528.0,1193.0,1021.47,61.0,292.85,1637226317.322591,1637226318.373233,113c8c5c-72aa-4587-a5f5-3c3253157f92
-0.3946582643626343,-0.619349313765796,-0.03949171132165,0.2764057104165175,0.0130525029425262,0.5175578380006004,-0.1119612597484106,-0.1383471549460582,-14.324199297007528,19.889571981867764,22.728920909763545,0.6658146410044148,-2.459196888045456,0.1368215995332161,-1.0,11.981333333333332,0.14,179.64024983845286,-6.489334271307573,97.66454481620244,1050.0,1435.0,1000.0,1528.0,1098.0,1021.47,61.0,292.85,1637226320.489577,1637226321.6271112,9b1c196f-5d49-48de-a1fe-21e70096d618
-0.4105778830082308,-0.6169576831027018,-0.0427704568192985,0.2791808437231572,0.0094819154379717,0.5132413152747065,-0.1188959331274775,-0.1441249960117509,-14.48934795902864,20.0169057051941,22.771702143997032,0.6504593562058122,-2.449984480121332,0.156233963913413,-1.0,11.984111111111112,0.1388888888888889,179.67040132908895,-6.492755010285019,97.21437236037626,1050.0,1435.0,1000.0,1528.0,1098.0,1021.47,61.0,292.85,1637226321.7346618,1637226322.855873,9b1c196f-5d49-48de-a1fe-21e70096d618
-0.4049228467718679,-0.6107788895222439,-0.0389419946550078,0.270118105364763,0.0112860261591289,0.5161301931442093,-0.1134425110207024,-0.1350852667572583,-14.389536395532982,19.919874590050583,22.892965104812784,0.6770113413474729,-2.427234564218898,0.1417423998678914,-1.0,11.988,0.13,179.65543866134718,-6.50300693450173,96.89563475256844,1050.0,1435.0,1000.0,1528.0,1098.0,1021.47,61.0,292.85,1637226322.9641745,1637226324.085962,9b1c196f-5d49-48de-a1fe-21e70096d618
0.0029497526079602,0.1300844961456459,-0.0035062573366677,-0.0902876556034618,-0.1120487490973736,0.1425231624774775,-0.2177511269809822,-0.2410111735761192,-13.154267181599591,16.235190983661745,25.56873057314452,0.6288401413320086,0.3655530097901511,0.5025737776033216,-1.0,12.050111111111113,0.04,179.45261543503375,-6.507554227805405,96.5351199132473,1525.0,1435.0,1000.0,1528.0,1475.0,1021.47,61.0,292.85,1637226324.7850711,1637226325.8112233,c1779685-ecf2-44e3-a87f-daf62e28dc24
0.0054414305732265,0.1226154889815929,-0.0073922450220722,-0.0885306609713903,-0.1136501508286994,0.1492689913350543,-0.219757399103949,-0.2428634963041972,-13.25569790850898,16.234971621222027,25.695126948709177,0.6398097103145203,0.3366746674054372,0.5121275605301338,-1.0,12.051666666666668,0.04,179.37786129129765,-6.485650664910821,96.91065130291366,1525.0,1435.0,1000.0,1528.0,1475.0,1021.47,61.0,292.85,1637226325.9191954,1637226326.952502,c1779685-ecf2-44e3-a87f-daf62e28dc24
0.010522853891434,0.1284639193715681,-0.0054336371067816,-0.0906125379977204,-0.1133488265248493,0.1455983137266567,-0.2200450268724599,-0.2356591056847485,-13.293522842439918,16.284624552895977,25.7214330574872,0.6366692462388955,0.3590257333906169,0.5101365470711753,-1.0,12.053333333333336,0.04,179.31465168507873,-6.465187370725594,97.26181409544124,1525.0,1435.0,1000.0,1528.0,1475.0,1021.47,61.0,292.85,1637226327.06047,1637226328.1802304,c1779685-ecf2-44e3-a87f-daf62e28dc24
0.0167821812393133,0.1282173813206405,-0.0163130877572412,-0.285177649590574,-0.1433557969529791,0.3340470625047623,-0.1763064324010697,-0.1889949258661088,-13.171291745668755,15.754288165488065,27.138457350287844,1.4952599917544378,0.3679333299793111,0.5041285060381795,-1.0,12.051,0.04,179.24308951641478,-6.395323927026471,97.80911639472448,1525.0,1535.0,1000.0,1528.0,1475.0,1021.47,61.0,292.85,1637226329.7628472,1637226330.8440082,2353813f-1068-42f8-a6c2-7da8b299ffda
0.0163575879312604,0.121136260682236,-0.0186645129897781,-0.2814056168378572,-0.1441797819789234,0.3378705935333466,-0.1772021874046699,-0.1956377572486159,-13.16058758460222,15.78639090043078,27.1764821644832,1.495450371972984,0.3403491065624628,0.5089556170991137,-1.0,12.050555555555556,0.04,179.24269032980328,-6.382892460986486,97.98020580324412,1525.0,1535.0,1000.0,1528.0,1475.0,1021.47,61.0,292.85,1637226330.9518082,1637226332.0766523,2353813f-1068-42f8-a6c2-7da8b299ffda
0.0179874784022303,0.1276284293155742,-0.0176235745091514,-0.2843503773394318,-0.1448509133943258,0.3348847439685709,-0.1780239809922355,-0.2100739314180195,-13.18156689136802,15.81038230134368,27.2714404347154,1.4955988776757243,0.3644345196403686,0.5104900131407986,-1.0,12.051,0.04,179.23092570841288,-6.384557319596677,98.16862188386828,1525.0,1535.0,1000.0,1528.0,1475.0,1021.47,61.0,292.85,1637226332.1889763,1637226333.300291,2353813f-1068-42f8-a6c2-7da8b299ffda
0.0222125928452819,0.1238388655658681,-0.0297642043699899,-0.474545208813575,-0.1772005438252009,0.5226782432840154,-0.138766901640031,-0.1610802409479923,-13.144467816020097,15.58953862448134,28.648542326719845,2.3447985580486925,0.3603972122006235,0.5151393575533778,-1.0,12.04977777777778,0.04,179.24310924807236,-6.332060959954651,98.49531514423934,1525.0,1636.0,1000.0,1528.0,1475.0,1021.47,61.0,292.85,1637226335.4401467,1637226336.5743763,ffec261e-74b6-4357-9c3e-571fdd513ff0
0.0220964460169361,0.1245056140232494,-0.0316488508772443,-0.4746503983965098,-0.1793525472907676,0.5210620495217274,-0.1410295732685403,-0.1663682091033014,-13.118174361185812,15.591941868445788,28.481852728351544,2.341312789545148,0.3640827066982744,0.523723061648386,-1.0,12.050777777777776,0.04,179.25802182776022,-6.309828883933737,98.53826868610972,1525.0,1636.0,1000.0,1528.0,1475.0,1021.47,61.0,292.85,1637226336.682458,1637226337.6933775,ffec261e-74b6-4357-9c3e-571fdd513ff0
0.0263938783077513,0.1277308795718913,-0.0309344383784723,-0.4786739004348683,-0.1788704284041515,0.5221391467900299,-0.1385828198904904,-0.1601598322529109,-13.038432795653817,15.446483879834766,28.57096397899792,2.3519348648722582,0.3753634337769908,0.5192050463825859,-1.0,12.047,0.04,179.25838762233582,-6.32273613905403,98.59988002806288,1525.0,1636.0,1000.0,1528.0,1475.0,1021.47,61.0,292.85,1637226337.80108,1637226338.9221394,ffec261e-74b6-4357-9c3e-571fdd513ff0
0.0287255804544807,0.1233140134540106,-0.0326076100200716,-0.5879072729896443,-0.1963773712152209,0.6328396535023607,-0.1144856409579507,-0.1330444793653248,-13.022324729916754,15.829338879914234,29.47461752068425,2.849704245848752,0.364023821930189,0.5106580521052577,-1.0,12.04577777777778,0.04,179.27685038257226,-6.292688524211591,98.68011426024302,1525.0,1737.0,1000.0,1528.0,1475.0,1021.47,61.0,292.85,1637226340.8569634,1637226341.908393,964c7f6b-be8c-4f1b-8b0f-aad23fafbc49
0.0319031820606223,0.1225607027477555,-0.0343059833351943,-0.5842776837440207,-0.195747329458724,0.6305523284415525,-0.1168551457469374,-0.1337703970271566,-13.193132061658744,15.740207174469049,29.505962229499072,2.835620440915572,0.3615735141629084,0.5153906666630239,-1.0,12.046333333333337,0.04,179.29399112174934,-6.292951960813328,98.6250014638302,1525.0,1737.0,1000.0,1528.0,1475.0,1021.47,61.0,292.85,1637226342.0246155,1637226343.131106,964c7f6b-be8c-4f1b-8b0f-aad23fafbc49
0.0330673895534074,0.1252726212890265,-0.033237651722867,-0.5878935764080538,-0.1955966672847489,0.6327437776016468,-0.1155539725936996,-0.148261357060282,-13.195789113793182,15.737149220410451,29.730937586129567,2.848768936852088,0.3702825810253929,0.5124897551678776,-1.0,12.048222222222222,0.04,179.30242261082478,-6.29448510112265,98.6174138825722,1525.0,1737.0,1000.0,1528.0,1475.0,1021.47,61.0,292.85,1637226343.239012,1637226344.2464094,964c7f6b-be8c-4f1b-8b0f-aad23fafbc49
0.0303647846037159,0.1206568811394087,-0.0326043228471939,-0.6023374241299491,-0.1999477904555718,0.6511804393903288,-0.1127324813748468,-0.1382935489468317,-13.088337832513064,16.132308249445295,29.826074467443632,2.9255007053959883,0.353192237706785,0.5128976377483768,-1.0,12.04188888888889,0.0388888888888888,179.33472333431968,-6.28395546331156,98.56657299003028,1525.0,1837.0,1000.0,1528.0,1475.0,1021.47,61.0,292.85,1637226346.2940896,1637226347.320253,f2e2b54f-09e9-46e8-bc4f-c71d35bc27ec
0.0315744646452499,0.1282305300107352,-0.026726855479318,-0.6047962308312109,-0.1965685752102342,0.644461456264977,-0.1093795636271914,-0.1347565492265436,-13.048913192275831,16.17449084545362,29.63891431465173,2.9165110217970978,0.3836538307272663,0.4961506874034374,-1.0,12.04288888888889,0.04,179.33433932590637,-6.296549336071809,98.50907949323673,1525.0,1837.0,1000.0,1528.0,1475.0,1021.47,61.0,292.85,1637226347.427879,1637226348.5485697,f2e2b54f-09e9-46e8-bc4f-c71d35bc27ec
0.0472740080767567,0.1247329768899079,-0.0307898027218128,-0.6194964781402557,-0.2006183740444511,0.662264789246519,-0.1067892703126692,-0.1277745909601597,-12.989631648783805,16.025324262561917,29.75403167208131,2.9885346847385925,0.370645833733022,0.503229821584419,-1.0,12.042875,0.04,179.3318212628323,-6.289484661527244,98.45677390457276,1525.0,1837.0,1000.0,1528.0,1475.0,1021.47,61.0,292.85,1637226348.6563852,1637226349.6909282,f2e2b54f-09e9-46e8-bc4f-c71d35bc27ec
0.0047511240155817,0.1319516109678533,0.0129164645404451,0.1007497553759572,-0.0802420511650956,-0.0469101048132807,-0.2581439265334339,-0.2830607094948719,-13.19380581825874,17.03265868536742,23.806462071807903,-0.2219718654330778,0.3659884548630756,0.4934371521891509,-1.0,12.052555555555555,0.04,179.3518367527401,-6.478416735669869,98.4099787607492,1525.0,1334.0,1000.0,1528.0,1475.0,1021.47,61.0,292.85,1637226350.261392,1637226351.31985,e7165834-3fc6-4b25-9a25-09c9e08bcc6f
0.0014113551047943,0.1355543536510021,0.0142839289681954,0.1008680936352799,-0.0793742371706176,-0.0499080076645254,-0.2573944507485621,-0.2797998323966779,-13.160885118217855,16.991418043761986,23.90601432846386,-0.2291483534959458,0.37845701717905,0.4899413874700195,-1.0,12.053999999999998,0.04,179.33854824025488,-6.488700202079624,98.51696304935876,1525.0,1334.0,1000.0,1528.0,1475.0,1021.47,61.0,292.85,1637226351.4285965,1637226352.5571222,e7165834-3fc6-4b25-9a25-09c9e08bcc6f
0.0027656708395485,0.1344367144981731,0.0138500219843988,0.1014597849582408,-0.0796372111093358,-0.0503419146530135,-0.2580781830460232,-0.2796026019561198,-13.178082293650276,17.013744758336586,23.761717471722804,-0.2313633686506806,0.375565829008912,0.4915097654319764,-1.0,12.053000000000004,0.04,179.31153711881723,-6.486042120127627,98.60171810785953,1525.0,1334.0,1000.0,1528.0,1475.0,1021.47,61.0,292.85,1637226352.669748,1637226353.665038,e7165834-3fc6-4b25-9a25-09c9e08bcc6f
-0.0046370452927983,0.1335820492641086,0.0323239403867331,0.316230580290154,-0.0434125514980018,-0.2569342463452912,-0.301008682152616,-0.3248341236343798,-13.146579431943003,17.88350465912805,22.28455445372384,-1.173608207070571,0.3599724204236211,0.4774737412715745,-1.0,12.049111111111111,0.04,179.3008911306309,-6.530305255907633,98.76821990598664,1525.0,1234.0,1000.0,1528.0,1475.0,1021.47,61.0,292.85,1637226355.286966,1637226356.439025,4a5acf01-aa79-42af-b38a-a0586d7e091e
-0.011610785198896,0.1359833298569883,0.0311224782667802,0.3109020714943269,-0.045386499580418,-0.2541631582446313,-0.3020463335634732,-0.3272206123027245,-13.197897522377618,17.880345633342255,22.307111168971414,-1.1554643946600374,0.3697218134608939,0.4835185066993533,-1.0,12.046888888888889,0.04,179.30524879132133,-6.539534359296136,98.82437165006324,1525.0,1234.0,1000.0,1528.0,1475.0,1021.47,61.0,292.85,1637226356.5471294,1637226357.6240892,4a5acf01-aa79-42af-b38a-a0586d7e091e
0.00033316200619,0.1382761337073323,0.0315613160062122,0.3125094995010254,-0.044832610731099,-0.2583017109269416,-0.3027443102935951,-0.3266617926006842,-13.218198438462323,17.850590645769582,22.24807213699312,-1.168585267231961,0.3788175748117136,0.4833659453745121,-1.0,12.050000000000002,0.04,179.29488359980093,-6.542386342729569,98.8634980092687,1525.0,1234.0,1000.0,1528.0,1475.0,1021.47,61.0,292.85,1637226357.7320273,1637226358.6954658,4a5acf01-aa79-42af-b38a-a0586d7e091e
-0.0100630740468469,0.1372571097711081,0.0388336407530347,0.4250217889273353,-0.0315666715749327,-0.3650642107783828,-0.3317678704659359,-0.3560929633435459,-13.267579507639512,18.735661083365542,21.563674340520333,-1.656199620892388,0.3680342887494978,0.496207793883997,-1.0,12.045,0.04,179.30522450620433,-6.583802475422412,98.87073800978892,1525.0,1133.0,1000.0,1528.0,1475.0,1021.47,61.0,292.85,1637226359.261711,1637226360.2290478,f32ba4e5-dafb-4653-8309-2d6eedac4cdc
-0.0084879697559663,0.1399005455094148,0.0396828274270953,0.4212826289315066,-0.0311283816488407,-0.3625166497229249,-0.3311926147822489,-0.347765453757388,-13.37218615210782,18.736606011898505,21.81044305404465,-1.642005054281882,0.3770162757563626,0.494195825173687,-1.0,12.048333333333334,0.04,179.3195269223263,-6.57784783112663,98.85913124165933,1525.0,1133.0,1000.0,1528.0,1475.0,1021.47,61.0,292.85,1637226360.3450248,1637226361.56834,f32ba4e5-dafb-4653-8309-2d6eedac4cdc
-0.0059678029379933,0.1396266143484665,0.0398471861048916,0.4199266697173076,-0.0301559259834297,-0.3632151744443052,-0.3292750963114095,-0.3580104817439091,-13.304735918900606,18.58941354092912,21.50509583938118,-1.641498314915265,0.3783926266223998,0.4895490085925209,-1.0,12.043444444444445,0.04,179.32191900635564,-6.569317351740107,98.86742385022164,1525.0,1133.0,1000.0,1528.0,1475.0,1021.47,61.0,292.85,1637226361.6860485,1637226362.6845214,f32ba4e5-dafb-4653-8309-2d6eedac4cdc
-0.0154184285690483,0.1382569585244183,0.0454079889045078,0.45540075348167,-0.0256086684173621,-0.3976757223643719,-0.3371643153179308,-0.3683924746686796,-13.224372058500402,19.14658705897716,21.04338310813032,-1.7950192942478225,0.3727732927246567,0.4863296924684651,-1.0,12.046555555555557,0.04,179.31395652360322,-6.616725694769165,98.87350499531266,1525.0,1033.0,1000.0,1528.0,1475.0,1021.47,61.0,292.85,1637226364.8188298,1637226365.77164,1562223d-240b-4a15-ab48-179cc746f37d
-0.0174833218051828,0.1392491372015515,0.0439868339744416,0.4559091697029925,-0.0266874094084677,-0.3990190810616021,-0.3400077214045815,-0.3607826653272876,-13.348095587900335,19.17119080141041,21.041115562983663,-1.7991551666209384,0.3772380746250276,0.4938092644358005,-1.0,12.04011111111111,0.0344444444444444,179.3201143185949,-6.596327002789838,98.84155488819516,1525.0,1033.0,1000.0,1528.0,1475.0,1021.47,61.0,292.85,1637226365.879821,1637226367.0929978,1562223d-240b-4a15-ab48-179cc746f37d
-0.0190343201447841,0.1327509421085374,0.0416688284023374,0.4625092667976886,-0.027170076134551,-0.3948816237371646,-0.3420128979105755,-0.3658586108229777,-13.425476755949177,19.252899281215704,21.570604401845905,-1.8042742635269744,0.3477625541305165,0.500412050940563,-1.0,12.042777777777776,0.04,179.3034486570201,-6.610713563047869,98.81413623213702,1525.0,1033.0,1000.0,1528.0,1475.0,1021.47,61.0,292.85,1637226367.201588,1637226368.321288,1562223d-240b-4a15-ab48-179cc746f37d
0.0067426036616339,0.1273408015895795,-0.004926864421783,-0.0928176840298176,-0.1125270329538393,0.1475432249965534,-0.2164291350060324,-0.2457945602698687,-13.116374280271012,16.135363209595226,25.56962914787237,0.6451147268068907,0.3552060750912454,0.5029939935459148,-1.0,12.052333333333332,0.04,179.31434053201653,-6.463509468351363,98.7597292219384,1525.0,1435.0,1000.0,1528.0,1475.0,1021.47,61.0,292.85,1637226370.3482,1637226371.3938177,ad5712ca-ff67-45f7-824c-ab5aa97edf4c
0.0089751427361413,0.1282995606721602,-0.0040228915410437,-0.0928313805903703,-0.112417460481102,0.1489539704977822,-0.2170454802136716,-0.2359741265639744,-13.207773766727373,16.25902682334494,25.901837073024097,0.6491874969405095,0.3565656478629215,0.5029598497260342,-1.0,12.052,0.04,179.31766455741257,-6.447401463263141,98.7946132747594,1525.0,1435.0,1000.0,1528.0,1475.0,1021.47,61.0,292.85,1637226371.5028064,1637226372.6222355,ad5712ca-ff67-45f7-824c-ab5aa97edf4c
0.0086168407596411,0.1287170317668003,-0.0032827294950974,-0.0956917700364261,-0.1116016933977831,0.150280893053856,-0.2146611830339432,-0.239591114212904,-13.145177736739733,16.162139895030506,25.78711103915465,0.6580294081172243,0.3591026472720178,0.4973922540000143,-1.0,12.053111111111113,0.04,179.29485324340456,-6.436011980526538,98.82103548210864,1525.0,1435.0,1000.0,1528.0,1475.0,1021.47,61.0,292.85,1637226372.7307231,1637226373.7746422,ad5712ca-ff67-45f7-824c-ab5aa97edf4c
0.0409155176821762,0.1445436787549994,0.0747323208134448,-0.103459910651104,-0.0421267185351897,0.1383939241016876,-0.1346606730911851,-0.1704086944206272,-12.523401057227009,16.0784474972506,25.890893162563515,0.6525001753842095,0.4190423383668996,0.1849805071806211,-1.0,12.052222222222222,0.04,179.30189137388936,-6.440689047424442,98.84779844000649,1525.0,1435.0,1000.0,1439.0,1475.0,1021.47,61.0,292.85,1637226375.785632,1637226376.923541,cceccdad-c9c4-44fc-baff-b878cd88741d
0.030443676754129,0.1400117615664615,0.0731374935482894,-0.1001360296177024,-0.0425315888140845,0.1399723154701113,-0.1359793778297405,-0.1586082859937732,-12.56474573401311,16.116192345677362,25.907674287636205,0.6487018368447228,0.4016790859817702,0.1890434802567707,-1.0,12.052,0.04,179.30229207832065,-6.446730681768404,98.85096081759218,1525.0,1435.0,1000.0,1439.0,1475.0,1021.47,61.0,292.85,1637226377.0316727,1637226378.0400133,cceccdad-c9c4-44fc-baff-b878cd88741d
0.0408196417685087,0.1437766714872926,0.0745542655568695,-0.0994194256337859,-0.0413597112259229,0.1366544612106681,-0.136249473989778,-0.1695184181013643,-12.637548764066317,16.113918279246334,26.05897576779282,0.6396726341638524,0.4149756359145675,0.1865259393443439,-1.0,12.052666666666664,0.04,179.30103532351333,-6.448806063206834,98.86930822352264,1525.0,1435.0,1000.0,1439.0,1475.0,1021.47,61.0,292.85,1637226378.1491,1637226379.1823332,cceccdad-c9c4-44fc-baff-b878cd88741d
0.0598852513326964,0.1536655865148371,0.1661705441085381,-0.1076784509238405,0.0411072695253244,0.1279571467125214,-0.0414281940261909,-0.0561656919696437,-11.974838633790666,16.149187890191385,25.832843632292462,0.6438521749447627,0.4562042281696141,-0.1844312627949698,-1.0,12.052666666666669,0.04,179.31437240623268,-6.440567005224897,98.86418785837486,1525.0,1435.0,1000.0,1351.0,1475.0,1021.47,61.0,292.85,1637226380.8054893,1637226381.8507912,b9226b93-3c47-467c-80d9-516b669e6c7d
0.0591456371660925,0.1551311182392905,0.1661842406693731,-0.1083632789007987,0.0401211173083393,0.1269436013974564,-0.0432087466970306,-0.0665202904898314,-12.038304086459148,16.257553851745822,25.79550137399676,0.6438005610081058,0.4625680426242295,-0.1805418315565412,-1.0,12.05,0.04,179.30814630934927,-6.447347153772866,98.873370668259,1525.0,1435.0,1000.0,1351.0,1475.0,1021.47,61.0,292.85,1637226381.9596436,1637226383.0732915,b9226b93-3c47-467c-80d9-516b669e6c7d
0.0674183585066486,0.1570212432644205,0.1650885160194545,-0.1108560527257881,0.0384364405954075,0.127299711906901,-0.0435785537962378,-0.0771077308400426,-11.96365174621961,16.20838238154768,25.77764618741709,0.6498780843652924,0.469523656607711,-0.1759730688025648,-1.0,12.052,0.04,179.30082738219863,-6.455134897519019,98.8798024297274,1525.0,1435.0,1000.0,1351.0,1475.0,1021.47,61.0,292.85,1637226383.1861866,1637226384.1835144,b9226b93-3c47-467c-80d9-516b669e6c7d
0.0882919136713259,0.1710739119253275,0.2570609028914108,-0.1121572258549023,0.1209719019593392,0.1097270275905166,0.0484349283691632,0.0227949702939155,-11.290430567017273,16.277795202957247,25.770556677380387,0.6187025532539439,0.5235195865339485,-0.5426441534036974,-1.0,12.051800000000002,0.0399999999999999,179.3095630423651,-6.442733114342802,98.86683387365932,1525.0,1435.0,1000.0,1262.0,1475.0,1021.47,61.0,292.85,1637226386.3230991,1637226387.4606965,d07a94b3-40ba-499b-b49d-d40de8770242
0.0925975637763156,0.172357553351742,0.2602697324779358,-0.1153227746688834,0.1232340255472889,0.1101773704248059,0.0517182674191278,0.0330734157923637,-11.276623928527052,16.29380831714952,25.623807062405085,0.6271047246259146,0.5301303815437401,-0.554850339909712,-1.0,12.049,0.04,179.31412500160275,-6.441165073664096,98.84712376909846,1525.0,1435.0,1000.0,1262.0,1475.0,1021.47,61.0,292.85,1637226387.568684,1637226388.597088,d07a94b3-40ba-499b-b49d-d40de8770242
0.0957565380057388,0.1723202987147534,0.2598686972511311,-0.1133762196457908,0.1225470061709316,0.1094941860947634,0.0505578949565647,0.0344370452345606,-11.268547878317534,16.351438484375276,25.76947495831963,0.6215679210400945,0.5283783341076868,-0.5515158096100669,-1.0,12.05188888888889,0.04,179.32367664170204,-6.449152553011603,98.83135134448509,1525.0,1435.0,1000.0,1262.0,1475.0,1021.47,61.0,292.85,1637226388.7058585,1637226389.824405,d07a94b3-40ba-499b-b49d-d40de8770242
0.118547611122914,0.1817298341290299,0.3426917818036264,-0.1030216207535121,0.1973849999678465,0.0847855947359405,0.1296966095848417,0.1079738677266016,-10.68438618230345,16.593048017833773,25.54075586810156,0.5486702673268528,0.5655421582119421,-0.877805397068106,-1.0,12.0454,0.04,179.3293132173691,-6.441173696777923,98.7976331290644,1525.0,1435.0,1000.0,1173.0,1475.0,1021.47,61.0,292.85,1637226390.9409456,1637226391.9823334,142f8e15-b3a0-4bbd-bdb1-6e995d952c7b
0.1120280493604102,0.180154729949655,0.3355421787287489,-0.0965979344013752,0.1924679356412526,0.0834433320137137,0.120944508849895,0.0898807142657556,-10.864815747785942,16.596378366363844,25.91091431884769,0.53079801770176,0.5563868074711111,-0.8486410890895556,-1.0,12.047,0.04,179.32719950149396,-6.447316228194124,98.7570153601082,1525.0,1435.0,1000.0,1173.0,1475.0,1021.47,61.0,292.85,1637226392.0910797,1637226393.1023147,142f8e15-b3a0-4bbd-bdb1-6e995d952c7b
0.1213406133052291,0.1867290778294855,0.343790245719731,-0.1042384230759123,0.1979449152587245,0.0827623391243897,0.1301896856670267,0.1045891744853968,-10.68783598713548,16.532426270774423,25.796914363975063,0.5465604736247593,0.5822648752478436,-0.879789387749999,-1.0,12.04625,0.04,179.30888207250484,-6.442219644199776,98.70745550749058,1525.0,1435.0,1000.0,1173.0,1475.0,1021.47,61.0,292.85,1637226393.210358,1637226394.3320882,142f8e15-b3a0-4bbd-bdb1-6e995d952c7b
-0.029238256532409,0.1129254478992215,-0.1030681890417813,-0.0795320215423693,-0.2022356638174823,0.154777747035411,-0.3213497183265484,-0.3570221375962255,-13.87614931049444,16.418742824856665,25.548164172126576,0.6280083661490922,0.2988548985759046,0.9060366982811426,-1.0,12.050333333333334,0.04,179.338851804218,-6.43463128624494,98.7464718247594,1525.0,1435.0,1000.0,1617.0,1475.0,1021.47,61.0,292.85,1637226396.470796,1637226397.6089694,15645b58-ff8b-4051-ad0f-d078c488fac0
-0.0186798531942824,0.1156603766664288,-0.1016481297764644,-0.0785195718824292,-0.2019069463836188,0.1519902235127872,-0.3213102722365754,-0.3408623872952428,-13.841568587201351,16.473557361795304,25.67007960601727,0.6199315129555911,0.3077535565827738,0.9041105544458948,-1.0,12.052222222222222,0.04,179.33089691056466,-6.451282433667785,98.76969067338791,1525.0,1435.0,1000.0,1617.0,1475.0,1021.47,61.0,292.85,1637226397.7180405,1637226398.8374128,15645b58-ff8b-4051-ad0f-d078c488fac0
-0.0262140563227317,0.1071268729542669,-0.1043830587390218,-0.0746670037017692,-0.2025249351604728,0.156513374882921,-0.3219414097466705,-0.350552977763683,-13.835415690079437,16.474291275823898,25.615800878620743,0.6212683169644331,0.2755375505643903,0.9085075632107624,-1.0,12.052666666666669,0.04,179.3254190988503,-6.45371398101231,98.77952311015312,1525.0,1435.0,1000.0,1617.0,1475.0,1021.47,61.0,292.85,1637226398.945822,1637226400.1583595,15645b58-ff8b-4051-ad0f-d078c488fac0
-0.0572340232426296,0.1038512040567906,-0.2046911830874464,-0.0574805612899131,-0.2955267707338158,0.1497209777409182,-0.4340400927925065,-0.4579268968471739,-14.63544986377956,16.73088838552684,25.627113915346097,0.5635419151412151,0.2603433112538886,1.3306205766663683,-1.0,12.050888888888888,0.04,179.33305069688294,-6.453541471303898,98.8213739559275,1525.0,1435.0,1000.0,1706.0,1475.0,1021.47,61.0,292.85,1637226402.2984416,1637226403.3461294,8f5d240f-2236-4cd5-9bec-5adaf65f7a3f
-0.0639042475320437,0.0962222210333719,-0.2048007555781549,-0.0562478709405747,-0.29304769327654,0.1563775050313925,-0.4310953320822739,-0.4537220528719634,-14.6880088725106,16.65194725577781,25.68422834092645,0.575173254577733,0.2314357268955753,1.3223645297108158,-1.0,12.051333333333334,0.04,179.32386636917897,-6.450400058604384,98.81039328847186,1525.0,1435.0,1000.0,1706.0,1475.0,1021.47,61.0,292.85,1637226403.4590042,1637226404.572456,8f5d240f-2236-4cd5-9bec-5adaf65f7a3f
-0.0620826051758348,0.0987149946605768,-0.2066497911692499,-0.0562067812769536,-0.2961705090772495,0.1527342205465955,-0.4338483409297302,-0.4580364692270152,-14.577794775946812,16.680490209086518,25.500364264604425,0.567016934697384,0.2415128640352287,1.3331660776634653,-1.0,12.051666666666668,0.04,179.32725566082712,-6.451348695989109,98.80663516660852,1525.0,1435.0,1000.0,1706.0,1475.0,1021.47,61.0,292.85,1637226404.6803553,1637226405.892046,8f5d240f-2236-4cd5-9bec-5adaf65f7a3f
-0.0830520373191652,0.0856210848084532,-0.2753106474390703,-0.0340868384075845,-0.3587363987690259,0.1423111397385974,-0.5129048962972304,-0.5370108466804507,-15.140811874920397,17.10246464948152,24.52018713166022,0.4926365216453711,0.1980059087041076,1.6211952906595897,-1.0,12.05188888888889,0.04,179.3247072413568,-6.457131874077602,98.79925476775536,1525.0,1435.0,1000.0,1785.111111111111,1475.0,1021.47,61.0,292.85,1637226407.7606428,1637226408.7604263,9c95dce8-29aa-4378-82d2-59905a2b2a67
-0.0841477620570154,0.0883877896142964,-0.2672570699493195,-0.0361002325572941,-0.3518607251789187,0.1422152638544896,-0.505303304305409,-0.5292175023701499,-15.150336205986513,17.131766558893418,24.68823992410045,0.4975800542198326,0.207719639806881,1.590564869678655,-1.0,12.050111111111113,0.04,179.31975307747882,-6.457754654520674,98.78242973509992,1525.0,1435.0,1000.0,1795.0,1475.0,1021.47,61.0,292.85,1637226408.8687096,1637226409.989315,9c95dce8-29aa-4378-82d2-59905a2b2a67
-0.0816621104857217,0.0880218175680749,-0.2709113122450196,-0.0374430432018229,-0.3547868584480072,0.1419446198607391,-0.5067200766728281,-0.5301773574173716,-15.017447755462538,16.968778298553914,24.40490810594252,0.4987602350439737,0.2078485381772621,1.6012528398476094,-1.0,12.050888888888888,0.04,179.3316740343102,-6.455140731638936,98.76902435048888,1525.0,1435.0,1000.0,1795.0,1475.0,1021.47,61.0,292.85,1637226410.099147,1637226411.3302867,9c95dce8-29aa-4378-82d2-59905a2b2a67
-0.10344621412495807,0.0773894531702718,-0.3314391528828378,-0.003899622518539201,-0.4099067514630599,0.12527262128511465,-0.5803193771097072,-0.6073289998099991,-15.48982703081603,17.506018149143802,24.424503927721087,0.3859431747918129,0.163182470221507,1.862108351522692,-1.0,12.043,0.04,179.32201766464365,-6.47084053806051,98.74122851620656,1525.0,1435.0,1000.0,1883.0,1475.0,1021.4699999999999,61.0,292.84999999999997,1637226413.3552532,1637226414.4020698,06fb1681-bf83-4e76-9a79-4ee169fcd29d
-0.10710319550660215,0.07808797765064968,-0.3299462278195598,-0.0015575109464554895,-0.40882472317813967,0.12184848171428503,-0.5800317493666524,-0.6081781866097556,-15.467749912561885,17.55075001036362,24.34787175738394,0.37333521415301224,0.16613233234504435,1.8581841028053965,-1.0,12.043666666666667,0.04,179.3304233507822,-6.472102557805277,98.69095149372612,1525.0,1435.0,1000.0,1883.0,1475.0,1021.4699999999999,61.0,292.84999999999997,1637226414.5111425,1637226415.6313858,06fb1681-bf83-4e76-9a79-4ee169fcd29d
-0.09818673533339983,0.0791426126543261,-0.3257139905057177,-0.0005576621571621599,-0.40419528538940086,0.12116365378992654,-0.5755666698658836,-0.60876713872804,-15.479500401251892,17.49445337833151,24.562399627885878,0.36940672253655576,0.16841391052533597,1.8402061521685222,-1.0,12.044555555555554,0.03888888888888889,179.33270008050553,-6.463085380008521,98.64657423686873,1525.0,1435.0,1000.0,1883.0,1475.0,1021.4699999999999,61.0,292.84999999999997,1637226415.739549,1637226416.8669422,06fb1681-bf83-4e76-9a79-4ee169fcd29d
