raw_voltage_G-,raw_voltage_G0,raw_voltage_G1,raw_voltage_G2,raw_voltage_G3,raw_voltage_G4,raw_voltage_G5,raw_voltage_G6,load_x,load_y,load_z,load_l,load_m,load_n,rpm,voltage,current,roll,pitch,yaw,aileron1_pwm,elevator_pwm,throttle_pwm,rudder_pwm,aileron2_pwm,pbaro,pdiff,Tt,sample_start_time,sample_end_time,uid
0.0179074062443658,0.1368398915395103,-0.0141931133039967,-0.1191424711772759,-0.1140347080832687,0.1822534640730606,-0.2058227296795824,-0.2192748588657115,-13.094337932584397,14.754951830893871,28.400999028750103,0.773345656920928,0.3682134132420948,0.5080710847958765,-1.0,12.054,0.04,178.78573397831147,-8.860810386673066,102.52695876306424,1525.0,1435.0,1000.0,1528.0,1475.0,1021.47,61.0,292.85,1637226640.7763443,1637226641.7357843,bec35862-8049-4979-be8a-c7c969014ae0
0.0222364553224566,0.1351934949953884,-0.0162965301403083,-0.1177971646632894,-0.1160683544902631,0.1835271269176739,-0.208644923401074,-0.2345649025577468,-13.149696286944062,14.840717082612434,28.509074858775687,0.7736262395283425,0.3611748377540505,0.5176174759038676,-1.0,12.049666666666669,0.04,178.8502200709953,-8.88686841213031,103.02237742759225,1525.0,1435.0,1000.0,1528.0,1475.0,1021.47,61.0,292.85,1637226641.8446608,1637226642.9629488,bec35862-8049-4979-be8a-c7c969014ae0
0.0124709259769035,0.1359169542251354,-0.0136368223032461,-0.1195344034830746,-0.1138450634208917,0.1837326923542751,-0.204912435235786,-0.2383783995079192,-13.060748110617537,14.78927063192507,28.43645405219841,0.7778315466894692,0.3642839628544351,0.5057027299847745,-1.0,12.052,0.04,178.91276183649535,-8.904846323799429,103.44385474089538,1525.0,1435.0,1000.0,1528.0,1475.0,1021.47,61.0,292.85,1637226643.0710316,1637226644.0768387,bec35862-8049-4979-be8a-c7c969014ae0
0.1470331651193475,0.3657748642638943,0.013192587154535,-0.2379080805753843,-0.1451834658738905,0.0690482490360913,-0.2295323601176514,-0.2514249424070216,-12.776480677411191,14.557868952239792,28.66400838076393,0.7871236056833834,1.2386333450453435,0.5742584871319569,-1.0,12.046666666666669,0.04,179.0464468523903,-8.937536747531974,104.13915433802433,1644.0,1435.0,1000.0,1528.0,1569.0,1021.47,61.0,292.85,1637226645.9191575,1637226646.9447095,e11a27d6-4865-4e74-b9b2-0ca82461b67d
0.1487424956016379,0.3692724172021108,0.0147309846384422,-0.2376319579250622,-0.1442104622782203,0.0647486253737715,-0.2281780442461147,-0.2562899604751493,-12.67372456024141,14.484551229828718,28.58761968293033,0.7764690300662798,1.2517633297911157,0.5693277953036516,-1.0,12.048,0.04,179.11735332289393,-8.952804307329197,104.30578211519617,1644.0,1435.0,1000.0,1528.0,1569.0,1021.47,61.0,292.85,1637226647.0524633,1637226648.1735394,e11a27d6-4865-4e74-b9b2-0ca82461b67d
0.1485452651654398,0.3680890346285906,0.0127192340882668,-0.238473474587352,-0.145972387706553,0.0676150411365818,-0.229808482765047,-0.2535418824367013,-12.714688125346395,14.50183635006742,28.706027928014265,0.7848211727804103,1.2465417740045404,0.5767719314674455,-1.0,12.044888888888888,0.04,179.17602161222467,-8.976359353046847,104.44235933674965,1644.0,1435.0,1000.0,1528.0,1569.0,1021.47,61.0,292.85,1637226648.2809722,1637226649.51692,e11a27d6-4865-4e74-b9b2-0ca82461b67d
0.2592572828883581,0.5616115292175187,0.0384775302644832,-0.3387585949982351,-0.1711652917330909,-0.0375876788842911,-0.2507938044353296,-0.274895368015339,-12.477144309777747,14.495563667441557,27.59642074359941,0.7758189801662586,1.9945020102194169,0.6269934350132236,-1.0,12.038333333333334,0.0366666666666666,179.231048651818,-8.982298392257652,104.54201027892027,1763.0,1435.0,1000.0,1528.0,1663.0,1021.47,61.0,292.85,1637226650.4253864,1637226651.562825,33610617-2537-4eb6-baee-eaf677de25c2
0.2548694536144878,0.5604259552184778,0.0411483592009329,-0.3341784650734279,-0.1678337405339989,-0.039880482882143,-0.2488899825591933,-0.2686815131350327,-12.501059672625834,14.516962764147811,27.72230999557084,0.7606179682082871,1.988714667895916,0.6161532242522343,-1.0,12.039,0.03,179.2927115996448,-8.979953645233829,104.54799807809268,1763.0,1435.0,1000.0,1528.0,1663.0,1021.47,61.0,292.85,1637226651.6712258,1637226652.791783,33610617-2537-4eb6-baee-eaf677de25c2
0.2582388068588471,0.5613299279999445,0.0420934217479307,-0.3333155817071683,-0.167861133651389,-0.04405793336534,-0.2495200243295422,-0.2660243798498243,-12.469795285956549,14.592808746949189,27.36766930560704,0.7497932816318659,1.9949819640945303,0.6154068481790996,-1.0,12.039,0.03,179.33047799229558,-8.992728660302694,104.54112538996785,1763.0,1435.0,1000.0,1528.0,1663.0,1021.47,61.0,292.85,1637226652.9006178,1637226654.0281856,33610617-2537-4eb6-baee-eaf677de25c2
0.326557236884862,0.6963505894945418,0.0584471127108055,-0.3960869211029251,-0.1890360151274976,-0.1265112201960186,-0.2713660380672056,-0.2979647588089646,-12.326063573693654,14.921464904619665,26.211065099515128,0.7089874868836813,2.519395998777312,0.667181459273129,-1.0,12.029666666666666,0.03,179.37577580687108,-8.99255420588764,104.4278208996463,1881.0,1435.0,1000.0,1528.0,1757.0,1021.47,61.0,292.85,1637226655.9550712,1637226657.0169134,0b5e084c-6dfd-4de7-957f-1ec68f7f2e84
0.3215163558169343,0.689324803483156,0.0546898727637645,-0.3894073820928149,-0.1913222448873716,-0.1249607696778385,-0.2743168250297623,-0.2989706341295897,-12.269731180588517,14.97634403451893,26.300394168307346,0.6976234634866089,2.49079494899498,0.6789695183387495,-1.0,12.029666666666666,0.03,179.39001447456084,-8.988107183555533,104.33096198702634,1881.0,1435.0,1000.0,1528.0,1757.0,1021.47,61.0,292.85,1637226657.1257775,1637226658.0660677,0b5e084c-6dfd-4de7-957f-1ec68f7f2e84
0.3241329461968013,0.6873524992384028,0.0590289425258612,-0.3958370957999108,-0.1869042825337286,-0.1181760419604111,-0.2671770820310865,-0.292974827963104,-12.276325774891657,14.911287409635316,26.19357186330059,0.7271379522487095,2.4854566531840865,0.6564483913362136,-1.0,12.02588888888889,0.03,179.3997178966417,-8.985603065451075,104.24131044180058,1881.0,1435.0,1000.0,1528.0,1757.0,1021.47,61.0,292.85,1637226658.174937,1637226659.2326384,0b5e084c-6dfd-4de7-957f-1ec68f7f2e84
0.3608835495926981,0.7535430297528987,0.0650510453659797,-0.4070397877076573,-0.1988695972966479,-0.1691140953738793,-0.2852959879448944,-0.3032965557863098,-12.19070525442516,15.303320213305824,26.65348792962932,0.6409589789449714,2.7307968696144984,0.6987927396942042,-1.0,12.007333333333332,0.03,179.4222013615696,-8.993400390434816,103.91648106416302,2000.0,1435.0,1000.0,1528.0,1852.0,1021.47,61.0,292.85,1637226661.2801058,1637226662.517615,a23dea73-1242-4fdc-b81e-c366569100e2
0.3725858883799518,0.7588945486166955,0.0722696795789199,-0.4085518876535055,-0.1943464453336243,-0.1733742729508556,-0.2807070923091874,-0.2996412178903122,-12.170372507557271,15.437127173185436,26.639091785030523,0.6360511205647339,2.751498065595854,0.6768319144799146,-1.0,12.006125,0.04,179.42611885451353,-8.99529019468486,103.63622075786203,2000.0,1435.0,1000.0,1528.0,1852.0,1021.47,61.0,292.85,1637226662.6353233,1637226663.8470354,a23dea73-1242-4fdc-b81e-c366569100e2
0.3451577100320132,0.7529381897835214,0.0653534653882195,-0.4066979211626658,-0.198554028532134,-0.170073949963088,-0.2844413225530868,-0.3157220755774441,-12.120231604676723,15.274827624038355,26.48206575966049,0.6378652169899488,2.7295254647009504,0.6964828442047516,-1.0,12.008555555555551,0.03,179.42797363032813,-8.996690359748776,103.41650286890908,2000.0,1435.0,1000.0,1528.0,1852.0,1021.47,61.0,292.85,1637226663.954623,1637226665.0703824,a23dea73-1242-4fdc-b81e-c366569100e2
-0.1346382107628511,-0.1364264335328351,-0.0468180639422102,0.0196354483994617,-0.0838710915123011,0.3167302307198783,-0.1862731450536873,-0.2156341870504134,-13.63263446557994,15.82932938224248,27.56148201241329,0.7675768066563904,-0.6645874611073594,0.4497742158393571,-1.0,12.04575,0.04,179.64596556842332,-8.986422474708068,103.0165620906964,1406.0,1435.0,1000.0,1528.0,1381.0,1021.47,61.0,292.85,1637226666.8093328,1637226667.852285,e39d13b4-a298-4d79-af01-e7a3c2b89922
-0.139509255230765,-0.1391668411671752,-0.0475642524739789,0.0138237245915874,-0.0843669069523999,0.3257491400171214,-0.1829958322086936,-0.2039241758883006,-13.542891406099072,15.731418922976871,27.711451435570485,0.8003361899944547,-0.6761634276938793,0.4467323913687345,-1.0,12.046777777777775,0.04,179.59333402795397,-8.968970511320974,103.12602554824716,1406.0,1435.0,1000.0,1528.0,1381.0,1021.47,61.0,292.85,1637226667.9602654,1637226669.175874,e39d13b4-a298-4d79-af01-e7a3c2b89922
-0.1276956986439556,-0.1395426747612365,-0.0475543909559657,0.0167690325859376,-0.0839762810875678,0.3208194749824692,-0.1842482456511069,-0.2069428977655351,-13.55655939825052,15.740382278664146,27.33927128014377,0.78260838362872,-0.6745395234356059,0.4474122568259184,-1.0,12.04811111111111,0.04,179.5473789973983,-8.96547943088145,103.23517728355333,1406.0,1435.0,1000.0,1528.0,1381.0,1021.47,61.0,292.85,1637226669.28283,1637226670.4043162,e39d13b4-a298-4d79-af01-e7a3c2b89922
-0.2841312324319605,-0.3809111311825071,-0.069602016110407,0.1299294510914812,-0.0540564214844394,0.4478402538317761,-0.1594377494223831,-0.175859924910522,-13.97224944312797,16.89634733474391,26.588714861713743,0.8190151707725225,-1.585534238317084,0.3713516740294689,-1.0,12.038222222222224,0.0322222222222222,179.54144128627982,-8.952308644295679,103.32822950407586,1287.0,1435.0,1000.0,1528.0,1287.0,1021.47,61.0,292.85,1637226672.2750638,1637226673.3688452,75e4eb7c-313a-4bce-85b6-b475257ddf68
-0.2734358622977502,-0.3839243746496342,-0.0730891600840335,0.1306498900550498,-0.0559827055606348,0.4506628403852839,-0.1620532444701749,-0.1948460959249001,-14.055794890162696,16.85569808400669,26.641969572718992,0.8232560950184008,-1.597026871553947,0.3821276943720286,-1.0,12.038333333333334,0.03,179.53610463180834,-8.953395023828667,103.25340098716885,1287.0,1435.0,1000.0,1528.0,1287.0,1021.47,61.0,292.85,1637226673.476183,1637226674.599622,75e4eb7c-313a-4bce-85b6-b475257ddf68
-0.2711879828358025,-0.3798154062841385,-0.0696431058134383,0.1323674384616615,-0.0542207802125933,0.4460733979230951,-0.1612730884476143,-0.1901591332431511,-14.049924302682058,16.96865750529643,26.80150165010868,0.8100174341972225,-1.5830623110916526,0.3746147570558942,-1.0,12.040125,0.03,179.53768999460567,-8.943667518216197,103.17290426702434,1287.0,1435.0,1000.0,1528.0,1287.0,1021.47,61.0,292.85,1637226674.712204,1637226675.8180912,75e4eb7c-313a-4bce-85b6-b475257ddf68
-0.323086357987239,-0.470503500926104,-0.0599986210679117,0.1938597164454776,-0.0286693225958553,0.4779979659860007,-0.1409895373360634,-0.1751255783557338,-13.97152720617196,17.879782667779335,26.861329727076047,0.7496138776122279,-1.931227088619242,0.2871179645778769,-1.0,12.018555555555556,0.03,179.57673666827085,-8.939807690567264,102.94398506975828,1169.0,1435.0,1000.0,1528.0,1193.0,1021.47,61.0,292.85,1637226676.8446944,1637226677.9857385,bd4de0d9-6e9a-4391-83fd-7bac09caf1ec
-0.3068654157537454,-0.4710724350307342,-0.0600112640528499,0.1908633310080945,-0.0280498167204879,0.480804706675772,-0.1398010973607258,-0.1699798861637527,-14.025045901245615,17.810920321586345,26.794523965184347,0.7621853946105686,-1.9320230976475203,0.2844008218244433,-1.0,12.015666666666666,0.03,179.5844016583394,-8.938768742903514,102.70386521602704,1169.0,1435.0,1000.0,1528.0,1193.0,1021.47,61.0,292.85,1637226678.094305,1637226679.098411,bd4de0d9-6e9a-4391-83fd-7bac09caf1ec
-0.3349834013898043,-0.4610339087876495,-0.0596319747589466,0.1877784443407645,-0.0312358470700877,0.4736487820717046,-0.1433917033250997,-0.1605735105253166,-13.991150223062942,17.93318943513423,26.75769791081277,0.7539044398065552,-1.8938801036495745,0.2944447518961716,-1.0,12.020111111111111,0.03,179.59540433418238,-8.915110864893359,102.5285646164291,1169.0,1435.0,1000.0,1528.0,1193.0,1021.47,61.0,292.85,1637226679.2059343,1637226680.2669756,bd4de0d9-6e9a-4391-83fd-7bac09caf1ec
-0.3603356093476282,-0.542905298677736,-0.0525377471054901,0.2282132125787064,-0.0069775132951698,0.5098977116835887,-0.1238168330773201,-0.1468007559368509,-14.322697290472204,18.46645769355265,25.898561821911468,0.7477341953881824,-2.195506088356044,0.2126489982447353,-1.0,11.980222222222222,0.14,179.60632808339494,-8.911005541747228,102.0675025623362,1050.0,1435.0,1000.0,1528.0,1098.0,1021.47,61.0,292.85,1637226682.314243,1637226683.3082075,21c78e6b-54b8-487b-90ac-3ddee7ab7d66
-0.3641224345322189,-0.5377904543760473,-0.054799322875802,0.2262014621695832,-0.0101200517064611,0.5058347648971864,-0.1271960481912879,-0.1430665257077029,-14.301471769612297,18.42133828570784,25.74888278751576,0.7427173388095496,-2.1750423874438582,0.2252468179429195,-1.0,11.982888888888889,0.14,179.63348946899436,-8.933593451651152,101.58581713149935,1050.0,1435.0,1000.0,1528.0,1098.0,1021.47,61.0,292.85,1637226683.4161713,1637226684.536245,21c78e6b-54b8-487b-90ac-3ddee7ab7d66
-0.363649081345506,-0.5336354652039172,-0.0517751226269505,0.2278713465172032,-0.0086211003085113,0.5012853164112389,-0.1271960481693342,-0.1477869080986721,-14.342782825661464,18.54394670508142,25.90977822876713,0.72969549438303,-2.160604075550475,0.2197479881546878,-1.0,11.98488888888889,0.1311111111111111,179.66352864096407,-8.924993674303677,101.2232395750489,1050.0,1435.0,1000.0,1528.0,1098.0,1021.47,61.0,292.85,1637226684.643689,1637226685.7643297,21c78e6b-54b8-487b-90ac-3ddee7ab7d66
0.0022942657314447,0.1223248175686862,-0.0130337055210085,-0.104502371129156,-0.111807202760902,0.1826748965536975,-0.207378752611309,-0.2385582110535398,-13.1706843583944,15.184541063067517,28.34930565568948,0.7441270517329072,0.3130498552064039,0.5037416157844279,-1.0,12.049444444444443,0.04,179.47353554555158,-8.912283166576975,100.53626218396865,1525.0,1435.0,1000.0,1528.0,1475.0,1021.47,61.0,292.85,1637226687.7976525,1637226689.0382595,3d6607a0-95e7-4095-a823-6dc7e6da6c33
0.0207267901898895,0.1237417674992103,-0.0166079220046022,-0.1033261058321031,-0.1140726370230372,0.1811914540211614,-0.2104627027667003,-0.2363808089746426,-13.188723237218284,15.046636922761564,28.46581922785858,0.7370575292651557,0.3170855483787425,0.5164802377764328,-1.0,12.051555555555556,0.04,179.3556525517564,-8.909041482905897,100.97872335622188,1525.0,1435.0,1000.0,1528.0,1475.0,1021.47,61.0,292.85,1637226689.1469402,1637226690.1586082,3d6607a0-95e7-4095-a823-6dc7e6da6c33
0.0297918049109097,0.1279265928529286,-0.0157987714332719,-0.1036927521761027,-0.1146542139942017,0.1767916981352814,-0.2107029193389963,-0.2452182511079796,-13.091676029620752,15.047753923158734,28.37697989918492,0.7280801392645977,0.3329781490458127,0.5169566810314866,-1.0,12.052,0.04,179.29174171278268,-8.891026289787554,101.30294788266296,1525.0,1435.0,1000.0,1528.0,1475.0,1021.47,61.0,292.85,1637226690.266676,1637226691.2952392,3d6607a0-95e7-4095-a823-6dc7e6da6c33
0.0259104108671935,0.1262071479947966,-0.0307933427372209,-0.3001014219902321,-0.1483603934086381,0.3709878162079563,-0.1709281094519494,-0.2013091864869877,-13.102597131413631,14.57189642545549,30.13329244579457,1.6038879073504406,0.3342637935796074,0.527408717590583,-1.0,12.04722222222222,0.04,179.15478579518523,-8.824042245142287,102.0225781314353,1525.0,1535.0,1000.0,1528.0,1475.0,1021.47,61.0,292.85,1637226693.4335992,1637226694.5716836,3f57fa66-4111-47bc-ad5d-635d5265e53e
0.0146881295802981,0.1251493522642496,-0.0310644643709973,-0.2996144331858365,-0.1479539450791894,0.3708716881279318,-0.1704893512849271,-0.194254404723764,-13.089974182241836,14.51729236661859,30.03448755424543,1.6021435516686344,0.3310047071252151,0.526368149794721,-1.0,12.04975,0.04,179.1486765704276,-8.812493628484395,102.1505999718709,1525.0,1535.0,1000.0,1528.0,1475.0,1021.47,61.0,292.85,1637226694.6797073,1637226695.6842315,3f57fa66-4111-47bc-ad5d-635d5265e53e
0.0328261194327299,0.1253853544957279,-0.0295543309424239,-0.3017702952261886,-0.1470202377304242,0.3717211088247791,-0.1680202244628741,-0.1956704181328881,-13.009475852643174,14.494074937737215,29.921138094727308,1.608859145635885,0.3326854984088788,0.5194380254038417,-1.0,12.04922222222222,0.04,179.14653796230746,-8.813724580354814,102.3048098959492,1525.0,1535.0,1000.0,1528.0,1475.0,1021.47,61.0,292.85,1637226695.791981,1637226696.9167595,3f57fa66-4111-47bc-ad5d-635d5265e53e
0.0418830426004059,0.1226291855365168,-0.0439122019772065,-0.4921644662029474,-0.1814344244011916,0.5617561648584796,-0.1325212704943095,-0.1588844084827472,-13.157854381597362,14.352445075929086,31.7115239240773,2.463932793622285,0.3300592146165341,0.5358164574651179,-1.0,12.049111111111111,0.04,179.12647997344487,-8.770374982376296,102.65016171531292,1525.0,1636.0,1000.0,1528.0,1475.0,1021.47,61.0,292.85,1637226698.7742283,1637226699.8967135,31875d2e-fd25-40f3-b7c8-85f93aa1cadc
0.0100814032986276,0.1258531446433258,-0.043360462449585,-0.497028473674759,-0.1815987831408958,0.5626932622338443,-0.1303062207441402,-0.1553013884614632,-13.049693005060876,14.2318335718651,31.66863538327014,2.4762861194287984,0.3423973971196966,0.5325465812812815,-1.0,12.049333333333331,0.04,179.15543390424648,-8.758547086872344,102.71564273888583,1525.0,1636.0,1000.0,1528.0,1475.0,1021.47,61.0,292.85,1637226700.0048234,1637226701.1244037,31875d2e-fd25-40f3-b7c8-85f93aa1cadc
0.0228568789811038,0.1262582256093257,-0.041847856654844,-0.497318756780986,-0.1808427330907591,0.5622426665488058,-0.1290894605822155,-0.1532567661612842,-13.009789964893017,14.275527299245272,31.632794962345653,2.476307719999556,0.344084298089033,0.5277284506625484,-1.0,12.047,0.04,179.17020077323207,-8.76473798930879,102.77039960655192,1525.0,1636.0,1000.0,1528.0,1475.0,1021.47,61.0,292.85,1637226701.2325249,1637226702.3509543,31875d2e-fd25-40f3-b7c8-85f93aa1cadc
0.0332312003868927,0.1299924552722072,-0.0489087067321717,-0.5963153190385521,-0.2011969167342769,0.6558876721884094,-0.1144681093736179,-0.1378201956357811,-13.116366636126363,14.428666549738953,32.53348262499389,2.9108060637552367,0.3626050537963398,0.5449754005807457,-1.0,12.041222222222224,0.0322222222222222,179.1861485060341,-8.731630165126967,102.82094755986948,1525.0,1737.0,1000.0,1528.0,1475.0,1021.47,61.0,292.85,1637226704.3847778,1637226705.392165,25fa89bf-58fb-4af7-9b20-d10b9a4255d6
0.0314238025176624,0.1269025117250907,-0.0471807488385815,-0.5879620592133912,-0.1983770689717586,0.6501110122014793,-0.1143212822612094,-0.1383998343881116,-13.120337022293128,14.481384133221724,32.38206444324235,2.8793916063190217,0.3514679760613392,0.5380316024660372,-1.0,12.042444444444444,0.0355555555555555,179.20431529140654,-8.72976334161757,102.77271352286074,1525.0,1737.0,1000.0,1528.0,1475.0,1021.47,61.0,292.85,1637226705.4996908,1637226706.4517326,25fa89bf-58fb-4af7-9b20-d10b9a4255d6
0.0314035316090222,0.1326090457657824,-0.0467128743635549,-0.5883340579232528,-0.1983699467440123,0.6454081623018937,-0.1139947562651941,-0.139424336609505,-13.02599013330689,14.350655275753564,32.46376238143847,2.8688800071882885,0.3715523420800622,0.537841323701918,-1.0,12.036333333333332,0.03,179.20833903173758,-8.726325954054024,102.75711109406672,1525.0,1737.0,1000.0,1528.0,1475.0,1021.47,61.0,292.85,1637226706.563511,1637226707.5667598,25fa89bf-58fb-4af7-9b20-d10b9a4255d6
0.032451044413939,0.1254780696572492,-0.0446194922918012,-0.6306268535141107,-0.2049377211860216,0.6929127536284508,-0.1030764070064215,-0.127689124478398,-12.965839282678402,14.856554114029548,32.73083928131052,3.0745621048563514,0.34736245466079,0.5273654038451182,-1.0,12.035444444444446,0.03,179.25430468703195,-8.710405447144892,102.61999352865888,1525.0,1837.0,1000.0,1528.0,1475.0,1021.47,61.0,292.85,1637226709.407981,1637226710.4371843,1ab65b6f-1efa-4dcb-a804-f5b7f9c63774
0.0373861884487862,0.1338976179633208,-0.0468706587472234,-0.6211137683948906,-0.2065352879470659,0.6749138338026919,-0.1103788646189338,-0.1359925266858843,-13.008055862993157,14.76366381961716,32.55488423349806,3.011879766394804,0.3794836118742553,0.5438696884737173,-1.0,12.038,0.03,179.27327971145613,-8.72729299500401,102.5257634799595,1525.0,1837.0,1000.0,1528.0,1475.0,1021.47,61.0,292.85,1637226710.5452316,1637226711.5662088,1ab65b6f-1efa-4dcb-a804-f5b7f9c63774
0.0419224886356307,0.1304000648472238,-0.0443724063983911,-0.6187075562126055,-0.2030640318226494,0.6763601902503623,-0.1069339060077148,-0.1261573015653947,-13.005647331030264,14.753701850473782,32.61126095542174,3.009770653655512,0.3657108994399972,0.5305146130789917,-1.0,12.036666666666669,0.03,179.27301788753795,-8.731956496387314,102.45174547883396,1525.0,1837.0,1000.0,1528.0,1475.0,1021.47,61.0,292.85,1637226711.6735818,1637226712.685689,1ab65b6f-1efa-4dcb-a804-f5b7f9c63774
0.0100297777765394,0.1390787520195861,0.0001271657891271,0.0636928946393785,-0.0864761770806857,0.004523761164882,-0.245945222095901,-0.2699142030780281,-13.048119335211084,15.636452818521638,27.2716732393142,-0.0320686316894406,0.3647043954478359,0.5080928756229736,-1.0,12.048222222222222,0.04,179.27379349346373,-8.942941229576483,102.24496681408118,1525.0,1334.0,1000.0,1528.0,1475.0,1021.47,61.0,292.85,1637226714.2964356,1637226715.255667,21eea778-a965-46db-85eb-333c446dc9ed
-0.0046764913564581,0.1366982901977676,-0.0015602502711806,0.0587659686069352,-0.0875658753477538,0.0104576583036781,-0.2459287862462745,-0.2627328222246884,-13.129374762551786,15.604045892307914,27.133165106406995,-0.0079822668795732,0.358078003604228,0.511283703891143,-1.0,12.050555555555556,0.04,179.2575695174552,-8.93466360948486,102.36482373254648,1525.0,1334.0,1000.0,1528.0,1475.0,1021.47,61.0,292.85,1637226715.3636322,1637226716.3725824,21eea778-a965-46db-85eb-333c446dc9ed
0.0067102797693872,0.1350152571187665,-0.0023491720562562,0.0601597303997043,-0.087802551887124,0.0119960557826973,-0.2461654628000256,-0.2728441711285436,-13.126750305357362,15.59981402775537,27.295871028550604,-0.0077093466944559,0.3500832854239318,0.5130600581086618,-1.0,12.05,0.0399999999999999,179.24955573239302,-8.931231686072648,102.47697407268026,1525.0,1334.0,1000.0,1528.0,1475.0,1021.47,61.0,292.85,1637226716.4808917,1637226717.511274,21eea778-a965-46db-85eb-333c446dc9ed
-0.00437407134894,0.1371321971626424,0.0153095272876216,0.2693817784662044,-0.0529716539985472,-0.1934260364773074,-0.2904765749192285,-0.3144072057615976,-13.211230362268452,16.464328651637437,25.664945089216687,-0.9349661440639678,0.3484502988859145,0.5040144065557128,-1.0,12.046,0.04,179.22518227823082,-8.996852576741563,102.63593822582132,1525.0,1234.0,1000.0,1528.0,1475.0,1021.47,61.0,292.85,1637226719.33107,1637226720.382096,acec944d-9fac-4829-9e71-80e1cd1ee21a
0.0002674184904503,0.1381577954439425,0.0130348028005915,0.2683824776052453,-0.056245679491001,-0.1937416052245461,-0.2929090840786562,-0.3262673321178859,-13.130905669606944,16.499627597790994,25.61318085872437,-0.9332681744893644,0.3521666112088497,0.5151218345448343,-1.0,12.0459,0.0399999999999999,179.2422269394136,-8.99110017244983,102.66737447504028,1525.0,1234.0,1000.0,1528.0,1475.0,1021.47,61.0,292.85,1637226720.5135634,1637226721.5605204,acec944d-9fac-4829-9e71-80e1cd1ee21a
-0.0004952058893914,0.1412477389819402,0.014836174208492,0.2599278663945435,-0.0550228506966861,-0.1897312524802111,-0.2898585861207898,-0.3094501467825423,-13.197720143751669,16.416270057920155,25.52702558630688,-0.9056951021884366,0.3661459938296592,0.506823295652656,-1.0,12.0453,0.0399999999999999,179.24589338496008,-8.985936207927843,102.69660700166904,1525.0,1234.0,1000.0,1528.0,1475.0,1021.47,61.0,292.85,1637226721.6767185,1637226722.8344867,acec944d-9fac-4829-9e71-80e1cd1ee21a
0.0020556412209331,0.1397487876492855,0.0260914583147317,0.3664191503059761,-0.037666571052777,-0.2911208611932337,-0.3113698563562665,-0.3389163794450134,-13.15908204553208,17.15303337294165,24.79699977228148,-1.3684017265857775,0.3543354080220793,0.4979160439214513,-1.0,12.044333333333334,0.04,179.2277747144758,-9.03006930449515,102.71112570711472,1525.0,1133.0,1000.0,1528.0,1475.0,1021.47,61.0,292.85,1637226723.949579,1637226725.0868473,f721fce8-5863-4801-8c57-85ba350958df
-0.0051629931666252,0.1395647059063913,0.0253814286865293,0.3559264914884527,-0.0386132772433415,-0.2830081144597638,-0.3091740237685206,-0.3502900051939541,-13.197326863355896,17.061928031334215,24.55827624095896,-1.3271990422982094,0.3572767913251002,0.4966066155729875,-1.0,12.042333333333334,0.04,179.2397745979376,-9.017549947201472,102.71737608911522,1525.0,1133.0,1000.0,1528.0,1475.0,1021.47,61.0,292.85,1637226725.1951096,1637226726.2037115,f721fce8-5863-4801-8c57-85ba350958df
-0.0123816275340341,0.1416947946405092,0.0243952764755817,0.3517978011497067,-0.0403489051826781,-0.2807596871052848,-0.3097131203722148,-0.3320922052488588,-13.195241399455222,17.046817698261314,24.62839868835075,-1.3129702562752483,0.3650752223762667,0.501410498003444,-1.0,12.043666666666669,0.04,179.25169859040864,-9.022121715349671,102.72887129748834,1525.0,1133.0,1000.0,1528.0,1475.0,1021.47,61.0,292.85,1637226726.3118503,1637226727.4319146,f721fce8-5863-4801-8c57-85ba350958df
-0.0054336371509332,0.1401059938864967,0.0312046576023236,0.4183515656395486,-0.0314297059543782,-0.3440125958400226,-0.3263029426128984,-0.3549698450370626,-13.27121650089248,17.77040222675923,24.08177019370038,-1.6002265634853614,0.3567484982642777,0.5028708917536906,-1.0,12.041,0.04,179.25189438916485,-9.068490826123766,102.71756885223178,1525.0,1033.0,1000.0,1528.0,1475.0,1021.47,61.0,292.85,1637226729.273576,1637226730.2946904,68d67630-38fb-41b9-afc2-5f7f9a91be6a
-0.0035588521660482,0.1436670990220263,0.0303647846035169,0.4353972052975366,-0.0310659253663568,-0.3608747061348731,-0.3325524093861116,-0.3464374355340932,-13.282015840771976,17.805187818214705,24.384231409095783,-1.6763372078721606,0.3653491999933622,0.5134032757179874,-1.0,12.041111111111112,0.0355555555555555,179.2649263901012,-9.058870220086586,102.66766749015568,1525.0,1033.0,1000.0,1528.0,1475.0,1021.47,61.0,292.85,1637226730.4036863,1637226731.532526,68d67630-38fb-41b9-afc2-5f7f9a91be6a
-0.0074508663437779,0.1419577685566597,0.030851286326745,0.4442331284495957,-0.0295275279031888,-0.3645431928971955,-0.333393926199525,-0.3541031264837892,-13.281167415021498,17.84725508859125,24.77918302063845,-1.7041459870667426,0.354375384151243,0.5122539255933591,-1.0,12.039888888888887,0.03,179.26600707780992,-9.044067777199093,102.6692589242323,1525.0,1033.0,1000.0,1528.0,1475.0,1021.47,61.0,292.85,1637226731.646704,1637226732.869468,68d67630-38fb-41b9-afc2-5f7f9a91be6a
0.0147309845979753,0.1321488414062295,-0.0169968199812172,-0.1093269688227044,-0.1154016668499017,0.1818114656076159,-0.2101380310705417,-0.2342790402270455,-13.16227776389908,14.882792301688916,28.9407349919253,0.7509707607574616,0.3449322479151588,0.5200784782038835,-1.0,12.050000000000002,0.04,179.27496828600093,-8.927042541327202,102.61392832067594,1525.0,1435.0,1000.0,1528.0,1475.0,1021.47,61.0,292.85,1637226734.8034818,1637226735.9418032,368c5dc9-905a-4253-a6a3-a1a143244926
0.0069469563111893,0.1330955475101873,-0.0159975190454789,-0.1094979019220539,-0.1145732989414996,0.1821664803820352,-0.2086259308439163,-0.232240992088438,-13.11504596526615,14.850774987704328,29.110393787625984,0.7520424413010685,0.3467288475931072,0.5158336578396063,-1.0,12.050000000000002,0.04,179.27260048708865,-8.890855440194567,102.64922977394616,1525.0,1435.0,1000.0,1528.0,1475.0,1021.47,61.0,292.85,1637226736.0500104,1637226737.1703787,368c5dc9-905a-4253-a6a3-a1a143244926
0.0125910342634269,0.1314360725145653,-0.0130763169556157,-0.1094042174157308,-0.1127598744666524,0.1807162888240746,-0.2067182739675655,-0.2215927384740047,-13.08721767202953,14.981230700073658,28.70247224713032,0.7495315839860958,0.344099110421409,0.5058562981924192,-1.0,12.05177777777778,0.04,179.25760290949114,-8.886854656888232,102.68594962983408,1525.0,1435.0,1000.0,1528.0,1475.0,1021.47,61.0,292.85,1637226737.2789536,1637226738.398668,368c5dc9-905a-4253-a6a3-a1a143244926
0.0369391327682987,0.1470200164773838,0.0652219784376331,-0.1212133909570155,-0.0428734549408632,0.1698461524560134,-0.1259732193225101,-0.1432374592340747,-12.528150416412863,14.864165657330323,28.392951537416693,0.7550983132932992,0.407750379974991,0.1907600977190217,-1.0,12.049666666666669,0.04,179.26050953443794,-8.899564595432503,102.69234041016747,1525.0,1435.0,1000.0,1439.0,1475.0,1021.47,61.0,292.85,1637226739.3092182,1637226740.448157,8fe8b281-6964-4dff-9f9c-0405cce0effd
0.0383679577518211,0.1453380791292845,0.0621177904077268,-0.1201697131234736,-0.0463178656106698,0.1690605178806276,-0.130181898129858,-0.1557670717825372,-12.544051302747237,14.967935334059542,28.154437342903,0.7514659152547112,0.4033450519802871,0.2050906457774558,-1.0,12.049,0.04,179.2675704322199,-8.889589199013436,102.69604161378771,1525.0,1435.0,1000.0,1439.0,1475.0,1021.47,61.0,292.85,1637226740.556981,1637226741.6758137,8fe8b281-6964-4dff-9f9c-0405cce0effd
0.0362723842716976,0.1438177611654985,0.0617616798944824,-0.1205669133619354,-0.0454412858211778,0.1723476918151197,-0.1294011942207382,-0.1443715341140853,-12.619019429188931,14.904554426779235,28.36064813817192,0.7593058629491466,0.3963711536089627,0.2033475607374547,-1.0,12.049555555555555,0.04,179.25388273312325,-8.881994787566292,102.72147496152712,1525.0,1435.0,1000.0,1439.0,1475.0,1021.47,61.0,292.85,1637226741.7840135,1637226742.904276,8fe8b281-6964-4dff-9f9c-0405cce0effd
0.0670348548994995,0.1595414099721312,0.155309173492231,-0.1276891243092777,0.0384090474743539,0.1590620304175057,-0.033552672589434,-0.0612608120112787,-11.905204268526214,14.860794157654473,28.4556553277946,0.7502595803936108,0.4562567087088809,-0.1723517654312075,-1.0,12.04922222222222,0.04,179.23691350758526,-8.884059307106664,102.72674407301685,1525.0,1435.0,1000.0,1351.0,1475.0,1021.47,61.0,292.85,1637226744.7737408,1637226745.8093264,cc8f3236-2346-4974-8385-c9b1717a509f
0.0701790368668365,0.1607078088645013,0.1542649478928811,-0.1280770108457594,0.0374387832572272,0.1578808392532852,-0.0347738577951839,-0.0602954783096739,-11.911404451291528,14.828395405212923,28.391170956609344,0.7482000922225359,0.4612278297826758,-0.1678123835698025,-1.0,12.048555555555556,0.04,179.24657898417075,-8.885943680407681,102.72806457625636,1525.0,1435.0,1000.0,1351.0,1475.0,1021.47,61.0,292.85,1637226745.917671,1637226746.9972408,cc8f3236-2346-4974-8385-c9b1717a509f
0.0698503194753031,0.1607209575551075,0.155974278355667,-0.1284583230680416,0.0379910285085651,0.1594060879712257,-0.0332223115830914,-0.050447104448563,-11.855901754175957,14.916925108914606,28.57099742206373,0.7532162680674009,0.4594473250330085,-0.1728492812348549,-1.0,12.050000000000002,0.04,179.23922211152473,-8.889645737801565,102.74305684148456,1525.0,1435.0,1000.0,1351.0,1475.0,1021.47,61.0,292.85,1637226747.1059904,1637226748.22948,cc8f3236-2346-4974-8385-c9b1717a509f
0.0883373862433152,0.1704904385515799,0.2438864578236168,-0.1283399847919351,0.11708043582239,0.1433252329285073,0.0549396979905936,0.0352166534657355,-11.194758397346993,15.044349824339545,28.334243034151985,0.7223307136332555,0.4990685110448244,-0.524670526960078,-1.0,12.047333333333334,0.04,179.2602226664928,-8.893578219216202,102.69942559306652,1525.0,1435.0,1000.0,1262.0,1475.0,1021.47,61.0,292.85,1637226750.3849418,1637226751.3959172,cb21d1eb-6a8e-4434-a956-a50db07e54c9
0.0979359343843596,0.1761969725221691,0.2495009508180519,-0.1309039807373094,0.121866561148276,0.1420366607316482,0.0600939868955413,0.0330471185478816,-11.219420579113144,14.982559562272389,28.652430294417663,0.7251271222538515,0.5184965139536041,-0.5450562858820814,-1.0,12.048333333333334,0.04,179.25122503062616,-8.886111114906084,102.69266142905848,1525.0,1435.0,1000.0,1262.0,1475.0,1021.47,61.0,292.85,1637226751.5036309,1637226752.6227696,cb21d1eb-6a8e-4434-a956-a50db07e54c9
0.0924967571001992,0.1670197307214712,0.2424877653371151,-0.1251963504619484,0.1174518864882443,0.144571071859349,0.0538724621467464,0.0372311432384564,-11.287311550036604,15.02267185967357,28.430633761854505,0.7177944361491922,0.4853759204223016,-0.5220626372394067,-1.0,12.047111111111112,0.0388888888888888,179.25139957990496,-8.880905751848628,102.67914524360091,1525.0,1435.0,1000.0,1262.0,1475.0,1021.47,61.0,292.85,1637226752.73056,1637226753.7605026,cb21d1eb-6a8e-4434-a956-a50db07e54c9
0.1219717506683827,0.1854668030364347,0.3220291549505066,-0.1184258671773795,0.1877020813047995,0.117159328007284,0.1279938534740146,0.0967788488784892,-10.74831918084938,15.210580617056962,28.57601005837804,0.646424824998553,0.5536724307531437,-0.8289063684723861,-1.0,12.044777777777776,0.04,179.2691277153507,-8.894295958261484,102.62774655227676,1525.0,1435.0,1000.0,1173.0,1475.0,1021.47,61.0,292.85,1637226755.787999,1637226756.8305328,fa580a37-9c80-4b9e-ad2a-688560d677dc
0.1116993319360329,0.1817709238013243,0.316682018809532,-0.1129379297374272,0.1841541248744164,0.1159726581986374,0.1213417090103094,0.0942636129036161,-10.886495515810706,15.259758374487165,28.564868019362745,0.6313672002410132,0.5398735378290178,-0.8078455634537182,-1.0,12.04611111111111,0.04,179.26231877565812,-8.902821362437997,102.61112187183696,1525.0,1435.0,1000.0,1173.0,1475.0,1021.47,61.0,292.85,1637226756.9388971,1637226758.060272,fa580a37-9c80-4b9e-ad2a-688560d677dc
0.1214923711362538,0.1828803450083032,0.324516449819788,-0.118923326257003,0.1888520443134804,0.1186160939272283,0.1293678921990571,0.1118226008088518,-10.763739961011758,15.407655159158388,28.37041459972457,0.6522102644325013,0.5461252437953877,-0.8365184196312861,-1.0,12.044777777777776,0.04,179.26147638566044,-8.909567407471986,102.56982730702497,1525.0,1435.0,1000.0,1173.0,1475.0,1021.47,61.0,292.85,1637226758.1689627,1637226759.2887952,fa580a37-9c80-4b9e-ad2a-688560d677dc
-0.0087071147124932,0.1232181375448563,-0.1061992225171487,-0.0959541961227637,-0.1980072618368319,0.1795794745013337,-0.3071962403701498,-0.3325211815290621,-13.736132089971136,15.113945142903,28.41351787980626,0.7125072307539165,0.3128734794142767,0.8901700530229695,-1.0,12.050777777777778,0.04,179.26884995432442,-8.9130976666355,102.6234951389734,1525.0,1435.0,1000.0,1617.0,1475.0,1021.47,61.0,292.85,1637226760.2895372,1637226761.355777,921342c8-ca7c-4734-955d-e35b9e747e5e
-0.0163360980186123,0.121834785155945,-0.1055554842512836,-0.0965705412865288,-0.1969526267491611,0.1796479572965726,-0.3061279086839433,-0.3394242481610305,-13.751377213526515,15.092802771980107,28.15696594164595,0.7138947730900252,0.310183117771166,0.8857984211992993,-1.0,12.050555555555556,0.04,179.26995037369073,-8.89802277509111,102.64571753889297,1525.0,1435.0,1000.0,1617.0,1475.0,1021.47,61.0,292.85,1637226761.4650643,1637226762.45275,921342c8-ca7c-4734-955d-e35b9e747e5e
-0.0197191480748907,0.1170135966301321,-0.108281099543179,-0.0923930906946315,-0.1987742691919122,0.1829488277929578,-0.3081686961730974,-0.3361233772817312,-13.7350787843813,15.153604898049752,28.482149697554743,0.712216352361087,0.2884171859489705,0.8947988748251698,-1.0,12.051,0.04,179.25790495563444,-8.903214762361443,102.67192952819777,1525.0,1435.0,1000.0,1617.0,1475.0,1021.47,61.0,292.85,1637226762.5603983,1637226763.793729,921342c8-ca7c-4734-955d-e35b9e747e5e
-0.0544574567786888,0.1045234311373667,-0.205733217391865,-0.0752323976615177,-0.2874392256848085,0.1844675021588131,-0.4136141367168433,-0.4432776021303576,-14.478093571217173,15.396884873625591,28.424598790232835,0.6732957761795091,0.2390537522672368,1.296472084548462,-1.0,12.048777777777778,0.04,179.2653999498837,-8.891837564478971,102.69925711506698,1525.0,1435.0,1000.0,1706.0,1475.0,1021.47,61.0,292.85,1637226765.8209298,1637226766.8662214,66de8709-838f-4b66-8a09-8e6f047ea6cf
-0.0586387423416296,0.1025511267350495,-0.209677826661094,-0.0734310262281515,-0.2904634262469489,0.184020446481479,-0.4179926534648504,-0.4396748584743092,-14.54200101983675,15.40806627075568,28.290374895470013,0.6680518719446944,0.2328266908669621,1.3117407201110844,-1.0,12.049,0.04,179.26280447799908,-8.887874726668025,102.68631162986009,1525.0,1435.0,1000.0,1706.0,1475.0,1021.47,61.0,292.85,1637226766.975251,1637226768.095455,66de8709-838f-4b66-8a09-8e6f047ea6cf
-0.0533442004488592,0.1057961153442705,-0.2084851302089081,-0.0709579754701431,-0.2893907116118122,0.1815517788673287,-0.4170152668304798,-0.4402446358028625,-14.47382244366247,15.347929318365066,28.72361611954068,0.6566899632972274,0.2404451190783862,1.3083600138162073,-1.0,12.049,0.04,179.25474789041812,-8.885700734373453,102.67846222468393,1525.0,1435.0,1000.0,1706.0,1475.0,1021.47,61.0,292.85,1637226768.2034264,1637226769.4160128,66de8709-838f-4b66-8a09-8e6f047ea6cf
-0.0776517579511817,0.0890737132579798,-0.2939741286660347,-0.0386132772383792,-0.3664366054213882,0.1723707020312278,-0.5134522109662147,-0.5402229640794599,-15.05245205350746,15.793856454450545,28.620615542604614,0.5614887802436607,0.1733399250989658,1.6646631314242932,-1.0,12.0454,0.036,179.27220463968078,-8.89187955116962,102.66553100698329,1525.0,1435.0,1000.0,1795.0,1475.0,1021.47,61.0,292.85,1637226770.437546,1637226771.577874,7383ac39-060e-490a-b302-01df157bbdef
-0.0792427502571684,0.0964106856761492,-0.2941845078120412,-0.0436097819563326,-0.3688822633503721,0.1684918367820957,-0.5157006385974965,-0.5438125592942297,-15.055444745155604,15.820052957752544,28.427454953797973,0.5641742295564235,0.2031934755052211,1.672040941965957,-1.0,12.045,0.04,179.27584103239488,-8.899888460235648,102.63931537491096,1525.0,1435.0,1000.0,1795.0,1475.0,1021.47,61.0,292.85,1637226771.6866455,1637226772.8060095,7383ac39-060e-490a-b302-01df157bbdef
-0.084175155190889,0.0927569917522457,-0.2969375164740128,-0.0389354202877111,-0.3703373859873449,0.167814131078815,-0.5195477290118892,-0.5568434690842333,-15.163582920337484,15.887839504874645,28.408449078403645,0.5523619397627234,0.1896748354527941,1.6827215997932723,-1.0,12.044666666666666,0.04,179.26973939673636,-8.90251637551881,102.61566015308549,1525.0,1435.0,1000.0,1795.0,1475.0,1021.47,61.0,292.85,1637226772.9141176,1637226774.0352745,7383ac39-060e-490a-b302-01df157bbdef
-0.0984058803002051,0.08471711194443872,-0.35584642461225563,-0.008720811234045795,-0.42300066438654654,0.15093997142038895,-0.5894138950988991,-0.6128350185657895,-15.594734891564224,16.20061924385689,28.347791588911246,0.4452001788014295,0.1556603202288762,1.9330014096562842,-1.0,12.040555555555555,0.035555555555555556,179.29126663518042,-8.915390902649328,102.5261156141567,1525.0,1435.0,1000.0,1883.0,1475.0,1021.4699999999999,61.0,292.84999999999997,1637226775.96888,1637226777.0198667,ea361a11-d7c3-4d51-81b6-578d95b6b219
-0.10263811712560672,0.08596349876646596,-0.35542183120499143,-0.010967046888680075,-0.42354852683565825,0.15177546148442234,-0.5881264181639909,-0.6095204505647733,-15.481565300030331,16.18449503667922,28.352307982860022,0.4521165330665798,0.15979721656362597,1.9315590053325444,-1.0,12.041,0.030000000000000002,179.29115279869427,-8.918143563748583,102.46768789926669,1525.0,1435.0,1000.0,1883.0,1475.0,1021.4699999999999,61.0,292.84999999999997,1637226777.1308393,1637226778.3348167,ea361a11-d7c3-4d51-81b6-578d95b6b219
-0.09641987918806964,0.08630591272577086,-0.35369606446713514,-0.012843475476652272,-0.4215488288081679,0.15181655115111223,-0.587112872454932,-0.6178342636048838,-15.61737317504758,16.19354998118663,28.171482560752093,0.4564904013406625,0.1639859295015753,1.9247111122462102,-1.0,12.038666666666664,0.03333333333333334,179.27609147266446,-8.924828895989949,102.41458621410946,1525.0,1435.0,1000.0,1883.0,1475.0,1021.4699999999999,61.0,292.84999999999997,1637226778.4431705,1637226779.4517834,ea361a11-d7c3-4d51-81b6-578d95b6b219
