raw_voltage_G-,raw_voltage_G0,raw_voltage_G1,raw_voltage_G2,raw_voltage_G3,raw_voltage_G4,raw_voltage_G5,raw_voltage_G6,load_x,load_y,load_z,load_l,load_m,load_n,rpm,voltage,current,roll,pitch,yaw,aileron1_pwm,elevator_pwm,throttle_pwm,rudder_pwm,aileron2_pwm,pbaro,pdiff,Tt,sample_start_time,sample_end_time,uid
-0.016527849842684,0.108412157992386,0.0027295119698115,-0.0461398103528786,-0.1159100831303702,0.0784440881588269,-0.2466163535459177,-0.2700374720372649,-13.47646725848184,18.520490424473405,19.11079474415662,0.3995275889132659,0.3387840673174531,0.5279240830252073,-1.0,12.055,0.04,179.21159627306173,-1.5144813590161013,89.86689805466268,1525.0,1435.0,1000.0,1528.0,1475.0,1021.47,61.0,292.85,1637225606.3372135,1637225607.474913,7d97de30-1e8d-46d6-9dfa-9b6907783f19
-0.0139118070888677,0.1096448482451462,0.0037978435532839,-0.0482216873148608,-0.1159785659327975,0.0775812049839843,-0.2455480218511445,-0.2593952449549936,-13.397393895525468,18.54074787050828,18.89499335750126,0.4024776679345375,0.3450847793486876,0.5249135454297055,-1.0,12.054666666666666,0.04,179.2088778577721,-1.5254791968084218,89.92625695200954,1525.0,1435.0,1000.0,1528.0,1475.0,1021.47,61.0,292.85,1637225607.58358,1637225608.6876,7d97de30-1e8d-46d6-9dfa-9b6907783f19
-0.006104768521289,0.1090011100026921,0.0031678018513211,-0.0464959208742544,-0.115663545061647,0.0774853290755958,-0.2456165046473912,-0.2736122744763211,-13.400431226883724,18.47730712769855,19.01562619569574,0.3979350881292944,0.341369205248405,0.5255720911665875,-1.0,12.055,0.04,179.21546216013198,-1.5298415651119115,89.94885121778394,1525.0,1435.0,1000.0,1528.0,1475.0,1021.47,61.0,292.85,1637225608.7960937,1637225609.750356,7d97de30-1e8d-46d6-9dfa-9b6907783f19
0.1390256093337576,0.3720730892922971,0.0151780403222449,-0.1729798119807239,-0.1662608276053132,-0.0602034372196366,-0.293803195545994,-0.3189698042133818,-13.203377165321406,18.023927531812813,19.39291119859549,0.3715985703498427,1.339637076647179,0.678302443949798,-1.0,12.046888888888889,0.04,179.1552244451119,-1.5329202017324912,89.9572675286612,1644.0,1435.0,1000.0,1528.0,1569.0,1021.47,61.0,292.85,1637225611.9749875,1637225613.1099348,1040bda4-087f-4ce5-9625-fbcd1c5291b3
0.1423385328529973,0.3755498234606282,0.017110898686333,-0.1745998410613591,-0.1637932554126207,-0.0608773079394291,-0.2920341477996105,-0.3094287800781319,-13.303193366951058,17.923456780996933,19.58519870571256,0.3731492990655267,1.3519994680785778,0.6704371920429825,-1.0,12.048777777777778,0.04,179.1524286210117,-1.5437070744284165,89.93638384581894,1644.0,1435.0,1000.0,1528.0,1569.0,1021.47,61.0,292.85,1637225613.2183585,1637225614.3412354,1040bda4-087f-4ce5-9625-fbcd1c5291b3
0.1342849565943282,0.3739473262279982,0.0190010238029446,-0.1731480057099738,-0.1627112271883591,-0.0625619846990163,-0.2904453467608128,-0.324974376516737,-13.205483011639336,18.00140719121843,19.324640540274057,0.3667071293190653,1.3475492735524168,0.663612539827783,-1.0,12.04677777777778,0.04,179.15124168591586,-1.5437829061293575,89.92029116122448,1644.0,1435.0,1000.0,1528.0,1569.0,1021.47,61.0,292.85,1637225614.4508207,1637225615.569906,1040bda4-087f-4ce5-9625-fbcd1c5291b3
0.2882884591515885,0.6504492576158626,0.0303453474206684,-0.30580395524699,-0.2201230377209506,-0.2079176162468313,-0.3452929264511796,-0.3710758104771931,-12.955065297657589,17.836759409547263,19.642792258419657,0.3389631089600858,2.3970566264105257,0.8374222514261056,-1.0,12.038666666666666,0.0322222222222222,179.10993270181564,-1.5488195303120074,89.79645148356319,1763.0,1435.0,1000.0,1528.0,1663.0,1021.47,61.0,292.85,1637225617.3920898,1637225618.4363806,e6b04496-6cc5-48e7-bbed-13608cd008f5
0.2941374848287019,0.6554526695308023,0.0323003823122974,-0.3052102390944248,-0.2189629986138912,-0.2134980711758456,-0.3452726793305058,-0.3770897909112748,-12.96569967808722,17.82785441309903,19.63190734708297,0.3251150306350691,2.416044891963548,0.8337399656855106,-1.0,12.04,0.03,179.11480338560378,-1.5605985828486155,89.70400942660649,1763.0,1435.0,1000.0,1528.0,1663.0,1021.47,61.0,292.85,1637225618.545648,1637225619.6657822,e6b04496-6cc5-48e7-bbed-13608cd008f5
0.2915488354062582,0.654247372492513,0.0292049600491193,-0.3077441028115546,-0.2211818413451995,-0.20988217933701,-0.3481352605644782,-0.3699538826489377,-13.118388441929245,17.819807411223657,19.624332108169387,0.3386706550621756,2.4127877310627226,0.8447749980053997,-1.0,12.040555555555557,0.03,179.1280812733503,-1.5519715203183604,89.60812495430815,1763.0,1435.0,1000.0,1528.0,1663.0,1021.47,61.0,292.85,1637225619.7739952,1637225620.8944638,e6b04496-6cc5-48e7-bbed-13608cd008f5
0.3150734950598912,0.7069440547437505,0.0465508297843873,-0.3442153048886829,-0.223825825318633,-0.2341607017515224,-0.3455433234042713,-0.3709071631121784,-12.943276656358089,18.275723341323552,18.809644407401137,0.3702279810407996,2.6220112404725864,0.825884323124724,-1.0,12.023999999999996,0.03,179.06761892099752,-1.5628276198274362,89.3977604402411,1881.0,1435.0,1000.0,1528.0,1757.0,1021.47,61.0,292.85,1637225622.8295743,1637225623.8015275,b8705559-5441-487b-bd04-a15e2571b3b7
0.3186817162404313,0.7140876311492313,0.0504072327974909,-0.3516826700154825,-0.2231815391745214,-0.2353303880240308,-0.34347842991529,-0.3628316711824539,-12.942162216559051,18.36797241408374,18.68263705686702,0.3852279546657807,2.6510872028131707,0.8173927968229554,-1.0,12.023888888888887,0.03,179.08676470015098,-1.5636825199805822,89.2388022065973,1881.0,1435.0,1000.0,1528.0,1757.0,1021.47,61.0,292.85,1637225623.9100726,1637225624.9913185,b8705559-5441-487b-bd04-a15e2571b3b7
0.3212533819124686,0.7066284860658363,0.053927248386965,-0.35089484377214,-0.2180535470438097,-0.23125483954384,-0.3363129370829834,-0.3606511782582452,-12.8306091235816,18.27706789493017,18.36798337599291,0.3921877648952021,2.625234706158234,0.79418386221463,-1.0,12.026555555555555,0.03,179.09751390008478,-1.5658780463437874,89.0942526364626,1881.0,1435.0,1000.0,1528.0,1757.0,1021.47,61.0,292.85,1637225625.1002693,1637225626.219406,b8705559-5441-487b-bd04-a15e2571b3b7
0.3853839517338042,0.8097443872947165,0.0742666377777776,-0.3740354575603241,-0.2269617897873073,-0.3093876901610946,-0.3529701466585238,-0.3722822985184432,-12.707009755296378,18.91451504595641,18.60027802242604,0.27415009817904,3.0131977265495444,0.8147352840867418,-1.0,12.003444444444446,0.06,179.07727832630374,-1.5522545462820934,88.87821906538444,2000.0,1435.0,1000.0,1528.0,1852.0,1021.47,61.0,292.85,1637225626.8018758,1637225627.858863,a002ff83-d7b8-4fa7-a67b-0b7747ba8820
0.3813982534928082,0.8060600133616069,0.0718971331802936,-0.3735971676590686,-0.2281807835862625,-0.3067579505730626,-0.3542302302547791,-0.3717070423610734,-12.736355510735494,18.893129852143023,18.50479161789183,0.2787810559922988,3.0002285403536995,0.8208311967281251,-1.0,12.00477777777778,0.06,179.07948675413536,-1.5770987427737144,88.56584491715336,2000.0,1435.0,1000.0,1528.0,1852.0,1021.47,61.0,292.85,1637225627.967919,1637225629.1787283,a002ff83-d7b8-4fa7-a67b-0b7747ba8820
0.3820923950533016,0.8026008108458822,0.0716122447666153,-0.3748780699943097,-0.2270341075633683,-0.303520083541324,-0.351723211704311,-0.3779154195500359,-12.693513166362203,18.76223554313697,18.32558176643407,0.2880574763134194,2.9886769587584827,0.815489384068386,-1.0,12.005000000000004,0.06,179.08138554672465,-1.580844401913395,88.37605672741591,2000.0,1435.0,1000.0,1528.0,1852.0,1021.47,61.0,292.85,1637225629.286795,1637225630.3163884,a002ff83-d7b8-4fa7-a67b-0b7747ba8820
-0.1641570360769491,-0.1836171081588646,-0.0064778627573297,0.099816197930659,-0.0591120953903271,0.2224935300807912,-0.1945568244672017,-0.2238521229753294,-13.633631577431451,19.43578123333361,18.17353187256672,0.3993655133720125,-0.7656224098432862,0.3531288555743625,-1.0,12.0515,0.04,179.32791439462707,-1.568447608569822,87.93871459221815,1406.0,1435.0,1000.0,1528.0,1381.0,1021.47,61.0,292.85,1637225632.4558537,1637225633.59332,c77ad6dc-af4f-4dd3-a14e-4421b6bdd37c
-0.1743259099035094,-0.1860638616053392,-0.0091727976779139,0.0993861260174679,-0.0614662599714833,0.2249287780953116,-0.1966376058493685,-0.2155114657297895,-13.642074893010816,19.4559026122262,18.10407276214329,0.4057918526390966,-0.7742414010263707,0.3625594380337337,-1.0,12.049,0.04,179.33407522525843,-1.553700909986647,88.12508142636382,1406.0,1435.0,1000.0,1528.0,1381.0,1021.47,61.0,292.85,1637225633.7018173,1637225634.8215623,c77ad6dc-af4f-4dd3-a14e-4421b6bdd37c
-0.172006808402527,-0.18374859513162,-0.0082660854744975,0.0986985587861412,-0.0615051581928173,0.2223488944387715,-0.1956218689594196,-0.2198417703540025,-13.517670002428556,19.42564330376169,17.976987608979062,0.4014324125577556,-0.7651702770230934,0.3601245721086205,-1.0,12.049,0.04,179.33543063835376,-1.5455153670111774,88.21277498402752,1406.0,1435.0,1000.0,1528.0,1381.0,1021.47,61.0,292.85,1637225634.931763,1637225636.0504982,c77ad6dc-af4f-4dd3-a14e-4421b6bdd37c
-0.3222350640663081,-0.4666653028126418,-0.0158430218637937,0.2402415298267024,-0.0070498310575654,0.3690165654926472,-0.1462342659236076,-0.1723946951645294,-13.826856638595828,20.62975183134849,18.096215510742592,0.4191962573599406,-1.843035195413836,0.1924310841984484,-1.0,12.03711111111111,0.0377777777777777,179.38692571123616,-1.53737079331276,88.47296269245015,1287.0,1435.0,1000.0,1528.0,1287.0,1021.47,61.0,292.85,1637225637.7820184,1637225638.918012,2b3a5daf-cb3a-4507-8020-d8ecc600f151
-0.3158935564431923,-0.4608990502863915,-0.0130489238432937,0.2345437617551375,-0.0057897476361306,0.3691809241925441,-0.1428786088266032,-0.1647109252682092,-13.757230900270985,20.553169664038787,18.2010603062488,0.4321015777901362,-1.821952923888988,0.1830041557748047,-1.0,12.037666666666668,0.03,179.39324743076796,-1.5385971561498293,88.43827747402503,1287.0,1435.0,1000.0,1528.0,1287.0,1021.47,61.0,292.85,1637225639.0266018,1637225640.146107,2b3a5daf-cb3a-4507-8020-d8ecc600f151
-0.3248237140613197,-0.4700072639203284,-0.0175961813972543,0.2400360814747329,-0.0078716245809478,0.3719476288119356,-0.1464260177548859,-0.1770789186249066,-13.814663671665762,20.590692685285173,18.013460327553513,0.4258929116829,-1.8550089314787928,0.1957148193775232,-1.0,12.037,0.03,179.40386002691835,-1.5215674431206432,88.41188865871173,1287.0,1435.0,1000.0,1528.0,1287.0,1021.47,61.0,292.85,1637225640.2546155,1637225641.3808165,2b3a5daf-cb3a-4507-8020-d8ecc600f151
-0.4063730386692157,-0.6162317652449755,-0.0122682199917937,0.3370761931854001,0.0273011383790187,0.4355818349298788,-0.1185946088063107,-0.1453165969852167,-13.797733770321171,21.67330231361406,19.508621241201,0.3576776586603509,-2.4284027044348284,0.0857536366546466,-1.0,12.021333333333336,0.03,179.426691072584,-1.5071250674104877,88.32393555385957,1169.0,1435.0,1000.0,1528.0,1193.0,1021.47,61.0,292.85,1637225642.378991,1637225643.6288874,33519e85-cade-494c-bd20-f77921f59e86
-0.4045240029045552,-0.6141635842103971,-0.0169661396905033,0.3372816415432317,0.0232058673242207,0.4330205786929382,-0.1240595360216001,-0.1553698713641118,-13.855814430400743,21.61180810875365,19.42146411708235,0.3507740255265072,-2.4197863771350434,0.1056299627179394,-1.0,12.02211111111111,0.03,179.43454123667004,-1.51615424547016,88.16639875847304,1169.0,1435.0,1000.0,1528.0,1193.0,1021.47,61.0,292.85,1637225643.7377636,1637225644.8667023,33519e85-cade-494c-bd20-f77921f59e86
-0.4058662659307077,-0.6123830310086087,-0.0140761657622233,0.3342410057523159,0.0259314825133594,0.4360475178876848,-0.1203614649594043,-0.1305517059858019,-13.891365647190518,21.56698280345609,19.72765622329992,0.3643125537030416,-2.415013554124027,0.0933271373076193,-1.0,12.022,0.03,179.44606983707914,-1.5177450332875546,88.04430419414466,1169.0,1435.0,1000.0,1528.0,1193.0,1021.47,61.0,292.85,1637225644.9774644,1637225646.0864527,33519e85-cade-494c-bd20-f77921f59e86
-0.4455862943931121,-0.6900151528625766,-0.0009822555049354,0.3722215599428173,0.0529137030355161,0.4679194069822408,-0.0972142796142355,-0.1288259390523408,-14.135258776601503,22.270040566052973,18.55004224706081,0.3552602752338478,-2.697852044103956,-0.0054092300598056,-1.0,11.982,0.1577777777777777,179.4604762238585,-1.522549804564394,87.81137311451486,1050.0,1435.0,1000.0,1528.0,1098.0,1021.47,61.0,292.85,1637225647.7987263,1637225648.9527023,256c322e-1041-43da-97a5-7a06048e8e3c
-0.4383271167120998,-0.6856322524333048,-0.0039133191068228,0.3671264405458894,0.049421080576751,0.4684809658262248,-0.1002001295617725,-0.1232788327054688,-14.178436896133926,22.20443176462579,18.55162925282067,0.3674131561269285,-2.6806815724211748,0.0080790512693461,-1.0,11.984777777777778,0.15,179.4656702032673,-1.5302051422475742,87.46076584403976,1050.0,1435.0,1000.0,1528.0,1098.0,1021.47,61.0,292.85,1637225649.0605924,1637225650.1292105,256c322e-1041-43da-97a5-7a06048e8e3c
-0.439998097165323,-0.6908369466935934,-0.0049268644603879,0.3720024150381205,0.0492293287718734,0.4691247040322623,-0.1008027781736073,-0.130538009280075,-14.130072431150012,22.26407159568878,18.54927128989417,0.3582295794160273,-2.7011873322961883,0.0099988451577003,-1.0,11.986777777777778,0.14,179.45883394281807,-1.5336754000965027,87.12086906909316,1050.0,1435.0,1000.0,1528.0,1098.0,1021.47,61.0,292.85,1637225650.2375383,1637225651.30832,256c322e-1041-43da-97a5-7a06048e8e3c
-0.0112135850000364,0.1071657711748843,-0.0023519113609484,-0.0458110929152666,-0.120375161516788,0.0791837023242867,-0.2522456398167048,-0.2776801530206849,-13.563096037028869,18.5478099160374,19.044294716626123,0.4003219707385916,0.3349497402448682,0.5486336076044062,-1.0,12.05488888888889,0.04,179.25277017119842,-1.5390747357832015,86.57668057716155,1525.0,1435.0,1000.0,1528.0,1475.0,1021.47,61.0,292.85,1637225653.3399436,1637225654.380617,a4dd4161-4b1c-43a6-9fa1-76b4a90aaa40
-0.0095426048240344,0.1133155258800726,-0.0007357174127264,-0.0456056445328949,-0.1205121271054186,0.0727326232692269,-0.2529167712621731,-0.2765433382286353,-13.505136942808909,18.57690480256488,19.013713428708755,0.3856597430085096,0.3579535367864546,0.548304038850017,-1.0,12.051555555555556,0.04,179.22867933508587,-1.5226736966068393,86.99039120646849,1525.0,1435.0,1000.0,1528.0,1475.0,1021.47,61.0,292.85,1637225654.4884307,1637225655.6033,a4dd4161-4b1c-43a6-9fa1-76b4a90aaa40
-0.0079948936600947,0.1108501453777637,0.0002504348214877,-0.0459343619587579,-0.1185672156661799,0.0728695888594753,-0.2504924800936718,-0.2657093589464839,-13.477727891525822,18.493988427159007,18.660945729839632,0.3861660338883836,0.351741020388484,0.5401135480099648,-1.0,12.05488888888889,0.04,179.21282722493217,-1.5138115973065511,87.36204532541602,1525.0,1435.0,1000.0,1528.0,1475.0,1021.47,61.0,292.85,1637225655.7111309,1637225656.8283856,a4dd4161-4b1c-43a6-9fa1-76b4a90aaa40
-0.0023793045215623,0.1114938836222162,-0.0120216819201605,-0.2476572921270215,-0.1513156895381073,0.2698945775931329,-0.2078961781206218,-0.2295367436652916,-13.471819576303796,18.07566705827614,20.473438843072085,1.2808527224421626,0.36210086101227,0.5418396887287743,-1.0,12.050777777777778,0.04,179.18956056497947,-1.4636198691849414,88.04712316499712,1525.0,1535.0,1000.0,1528.0,1475.0,1021.47,61.0,292.85,1637225658.8682082,1637225659.909803,e1d80a45-3723-4aca-82d9-f975ca2602b1
0.003866326312963,0.1065220329387427,-0.0163224014154633,-0.2450686422479464,-0.1547672225691598,0.2733324135984239,-0.2109505109992635,-0.234179877165562,-13.421879933578149,18.1062876684784,20.57947521692398,1.2827695208308192,0.341569298283575,0.5563448895589981,-1.0,12.05211111111111,0.04,179.20153919896387,-1.4416522614089204,88.19401549001712,1525.0,1535.0,1000.0,1528.0,1475.0,1021.47,61.0,292.85,1637225660.0172126,1637225661.1396248,e1d80a45-3723-4aca-82d9-f975ca2602b1
-0.0033879191092846,0.1097303147670963,-0.0142881884838613,-0.2484927823226744,-0.1532567659695915,0.2723139375523989,-0.2086653769258709,-0.2285725054311299,-13.40904127271757,18.034796009036377,20.450835391251964,1.2878182103536036,0.3552008991371951,0.548476256908346,-1.0,12.052888888888887,0.04,179.2105854050646,-1.4413683935295094,88.37403802706125,1525.0,1535.0,1000.0,1528.0,1475.0,1021.47,61.0,292.85,1637225661.2474444,1637225662.3681176,e1d80a45-3723-4aca-82d9-f975ca2602b1
0.0105891452336507,0.1085337834296097,-0.0250701196759133,-0.4504830890279306,-0.1874828252119325,0.4721478081795727,-0.1662739763034384,-0.190309795396137,-13.328008115757145,17.936946635417836,22.37192622003367,2.191673743433262,0.3572972205666657,0.5503245305086577,-1.0,12.050000000000002,0.04,179.22065006826156,-1.388294100276775,88.58598866283553,1525.0,1636.0,1000.0,1528.0,1475.0,1021.47,61.0,292.85,1637225663.3720691,1637225664.827346,8aa0a62b-0fe5-4a05-b04b-42dc9b6eabd8
0.0038570126313647,0.1040237806898776,-0.0291593643222707,-0.4479848361473804,-0.1888239923555408,0.4733837855194106,-0.1690877975358244,-0.1940177281230966,-13.425139402252318,17.826698790142405,22.221823812144297,2.187808419146589,0.3418310990174645,0.5609734305358935,-1.0,12.05,0.04,179.22919387600336,-1.3810963852679856,88.64865033610106,1525.0,1636.0,1000.0,1528.0,1475.0,1021.47,61.0,292.85,1637225664.9364216,1637225666.147598,8aa0a62b-0fe5-4a05-b04b-42dc9b6eabd8
0.0062632240928729,0.1061801668425159,-0.0249123353144452,-0.4481426205269115,-0.1856946023538669,0.4712931430036161,-0.1656033927354915,-0.1937153079035147,-13.379632997112823,17.864547662378335,22.233392058668564,2.183953518417288,0.349783553454684,0.5462530154969835,-1.0,12.049,0.04,179.23808071102346,-1.3799548068971763,88.72892175486668,1525.0,1636.0,1000.0,1528.0,1475.0,1021.47,61.0,292.85,1637225666.255697,1637225667.283519,8aa0a62b-0fe5-4a05-b04b-42dc9b6eabd8
0.0097421500300045,0.1033855210722516,-0.0252114681779523,-0.5729369298596726,-0.2026093059925892,0.5975847151093915,-0.1364412258389358,-0.1602732397646549,-13.510610967878222,18.1759778265966,23.56857262765708,2.751449448636175,0.3437464596619983,0.5284098734870158,-1.0,12.046,0.04,179.2434917386659,-1.3579456606616718,88.7732041479856,1525.0,1737.0,1000.0,1528.0,1475.0,1021.47,61.0,292.85,1637225668.597303,1637225670.0537202,01eb4891-6c87-42b1-be75-43c9c0193d3b
0.0175448056235619,0.1073635494813443,-0.0285019294996014,-0.5754088854867203,-0.2078238602940212,0.595035511868033,-0.139358593016437,-0.1753991726212378,-13.28027150201389,18.14535034432489,23.412024027286847,2.7510212908218388,0.3585189185207808,0.5445637767161218,-1.0,12.045,0.04,179.25844074602932,-1.3500667647208138,88.7699863699766,1525.0,1737.0,1000.0,1528.0,1475.0,1021.47,61.0,292.85,1637225670.161225,1637225671.1738966,01eb4891-6c87-42b1-be75-43c9c0193d3b
0.0095914878887752,0.1051660736535773,-0.026649606856432,-0.576908933006499,-0.2053075282847579,0.598077791172125,-0.1363179567905679,-0.1593007840668734,-13.32261754049904,18.116013597017258,23.36150653212381,2.7611098260813733,0.3513261160510605,0.5339144326940702,-1.0,12.046555555555557,0.04,179.26456818462475,-1.3584083941199727,88.78034928476733,1525.0,1737.0,1000.0,1528.0,1475.0,1021.47,61.0,292.85,1637225671.281566,1637225672.396453,01eb4891-6c87-42b1-be75-43c9c0193d3b
0.0141787393464318,0.1030376284810552,-0.0278050485988633,-0.6274908889525164,-0.2161864320013839,0.6470648978616451,-0.1283925796222645,-0.1491806699849369,-13.302047101634582,18.551945803377897,23.42818904348446,2.9881441938363844,0.3487684203554225,0.5382513098566789,-1.0,12.039222222222223,0.04,179.2717808643883,-1.3531070763910504,88.79333043873989,1525.0,1837.0,1000.0,1528.0,1475.0,1021.47,61.0,292.85,1637225674.3142698,1637225675.3705685,ee010ee6-f6d8-46e9-968a-7f8f5c969433
0.0213973736891889,0.104273605908214,-0.0263981380728352,-0.6101740499852998,-0.2116632800255095,0.6289328474961369,-0.1301676537849987,-0.1485232351467416,-13.27828581443806,18.393140847054745,23.290041056959904,2.907343766321592,0.3524147366162447,0.532888503664702,-1.0,12.041888888888886,0.04,179.28060395097614,-1.3369577462867572,88.7502205614285,1525.0,1837.0,1000.0,1528.0,1475.0,1021.47,61.0,292.85,1637225675.4791698,1637225676.5950558,ee010ee6-f6d8-46e9-968a-7f8f5c969433
0.011128241785903,0.1033006024076518,-0.0249123353549484,-0.5951319366588573,-0.2086259309022737,0.6152713534178507,-0.1329420288316881,-0.1550975837951249,-13.315699934199865,18.46157328991476,23.17599031479351,2.843203859014031,0.3482843651281537,0.5304753786976221,-1.0,12.04011111111111,0.04,179.27659083538376,-1.3596503976159229,88.69385025129847,1525.0,1837.0,1000.0,1528.0,1475.0,1021.47,61.0,292.85,1637225676.7038758,1637225677.719096,ee010ee6-f6d8-46e9-968a-7f8f5c969433
-0.0115559989626911,0.1115075801811967,0.0182066233941136,0.1531177241843845,-0.0842162447988219,-0.1218954796209872,-0.2909110298201747,-0.3208243185784978,-13.526584814587558,19.315861430626143,17.02686607213759,-0.4944525000739966,0.3456800974162323,0.5255460779207483,-1.0,12.053666666666668,0.04,179.26783605068763,-1.5982809855168894,88.64710367770901,1525.0,1334.0,1000.0,1528.0,1475.0,1021.47,61.0,292.85,1637225679.8572557,1637225680.9961154,a1679451-5931-4558-ac36-14d29fbe3c33
-0.0175359166040148,0.1124126487522098,0.0178603743877561,0.1492158486848834,-0.08479150028958,-0.1183601236950239,-0.2893852329874733,-0.3049795894369191,-13.465028338560703,19.235304397471303,17.149845715931036,-0.4782070816639076,0.3480060956038731,0.5249540259722271,-1.0,12.053999999999998,0.04,179.26701187452784,-1.585866073199268,88.81133178175241,1525.0,1334.0,1000.0,1528.0,1475.0,1021.47,61.0,292.85,1637225681.104477,1637225682.2347088,a1679451-5931-4558-ac36-14d29fbe3c33
-0.024252709079326,0.1130963809474394,0.0180559612508566,0.1501729641611387,-0.0853256660980158,-0.120032747545956,-0.2899248774588459,-0.3063196611656989,-13.417372214425834,19.28666383204608,17.130411481186087,-0.4837536110424016,0.3503008826279336,0.5262592731114049,-1.0,12.053111111111113,0.04,179.2629547421608,-1.5865577602903724,88.96149652629477,1525.0,1334.0,1000.0,1528.0,1475.0,1021.47,61.0,292.85,1637225682.3424933,1637225683.355239,a1679451-5931-4558-ac36-14d29fbe3c33
-0.0211781055234306,0.1138853027038596,0.0355848170777676,0.3608178061402223,-0.0497502233051429,-0.3251233947689382,-0.333025762475055,-0.3563384052251765,-13.441998181558962,20.06668355550617,15.55269877429984,-1.414003062361313,0.3426069192645986,0.5146567830528865,-1.0,12.049,0.04,179.26924458747646,-1.638182179880229,89.22878611363443,1525.0,1234.0,1000.0,1528.0,1475.0,1021.47,61.0,292.85,1637225685.2846727,1637225686.4322207,c05c5e87-4ee1-4908-bfab-5d911656eabc
-0.0256634546590726,0.1154932786556001,0.036614798288721,0.356443125645919,-0.0503446539720805,-0.3240156169187776,-0.3326444502207589,-0.3484502819580822,-13.450109631379176,20.15411435105786,15.366023826631343,-1.4010484948951083,0.3509551078139295,0.5133708972816763,-1.0,12.05011111111111,0.04,179.27369787081534,-1.6442756928311668,89.28996867148969,1525.0,1234.0,1000.0,1528.0,1475.0,1021.47,61.0,292.85,1637225686.5447187,1637225687.7715633,c05c5e87-4ee1-4908-bfab-5d911656eabc
-0.0319863341217806,0.115975945372267,0.0326921038778335,0.3628558539067643,-0.0525114496297058,-0.3276084987514689,-0.3384035801310812,-0.3619791966876433,-13.588006493310225,20.132125322622183,15.72546264199906,-1.4239409329931505,0.3495171094632687,0.5304031664511275,-1.0,12.049,0.04,179.2660935935394,-1.6604595296203295,89.34629875939459,1525.0,1234.0,1000.0,1528.0,1475.0,1021.47,61.0,292.85,1637225687.8856666,1637225688.8832617,c05c5e87-4ee1-4908-bfab-5d911656eabc
-0.0243485850179857,0.1203966465295972,0.0423947459914382,0.4705080562884403,-0.0384423442014491,-0.43521799733721,-0.3653381412953846,-0.3869376185352197,-13.605840918613344,20.99186903276204,15.05967276005414,-1.902523474628608,0.3594999193371464,0.536538288200718,-1.0,12.047999999999998,0.0399999999999999,179.27847885145235,-1.6903323236365289,89.46404985464775,1525.0,1133.0,1000.0,1528.0,1475.0,1021.47,61.0,292.85,1637225690.824353,1637225691.9582984,97428587-6cc4-4849-8f55-b435a5acd3ed
-0.0243622815606147,0.1189585079082547,0.0452299336549353,0.4746444165970079,-0.0345662179778278,-0.4385873515358454,-0.3627768843694174,-0.3844448446423449,-13.612217919071758,20.95617501510641,14.943154330153837,-1.919542709108104,0.354853715816229,0.5234556111539472,-1.0,12.04811111111111,0.04,179.27740438680493,-1.682425014820202,89.48622277364137,1525.0,1133.0,1000.0,1528.0,1475.0,1021.47,61.0,292.85,1637225692.0669162,1637225693.1818316,97428587-6cc4-4849-8f55-b435a5acd3ed
-0.0270057174306353,0.1178216935605252,0.0444629263659914,0.4761784310458072,-0.0357167289408686,-0.4397789524402899,-0.3649683340645713,-0.3824177533195014,-13.65051004624038,21.067346056609324,14.803782031971702,-1.9250234738146323,0.3518606374633815,0.5287952395963896,-1.0,12.046,0.04,179.2671575852301,-1.672720774539593,89.4963906485858,1525.0,1133.0,1000.0,1528.0,1475.0,1021.47,61.0,292.85,1637225693.290247,1637225694.4106853,97428587-6cc4-4849-8f55-b435a5acd3ed
-0.0234035224187488,0.1211088675655232,0.0510646676284382,0.5310742328705061,-0.028197318044494,-0.4946199861732934,-0.3772267562857997,-0.4011683456466763,-13.560064499742872,21.56879599681012,14.623500112032106,-2.1684203935934754,0.3588153925950383,0.5274902659301147,-1.0,12.043,0.04,179.27093695657084,-1.709087891473947,89.49700460670118,1525.0,1033.0,1000.0,1528.0,1475.0,1021.47,61.0,292.85,1637225696.3484154,1637225697.4064467,73490e9e-4e71-4620-b291-0cc2e228c9eb
-0.0384834338782289,0.1229579029350956,0.0513933850083867,0.5739718503392862,-0.0252799509979429,-0.5366821288505377,-0.390663082895728,-0.4138924515698972,-13.568372773754918,21.827048859334056,14.463655736589253,-2.358007464384724,0.3619695038620863,0.5424617101947738,-1.0,12.039750000000002,0.03375,179.26919013569062,-1.7039561738047082,89.47047501360001,1525.0,1033.0,1000.0,1528.0,1475.0,1021.47,61.0,292.85,1637225697.5166118,1637225698.7077744,73490e9e-4e71-4620-b291-0cc2e228c9eb
-0.0386203994639752,0.122341557809207,0.0526671649161379,0.5823267501907646,-0.0233624328320549,-0.54248947276567,-0.3913753041580346,-0.4137006994067596,-13.566050442368384,21.87919991133242,14.64735265641383,-2.3894643559605018,0.3570662651508436,0.5393657175572245,-1.0,12.041,0.04,179.25813718206624,-1.7253947191000387,89.44272053990767,1525.0,1033.0,1000.0,1528.0,1475.0,1021.47,61.0,292.85,1637225698.8160076,1637225699.9397724,73490e9e-4e71-4620-b291-0cc2e228c9eb
-0.016678511993351,0.1081382268218133,3.896753514269259e-06,-0.0330869895832496,-0.1185398225556431,0.0672403033098706,-0.2527661091206228,-0.2809125409495877,-13.35338898483171,18.62987390911649,19.15243880953092,0.3455652143743468,0.3347384347964375,0.5441583548669605,-1.0,12.051333333333336,0.04,179.27864596341405,-1.5520904557304704,89.41614958621648,1525.0,1435.0,1000.0,1528.0,1475.0,1021.47,61.0,292.85,1637225701.873558,1637225703.1238923,e3a7fe85-5acd-4e77-a113-8f0064b7abcf
-0.0003374215320756,0.1135828826980345,0.001279868177024,-0.0360492813621895,-0.1187808819959998,0.0644199079773646,-0.2540283841093317,-0.2818904753684778,-13.457478358054091,18.700754628495005,19.121878983170458,0.346385758322933,0.3566135880184108,0.5450324530288561,-1.0,12.051111111111112,0.04,179.27651949785246,-1.5316289046664373,89.41743897414979,1525.0,1435.0,1000.0,1528.0,1475.0,1021.47,61.0,292.85,1637225703.2318704,1637225704.2372525,e3a7fe85-5acd-4e77-a113-8f0064b7abcf
-0.0119871666246144,0.1117420652561994,0.0009248533676002,-0.0353655491389143,-0.1186493950292164,0.0662212793472687,-0.2532263135407462,-0.2833894269221219,-13.41318388581148,18.670816654470823,19.212844717675125,0.3487120052927832,0.3484824751628415,0.5441501280658944,-1.0,12.052333333333332,0.04,179.27846382503617,-1.5412066797256954,89.43638667781732,1525.0,1435.0,1000.0,1528.0,1475.0,1021.47,61.0,292.85,1637225704.3449185,1637225705.451575,e3a7fe85-5acd-4e77-a113-8f0064b7abcf
0.0229357711516405,0.1257848725689008,0.089428728053005,-0.0495792902576414,-0.0389682920135056,0.0598441616871227,-0.1595155458835673,-0.1808953280203983,-12.737122442825696,18.50279437093486,19.10168892907483,0.370060143304083,0.4047095547285505,0.183516419642299,-1.0,12.055666666666667,0.04,179.29833360424166,-1.5428720956603494,89.42205011074948,1525.0,1435.0,1000.0,1439.0,1475.0,1021.47,61.0,292.85,1637225707.3110936,1637225708.3398745,a90ff191-4e4b-42fc-8e5d-1f4e5a6cfd88
0.0109885368860026,0.1240399310420478,0.0883056102575743,-0.0449071200208756,-0.0398530897309736,0.0569130981590342,-0.1621633648061679,-0.1791334026533847,-12.755172396319034,18.59016004572624,19.03813635605216,0.3534383981397098,0.3982110188983592,0.1897141226301921,-1.0,12.052888888888887,0.04,179.27937603474533,-1.5400434961384488,89.41849841238107,1525.0,1435.0,1000.0,1439.0,1475.0,1021.47,61.0,292.85,1637225708.4480858,1637225709.5720477,a90ff191-4e4b-42fc-8e5d-1f4e5a6cfd88
0.0221994441436259,0.1249433560287353,0.0890605645624574,-0.0489875989208195,-0.0388499537459164,0.0591735781734546,-0.1602913190251925,-0.1927686021080597,-12.795854879364429,18.50824816383621,18.96252825917013,0.3671846162604488,0.4031063303417073,0.1846254008838651,-1.0,12.050444444444445,0.04,179.27998771613102,-1.5391870070176834,89.4223369786946,1525.0,1435.0,1000.0,1439.0,1475.0,1021.47,61.0,292.85,1637225709.706113,1637225710.7014253,a90ff191-4e4b-42fc-8e5d-1f4e5a6cfd88
0.05081812955542,0.1395992212328039,0.1890164030163617,-0.0547549460283436,0.0501196050983495,0.0468324310234637,-0.0595350451378972,-0.083161610335518,-12.11802815152712,18.6546626871296,19.26178067879588,0.3587987691299848,0.4576742120792033,-0.2137018398043738,-1.0,12.05411111111111,0.04,179.29519778850272,-1.541958047966266,89.39778472535812,1525.0,1435.0,1000.0,1351.0,1475.0,1021.47,61.0,292.85,1637225711.276643,1637225712.34072,fd7ce1b7-33de-4737-bfac-820cedb2a585
0.0598715547688879,0.1471734179305445,0.1914817834645695,-0.0580695133039676,0.0506400743220548,0.0408607314733595,-0.0592474174006551,-0.0864761777312643,-12.110442790187468,18.65174709559926,19.044698147334728,0.3529290603320057,0.4885167011494079,-0.2175931016324224,-1.0,12.053444444444445,0.04,179.28818697877466,-1.5518832851836142,89.35073990017491,1525.0,1435.0,1000.0,1351.0,1475.0,1021.47,61.0,292.85,1637225712.448637,1637225713.5166404,fd7ce1b7-33de-4737-bfac-820cedb2a585
0.0488595216720968,0.1383117447591883,0.1835103866790924,-0.0555219533327763,0.0453805958259797,0.046476320496717,-0.063493350729456,-0.0782034555350004,-12.0282540862322,18.54466603486186,18.89604565316949,0.3587122675369583,0.4551950115328972,-0.1946764689039141,-1.0,12.052222222222222,0.04,179.288085284847,-1.5489058563140174,89.33414178158188,1525.0,1435.0,1000.0,1351.0,1475.0,1021.47,61.0,292.85,1637225713.6245103,1637225714.6881306,fd7ce1b7-33de-4737-bfac-820cedb2a585
0.0804026959756941,0.1575417124748105,0.2790164850777217,-0.0586584653594398,0.1300527201213112,0.0256438547627975,0.029246049714579,0.0022501322508955,-11.479023312231355,18.69837027193563,18.922471049633486,0.325029309298096,0.5296409100193524,-0.5695718295207883,-1.0,12.05177777777778,0.04,179.27996798447342,-1.5405755394156715,89.33248432234329,1525.0,1435.0,1000.0,1262.0,1475.0,1021.47,61.0,292.85,1637225715.8004427,1637225716.9377587,7f9bc4a9-ed4c-4830-b46c-7b77c76e3bb7
0.0804437856735563,0.1610206382517005,0.2802217821670804,-0.0592200242777763,0.1300664166863013,0.0225210393972218,0.0302732916254842,0.0015105178613302,-11.348563410457691,18.669458347116944,18.89786850569552,0.3192087690530549,0.5421287444677336,-0.5722115843549375,-1.0,12.054666666666668,0.04,179.2711691830026,-1.5460793793682648,89.32207435513826,1525.0,1435.0,1000.0,1262.0,1475.0,1021.47,61.0,292.85,1637225717.045726,1637225718.166829,7f9bc4a9-ed4c-4830-b46c-7b77c76e3bb7
0.0796356887199937,0.1567610086613463,0.2768524289426194,-0.0569737885856035,0.1280393260507108,0.0265067379734438,0.0271230831045588,-0.0055842994772042,-11.46096905804737,18.71959462053276,19.13993617741145,0.3232448015068854,0.5243133751031684,-0.5606260787222308,-1.0,12.052222222222222,0.04,179.25804611287728,-1.5588291725406611,89.28271956405057,1525.0,1435.0,1000.0,1262.0,1475.0,1021.47,61.0,292.85,1637225718.2755263,1637225719.3915927,7f9bc4a9-ed4c-4830-b46c-7b77c76e3bb7
0.1009201405210389,0.1660335785315563,0.3543201592001709,-0.0445647060444458,0.1996038423549206,0.0003600072889293,0.1007420852516235,0.0819641033885892,-11.00197497383649,18.848784776314663,18.916785758024783,0.2414070239080118,0.5612056873642378,-0.8673303381624313,-1.0,12.050000000000002,0.04,179.27544488142303,-1.5580469380111852,89.24797818629226,1525.0,1435.0,1000.0,1173.0,1475.0,1021.47,61.0,292.85,1637225720.3063138,1637225721.3515213,7a26e6fc-082c-4552-8285-3fd717bd6f14
0.10919286177544,0.168813979834229,0.3578812641769152,-0.0436470366257829,0.2020144365728352,-0.0028312909505019,0.1022350101104806,0.0807040199400481,-11.03057570879252,18.938186694571502,18.989018532591142,0.2329328060877796,0.571310400948894,-0.8772037799804079,-1.0,12.049499999999998,0.04,179.28371624050794,-1.5586879085761085,89.24111043108181,1525.0,1435.0,1000.0,1173.0,1475.0,1021.47,61.0,292.85,1637225721.4604568,1637225722.576629,7a26e6fc-082c-4552-8285-3fd717bd6f14
0.1053715220008699,0.1673210549936484,0.3567170567818608,-0.0425102222273676,0.1999188631967003,-0.0018725318333047,0.1014680028419516,0.0706507461098033,-10.89170348828503,19.0122408997358,19.057069439705405,0.233036588042432,0.5639124733804911,-0.8716785086292725,-1.0,12.046666666666663,0.04,179.26168736261485,-1.5594852501559362,89.21585049425633,1525.0,1435.0,1000.0,1173.0,1475.0,1021.47,61.0,292.85,1637225722.6849852,1637225723.6965077,7a26e6fc-082c-4552-8285-3fd717bd6f14
-0.0402174182541376,0.0926238612045133,-0.0976114798025365,-0.0217434994458695,-0.2069954923403437,0.0751229466639937,-0.3561280256977175,-0.3829513711344453,-14.1375574018039,18.83769821236562,18.825038611963443,0.3337606103945832,0.277420625829088,0.941990792937031,-1.0,12.053444444444446,0.04,179.27777928829937,-1.5361664862948858,89.29389451244262,1525.0,1435.0,1000.0,1617.0,1475.0,1021.47,61.0,292.85,1637225725.2941597,1637225726.3598473,205b4085-86c9-49d3-a3d6-ffe8e3dac82f
-0.0420582357839999,0.0964413659674484,-0.092461573493318,-0.0297998154261257,-0.2042528931695729,0.0770607357582077,-0.3497788478923722,-0.3756516520164794,-14.008861659324891,18.822501322610297,18.62153174441308,0.3564761871912889,0.2939495129219799,0.9223959967354108,-1.0,12.055555555555555,0.04,179.28472786741497,-1.525073025854185,89.30359793452347,1525.0,1435.0,1000.0,1617.0,1475.0,1021.47,61.0,292.85,1637225726.468695,1637225727.5888412,205b4085-86c9-49d3-a3d6-ffe8e3dac82f
-0.0439122020063889,0.0947802473623676,-0.0907610086859477,-0.0281206172917929,-0.2012626601979729,0.0766613441177289,-0.3469633828132877,-0.3667390255265115,-14.001981924798624,18.726551922458885,18.571728294902417,0.3512349819953793,0.2880114561179857,0.9117841869769466,-1.0,12.053000000000004,0.04,179.2950202035843,-1.5234387963735536,89.30979822847003,1525.0,1435.0,1000.0,1617.0,1475.0,1021.47,61.0,292.85,1637225727.6978903,1637225728.739688,205b4085-86c9-49d3-a3d6-ffe8e3dac82f
-0.0734918389581199,0.0809779514868783,-0.1880635593589283,-0.0072141897760763,-0.2897605187440365,0.0759650110699211,-0.453927500352526,-0.4700757471176864,-14.791211902630112,19.07349561932322,18.50060064665271,0.2995567481388403,0.2337242255474196,1.3149682605171682,-1.0,12.051222222222222,0.04,179.2965243630215,-1.5294582444606792,89.30135080228655,1525.0,1435.0,1000.0,1706.0,1475.0,1021.47,61.0,292.85,1637225729.274474,1637225730.362757,67f4dc85-2b0b-4782-9011-e99b06a4cb0e
-0.0774912342505361,0.0805670547356207,-0.1889538357543777,-0.0095836944517019,-0.2904864364586249,0.076827894257189,-0.4539822866034289,-0.480909727458684,-14.783797082173692,19.02670095746547,18.25288748602784,0.3064504921245223,0.2345606124828491,1.3168530539605492,-1.0,12.053666666666668,0.04,179.309020573563,-1.5257192257826917,89.27534903102622,1525.0,1435.0,1000.0,1706.0,1475.0,1021.47,61.0,292.85,1637225730.471501,1637225731.590969,67f4dc85-2b0b-4782-9011-e99b06a4cb0e
-0.068506291425859,0.0813888482442058,-0.1899536846184043,-0.0096658738041511,-0.2914178025677891,0.0776496877680897,-0.4549821356004164,-0.4778006079668329,-14.801516192538072,19.016499640981603,18.465811711504017,0.3083901588025243,0.2358276671984026,1.3212989070632135,-1.0,12.051,0.04,179.31127605380894,-1.5182357930515904,89.28277800011347,1525.0,1435.0,1000.0,1706.0,1475.0,1021.47,61.0,292.85,1637225731.699499,1637225732.8276322,67f4dc85-2b0b-4782-9011-e99b06a4cb0e
-0.0998467583194377,0.0659846028258168,-0.2786953414917267,0.0317191003451216,-0.3707888246728601,0.0609880982545907,-0.5583681699665545,-0.5813258008749724,-15.497669739434246,19.53613270236412,18.62672173801708,0.1762961724887633,0.1708411320136211,1.6955952368734282,-1.0,12.050333333333334,0.04,179.3162985195786,-1.5195685692872911,89.2532488156018,1525.0,1435.0,1000.0,1795.0,1475.0,1021.47,61.0,292.85,1637225734.847478,1637225735.985226,d7cbad3e-e986-4353-92f8-168b7aff2e4a
-0.1004877573010033,0.0648981918069167,-0.2833505284594258,0.0335193760201172,-0.3747750718192872,0.0603509343530621,-0.5629932252285635,-0.5810042056782438,-15.489326320939794,19.51733195275069,18.58495929875126,0.1704445122913472,0.1665604315932187,1.7137942529088075,-1.0,12.049555555555555,0.04,179.32663183688294,-1.5147663296864722,89.23497122938281,1525.0,1435.0,1000.0,1795.0,1475.0,1021.47,61.0,292.85,1637225736.0930598,1637225737.213548,d7cbad3e-e986-4353-92f8-168b7aff2e4a
-0.1068944599141564,0.0628815105250713,-0.2884779728708089,0.0324422786534339,-0.3795458580269716,0.0626316852870379,-0.5675065166299588,-0.5968675649598434,-15.495913984996456,19.52305590638325,18.45021508529433,0.1777571691512536,0.1600451692655417,1.73325700893815,-1.0,12.049,0.04,179.32840768606715,-1.5158096292242245,89.23460771153698,1525.0,1435.0,1000.0,1795.0,1475.0,1021.47,61.0,292.85,1637225737.321695,1637225738.351619,d7cbad3e-e986-4353-92f8-168b7aff2e4a
-0.12626249068410822,0.058831712090349694,-0.3445834684414661,0.06536661409122985,-0.4315621109221095,0.03862216591643887,-0.638207079262133,-0.6624401354539431,-15.898867289920473,20.003324456606087,18.29117811182722,0.04969723037909492,0.14151517338800407,1.9803409729396804,-1.0,12.04188888888889,0.03444444444444445,179.3507257086351,-1.5344991612274947,89.15700689673685,1525.0,1435.0,1000.0,1883.0,1475.0,1021.4699999999999,61.0,292.84999999999997,1637225740.4897099,1637225741.5158556,f798f2c7-5fc8-4ba4-b091-ef8c8eefdbb0
-0.12363494271753826,0.05580367692416455,-0.3502034412821704,0.06591173712696048,-0.4360123976804388,0.0416688284186341,-0.6425017736215124,-0.6664159740179242,-15.89888959395901,19.9614585944651,18.336173830811955,0.05476361417089159,0.12933545978369976,1.9998968122273844,-1.0,12.042666666666666,0.04,179.35218433347785,-1.527439437384281,89.0934815839963,1525.0,1435.0,1000.0,1883.0,1475.0,1021.4699999999999,61.0,292.84999999999997,1637225741.623724,1637225742.6516306,f798f2c7-5fc8-4ba4-b091-ef8c8eefdbb0
-0.1299764497768476,0.05632414614883302,-0.3448480860647198,0.0671581239141457,-0.4308487940777829,0.0390253925587599,-0.6379682112707393,-0.6707851779065125,-15.917076992623862,19.98236124517704,18.23402328779836,0.046391706283640956,0.13250801800938364,1.9790175651917812,-1.0,12.044555555555554,0.04,179.33338158160274,-1.5268548040220429,89.02963752909446,1525.0,1435.0,1000.0,1883.0,1475.0,1021.4699999999999,61.0,292.84999999999997,1637225742.7595255,1637225743.8809674,f798f2c7-5fc8-4ba4-b091-ef8c8eefdbb0
