raw_voltage_G-,raw_voltage_G0,raw_voltage_G1,raw_voltage_G2,raw_voltage_G3,raw_voltage_G4,raw_voltage_G5,raw_voltage_G6,load_x,load_y,load_z,load_l,load_m,load_n,rpm,voltage,current,roll,pitch,yaw,aileron1_pwm,elevator_pwm,throttle_pwm,rudder_pwm,aileron2_pwm,pbaro,pdiff,Tt,sample_start_time,sample_end_time,uid
-0.0401681106423613,0.0726778370464419,0.0205487349407722,0.1250260832283571,-0.09615964450368,-0.2063347702976271,-0.3154141767628593,-0.3406843319614674,-13.624723002752654,21.146231844582577,-4.156817009612106,-0.6120068349444343,0.3921282005791645,0.537865845856772,-1.0,12.047999999999998,0.04,178.88945571322745,13.099041424953988,51.65612798416846,1525.0,1435.0,1000.0,1528.0,1475.0,1021.47,62.0,292.98999999999995,1637227233.795263,1637227234.8369582,88a0e376-a9e9-49f4-9833-3918cc9f15c1
-0.0532894142121031,0.0681990624125508,0.0151659873495723,0.122218288776534,-0.1009945299518502,-0.2003356770267396,-0.3194135724930019,-0.3533536506016805,-13.669859999937296,21.182224570283143,-4.3316095025504575,-0.5922723834980078,0.3772037951682966,0.5566232813956541,-1.0,12.0474,0.04,179.0617528509744,13.146196064400876,51.06270665389852,1525.0,1435.0,1000.0,1528.0,1475.0,1021.47,62.0,292.98999999999995,1637227234.947675,1637227236.2741802,88a0e376-a9e9-49f4-9833-3918cc9f15c1
-0.0453717073526827,0.0685223011920759,0.0146915385538494,0.1209593011343927,-0.1010169923076164,-0.1991851660209647,-0.3188251682523376,-0.3488173496497563,-13.657463456281276,21.102221032318145,-4.286530636964832,-0.5873876155478205,0.3780524385768713,0.5565959965122813,-1.0,12.049555555555555,0.04,179.23858007374278,13.186953738398609,50.62065460997656,1525.0,1435.0,1000.0,1528.0,1475.0,1021.47,62.0,292.98999999999995,1637227236.3819,1637227237.5031912,88a0e376-a9e9-49f4-9833-3918cc9f15c1
0.0644725027335101,0.2830695704587292,0.0130085054144986,0.0202139910360815,-0.1524678441350089,-0.3065574327745043,-0.3713936647667635,-0.4021747692153687,-13.76135550594486,20.82219201255492,-3.059799879799733,-0.6032075973339167,1.1848904401978562,0.7306637821457813,-1.0,12.042333333333334,0.0311111111111111,179.49160519045577,13.237316422834912,49.9381836259287,1644.0,1435.0,1000.0,1528.0,1569.0,1021.47,62.0,292.98999999999995,1637227239.325095,1637227240.3699996,b4b7566f-ddff-4b65-9765-f224ee574e09
0.0680484002228414,0.2796739198563888,0.0114816130412681,0.0187270926196125,-0.1532879941285764,-0.300416442867107,-0.37140571774123,-0.3994288823508826,-13.810533454834276,20.830912464314085,-2.860319528628034,-0.5860650712416481,1.1708211860932456,0.7336988070864464,-1.0,12.042333333333335,0.04,179.62296035293386,13.26139198588556,49.77238078382664,1644.0,1435.0,1000.0,1528.0,1569.0,1021.47,62.0,292.98999999999995,1637227240.47849,1637227241.5989687,b4b7566f-ddff-4b65-9765-f224ee574e09
0.0680489480840204,0.2844896295692783,0.012877018449812,0.0147309846261658,-0.152717669383064,-0.3025733772386577,-0.3699736053149645,-0.3944696313956546,-13.777863139958365,20.74118971223501,-3.0073940606604266,-0.5824300504088918,1.1905342569024686,0.7293807885241995,-1.0,12.045777777777776,0.04,179.7643225014559,13.313045006892567,49.72123708623149,1644.0,1435.0,1000.0,1528.0,1569.0,1021.47,62.0,292.98999999999995,1637227241.707443,1637227242.829188,b4b7566f-ddff-4b65-9765-f224ee574e09
0.1878993117019062,0.5057821701618582,0.003646633499945,-0.174426168734796,-0.2262583344383242,-0.3293967217754111,-0.4128778095822224,-0.4387544496016884,-13.85967249949638,20.759334836592394,-0.960031956920142,-0.2160676375891349,2.025653581561304,0.9311551468296938,-1.0,12.039888888888887,0.03,-179.97139714107269,13.435952458595914,49.71120050270112,1763.0,1435.0,1000.0,1528.0,1663.0,1021.47,62.0,292.98999999999995,1637227244.763769,1637227245.7160408,be06fefa-bac2-43f9-a9a1-4cfe914afcfd
0.1933297230505727,0.49868187483546,-0.0093048325355892,-0.1829465246166781,-0.2368167386981482,-0.3139338525171414,-0.4207407315985979,-0.4438692934253652,-13.967070076990549,20.628036805514625,-0.9442115280458068,-0.1636674967492717,1.9998688322988245,0.973452725583272,-1.0,12.039,0.03,-179.89257068677145,13.49299886259003,49.70684284201064,1763.0,1435.0,1000.0,1528.0,1663.0,1021.47,62.0,292.98999999999995,1637227245.8247592,1637227246.924873,be06fefa-bac2-43f9-a9a1-4cfe914afcfd
0.1817194247020229,0.5047434232538542,0.0021739794963464,-0.1792517406572452,-0.227928219040476,-0.3245054059660809,-0.4129829992160924,-0.4386624086749173,-13.878058780462087,20.75178355683592,-1.046903551164791,-0.1943373795846144,2.0231583681423846,0.9352864641077316,-1.0,12.04,0.03,-179.8247560152321,13.528413108845331,49.75353970700116,1763.0,1435.0,1000.0,1528.0,1663.0,1021.47,62.0,292.98999999999995,1637227247.033432,1637227248.242738,be06fefa-bac2-43f9-a9a1-4cfe914afcfd
0.2699767569206708,0.6559046559200322,0.0085505494323347,-0.2787621808642825,-0.2658052345796063,-0.3698032202955365,-0.4405596561651344,-0.4692265604359509,-13.965973669652948,21.18820767055346,0.4551914943021439,-0.0682506364234854,2.590077612489468,1.0367436284729918,-1.0,12.029666666666666,0.03,-179.77063359624896,13.57053298818203,49.86035437924631,1881.0,1435.0,1000.0,1528.0,1757.0,1021.47,62.0,292.98999999999995,1637227250.2923558,1637227251.429165,e076011e-693d-4a13-9627-da3ea7a7b8c0
0.2688426819167623,0.6542177879281573,0.0081171903198029,-0.2830344118503984,-0.2659542531268508,-0.36264978028788,-0.4389516798153001,-0.4682206847493536,-14.002733286815191,21.15966855417064,0.6828152180772653,-0.0427317821395925,2.582491630540941,1.0353133763591866,-1.0,12.028555555555556,0.03,-179.74564572862542,13.598034744875088,49.87146292302143,1881.0,1435.0,1000.0,1528.0,1757.0,1021.47,62.0,292.98999999999995,1637227251.537511,1637227252.546152,e076011e-693d-4a13-9627-da3ea7a7b8c0
0.2453166313258212,0.6478057762566899,0.0089056063494578,-0.2813645272824278,-0.2632850675032664,-0.3589292043019921,-0.4351410857389318,-0.4555974273606192,-13.938603642390412,21.06640467582296,0.5557549385106911,-0.0387049741579815,2.558957727641715,1.0243203821181708,-1.0,12.028,0.03,-179.77476054832746,13.588070732104638,49.90354811610252,1881.0,1435.0,1000.0,1528.0,1757.0,1021.47,62.0,292.98999999999995,1637227252.6542003,1637227253.7974625,e076011e-693d-4a13-9627-da3ea7a7b8c0
0.3026978333870075,0.6984050730819501,0.039518468688624,-0.2948419428120422,-0.2494515415840381,-0.4047020582173136,-0.4237676717295746,-0.4390393386694223,-13.766274111476674,21.48014301491516,-0.5111064975303394,-0.1069772211299702,2.760578782072906,0.9520069436038796,-1.0,12.004333333333332,0.0466666666666666,-179.81435591385593,13.583628358095716,49.99525327153874,2000.0,1435.0,1000.0,1528.0,1852.0,1021.47,62.0,292.98999999999995,1637227255.8218195,1637227256.9658344,65b986aa-9ae5-4838-88c6-a5bc07ee5e0f
0.2934964858935244,0.6984105517062933,0.0432110608677885,-0.3083719532917592,-0.2469938308330123,-0.3942592520561506,-0.4160466461084766,-0.43963541246187,-13.72514246931319,21.395420394176973,-0.7520697327355503,-0.0533859289319156,2.764342349367085,0.932238656963488,-1.0,12.008555555555557,0.0411111111111111,-179.83950618819975,13.57309715503294,49.9984843304711,2000.0,1435.0,1000.0,1528.0,1852.0,1021.47,62.0,292.98999999999995,1637227257.0788462,1637227258.1271122,65b986aa-9ae5-4838-88c6-a5bc07ee5e0f
0.2990715327777302,0.6966223291893319,0.0374256345407995,-0.3041117750115916,-0.2514775367459202,-0.3976779136580257,-0.4243303264245883,-0.443737806777303,-13.908271071947656,21.46807159337009,-0.9833878731461184,-0.0706135542214745,2.760091681578249,0.9573628362293528,-1.0,12.009666666666666,0.03,-179.8722136874052,13.560832032558366,50.01297116170071,2000.0,1435.0,1000.0,1528.0,1852.0,1021.47,62.0,292.98999999999995,1637227258.2360668,1637227259.3048432,65b986aa-9ae5-4838-88c6-a5bc07ee5e0f
-0.1798319269539904,-0.1875704831963847,0.021329438782028,0.2178202645102655,-0.0412912284318946,-0.0384971303914776,-0.2472874850040895,-0.2690376230483126,-13.547782558940469,21.83917334331473,-4.143601686422133,-0.4395008830843165,-0.5959866281925784,0.3341826049832252,-1.0,12.04866666666667,0.04,-179.6506909209641,13.528763820086462,50.097384710742986,1406.0,1435.0,1000.0,1528.0,1381.0,1021.47,62.0,292.98999999999995,1637227261.352069,1637227262.377168,bd270b33-2e6c-4706-b72f-56193b034dbd
-0.1892316020231796,-0.1939125382795876,0.0215946041583122,0.224557875293319,-0.0395599833671151,-0.0414008009187019,-0.2470201281527403,-0.2638110156261449,-13.510154319153386,21.87367660164102,-4.556097615939692,-0.4610291010714371,-0.6171957219821128,0.3298045289299485,-1.0,12.049333333333331,0.04,-179.67694161467418,13.505823681121592,50.17861425326718,1406.0,1435.0,1000.0,1528.0,1381.0,1021.47,62.0,292.98999999999995,1637227262.4861362,1637227263.612455,bd270b33-2e6c-4706-b72f-56193b034dbd
-0.1901591330988948,-0.1949803220896492,0.0206309142899413,0.224805509074601,-0.040236593382948,-0.039702427577087,-0.2480955820549449,-0.2728315702102277,-13.565622531468966,21.90460199280237,-4.438973124232535,-0.4576234586735315,-0.6219370988642576,0.3335576092935493,-1.0,12.04811111111111,0.04,-179.70617027086234,13.494827930331518,50.30319424754354,1406.0,1435.0,1000.0,1528.0,1381.0,1021.47,62.0,292.98999999999995,1637227263.7281897,1637227264.8349817,bd270b33-2e6c-4706-b72f-56193b034dbd
-0.2990741799788672,-0.4178507570654428,0.0372311434051312,0.2756334352439165,0.0128238757714621,0.1410921460107945,-0.1678337405790819,-0.1896660573625674,-13.239608195166843,23.0310115275266,-2.770962941317641,-0.15728557699992,-1.480114252064172,0.0999802218571839,-1.0,12.037444444444446,0.03,-179.6559623091835,13.48507565342534,50.47534575047913,1287.0,1435.0,1000.0,1528.0,1287.0,1021.47,62.0,292.98999999999995,1637227265.8597488,1637227266.882,7155123d-b88a-43ab-b9cf-3c9419055651
-0.2997069610974361,-0.4231600921612963,0.0351114639619753,0.2676724480017378,0.0097344799474381,0.1522268999842645,-0.1674310617442606,-0.1886399107160597,-13.232232951437098,23.14321307253842,-2.9776136138741345,-0.1136972384085041,-1.4974004527702534,0.1054595309636946,-1.0,12.037333333333333,0.0366666666666666,-179.66677373972976,13.501014374172255,50.53664707773495,1287.0,1435.0,1000.0,1528.0,1287.0,1021.47,62.0,292.98999999999995,1637227266.9894354,1637227268.1102822,7155123d-b88a-43ab-b9cf-3c9419055651
-0.2977609538317465,-0.4141926794506161,0.0394242363856045,0.2772709957223017,0.0138500219640235,0.1346602422771522,-0.1674442104001941,-0.1960031814727565,-13.16841418893646,23.05557987731404,-2.9520341915720225,-0.1751538173328938,-1.465355472349314,0.0952798439213914,-1.0,12.038555555555556,0.03,-179.6946135907867,13.47911783119432,50.637726288352056,1287.0,1435.0,1000.0,1528.0,1287.0,1021.47,62.0,292.98999999999995,1637227268.2192953,1637227269.2485397,7155123d-b88a-43ab-b9cf-3c9419055651
-0.4093451925009701,-0.6251756210120729,0.0310266023375634,0.3535531519664486,0.0423262632394765,0.2855908327725947,-0.1263468614893903,-0.1587392251953266,-13.078059294285984,24.44994086687129,-0.7908331734645205,0.0011487484856359,-2.2863646435326253,-0.0128938040820523,-1.0,12.022111111111112,0.03,-179.6837035019525,13.489291967145483,50.74373613664001,1169.0,1435.0,1000.0,1528.0,1193.0,1021.47,62.0,292.98999999999995,1637227270.362919,1637227271.5011349,863316c7-8080-40bf-a26e-ebd3769d1f7b
-0.414604672091526,-0.6292024106188634,0.0290406013061171,0.3453215208285057,0.0406278899476736,0.298438203908251,-0.1262783787097829,-0.1437004027673511,-13.271024734630762,24.512797499656216,-0.6101466614589371,0.048836513130284,-2.3008145567582137,-0.008436243303221,-1.0,12.021,0.03,-179.71194861090018,13.471196614168134,50.74502704239314,1169.0,1435.0,1000.0,1528.0,1193.0,1021.47,62.0,292.98999999999995,1637227271.6085956,1637227272.6134827,863316c7-8080-40bf-a26e-ebd3769d1f7b
-0.4129336915933197,-0.6162728549567138,0.0345055281618772,0.3369255310352045,0.0429700014322412,0.2926034703641738,-0.1211010793294845,-0.1558355547235251,-13.09658883285617,24.35300366385521,-0.6957010192166507,0.0539513766941915,-2.251419746964183,-0.0248891884124492,-1.0,12.020600000000002,0.03,-179.7550826215467,13.471221544358604,50.74576606886133,1169.0,1435.0,1000.0,1528.0,1193.0,1021.47,62.0,292.98999999999995,1637227272.7213786,1637227273.845004,863316c7-8080-40bf-a26e-ebd3769d1f7b
-0.4080166260552029,-0.6216419077707461,0.0419975457728532,0.3313510320075421,0.0506263776936716,0.303218302575684,-0.1138692958895556,-0.1281958973047944,-13.450786713291992,24.56002471204219,-0.6082668860964962,0.0919600893491268,-2.2686601553096097,-0.0567342929984467,-1.0,11.98,0.1677777777777778,-179.81551856383464,13.465356802427774,50.77339357692611,1050.0,1435.0,1000.0,1528.0,1098.0,1021.47,62.0,292.98999999999995,1637227274.86852,1637227276.0061734,b3cddb01-1374-4453-95c6-848514950306
-0.3961280108302414,-0.6106435675270302,0.0457367062928044,0.3268448646023367,0.0512016331939504,0.2975753208116347,-0.1112121633132017,-0.1381943857902867,-13.264771286091218,24.50038748955905,-0.444130009417217,0.0893550081837428,-2.2293901678356742,-0.0647205381114674,-1.0,11.97977777777778,0.151111111111111,-179.84565032281313,13.452872165262376,50.718754719750685,1050.0,1435.0,1000.0,1528.0,1098.0,1021.47,62.0,292.98999999999995,1637227276.1147492,1637227277.2383988,b3cddb01-1374-4453-95c6-848514950306
-0.4001684963846983,-0.6040966103790626,0.0501606947286965,0.321626476118451,0.0539135517749913,0.2967261342277707,-0.1072264645502916,-0.127908269500162,-13.25258086252848,24.46311639571371,-0.3033583930335345,0.0992199651144871,-2.205246713619995,-0.0791506433370428,-1.0,11.981222222222222,0.1444444444444445,-179.87844281992824,13.444765679354957,50.701452332763225,1050.0,1435.0,1000.0,1528.0,1098.0,1021.47,62.0,292.98999999999995,1637227277.347088,1637227278.669283,b3cddb01-1374-4453-95c6-848514950306
-0.0371000814394847,0.0768278942709145,0.0279174835269935,0.0771977013429195,-0.0950091335249774,-0.1584242040276661,-0.2948145495838447,-0.3242484594833306,-13.55263996323508,21.05244407415913,-2.921173528481226,-0.3964778463940853,0.4025860216679731,0.4988393744417416,-1.0,12.052444444444443,0.04,179.90019621352485,13.4341524191584,50.75669186713065,1525.0,1435.0,1000.0,1528.0,1475.0,1021.47,62.0,292.98999999999995,1637227280.2630093,1637227281.3314378,a9b91b20-7dfa-4368-8ca4-3f17136a4096
-0.0430717811562936,0.0684182073488887,0.0153440426179826,0.0792658816771857,-0.105870505083138,-0.1514800482577221,-0.306141605186358,-0.3349180804421303,-13.605590185196776,21.136291419172576,-2.927399379179486,-0.3856365947702492,0.3704242264975607,0.5458195909753755,-1.0,12.052555555555555,0.04,179.91491754791593,13.42057068285757,50.86811312251603,1525.0,1435.0,1000.0,1528.0,1475.0,1021.47,62.0,292.98999999999995,1637227281.4408293,1637227282.4473405,a9b91b20-7dfa-4368-8ca4-3f17136a4096
-0.0523306550905147,0.0708835878821527,0.0158782084085352,0.0823476073284612,-0.1048295665706647,-0.1578763416323579,-0.3075660474949563,-0.3342469480969587,-13.673926498966951,21.10582432529213,-3.0924642161342533,-0.4071976212779069,0.3812714557232763,0.5457590084478476,-1.0,12.052222222222222,0.04,179.92265387551583,13.42446853900766,50.99545934340623,1525.0,1435.0,1000.0,1528.0,1475.0,1021.47,62.0,292.98999999999995,1637227282.5559666,1637227283.6117237,a9b91b20-7dfa-4368-8ca4-3f17136a4096
-0.0415848827158727,0.0694032638391602,0.0057635736741963,-0.0989657955821274,-0.1330340696651268,0.018833377921319,-0.2662303757571762,-0.2859008281497013,-13.501308289292568,20.633013117204623,-1.7885778623801938,0.3955481028873474,0.3846156076693575,0.5394936238558347,-1.0,12.050777777777778,0.04,179.92015402627962,13.471654236842523,51.224760177492186,1525.0,1535.0,1000.0,1528.0,1475.0,1021.47,62.0,292.98999999999995,1637227285.2439015,1637227286.3382514,87ef945a-a42a-49c6-b7c6-8c7b16f0e52e
-0.0386527233270733,0.06473547668966,0.0029891987172748,-0.0967436658066179,-0.133652058436088,0.0213710763082687,-0.2679923012859631,-0.2832579400203107,-13.599065892509724,20.586735129426096,-1.803489730929512,0.3957415562047429,0.3674823785060648,0.5460100102392659,-1.0,12.050222222222224,0.04,179.91726257953098,13.475354302097903,51.28450877507669,1525.0,1535.0,1000.0,1528.0,1475.0,1021.47,62.0,292.98999999999995,1637227286.4467916,1637227287.6813862,87ef945a-a42a-49c6-b7c6-8c7b16f0e52e
-0.0442146220312902,0.0605804886848088,-0.0037692312671294,-0.0927333132330914,-0.1400554739524654,0.0210423589059519,-0.2748690703232002,-0.3013373999467289,-13.523245632856131,20.66360533840016,-1.957727363118616,0.3861431482743762,0.3518081093665666,0.5730715760908691,-1.0,12.052500000000002,0.04,179.89035315202096,13.472290084765572,51.31928202705112,1525.0,1535.0,1000.0,1528.0,1475.0,1021.47,62.0,292.98999999999995,1637227287.7898028,1637227288.9044757,87ef945a-a42a-49c6-b7c6-8c7b16f0e52e
-0.0322788926531531,0.0656241094100519,-0.0014342419155232,-0.2885415249166048,-0.1612730884171152,0.208712053436086,-0.222154297113428,-0.2470272508841464,-13.44574033359681,20.49311415905909,0.003702476866958,1.2488950999318609,0.3770454033254696,0.5255172934110329,-1.0,12.05,0.04,179.88199300047685,13.534837470942158,51.47092361027402,1525.0,1636.0,1000.0,1528.0,1475.0,1021.47,62.0,292.98999999999995,1637227290.8434703,1637227292.0050995,b4276707-270d-488c-b617-bffc7a364dea
-0.0363878603373504,0.0612001209969974,-0.0078853211367329,-0.287007510076885,-0.1660805808784392,0.2117389927763372,-0.2294819567652884,-0.2513827567871007,-13.666532524430169,20.572856204337484,-0.0342089891594875,1.252326889654391,0.3617549965193363,0.5505293726980914,-1.0,12.049,0.04,179.877186065121,13.53790270805968,51.489284297127874,1525.0,1636.0,1000.0,1528.0,1475.0,1021.47,62.0,292.98999999999995,1637227292.1181357,1637227293.1524808,b4276707-270d-488c-b617-bffc7a364dea
-0.0294163118183388,0.0641311845266688,-0.0058719269828409,-0.2884456489463856,-0.165135518258024,0.2097666884277642,-0.2272494174628214,-0.2409459779778816,-13.5510678059875,20.53600015450776,-0.0783782132486443,1.2510459589287264,0.3726265857290056,0.543694651229227,-1.0,12.047,0.04,179.86538198041538,13.535582246152906,51.52848389113944,1525.0,1636.0,1000.0,1528.0,1475.0,1021.47,62.0,292.98999999999995,1637227293.262389,1637227294.2340145,b4276707-270d-488c-b617-bffc7a364dea
-0.0202670104187234,0.059898947932175,-0.0168565672132944,-0.4669255375463237,-0.1973224338351319,0.3873973457137827,-0.192213617002837,-0.2146211893346395,-13.525556502903749,20.59923261312247,1.3107114031498062,2.052919148862975,0.3655404955927673,0.5524982008735219,-1.0,12.045444444444446,0.04,179.83713687146766,13.590480460789315,51.60266999080954,1525.0,1737.0,1000.0,1528.0,1475.0,1021.47,62.0,292.98999999999995,1637227296.2639434,1637227297.4042826,08717b69-2b09-4008-b584-e9ca51872390
-0.0271837727049507,0.0627889217889456,-0.0182125265477486,-0.4665146406876927,-0.1998699939830339,0.3845484617511416,-0.1949255358626848,-0.2148266380873359,-13.474176435607676,20.65107347744275,1.345471653268845,2.04589798959996,0.3755722483373043,0.5620945573927788,-1.0,12.047333333333333,0.04,179.81468831639555,13.58070930599918,51.572386070394565,1525.0,1737.0,1000.0,1528.0,1475.0,1021.47,62.0,292.98999999999995,1637227297.519112,1637227298.74097,08717b69-2b09-4008-b584-e9ca51872390
-0.0192945547611606,0.0653090885616898,-0.0133502481355059,-0.468760876836759,-0.1948707496166523,0.3841512615806747,-0.1903782779700968,-0.2166208875127645,-13.579934731293909,20.59978353307747,1.383384343568012,2.049927295437925,0.3860208504127966,0.5424690675609177,-1.0,12.047444444444444,0.04,179.78507565179402,13.568092333918614,51.51906847536858,1525.0,1737.0,1000.0,1528.0,1475.0,1021.47,62.0,292.98999999999995,1637227298.849666,1637227300.059744,08717b69-2b09-4008-b584-e9ca51872390
-0.0255829188931062,0.0617770200414917,-0.0142355937015447,-0.4876939083225837,-0.2020647307511583,0.40453721779094,-0.1898232933677398,-0.2230500528303637,-13.52045146102218,21.08955789830368,1.303567430087044,2.141665449661646,0.3753430947907985,0.5518187972070787,-1.0,12.041000000000002,0.04,179.73299318264293,13.580492352629296,51.395373370044695,1525.0,1837.0,1000.0,1528.0,1475.0,1021.47,62.0,292.98999999999995,1637227301.791076,1637227302.943986,681098d2-da9b-41b1-a6d1-adebc4026595
-0.0218558112732055,0.0606796517749309,-0.0127065098697413,-0.4946062893122651,-0.2017738158206296,0.4127770667610075,-0.1863925790578145,-0.2098273938387624,-13.500678073582389,21.14261989311264,1.43548308657428,2.17623300254867,0.3708670779963546,0.5444383604953918,-1.0,12.0464,0.0399999999999999,179.72898310269025,13.568123487170327,51.41442383011374,1525.0,1837.0,1000.0,1528.0,1475.0,1021.47,62.0,292.98999999999995,1637227303.052273,1637227304.068032,681098d2-da9b-41b1-a6d1-adebc4026595
-0.0224310667336916,0.058748437016196,-0.0161991323850552,-0.4824026525014016,-0.2018970848523621,0.403888000956631,-0.1926108172325482,-0.2125119193286336,-13.678976586126504,21.088712743909003,1.464543009990917,2.128113285162445,0.3629033873839669,0.5580322805002998,-1.0,12.041444444444444,0.0377777777777777,179.73059199169472,13.561614468673284,51.42425520440506,1525.0,1837.0,1000.0,1528.0,1475.0,1021.47,62.0,292.98999999999995,1637227304.176255,1637227305.1835754,681098d2-da9b-41b1-a6d1-adebc4026595
-0.0614251703400521,0.0695139320309595,0.0293282290755709,0.3161204599703818,-0.0686295604076978,-0.3846913820833264,-0.359284261201159,-0.3836641403748052,-13.750185227990828,21.758191591414825,-5.0783957687423245,-1.439576195913303,0.3663566968083899,0.5505171084039743,-1.0,12.051555555555556,0.04,179.74128958575477,13.338314430091891,51.43810341294724,1525.0,1334.0,1000.0,1528.0,1475.0,1021.47,62.0,292.98999999999995,1637227305.7424195,1637227306.820877,9ba3401b-a333-44fd-87a3-281768582fa1
-0.0522221783430159,0.0717831778432605,0.033415282191402,0.3155599968301427,-0.0650947524133644,-0.3869485753675941,-0.3566539736220833,-0.3818994752255707,-13.826105199639857,21.796047645404883,-5.130713893778537,-1.44297623875541,0.3761975298091051,0.536513744966039,-1.0,12.052555555555555,0.04,179.76388992280843,13.325877604250682,51.55746134814817,1525.0,1334.0,1000.0,1528.0,1475.0,1021.47,62.0,292.98999999999995,1637227306.928193,1637227308.049183,9ba3401b-a333-44fd-87a3-281768582fa1
-0.0670013134922962,0.0691008438242994,0.0301149594087118,0.3189129141476818,-0.0677376404717955,-0.387553415527773,-0.3594414977234609,-0.3768372264393959,-13.750279375091685,21.789817578770744,-5.175148037975078,-1.4520733035298152,0.365372144134329,0.5482787469744048,-1.0,12.052,0.04,179.7729285398101,13.319401636280125,51.67420939217625,1525.0,1334.0,1000.0,1528.0,1475.0,1021.47,62.0,292.98999999999995,1637227308.158033,1637227309.2153008,9ba3401b-a333-44fd-87a3-281768582fa1
-0.0636303163617351,0.0695687182644831,0.0382857784510531,0.4376500150844145,-0.0500022399875642,-0.5026324747621066,-0.3876087496269838,-0.4077563917261437,-13.90118846219581,22.38361360638474,-6.00894894547461,-1.974378802825185,0.3614939897576876,0.5526613985419908,-1.0,12.0438,0.039,179.81351352385832,13.289067997779815,51.861852447168346,1525.0,1234.0,1000.0,1528.0,1475.0,1021.47,62.0,292.98999999999995,1637227310.285738,1637227311.2521694,ce30abde-f5c4-464a-a173-6e09d6a14c71
-0.0584941067148595,0.0732530925001587,0.0434356844847227,0.4368419182055663,-0.0470848729238732,-0.502988585355401,-0.3830340982187608,-0.4108107248488224,-13.779068986543615,22.461856340748746,-5.616550148433778,-1.972457028354305,0.3713977785053526,0.5362000783702722,-1.0,12.044555555555554,0.04,179.81505562879093,13.291867815643464,51.92866012115105,1525.0,1234.0,1000.0,1528.0,1475.0,1021.47,62.0,292.98999999999995,1637227311.3623714,1637227312.3462827,ce30abde-f5c4-464a-a173-6e09d6a14c71
-0.0666594473988608,0.0693901151382357,0.0419093400028239,0.4411563338086632,-0.0471599300527662,-0.5048661100202984,-0.386172802136266,-0.4047650626881657,-13.941661031271575,22.53746126686389,-5.874598446858705,-1.986106128190605,0.3597204500112201,0.541913450018818,-1.0,12.042,0.04,179.8118909744755,13.299053269514056,51.99814780958208,1525.0,1234.0,1000.0,1528.0,1475.0,1021.47,62.0,292.98999999999995,1637227312.45559,1637227313.599515,ce30abde-f5c4-464a-a173-6e09d6a14c71
-0.06941026434686,0.070623353269266,0.0455860441612129,0.5206785459106902,-0.0393874067715625,-0.5844694356506462,-0.4087014541209355,-0.4372861785643813,-13.937599272952218,23.11454751833969,-6.688284124622991,-2.3404870689532493,0.3619807543543971,0.557856081814205,-1.0,12.041999999999998,0.04,179.81076778781193,13.255686216607662,52.17964680585178,1525.0,1133.0,1000.0,1528.0,1475.0,1021.47,62.0,292.98999999999995,1637227315.2638483,1637227316.2417438,c841836b-4788-4ff9-8aed-e1e6826e4850
-0.0545874265955343,0.0750157342257613,0.0496286361533147,0.5144097369769582,-0.0361413222396679,-0.5840374671626358,-0.4026865564510296,-0.4258990676030523,-13.831175650168898,22.948749435716845,-6.79546458942482,-2.3262367966699804,0.379676842507872,0.5398281824407537,-1.0,12.045,0.04,179.81653702093092,13.254220287257048,52.25267177336297,1525.0,1133.0,1000.0,1528.0,1475.0,1021.47,62.0,292.98999999999995,1637227316.3498974,1637227317.4711802,c841836b-4788-4ff9-8aed-e1e6826e4850
-0.0620574035072346,0.0745707014315437,0.0515604830589036,0.5225730537164689,-0.0335773264016281,-0.5919630991868123,-0.4040418838672519,-0.4411212161340293,-13.91718302530996,23.042277697012924,-6.9139025579363285,-2.3618071630129505,0.3787851266893905,0.5353844535299479,-1.0,12.039222222222223,0.04,179.8167798721014,13.248756041057298,52.31383042555613,1525.0,1133.0,1000.0,1528.0,1475.0,1021.47,62.0,292.98999999999995,1637227317.6030111,1637227318.6938603,c841836b-4788-4ff9-8aed-e1e6826e4850
-0.0417295183890845,0.1002764022994836,0.0715958083647614,0.4619614044186605,-0.0311831684382486,-0.5582953046865952,-0.3790894896364037,-0.4061265013662697,-13.584569266716985,23.39600547122925,-6.314754538874951,-2.1458206359503067,0.476271464823931,0.4727976949772885,-1.0,12.04,0.03,179.8109180519737,13.245070395090169,52.43254139006066,1525.0,1033.0,1000.0,1528.0,1475.0,1021.47,62.0,292.98999999999995,1637227320.2613652,1637227321.2685642,7b88eaea-fda1-4bf3-816e-90a6c4985e1b
-0.0414144975327857,0.1070425021519031,0.0794850264564071,0.4406084714916067,-0.0281973181819692,-0.5454068389161838,-0.3682144193583208,-0.3894440899712139,-13.499283353945762,23.4367389865678,-6.2640399007251615,-2.067977674534813,0.5037251659948159,0.4432391309097137,-1.0,12.038333333333334,0.03,179.80675619003944,13.261360301396913,52.47790560925313,1525.0,1033.0,1000.0,1528.0,1475.0,1021.47,62.0,292.98999999999995,1637227321.3773527,1637227322.4962423,7b88eaea-fda1-4bf3-816e-90a6c4985e1b
-0.0216271840756971,0.1073185404829448,0.0838278891253865,0.4383369501263264,-0.0229546968009006,-0.5430489230209347,-0.3614451572533897,-0.3898665752423296,-13.471407857755114,23.27122166204513,-6.143193901383499,-2.058402820419217,0.5040443067831896,0.4208120560739034,-1.0,12.03875,0.03375,179.80441229678928,13.266850694414575,52.52524114436292,1525.0,1033.0,1000.0,1528.0,1475.0,1021.47,62.0,292.98999999999995,1637227322.6044853,1637227323.6155035,7b88eaea-fda1-4bf3-816e-90a6c4985e1b
-0.0528100346592114,0.0667746203261534,0.0131799863294705,0.0983862772582714,-0.1038297177401192,-0.1742985167274242,-0.3138801619670107,-0.3337127822759547,-13.768656934777752,21.051372791302622,-3.932836062620923,-0.4809567155701808,0.3718323224533833,0.5554793788537545,-1.0,12.049888888888889,0.04,179.79274974878146,13.375361755604994,52.60505071901778,1525.0,1435.0,1000.0,1528.0,1475.0,1021.47,62.0,292.98999999999995,1637227325.2418778,1637227326.395809,719ae133-f3a8-44b1-a38a-628c75b9887e
-0.0490007476475812,0.0641700827537436,0.0140604011251785,0.0994611831508253,-0.10288410728462,-0.1719936596584095,-0.3117906146765506,-0.3357212459540828,-13.685959819247364,21.06419437257664,-3.816489415410354,-0.4780131097863724,0.360370922884486,0.5499271929473695,-1.0,12.052666666666664,0.04,179.77929124047694,13.381559772821824,52.56966692402253,1525.0,1435.0,1000.0,1528.0,1475.0,1021.47,62.0,292.98999999999995,1637227326.504833,1637227327.504246,719ae133-f3a8-44b1-a38a-628c75b9887e
-0.0486599772323529,0.0678018622114687,0.0172204711595694,0.1000161676953347,-0.1002275226294587,-0.1768186837477074,-0.3091137588572188,-0.3390544410160354,-13.6112913289384,20.996507349377733,-3.900944535469984,-0.4903747238058849,0.3743431955196994,0.5385952258061942,-1.0,12.051333333333334,0.04,179.77363887948377,13.391520749952644,52.55557017248553,1525.0,1435.0,1000.0,1528.0,1475.0,1021.47,62.0,292.98999999999995,1637227327.6122692,1637227328.6410544,719ae133-f3a8-44b1-a38a-628c75b9887e
-0.0152129802028869,0.083744656300334,0.0977014493367339,0.0888397760299629,-0.0289780218826031,-0.186474758406047,-0.2269343965885599,-0.2465204780411195,-13.06216220276153,20.975522315162355,-3.892427700844084,-0.4827159331745711,0.4366540430413624,0.2170762242085822,-1.0,12.051,0.04,179.7486935108151,13.394462379618934,52.493204474084045,1525.0,1435.0,1000.0,1439.0,1475.0,1021.47,62.0,292.98999999999995,1637227330.2637074,1637227331.307626,92775acd-ba33-45b5-9710-efb7d8aad990
-0.0228419635288315,0.0824023935710845,0.0966605108920172,0.0915106049202598,-0.0292656496257762,-0.1863377928330884,-0.2286601631661751,-0.2538892278541699,-13.14324588842873,21.009135129683013,-3.721023519862919,-0.4882753898849361,0.4302802250824811,0.2213762767079106,-1.0,12.05188888888889,0.04,179.74153547256486,13.390486924930771,52.43700264195356,1525.0,1435.0,1000.0,1439.0,1475.0,1021.47,62.0,292.98999999999995,1637227331.4155548,1637227332.5325215,92775acd-ba33-45b5-9710-efb7d8aad990
-0.019639708043222,0.0837090452476746,0.0980674213777513,0.0903491367734252,-0.0274894798519921,-0.1867990929514856,-0.2268237283788846,-0.2583280086103783,-13.162731796903753,20.931166582435484,-3.743096262656278,-0.487152140670244,0.4357453798557663,0.2145597658061603,-1.0,12.052,0.04,179.72462544199976,13.392706641547289,52.41740569085992,1525.0,1435.0,1000.0,1439.0,1475.0,1021.47,62.0,292.98999999999995,1637227332.6404655,1637227333.7610314,92775acd-ba33-45b5-9710-efb7d8aad990
0.0109063575203984,0.0999613814730684,0.1825927172868768,0.0786358399716413,0.0467776448050441,-0.1940900457381462,-0.1408241248872822,-0.1681350651436442,-12.60679911366252,20.999368606043035,-3.3965601685556286,-0.4721175601858203,0.4964971937632569,-0.1215437611867772,-1.0,12.049666666666669,0.04,179.6975869998054,13.376193805455136,52.28710844879331,1525.0,1435.0,1000.0,1351.0,1475.0,1021.47,62.0,292.98999999999995,1637227335.7872868,1637227336.9297168,3ec32f6d-e0a4-40e5-8fae-7ebd113e9b34
0.006961748583218,0.0966468143429382,0.1814011167360399,0.0816627794082449,0.0461065134350202,-0.1934052177070033,-0.1416048287746582,-0.1675187199094366,-12.565311704713627,21.03224878261804,-3.3728766785086464,-0.477223402023391,0.4831143434011065,-0.1182194177862002,-1.0,12.050222222222224,0.04,179.69421440417523,13.380907205164878,52.27714547952399,1525.0,1435.0,1000.0,1351.0,1475.0,1021.47,62.0,292.98999999999995,1637227337.038457,1637227338.1534913,3ec32f6d-e0a4-40e5-8fae-7ebd113e9b34
0.0166589122193237,0.1033307348392052,0.1855511738226284,0.0766087493222898,0.0485171077390647,-0.1955144879334163,-0.1379341508351434,-0.1670530371122797,-12.528576807340997,20.98199384969492,-3.372800454344734,-0.4706705575507075,0.5088069313846267,-0.1315751187481335,-1.0,12.049555555555555,0.04,179.6763967173604,13.37711502721944,52.20691899229773,1525.0,1435.0,1000.0,1351.0,1475.0,1021.47,62.0,292.98999999999995,1637227338.2605736,1637227339.4951544,3ec32f6d-e0a4-40e5-8fae-7ebd113e9b34
0.037861185083914,0.118629790513067,0.272414744220748,0.0746227483457853,0.1259437526343147,-0.213141960608701,-0.0518923651612954,-0.0814632366496905,-11.919218035898298,21.06884551886442,-3.3462670021765173,-0.5005899693187942,0.5673923143585807,-0.4756810952146537,-1.0,12.04988888888889,0.04,179.6755057571287,13.374622577354817,52.15266148735097,1525.0,1435.0,1000.0,1262.0,1475.0,1021.47,62.0,292.98999999999995,1637227340.292964,1637227341.3384018,113b0e2f-4172-4dca-949d-47bea09cd143
0.042449532249018,0.117972355708596,0.274510317566624,0.076403300945057,0.1279982363828762,-0.2137446092453424,-0.0504131367737615,-0.0699170372346733,-11.938913483733998,21.117931298830914,-3.2771933573947365,-0.5055298540188217,0.5643681921945009,-0.4834424140936291,-1.0,12.049,0.04,179.69119849620174,13.371776949791858,52.12291866970023,1525.0,1435.0,1000.0,1262.0,1475.0,1021.47,62.0,292.98999999999995,1637227341.4469416,1637227342.491923,113b0e2f-4172-4dca-949d-47bea09cd143
0.0388062476276721,0.116356161829988,0.2725927994704127,0.0787317158919035,0.125765697378312,-0.2144431338133616,-0.0531113589126755,-0.0841614588794671,-11.912421978276248,21.20897738242797,-3.3157981500251874,-0.511836608435956,0.5580544413942108,-0.4741945669919254,-1.0,12.049888888888889,0.04,179.6926586388643,13.373862434218438,52.119600715583424,1525.0,1435.0,1000.0,1262.0,1475.0,1021.47,62.0,292.98999999999995,1637227342.600612,1637227343.6836095,113b0e2f-4172-4dca-949d-47bea09cd143
0.0520813737182891,0.1301138278473451,0.3481546011332555,0.0831451684517344,0.194453936558768,-0.2371899593962878,0.0204612876489543,0.0020025405344262,-11.390107818043765,21.21144077536243,-3.483925130263372,-0.5688925077849969,0.6116942141137367,-0.7736707534173739,-1.0,12.043444444444445,0.04,179.69813796839844,13.37461992117014,52.07476317986698,1525.0,1435.0,1000.0,1173.0,1475.0,1021.47,62.0,292.98999999999995,1637227345.2628262,1637227346.4587517,aedca332-bb7a-41a6-adc9-f796e0eba7de
0.0651562349265264,0.1271260395561553,0.3482476534402985,0.0811976442757556,0.1945657004701334,-0.2321489509626572,0.0218970241596077,-0.0021650904750969,-11.387490797094609,21.24507579619041,-3.4329785250130294,-0.5529345088276497,0.6002643817125921,-0.7763127206786248,-1.0,12.045111111111112,0.04,179.70523377603618,13.374394619791268,52.04509701211693,1525.0,1435.0,1000.0,1173.0,1475.0,1021.47,62.0,292.98999999999995,1637227346.5667307,1637227347.688098,aedca332-bb7a-41a6-adc9-f796e0eba7de
0.067194282845203,0.130110793534142,0.3510220281471305,0.0830910565132023,0.1971691422232458,-0.2369482256470518,0.022672797239148,-0.0019152652210303,-11.455470926903848,21.25834039877566,-3.4377556985165194,-0.567799096956025,0.6119254964092612,-0.7844269809577082,-1.0,12.04588888888889,0.04,179.7160178858257,13.370607469623971,52.06344935096181,1525.0,1435.0,1000.0,1173.0,1475.0,1021.47,62.0,292.98999999999995,1637227347.7959554,1637227349.0082855,aedca332-bb7a-41a6-adc9-f796e0eba7de
-0.0759161299605914,0.0505348847615727,-0.0744960706456467,0.1081524712410874,-0.1837485951392715,-0.1600677911669562,-0.4046993188063327,-0.4205040556440725,-14.3701381741216,21.28129983317545,-3.5804116118108507,-0.474096576002705,0.3053003251488839,0.9112537122297776,-1.0,12.05211111111111,0.04,179.77541472866798,13.370969754241198,52.13443057409134,1525.0,1435.0,1000.0,1617.0,1475.0,1021.47,62.0,292.98999999999995,1637227349.856146,1637227350.9642344,ab786aa1-bf3d-49fb-97fe-7107ac163ea1
-0.0759424273429801,0.053085731832182,-0.0732863905377536,0.1082839581994446,-0.1824731714921866,-0.161790270518135,-0.4041076273516744,-0.4271047021961586,-14.410954135775103,21.24362740791454,-3.445230747309544,-0.4784523176269797,0.3140181928268516,0.9075125536301516,-1.0,12.050333333333334,0.04,179.78679837728467,13.381187812103274,52.11807720394356,1525.0,1435.0,1000.0,1617.0,1475.0,1021.47,62.0,292.98999999999995,1637227351.0736752,1637227352.0828104,ab786aa1-bf3d-49fb-97fe-7107ac163ea1
-0.0837921993825216,0.048983338606826,-0.0781777057585431,0.1102299652127155,-0.1860364684898846,-0.1585293935884494,-0.408380954496299,-0.4311545014444473,-14.470997001939596,21.259996208031424,-3.333580526933548,-0.4756618772615962,0.2975177387434487,0.9247470394277404,-1.0,12.05188888888889,0.04,179.78175314421776,13.374804051686516,52.13399495980428,1525.0,1435.0,1000.0,1617.0,1475.0,1021.47,62.0,292.98999999999995,1637227352.199109,1637227353.2183497,ab786aa1-bf3d-49fb-97fe-7107ac163ea1
-0.1161155315887902,0.0309718161195482,-0.1758188349009214,0.126902511712118,-0.2746943022577713,-0.1519731244313288,-0.5115078469806841,-0.5333538642861304,-15.091285442650651,21.51890580705843,-3.5005462589163776,-0.5020226312103286,0.227595357344298,1.3226197984779062,-1.0,12.048444444444446,0.04,179.78994633558216,13.374336278592104,52.14614662524764,1525.0,1435.0,1000.0,1706.0,1475.0,1021.47,62.0,292.98999999999995,1637227354.760857,1637227355.8801577,7fa6b04b-8370-4826-8995-4d1a83f1fab7
-0.1175399737578801,0.0347246731992287,-0.1754764208894397,0.1229031166815606,-0.2747764815938336,-0.151945731322134,-0.5111791294575839,-0.5387640066399809,-15.131807101482716,21.45503887935003,-3.493891768697655,-0.4933650883599569,0.2424117120843053,1.3222232470013608,-1.0,12.0483,0.0399999999999999,179.79956081342183,13.384476861238976,52.14816168283477,1525.0,1435.0,1000.0,1706.0,1475.0,1021.47,62.0,292.98999999999995,1637227355.9893978,1637227357.1076872,7fa6b04b-8370-4826-8995-4d1a83f1fab7
-0.1166496973978599,0.0294378015464501,-0.1781883397449217,0.1237386067523842,-0.2767898759904355,-0.1477819771677133,-0.512329640715372,-0.5444891695455214,-15.09118187927271,21.484109205777987,-3.54442677850278,-0.4858231683430289,0.2224687892849799,1.3296131074204056,-1.0,12.049888888888889,0.04,179.80871873106096,13.3885775076028,52.16708153450868,1525.0,1435.0,1000.0,1706.0,1475.0,1021.47,62.0,292.98999999999995,1637227357.2157223,1637227358.3370595,7fa6b04b-8370-4826-8995-4d1a83f1fab7
-0.1413856838642218,0.0186996995098794,-0.266133951984097,0.1560350910741343,-0.3571339011369563,-0.1618894336170791,-0.6138759563921409,-0.647364054133297,-15.741298132454691,21.94708620242788,-3.549522170584971,-0.5920155006826194,0.1772970817252645,1.7018364654496925,-1.0,12.04977777777778,0.04,179.81557472316783,13.384285872074308,52.21527193419771,1525.0,1435.0,1000.0,1795.0,1475.0,1021.47,62.0,292.98999999999995,1637227360.3638735,1637227361.409209,cc2308e0-4b61-4d3c-a062-8ab3c9f22dc1
-0.1508637031342249,0.0147824837053766,-0.2677227529988107,0.1606919208448582,-0.3576406739047049,-0.1612593918874685,-0.6154784542981051,-0.6368724866521411,-15.758978701624535,21.989622520655463,-3.408773621895579,-0.6008879769308412,0.160809473153762,1.706709573800638,-1.0,12.049333333333331,0.04,179.81158285705294,13.383674854734808,52.19067300790191,1525.0,1435.0,1000.0,1795.0,1475.0,1021.47,62.0,292.98999999999995,1637227361.5180357,1637227362.638003,cc2308e0-4b61-4d3c-a062-8ab3c9f22dc1
-0.1548220088754182,0.0142346213537041,-0.2721056523217271,0.1629381563890285,-0.3612976556999192,-0.1619579164129662,-0.6208338105068786,-0.6521030650506964,-15.84009431998347,22.012492010166856,-3.3277275606646968,-0.6076191587063254,0.1580564391795187,1.7252913755622223,-1.0,12.048777777777778,0.04,179.7976765919028,13.38271274669922,52.19212632037531,1525.0,1435.0,1000.0,1795.0,1475.0,1021.47,62.0,292.98999999999995,1637227362.746692,1637227363.8726203,cc2308e0-4b61-4d3c-a062-8ab3c9f22dc1
-0.16920339655590189,0.005249678789319337,-0.32728909506524095,0.1906462934208908,-0.4128926019453334,-0.17816094661220175,-0.6858787907391276,-0.7120392281073333,-15.990998574641424,22.428378459667993,-3.722355930261497,-0.7066619725509957,0.12202033868186891,1.9617198185038713,-1.0,12.041777777777778,0.04,179.81040047541657,13.361832289224061,52.21512963859001,1525.0,1435.0,1000.0,1873.2222222222222,1475.0,1021.4699999999999,62.0,292.98999999999995,1637227365.7428086,1637227366.6765702,57f98392-f884-4130-8aa2-b56e09b28f56
-0.1640386978199354,0.007564945090792543,-0.3222964247294847,0.1878204195743561,-0.4076577761778766,-0.17692442117440257,-0.6815846440539207,-0.7118924010646218,-16.180365337114885,22.412193897708317,-3.5571394647380896,-0.6974365294453362,0.13124413676221658,1.942032894314194,-1.0,12.043000000000001,0.04,179.81387780061405,13.361515159746347,52.20331682642046,1525.0,1435.0,1000.0,1883.0,1475.0,1021.4699999999999,62.0,292.98999999999995,1637227366.7865603,1637227367.850057,57f98392-f884-4130-8aa2-b56e09b28f56
-0.1646303891718826,0.003265321348315936,-0.330869375936736,0.19464459265266065,-0.41444250472978217,-0.17787112739493172,-0.6908150321871394,-0.7109325462015765,-16.220166590653886,22.446599984545113,-3.466100183936224,-0.7151618836397838,0.11320966055987083,1.9757279500899174,-1.0,12.044222222222222,0.04,179.82665480782143,13.356490227519465,52.22746571914095,1525.0,1435.0,1000.0,1883.0,1475.0,1021.4699999999999,62.0,292.98999999999995,1637227367.9586468,1637227368.9872987,57f98392-f884-4130-8aa2-b56e09b28f56
