raw_voltage_G-,raw_voltage_G0,raw_voltage_G1,raw_voltage_G2,raw_voltage_G3,raw_voltage_G4,raw_voltage_G5,raw_voltage_G6,load_x,load_y,load_z,load_l,load_m,load_n,rpm,voltage,current,roll,pitch,yaw,aileron1_pwm,elevator_pwm,throttle_pwm,rudder_pwm,aileron2_pwm,pbaro,pdiff,Tt,sample_start_time,sample_end_time,uid
0.0062084378698001,0.11886263200292,0.004674423318212,-0.0755189296839236,-0.1109382320642401,0.1183969490179396,-0.2254003818521265,-0.2503966045561175,-13.257996974230926,17.46580208430054,22.49884373195718,0.549334331286104,0.3501278356315191,0.4946651898701987,-1.0,12.053333333333336,0.04,179.10361098228384,-3.905547132825327,92.69734666055372,1525.0,1435.0,1000.0,1528.0,1475.0,1021.47,61.0,292.85,1637225938.330336,1637225939.373103,d0f2ffb8-bece-47ab-b58b-efb63ae31618
-0.0001270424020564,0.1189606993611301,0.0056057893222412,-0.0771784048052406,-0.1103131210882653,0.1182375210789257,-0.2251932898589496,-0.2451267159487506,-13.326836885670636,17.510396575448755,22.276954333048323,0.5529914200872557,0.3532135968022593,0.4918672733471762,-1.0,12.053444444444445,0.04,179.12500009912472,-3.920990617425549,93.1229805234218,1525.0,1435.0,1000.0,1528.0,1475.0,1021.47,61.0,292.85,1637225939.4823942,1637225940.5849514,d0f2ffb8-bece-47ab-b58b-efb63ae31618
0.0040673917961048,0.1175274914970915,0.0025947378311599,-0.0752718437617116,-0.1123511691300834,0.1183164132498777,-0.2275074606540064,-0.2570262874522992,-13.306021892036153,17.45513997855618,22.318142266103088,0.5483687771388783,0.3468992647128762,0.5019810745239639,-1.0,12.053555555555556,0.04,179.1532102982167,-3.924125294799631,93.5203275372972,1525.0,1435.0,1000.0,1528.0,1475.0,1021.47,61.0,292.85,1637225940.6932151,1637225941.71729,d0f2ffb8-bece-47ab-b58b-efb63ae31618
0.146665001654635,0.3821318411527927,0.0226070537857602,-0.1994744373434357,-0.1565044941979317,-0.0244258335491148,-0.2682815726345624,-0.2915416196534032,-12.93000783160758,17.0436944365309,22.547088963168008,0.5062732394869126,1.351189664104223,0.6245770208737218,-1.0,12.045111111111108,0.04,179.13485833882677,-3.955571770329585,94.27309331046304,1644.0,1435.0,1000.0,1528.0,1569.0,1021.47,61.0,292.85,1637225943.290643,1637225944.5879946,07129d8e-b978-4033-b526-7798b0471ffb
0.147125206013263,0.3808827151049303,0.0223572285564964,-0.1980675267019539,-0.1550844348915606,-0.0255040266643518,-0.2684393570104771,-0.2939872775059934,-13.036134496770009,16.96392903947378,22.40403955541894,0.5000593114362385,1.3483332525314782,0.622825992617849,-1.0,12.047555555555554,0.04,179.17395737727554,-3.975519432664346,94.50151608578568,1644.0,1435.0,1000.0,1528.0,1569.0,1021.47,61.0,292.85,1637225944.6970117,1637225945.8175304,07129d8e-b978-4033-b526-7798b0471ffb
0.1466118590013546,0.3829870542059291,0.0240824470908352,-0.1992262556626723,-0.1543700223422334,-0.0254717027840919,-0.2668461731123563,-0.2914451960847458,-12.984243259092034,16.98283224610648,22.562240983714503,0.5030083111118843,1.3547087494742698,0.6177290448575583,-1.0,12.045666666666667,0.04,179.2057769518889,-3.970396648491229,94.68615886634834,1644.0,1435.0,1000.0,1528.0,1569.0,1021.47,61.0,292.85,1637225945.9268076,1637225947.2502468,07129d8e-b978-4033-b526-7798b0471ffb
0.2921925736139537,0.6400303460629595,0.0468050379112838,-0.3284122129170866,-0.196829357689395,-0.1597390737352933,-0.3043199626447438,-0.3336306029199433,-12.695372697287215,16.81520099247522,22.31139475919635,0.4928290789736833,2.336299268492468,0.7278280605943636,-1.0,12.039888888888887,0.0322222222222222,179.18658260250135,-3.997658305062211,95.0071246336454,1763.0,1435.0,1000.0,1528.0,1663.0,1021.47,61.0,292.85,1637225949.2774932,1637225950.5232737,f77babba-f74b-4f0f-a7ff-729944bef8c9
0.285851067379502,0.6371540690394147,0.0435041672885327,-0.3259742251083499,-0.1985551242336876,-0.1583831143306885,-0.3069770954070772,-0.3349317764141152,-12.745994735147184,16.77398016344795,22.40043655839727,0.4899276903780286,2.324570470855967,0.7382417067945756,-1.0,12.040333333333333,0.04,179.21418263802744,-3.9997553628648825,95.014451908805,1763.0,1435.0,1000.0,1528.0,1663.0,1021.47,61.0,292.85,1637225950.631532,1637225951.6437776,f77babba-f74b-4f0f-a7ff-729944bef8c9
0.2880288200746143,0.6354283028251803,0.0440794227599787,-0.3255222386041621,-0.1980620480677043,-0.1581228797075149,-0.3059909430282465,-0.3230294650252254,-12.69774022621626,16.79417257564346,22.26181079938832,0.4896575956724368,2.31896606271483,0.735006995793356,-1.0,12.038777777777776,0.03,179.23625477378533,-3.995239279731165,95.00892932140609,1763.0,1435.0,1000.0,1528.0,1663.0,1021.47,61.0,292.85,1637225951.752637,1637225952.780054,f77babba-f74b-4f0f-a7ff-729944bef8c9
0.313272123808379,0.6874182427142947,0.0623029678900246,-0.3704601072410842,-0.2014861880643018,-0.1759908636993969,-0.3024813363473437,-0.3241635400020866,-12.625538040775805,17.389635299304427,21.15761965381857,0.5555898071844126,2.529933523585484,0.7139786763214317,-1.0,12.024333333333336,0.03,179.24362378898988,-4.009036736173282,94.97783526466456,1881.0,1435.0,1000.0,1528.0,1757.0,1021.47,61.0,292.85,1637225954.9193032,1637225956.0561876,cd498f88-930a-438a-8ad4-0e4b3ea9c82b
0.3172435776850123,0.6883381034985145,0.0650351573638965,-0.3703236895125538,-0.1983633724170188,-0.1779828914005103,-0.2991426627689368,-0.3299736211580269,-12.58810141873358,17.296599252825185,21.044783655019515,0.550325885520727,2.534273488670693,0.7012651719140491,-1.0,12.025,0.03,179.27119498593947,-4.006059010854504,94.82403078820452,1881.0,1435.0,1000.0,1528.0,1757.0,1021.47,61.0,292.85,1637225956.165233,1637225957.285064,cd498f88-930a-438a-8ad4-0e4b3ea9c82b
0.3295156933482475,0.7021990194439994,0.0658980405636388,-0.3713509316326519,-0.2009794153657067,-0.1891866773738937,-0.3035255621309815,-0.3251387356263139,-12.57996035641033,17.37256203360512,21.23366821047576,0.5280474285998286,2.58471111731002,0.7118015140344737,-1.0,12.026111111111112,0.03,179.27943371189835,-4.016215170127229,94.68786793146066,1881.0,1435.0,1000.0,1528.0,1757.0,1021.47,61.0,292.85,1637225957.3940938,1637225958.5149171,cd498f88-930a-438a-8ad4-0e4b3ea9c82b
0.369561688481957,0.7888341271510497,0.077897321533565,-0.3937333040703893,-0.2134515028779308,-0.2548041573604859,-0.3211524878970735,-0.3427295021474846,-12.380356465213206,17.810253391723982,21.015196484899512,0.4346499810242182,2.913692869540742,0.7474680160481162,-1.0,12.008555555555557,0.04,179.27186282665832,-4.015605860335019,94.48387598388923,2000.0,1435.0,1000.0,1528.0,1852.0,1021.47,61.0,292.85,1637225959.4248524,1637225960.450473,a0afc227-3ce1-4452-8179-a8c865e6630a
0.3876164906286645,0.8077036002461376,0.0824434832363127,-0.3997165098720084,-0.2131419606112187,-0.2660106829922016,-0.3209338907638048,-0.3453959486041249,-12.332715708870245,17.76372938063236,21.285685300294475,0.4229491218404452,2.9827544151744902,0.7432029118754052,-1.0,12.006666666666668,0.04,179.27919541418728,-4.026638370823752,94.2244881665094,2000.0,1435.0,1000.0,1528.0,1852.0,1021.47,61.0,292.85,1637225960.5587642,1637225961.679177,a0afc227-3ce1-4452-8179-a8c865e6630a
0.3955040641643987,0.8214823369268988,0.0824467703902924,-0.4017145642584866,-0.2173172200027436,-0.2772621334662934,-0.3263330750683023,-0.350184814122803,-12.283305339038163,17.88289517638908,21.321392985748144,0.4029934235461068,3.0340150969858324,0.758258291363571,-1.0,12.006999999999998,0.04,179.2633144654571,-4.015762575230976,94.0030754420049,2000.0,1435.0,1000.0,1528.0,1852.0,1021.47,61.0,292.85,1637225961.7875297,1637225963.020955,a0afc227-3ce1-4452-8179-a8c865e6630a
-0.168522403590159,-0.1879167322276869,-0.0127103449045039,0.0829069747732253,-0.0579024152826444,0.2669098237065573,-0.1809347738942974,-0.208086834461599,-13.57303488563408,18.48959039709476,21.712646304590955,0.5313298291333031,-0.8118738502751442,0.3453356924904243,-1.0,12.048666666666668,0.04,179.50326811791854,-4.0217518447913,93.65413777332692,1406.0,1435.0,1000.0,1528.0,1381.0,1021.47,61.0,292.85,1637225964.9552996,1637225966.088309,1f7fd1e1-a76b-4642-b7eb-9d8ed6c7b9bd
-0.1592131259092438,-0.1831832011417147,-0.0107117430275797,0.0815921051636539,-0.0572318317446088,0.2638067315736496,-0.1797908372095321,-0.2050889313244525,-13.510807747006623,18.4778622395868,21.770600871198013,0.5273851219802915,-0.7947859185992999,0.3407605960585191,-1.0,12.048777777777778,0.04,179.49426441077264,-4.021658925759467,93.79925576698255,1406.0,1435.0,1000.0,1528.0,1381.0,1021.47,61.0,292.85,1637225966.196282,1637225967.20902,1f7fd1e1-a76b-4642-b7eb-9d8ed6c7b9bd
-0.1690527344063034,-0.1878444143910478,-0.010131556792109,0.084100766807955,-0.0557137051332622,0.265429499737852,-0.1783253053106162,-0.2032804378572438,-13.499756092054254,18.496867377418784,21.688064102391184,0.5255200557161378,-0.8118867687910477,0.3351568965563126,-1.0,12.049,0.04,179.47848819160973,-4.008282569452427,93.89631806745778,1406.0,1435.0,1000.0,1528.0,1381.0,1021.47,61.0,292.85,1637225967.3176515,1637225968.438079,1f7fd1e1-a76b-4642-b7eb-9d8ed6c7b9bd
-0.3279328333600179,-0.4729794178447933,-0.0252525578420802,0.2210663487355512,-0.0087755974664802,0.4159135784294693,-0.135605735684596,-0.1489598815745048,-13.836415423774076,19.71612416719825,21.387135783200915,0.5618293176474071,-1.8940677880638928,0.196552810932471,-1.0,12.038222222222222,0.03,179.51677064299778,-3.985998840125914,94.04613978472184,1287.0,1435.0,1000.0,1528.0,1287.0,1021.47,61.0,292.85,1637225970.3720734,1637225971.4168825,a82cabf7-21e4-4512-a6b2-4d2f61c26c78
-0.3261385839066626,-0.4774444970370218,-0.0287999666192524,0.2227510253796363,-0.0105287570080134,0.4195431661610828,-0.1379478473761156,-0.170778501149541,-13.90605195733639,19.685827557927087,21.47970721899001,0.565787494157643,-1.9115749581789043,0.2066796502611527,-1.0,12.038666666666664,0.0366666666666666,179.5211176789495,-3.984274454519833,93.98062309238324,1287.0,1435.0,1000.0,1528.0,1287.0,1021.47,61.0,292.85,1637225971.5245,1637225972.5890243,a82cabf7-21e4-4512-a6b2-4d2f61c26c78
-0.3305762695695453,-0.474157322168918,-0.0291834702717667,0.2224633976588592,-0.0121175578365613,0.4165984063080764,-0.1390298755881169,-0.1610676407101351,-13.810636478985288,19.69189557697796,21.475082693792245,0.5598874655015421,-1.8998691901357545,0.2113599297194174,-1.0,12.038888888888888,0.03,179.51150077259814,-3.980751262704837,93.9164056538068,1287.0,1435.0,1000.0,1528.0,1287.0,1021.47,61.0,292.85,1637225972.6971257,1637225973.8742554,a82cabf7-21e4-4512-a6b2-4d2f61c26c78
-0.4095643375283604,-0.6113831819080825,-0.0363056809589028,0.2968357067108554,0.008797087496882,0.4849853174716003,-0.1239088738805412,-0.1459055487270796,-14.081315238147852,20.668891469256085,21.83859350784574,0.5518399563525006,-2.425447350314021,0.155022890000706,-1.0,12.018444444444444,0.03,179.55699590374968,-3.991476082657834,93.78626930064064,1169.0,1435.0,1000.0,1528.0,1193.0,1021.47,61.0,292.85,1637225974.9898338,1637225976.0148838,6bb50157-90f8-4c99-8e17-883309488034
-0.410129731557775,-0.6129484251357024,-0.0354049952390846,0.3012805136025729,0.0100106026081508,0.481575422545126,-0.1233566285949413,-0.1476291237367964,-14.007117111716637,20.67996162946628,21.72280812093341,0.53428819794423,-2.4313068816636267,0.1510896430954522,-1.0,12.02077777777778,0.03,179.5724215065352,-3.990564821586068,93.56209869753128,1169.0,1435.0,1000.0,1528.0,1193.0,1021.47,61.0,292.85,1637225976.1234958,1637225977.3571024,6bb50157-90f8-4c99-8e17-883309488034
-0.4056471209301346,-0.6135883285692297,-0.0341416246295557,0.3028347989624358,0.0120020822688539,0.4798628049999628,-0.1212106516662515,-0.1552602990665235,-13.94607991830221,20.592081861613167,21.607604843765035,0.5264263330010902,-2.433230636327691,0.1434521166351619,-1.0,12.018444444444444,0.03,179.58633536078443,-3.988538152677344,93.31433965666832,1169.0,1435.0,1000.0,1528.0,1193.0,1021.47,61.0,292.85,1637225977.465079,1637225978.6162193,6bb50157-90f8-4c99-8e17-883309488034
-0.4340263963596078,-0.6795235849977894,-0.0232802533857484,0.3340766469606429,0.0345877075812298,0.508872113453942,-0.10370644875167,-0.1326472791529993,-14.368215298386325,21.312423480761822,20.74041428033698,0.5261054957053252,-2.6730000483491136,0.0634439903904194,-1.0,11.981666666666666,0.1455555555555555,179.60444750464345,-3.990903200541199,93.00466419206931,1063.2222222222222,1435.0,1000.0,1528.0,1108.5555555555557,1021.47,61.0,292.85,1637225980.27318,1637225981.2478287,ccb0c406-a569-4b4f-8e52-95bccdcb446d
-0.4343688103636987,-0.6774006176195101,-0.0254717028251876,0.3296115692217625,0.0314238025203013,0.5087899341325506,-0.1059663810573165,-0.1318117891549972,-14.35149913723882,21.30802390774909,20.422956754846123,0.5358124742980962,-2.6619315789502127,0.0737416712315885,-1.0,11.981777777777776,0.1477777777777777,179.6355628108624,-4.001597284642931,92.57906448014712,1050.0,1435.0,1000.0,1528.0,1098.0,1021.47,61.0,292.85,1637225981.3564796,1637225982.4780877,ccb0c406-a569-4b4f-8e52-95bccdcb446d
-0.4419293123406957,-0.6759624784384441,-0.0278959937260816,0.3289404379254423,0.0292460497223577,0.5108033280668741,-0.109061803439318,-0.1304010433303908,-14.471333637441044,21.32318950336672,20.80061868716241,0.5418304480022805,-2.6591075309740675,0.0850304084633369,-1.0,11.98088888888889,0.14,179.6276610409026,-4.011164719554696,92.169445134153,1050.0,1435.0,1000.0,1528.0,1098.0,1021.47,61.0,292.85,1637225982.5869591,1637225983.7059896,ccb0c406-a569-4b4f-8e52-95bccdcb446d
-0.0044748780414402,0.1174929761674759,0.0021268633834276,-0.0723413279519857,-0.1134857921097812,0.1150275956637099,-0.2290025771573376,-0.2523552125311878,-13.223027053706366,17.521838703072074,22.22067684835193,0.534812937022438,0.3466568889178207,0.5062076819375481,-1.0,12.053,0.04,179.42971153401697,-3.9954152045341615,91.8415269931908,1525.0,1435.0,1000.0,1528.0,1475.0,1021.47,61.0,292.85,1637225984.270293,1637225985.343974,5e51d440-7a50-4b87-8e9d-f608b55ff416
-0.0048605731283728,0.1169358001781132,0.0007144742312495,-0.070367379837532,-0.113245280529979,0.1148188601161925,-0.2307814863872782,-0.2546595218561596,-13.368107612819385,17.46693004160404,22.360857773379315,0.5294061291406557,0.344018060309048,0.5104068055175963,-1.0,12.055,0.04,179.39038330477604,-3.976595472049838,92.22442436242208,1525.0,1435.0,1000.0,1528.0,1475.0,1021.47,61.0,292.85,1637225985.4511902,1637225986.5718849,5e51d440-7a50-4b87-8e9d-f608b55ff416
-0.001455060726419,0.1165018932100827,0.003028644813174,-0.072024115634069,-0.1122065334639874,0.1169752462623972,-0.2282832338212677,-0.2558692020499538,-13.30678740612678,17.55392258381697,22.40721760730178,0.5387191781645817,0.3418979110273704,0.502286082475727,-1.0,12.052111111111111,0.04,179.3460842156391,-3.962476474966168,92.57952589737104,1525.0,1435.0,1000.0,1528.0,1475.0,1021.47,61.0,292.85,1637225986.6803389,1637225987.6929426,5e51d440-7a50-4b87-8e9d-f608b55ff416
0.0135087036765084,0.1163561618316965,-0.0110629227997652,-0.2651614962094962,-0.1440976026231229,0.3036291993492655,-0.1882142215101357,-0.2124571334095496,-13.280750439207084,16.957472466533318,23.744897558470143,1.3893968792328055,0.3521871226496276,0.5083200954657302,-1.0,12.051,0.04,179.3095411857597,-3.9224461591968,92.91564633661652,1525.0,1535.0,1000.0,1528.0,1475.0,1021.47,61.0,292.85,1637225988.3057327,1637225989.3269958,27243577-89b4-44f5-b651-b1cff36da8d1
0.0027706016090288,0.1190817769365077,-0.0118162335352673,-0.2665859384826372,-0.1466999489431079,0.3024375988286286,-0.1906659057255176,-0.2119640570139832,-13.2614546350378,17.078179396693958,23.75478529749766,1.3907063466933742,0.3623153012721095,0.5166773161265106,-1.0,12.051,0.04,179.30885816684273,-3.902852907788972,93.0630008377704,1525.0,1535.0,1000.0,1528.0,1475.0,1021.47,61.0,292.85,1637225989.4347656,1637225990.4630184,27243577-89b4-44f5-b651-b1cff36da8d1
0.0091531979980516,0.1175614589605063,-0.0101178602335444,-0.268462367237745,-0.1447687340367443,0.3050810344713554,-0.1884881527018467,-0.2094301931920247,-13.326613202535624,17.091301917070478,23.688325715937008,1.401007428303494,0.358002309337073,0.5082861061681831,-1.0,12.050555555555556,0.04,179.30987358829938,-3.887311713538123,93.19606658318058,1525.0,1535.0,1000.0,1528.0,1475.0,1021.47,61.0,292.85,1637225990.571324,1637225991.6933644,27243577-89b4-44f5-b651-b1cff36da8d1
0.0205295597260106,0.1170146923547414,-0.0212175515712261,-0.4627771228560161,-0.1776607482227449,0.4944611437206921,-0.1481550714355197,-0.1664054635677868,-13.245287995924349,16.895262744530122,25.210876108323017,2.263327684012592,0.3650989961817181,0.511305430976946,-1.0,12.04811111111111,0.04,179.30208261918608,-3.825533885723959,93.54424078849132,1525.0,1636.0,1000.0,1528.0,1475.0,1021.47,61.0,292.85,1637225993.8322132,1637225994.7893777,f8a3cb62-775a-4f0e-b62f-22cd2ed3f086
0.0210692041274691,0.1163424652697576,-0.0204724587704135,-0.4617893268172765,-0.1763119110192634,0.4961754048365853,-0.1464808039963567,-0.1656422917266542,-13.233491837528897,16.849823049344973,25.49986896844804,2.264739512216269,0.3598577546129404,0.5064306414681766,-1.0,12.047333333333333,0.04,179.32074269599855,-3.810858465382279,93.59640901446198,1525.0,1636.0,1000.0,1528.0,1475.0,1021.47,61.0,292.85,1637225994.9021676,1637225995.9946816,f8a3cb62-775a-4f0e-b62f-22cd2ed3f086
0.007427431591407,0.1148632369734536,-0.0245129436541355,-0.4615290921528105,-0.1796127819281074,0.4964219428710034,-0.1506308615557336,-0.1777226568971281,-13.290508578191853,16.845545186905323,25.331863394701003,2.264421460978825,0.3559140705705759,0.5218911908086399,-1.0,12.047444444444444,0.04,179.33499198842702,-3.804561979604912,93.63490016607464,1525.0,1636.0,1000.0,1528.0,1475.0,1021.47,61.0,292.85,1637225996.1024897,1637225997.2221725,f8a3cb62-775a-4f0e-b62f-22cd2ed3f086
0.0267532760072118,0.1172464381188227,-0.0230063221762394,-0.5756899389085137,-0.1954186120091808,0.6048301939052686,-0.1230185974990675,-0.1414952565294314,-13.178485135491902,17.11626258723451,26.23841754450777,2.767618714441644,0.3701806295806828,0.5025848738250492,-1.0,12.045555555555556,0.04,179.32642237774837,-3.777672615775564,93.67990504142576,1525.0,1725.7777777777778,1000.0,1528.0,1475.0,1021.47,61.0,292.85,1637225997.7703114,1637225998.8609009,e377339f-7d0c-454e-b14e-4b22b59e43d1
0.0235143138014886,0.1180271419450492,-0.0245704692178497,-0.5857700613610934,-0.1972391587649285,0.6144561343465742,-0.1217524875653933,-0.1512187182323229,-13.236433551634294,17.031553185640025,26.39611546961732,2.8113443097655044,0.3732616991360347,0.5056167005405168,-1.0,12.045,0.04,179.3275592247902,-3.788345782422962,93.65659664142812,1525.0,1737.0,1000.0,1528.0,1475.0,1021.47,61.0,292.85,1637225998.9706776,1637226000.09066,e377339f-7d0c-454e-b14e-4b22b59e43d1
0.0260914582969152,0.1236942299121183,-0.0217303507493512,-0.5804448377313662,-0.1963450473300646,0.6022541454112037,-0.1224493684929758,-0.1435924737327553,-13.088398184049211,17.10305974149488,26.154718119364084,2.7725638932067507,0.3951340773188548,0.5019858219764141,-1.0,12.045222222222224,0.04,179.3422213642085,-3.783521297275472,93.6462026113312,1525.0,1737.0,1000.0,1528.0,1475.0,1021.47,61.0,292.85,1637226000.2004993,1637226001.3140242,e377339f-7d0c-454e-b14e-4b22b59e43d1
0.0242900868861484,0.1191842271902102,-0.021717202056413,-0.6252819067894835,-0.2043394554469499,0.648945161245885,-0.1134293623093697,-0.1273143868376957,-13.09984560642279,17.492510216811432,26.32468097023053,2.9812299824163504,0.3823213119090954,0.4991470328877757,-1.0,12.041,0.04,179.3268807593327,-3.789286261526178,93.65818959332456,1525.0,1837.0,1000.0,1528.0,1475.0,1021.47,61.0,292.85,1637226003.3438551,1637226004.390128,321cf362-0719-4545-8941-ea2aa22dc325
0.023908774690205,0.1157129714456456,-0.0230320717249251,-0.6052564355186013,-0.2020910281695295,0.6336532290018798,-0.1172161870771058,-0.14375025800154,-13.032510520957642,17.404134446480885,26.26982563863102,2.9010682370528094,0.3667611739405834,0.50303009173792,-1.0,12.041,0.03,179.34111032010355,-3.7783998886265615,93.62445377119404,1525.0,1837.0,1000.0,1528.0,1475.0,1021.47,61.0,292.85,1637226004.4978056,1637226005.619438,321cf362-0719-4545-8941-ea2aa22dc325
0.0201378381354214,0.1125348220468736,-0.0269098414967779,-0.6190121679481835,-0.2054992801430373,0.6491522531926857,-0.1177454221216182,-0.1380985097823382,-13.262271695614515,17.37758079562246,26.214371638838287,2.966432566043622,0.3584062067404693,0.5129784387951779,-1.0,12.042777777777776,0.0311111111111111,179.35179121814562,-3.754097838400311,93.60371579905409,1525.0,1837.0,1000.0,1528.0,1475.0,1021.47,61.0,292.85,1637226005.728051,1637226006.846648,321cf362-0719-4545-8941-ea2aa22dc325
-0.0134324275206019,0.1212869228251955,0.0193023480912724,0.1322167763347102,-0.0795183249785865,-0.08801019171803,-0.2733657358636758,-0.2996631325037957,-13.35673792660168,18.359588263460875,20.55030436579634,-0.3767978536818985,0.3525548982806344,0.4991537770729291,-1.0,12.051333333333334,0.04,179.3347263699593,-4.02951060766535,93.56208276042322,1525.0,1334.0,1000.0,1528.0,1475.0,1021.47,61.0,292.85,1637226007.8500593,1637226008.895481,8956ae64-2b10-4af4-8cfa-a1564ee6654c
-0.0072963691549203,0.1240810207164446,0.0249453302925634,0.1338055770873288,-0.0746423498911488,-0.0924067872630161,-0.2683117050709179,-0.2857337302738431,-13.266882422737694,18.338183388044417,20.56341952032407,-0.3900751272161198,0.3624440063084771,0.478066791586929,-1.0,12.052,0.04,179.32400752642184,-4.023633704203245,93.73321315007787,1525.0,1334.0,1000.0,1528.0,1475.0,1021.47,61.0,292.85,1637226009.004001,1637226010.1259334,8956ae64-2b10-4af4-8cfa-a1564ee6654c
-0.011461218778798,0.1237073786092828,0.0207004928117881,0.1317938266166045,-0.0783091927244047,-0.0909187930476142,-0.2715161523352022,-0.2930405714088944,-13.266820835535787,18.264930581023656,20.431837393475945,-0.3829112995791149,0.362185741566934,0.4931914673963867,-1.0,12.053333333333333,0.04,179.31763116537664,-4.020590949791743,93.87359099244952,1525.0,1334.0,1000.0,1528.0,1475.0,1021.47,61.0,292.85,1637226010.23399,1637226011.353032,8956ae64-2b10-4af4-8cfa-a1564ee6654c
-0.0095426047983085,0.1273818912640394,0.040381351919512,0.3478279909189561,-0.0418116976756154,-0.3040186383002055,-0.3167290466066038,-0.3377532677138067,-13.340908830331829,19.21724143136896,18.82134002469164,-1.342096308943245,0.3654309547473788,0.4806516121843929,-1.0,12.051333333333334,0.04,179.27998923395086,-4.058772039275201,94.12333306490152,1525.0,1234.0,1000.0,1528.0,1475.0,1021.47,61.0,292.85,1637226013.3794606,1637226014.5167797,c23c1f22-fb24-41f7-8497-22368f3676e0
-0.0076480967782567,0.1341605918814097,0.0405287268918231,0.3453812378644323,-0.0429917932008194,-0.3083062096527797,-0.3184701534029442,-0.3476997102179253,-13.365832781054417,19.20278810604334,18.82990691728466,-1.346311433845093,0.3912660262609159,0.4853363766932024,-1.0,12.048222222222222,0.04,179.29816664406195,-4.078885618288549,94.21089305442143,1525.0,1234.0,1000.0,1528.0,1475.0,1021.47,61.0,292.85,1637226014.6242352,1637226015.8587685,c23c1f22-fb24-41f7-8497-22368f3676e0
-0.0111451021934836,0.1270942635409532,0.0391075719706136,0.3501290126005793,-0.0428389395981732,-0.3068675229076849,-0.3187835307018289,-0.3430401401554254,-13.33806975887075,19.227339016281203,18.664643267548623,-1.353708711085725,0.3653569964368054,0.4864744095228024,-1.0,12.047333333333333,0.04,179.3075467705221,-4.070853363256483,94.2637071127236,1525.0,1234.0,1000.0,1528.0,1475.0,1021.47,61.0,292.85,1637226015.9678257,1637226016.9749174,c23c1f22-fb24-41f7-8497-22368f3676e0
-0.0210751074012153,0.129888361428172,0.0447231609921543,0.4352942071644843,-0.03275827218436,-0.3898412894489573,-0.3424100981223447,-0.3738163127978184,-13.497701804805134,19.90350896323218,18.33055829864615,-1.7276452353545342,0.3698091928166649,0.4989531858200358,-1.0,12.047555555555554,0.04,179.30531709321303,-4.106637530659957,94.3387079021797,1525.0,1133.0,1000.0,1528.0,1475.0,1021.47,61.0,292.85,1637226018.8172257,1637226019.841755,8041be3e-5153-46b3-9e5b-3997d7370c66
-0.0181303472331067,0.128956995463573,0.0475720451941179,0.4418411616288645,-0.0295943670504668,-0.3960321350850569,-0.3410952282846528,-0.359092509628822,-13.45720942294132,19.943333546608816,18.19319658491736,-1.7559208734023872,0.3666220517029228,0.4886513402927724,-1.0,12.047,0.04,179.31809865387984,-4.102305483178877,94.35976841103049,1525.0,1133.0,1000.0,1528.0,1475.0,1021.47,61.0,292.85,1637226019.9508076,1637226020.977354,8041be3e-5153-46b3-9e5b-3997d7370c66
-0.0147472971732096,0.1255054627786814,0.0478459763605592,0.4469910672358317,-0.0290191115775065,-0.3990453784553985,-0.3418074494491319,-0.3646807065408253,-13.427667861439623,20.032075457473933,17.955453797592675,-1.7737300652189638,0.3549595332073803,0.4877849159921224,-1.0,12.04577777777778,0.0377777777777777,179.33380353551144,-4.107769349923672,94.38555237514728,1525.0,1133.0,1000.0,1528.0,1475.0,1021.47,61.0,292.85,1637226021.0865457,1637226022.2082384,8041be3e-5153-46b3-9e5b-3997d7370c66
-0.0151034077126577,0.1277106086614342,0.0491471494395218,0.4791231909106194,-0.0268961449292274,-0.4310542424468201,-0.3516004905014525,-0.3837600165599927,-13.395268780680397,20.30788377832037,17.882400692779452,-1.916242634897389,0.3597793388654928,0.4974179063413073,-1.0,12.041000000000002,0.04,179.33309167801795,-4.123381359955291,94.38081753623264,1525.0,1033.0,1000.0,1528.0,1475.0,1021.47,61.0,292.85,1637226023.7881677,1637226024.756821,7ce878d8-3d6d-44bc-b6b6-9fed7dde8d59
-0.0275026285804045,0.1292561282993013,0.0493909481625272,0.467953374428029,-0.0282126581916596,-0.4215165048929108,-0.3491329181081937,-0.3729057655722118,-13.411378429224849,20.30755914557829,18.001815551045134,-1.8695927819987743,0.366022319952475,0.4956117847280044,-1.0,12.041,0.04,179.33739317937523,-4.129473651535595,94.35894802942016,1525.0,1033.0,1000.0,1528.0,1475.0,1021.47,61.0,292.85,1637226024.865755,1637226026.1044283,7ce878d8-3d6d-44bc-b6b6-9fed7dde8d59
-0.0207737831005918,0.1286556711819248,0.0502154810021027,0.4757675343449549,-0.0273481313835578,-0.425452348804433,-0.3507650002909184,-0.3766788945714348,-13.432510428979104,20.437131311513983,18.376795439741628,-1.8951148366573307,0.359688748598671,0.4960908552604643,-1.0,12.044555555555554,0.04,179.344274974419,-4.142439342718786,94.3305708701485,1525.0,1033.0,1000.0,1528.0,1475.0,1021.47,61.0,292.85,1637226026.2125912,1637226027.3278365,7ce878d8-3d6d-44bc-b6b6-9fed7dde8d59
0.0073151198301122,0.1183690080424949,0.0051587336412512,-0.0661466481604976,-0.1094584557829083,0.1094541921518229,-0.2278230293992351,-0.2521875666603092,-13.297468543891911,17.513047330039814,22.37793195331864,0.5083953584999757,0.3485050292502926,0.495243766047771,-1.0,12.05277777777778,0.04,179.34586868522533,-4.002210958167108,94.29713481743156,1525.0,1435.0,1000.0,1528.0,1475.0,1021.47,61.0,292.85,1637226028.3303516,1637226029.3770845,ae1a50f5-1538-4dc4-9c0f-e3723adbe9de
0.0081533492268021,0.1179175694794896,0.0041813472046341,-0.0679036427738379,-0.1104999421589561,0.1119184769233955,-0.2284821078708089,-0.2578749265888458,-13.330276864565178,17.528714701743496,22.4290249140324,0.5179431080210238,0.3467458620369911,0.4989056394382916,-1.0,12.053444444444445,0.04,179.34409131822133,-3.988633158711425,94.32534501652351,1525.0,1435.0,1000.0,1528.0,1475.0,1021.47,61.0,292.85,1637226029.485061,1637226030.6040754,ae1a50f5-1538-4dc4-9c0f-e3723adbe9de
0.0087220303494631,0.1241675829616734,0.0060396963047387,-0.0701701493851585,-0.110773325484216,0.1063773972760497,-0.2277704346087283,-0.254869901114137,-13.194220809072872,17.515453068790745,22.224635445893,0.5106447725154964,0.3714323799478443,0.4962802880405961,-1.0,12.051333333333332,0.04,179.35602441761122,-3.971499676610316,94.3559753793114,1525.0,1435.0,1000.0,1528.0,1475.0,1021.47,61.0,292.85,1637226030.7119474,1637226031.8332756,ae1a50f5-1538-4dc4-9c0f-e3723adbe9de
0.0286949001612917,0.1296768865697608,0.0787782841964673,-0.0752192489666488,-0.0439779454493123,0.1021172197605898,-0.1518235579705417,-0.1774898156391736,-12.749656927475874,17.517057856989645,22.29547711643504,0.5163287255269718,0.393554154350932,0.1990522003124888,-1.0,12.053,0.04,179.32758654554692,-3.974101172342314,94.36879868002316,1525.0,1435.0,1000.0,1439.0,1475.0,1021.47,61.0,292.85,1637226033.9726784,1637226034.9948766,94af9508-5e6f-4017-9358-dd86e305d684
0.0311635679011287,0.1335042528124282,0.0822380348709539,-0.0791485178789032,-0.0411405662740163,0.1010981958184714,-0.1481928739403731,-0.1697512591751523,-12.752289818490778,17.441801942848628,22.197646207652287,0.5225587824517669,0.4094966431699132,0.1856219686576085,-1.0,12.051,0.04,179.3383934226337,-3.974859418203924,94.36981182475004,1525.0,1435.0,1000.0,1439.0,1475.0,1021.47,61.0,292.85,1637226035.1030848,1637226036.1439316,94af9508-5e6f-4017-9358-dd86e305d684
0.0217677285993146,0.1304773134335332,0.0787043227797335,-0.0777377722832195,-0.0436744297002721,0.1036731487868363,-0.1513567792228948,-0.1845161506530935,-12.810063525749507,17.459271032243308,22.30099653388984,0.5250899914166759,0.3972392816812382,0.1981390516994269,-1.0,12.050666666666668,0.04,179.34665795152944,-3.974093867834452,94.37116192547596,1525.0,1435.0,1000.0,1439.0,1475.0,1021.47,61.0,292.85,1637226036.2778378,1637226037.3698225,94af9508-5e6f-4017-9358-dd86e305d684
0.054803828110316,0.1480499976572492,0.1691153041153777,-0.084229941371197,0.0369983019389566,0.0867442025947248,-0.0604938042643105,-0.0769159789685018,-12.172333545582404,17.441006020792393,22.18706416681844,0.5063767696523865,0.4661742046145424,-0.1619876034959046,-1.0,12.049666666666669,0.04,179.3482455910565,-3.982292561295667,94.31703495303331,1525.0,1435.0,1000.0,1351.0,1475.0,1021.47,61.0,292.85,1637226038.3656447,1637226039.6160605,b6c6361c-1786-443c-a9c6-08a957bef84e
0.0573459093782065,0.1459286747198009,0.168794256789955,-0.0860932212882176,0.0362159545053668,0.0899941219797559,-0.0593619206234654,-0.0798212930140846,-12.080387635843907,17.45818422835069,22.11214397974144,0.5180151063515481,0.4584405473093075,-0.1624173925897808,-1.0,12.049444444444443,0.04,179.3561078977011,-3.973495704531514,94.31987099935871,1525.0,1435.0,1000.0,1351.0,1475.0,1021.47,61.0,292.85,1637226039.7246048,1637226040.8460407,b6c6361c-1786-443c-a9c6-08a957bef84e
0.0569541878052841,0.1467214315096434,0.1727585885666491,-0.0863939977262851,0.0398745792456226,0.0898396248088924,-0.0553575946163488,-0.0850928248340992,-12.0725912737175,17.456035910254613,22.191847360015533,0.518546193998657,0.4609405905589785,-0.1782936644611032,-1.0,12.049888888888889,0.04,179.35509854752374,-3.973015409423628,94.32480011920974,1525.0,1435.0,1000.0,1351.0,1475.0,1021.47,61.0,292.85,1637226040.9540255,1637226042.0737638,b6c6361c-1786-443c-a9c6-08a957bef84e
0.0819471199263579,0.1600109279831958,0.2615714533334626,-0.0876842136323265,0.1191973758833131,0.0708364717014068,0.0333495386971883,0.0050535439026804,-11.365025989031889,17.532837185357657,21.85157187915684,0.4839873237263532,0.5145825798760656,-0.5321158628473767,-1.0,12.050000000000002,0.04,179.33258624401938,-3.980596255356173,94.29433368096196,1525.0,1435.0,1000.0,1262.0,1475.0,1021.47,61.0,292.85,1637226043.8030226,1637226044.829003,d1513c50-4fbc-4e63-9d9b-c3dae656256c
0.0861826436665698,0.1639927913708514,0.2652377479326092,-0.0885717506603042,0.1214649780781592,0.0715821123606615,0.0363545636752472,0.0096873637118891,-11.343779661847051,17.576328064580434,22.420726432503432,0.4882372286084394,0.5246646457143425,-0.5432067226125112,-1.0,12.049666666666669,0.04,179.3422168107491,-3.9803069683857015,94.28565706398628,1525.0,1435.0,1000.0,1262.0,1475.0,1021.47,61.0,292.85,1637226044.9368744,1637226045.9640706,d1513c50-4fbc-4e63-9d9b-c3dae656256c
0.0981068674510156,0.1685049854830057,0.273221197547621,-0.0911423209103757,0.1286644369787747,0.0698766168944871,0.0447889044832381,0.0295758627936895,-11.294376788565604,17.48163073241909,22.53429791922257,0.4900160638002988,0.5410528687606212,-0.5751466370203687,-1.0,12.051777777777776,0.04,179.3514679225249,-3.973404445615104,94.28135632153892,1525.0,1435.0,1000.0,1262.0,1475.0,1021.47,61.0,292.85,1637226046.072026,1637226047.2924604,d1513c50-4fbc-4e63-9d9b-c3dae656256c
0.1162191962177262,0.1785111429803222,0.3505536058749119,-0.0740807909722592,0.1989190144742215,0.0397787033434655,0.1141921055834653,0.0904833627518106,-10.94041492367562,17.854173992564426,22.441465691975008,0.3903790511897219,0.5797076985853067,-0.8737398199373198,-1.0,12.047000000000002,0.04,179.3316801055895,-3.974647445180308,94.2559009654122,1525.0,1435.0,1000.0,1173.0,1475.0,1021.47,61.0,292.85,1637226049.332752,1637226050.3582544,f222a948-bd2b-4263-8a94-9d46496d527c
0.1146873731206834,0.1782218716714516,0.3526656150604897,-0.0737334462400207,0.2005615057167741,0.0397792511992001,0.1165413392799162,0.1005525245869099,-10.87822234558065,17.874977181962823,22.463300720894548,0.3898746152814747,0.5780805255699256,-0.8821668667900247,-1.0,12.0475,0.04,179.345105980768,-3.972839294893154,94.20429812732284,1525.0,1435.0,1000.0,1173.0,1475.0,1021.47,61.0,292.85,1637226050.4673202,1637226051.588631,f222a948-bd2b-4263-8a94-9d46496d527c
0.1146577885524444,0.1776619563770581,0.3508138404751226,-0.0760393989357203,0.1981520072302153,0.043750705343724,0.1147947541632322,0.0963591863747977,-10.913292879572069,17.94615274665251,22.633397486287265,0.4043897535420838,0.5748888866582648,-0.8737759046590209,-1.0,12.048,0.04,179.34694330165473,-3.977575177308912,94.1891829186896,1525.0,1435.0,1000.0,1173.0,1475.0,1021.47,61.0,292.85,1637226051.6982763,1637226052.8153274,f222a948-bd2b-4263-8a94-9d46496d527c
-0.0290328081498431,0.1082067096175697,-0.09583092708549,-0.0531935382582475,-0.2036365479709083,0.1119047803680144,-0.3372464946579004,-0.3618318223364795,-13.965994484647243,17.83580136632732,22.19610067456178,0.4814285757615952,0.3087419224750702,0.9150009532010164,-1.0,12.053666666666668,0.04,179.3495843081338,-3.975150033266734,94.20516556134744,1525.0,1435.0,1000.0,1617.0,1475.0,1021.47,61.0,292.85,1637226053.8381712,1637226054.9757316,6e22e228-3828-4018-8e53-3b2da76b0461
-0.0356619426969686,0.1047277837922864,-0.0982689146403463,-0.0527826414878979,-0.2044035553220474,0.1157535132602785,-0.3376026052313416,-0.3704195657151932,-13.97848602141574,17.74416426185795,22.30278503024764,0.4884321592591114,0.2946300070314103,0.9196379111344918,-1.0,12.053888888888888,0.04,179.3474548069326,-3.971394567588089,94.23032114806058,1525.0,1435.0,1000.0,1617.0,1475.0,1021.47,61.0,292.85,1637226055.08381,1637226056.2980936,6e22e228-3828-4018-8e53-3b2da76b0461
-0.0328952377898214,0.1029609277618646,-0.0975566935591558,-0.0504679230059333,-0.2036228514110138,0.115164561249628,-0.3370273496816585,-0.3695703788937146,-13.946809060921398,17.784576938467495,22.280278232203745,0.4822029896990659,0.2877393431238293,0.9165650155197004,-1.0,12.052555555555552,0.04,179.3561185224398,-3.969468881128968,94.23221766392012,1525.0,1435.0,1000.0,1617.0,1475.0,1021.47,61.0,292.85,1637226056.407608,1637226057.525205,6e22e228-3828-4018-8e53-3b2da76b0461
-0.0601239971995254,0.0849910431211077,-0.1925286378707902,-0.0353332252657559,-0.2884456489297257,0.1189995975759534,-0.438477778757067,-0.4585432419686734,-14.766337023934248,17.993485199372056,21.54969271043861,0.4528075785784718,0.2247363514950237,1.302266803784707,-1.0,12.050111111111113,0.04,179.345641012253,-3.978004151134284,94.26370180035424,1525.0,1435.0,1000.0,1706.0,1475.0,1021.47,61.0,292.85,1637226059.3504112,1637226060.2879207,d58c1911-19dd-4a15-bcd4-91a43c985d12
-0.0559564082086275,0.0919532777022833,-0.1771085029472686,-0.0431101314750145,-0.2766835906648963,0.1169752462629774,-0.4224237650252469,-0.4421862602328555,-14.555634900239074,17.976246748784835,21.33404188637661,0.4665266160306588,0.2532037397424105,1.242994129070005,-1.0,12.04988888888889,0.04,179.35690627092404,-3.972029205998469,94.24680694798728,1525.0,1435.0,1000.0,1706.0,1475.0,1021.47,61.0,292.85,1637226060.3971512,1637226061.5304902,d58c1911-19dd-4a15-bcd4-91a43c985d12
-0.0644521099001976,0.0876892651342094,-0.1804893617572545,-0.0426882774482578,-0.2787073944202368,0.1186708801846701,-0.4249592724787654,-0.44276480287969,-14.607140438875236,17.95712129232868,21.014297673363007,0.4690133077161867,0.2401429365120531,1.2529777402799798,-1.0,12.049,0.04,179.3609178686966,-3.969881780293856,94.24431142453751,1525.0,1435.0,1000.0,1706.0,1475.0,1021.47,61.0,292.85,1637226061.6400216,1637226062.758076,d58c1911-19dd-4a15-bcd4-91a43c985d12
-0.0840551732955322,0.0785021615815487,-0.2591695249787935,-0.0141172554303245,-0.3494090407380112,0.1063642485818922,-0.5138203745204644,-0.5411696709592646,-15.134186687158326,18.19480862194752,21.080085514908447,0.3743125340545258,0.2003313641595971,1.5818104707000584,-1.0,12.048333333333334,0.04,179.34895137727074,-3.97336678471093,94.24259727472882,1525.0,1435.0,1000.0,1795.0,1475.0,1021.47,61.0,292.85,1637226063.8770568,1637226065.216786,f06fcbb4-7bc2-4d79-b51b-2d259eecdf17
-0.0961459479909351,0.0717053813925808,-0.26629831069795,-0.0088440802592584,-0.3546822167113777,0.1085491235713012,-0.5222733448925486,-0.5409965462187668,-15.326744101143474,18.33804956423535,21.07356006835286,0.367823875520063,0.1751612764920629,1.6097664476173488,-1.0,12.051,0.04,179.34649706262897,-3.969650023437581,94.24338957667254,1525.0,1435.0,1000.0,1795.0,1475.0,1021.47,61.0,292.85,1637226065.3244083,1637226066.4439976,f06fcbb4-7bc2-4d79-b51b-2d259eecdf17
-0.0888938937623002,0.0777526859006137,-0.2655597921855288,-0.0128944266543069,-0.3567591632411498,0.1044050928731593,-0.5213414308192271,-0.5403938971338963,-15.052917757479234,18.302667023581456,20.802131152001067,0.3675450623709164,0.198854839624851,1.6107811938697196,-1.0,12.054,0.04,179.3568015413568,-3.9693166722605895,94.23520169767752,1525.0,1435.0,1000.0,1795.0,1475.0,1021.47,61.0,292.85,1637226066.5520022,1637226067.5617895,f06fcbb4-7bc2-4d79-b51b-2d259eecdf17
-0.11174632911146216,0.07096576723226117,-0.3221254916073957,0.018480554563304847,-0.4079892329188058,0.08726467181568497,-0.5918518831374883,-0.6182588574484533,-15.655739726366564,18.804347719371815,21.035052837201846,0.25849676851461784,0.1681616276157667,1.8572104653471844,-1.0,12.044555555555554,0.04,179.36174508049604,-3.9823184590962706,94.2166144762162,1525.0,1435.0,1000.0,1883.0,1475.0,1021.4699999999999,61.0,292.84999999999997,1637226069.3063405,1637226070.3368654,9b5c79ee-dddf-4f71-8a6b-b5669b9a0b62
-0.11528004146400743,0.07095207067331104,-0.32570029396440114,0.02297302582983049,-0.4108792073780821,0.08530606395757233,-0.5967689492407681,-0.6285175829121955,-15.70919696808438,18.83481903419547,21.30985765041412,0.24400249382305095,0.1652738002781877,1.8733958497436982,-1.0,12.0438,0.036,179.3746465489283,-3.9865984548440507,94.14430994188044,1525.0,1435.0,1000.0,1883.0,1475.0,1021.4699999999999,61.0,292.84999999999997,1637226070.4450197,1637226071.5653837,9b5c79ee-dddf-4f71-8a6b-b5669b9a0b62
-0.10670599525625259,0.07184234697570592,-0.3242484584917688,0.021548583712867896,-0.4096054271354211,0.08458014634923532,-0.5943446575580271,-0.6216556047674998,-15.626539294652579,18.76151044471063,21.159658041087887,0.24518843775475183,0.16962523702563218,1.866201510917703,-1.0,12.043400000000002,0.039999999999999994,179.3767994245547,-3.990178413120149,94.07467069914084,1525.0,1435.0,1000.0,1883.0,1475.0,1021.4699999999999,61.0,292.84999999999997,1637226071.6733608,1637226072.681752,9b5c79ee-dddf-4f71-8a6b-b5669b9a0b62
