raw_voltage_G-,raw_voltage_G0,raw_voltage_G1,raw_voltage_G2,raw_voltage_G3,raw_voltage_G4,raw_voltage_G5,raw_voltage_G6,load_x,load_y,load_z,load_l,load_m,load_n,rpm,voltage,current,roll,pitch,yaw,aileron1_pwm,elevator_pwm,throttle_pwm,rudder_pwm,aileron2_pwm,pbaro,pdiff,Tt,sample_start_time,sample_end_time,uid
-0.0494954673417636,0.0706096567092445,0.0204117693504255,0.0885384517292843,-0.1005973297295649,-0.1453028999029627,-0.3018682782816007,-0.3234540583181644,-13.663189382806584,21.242172069616352,-0.4966673796602636,-0.391359650525975,0.3566890612405114,0.5293362247961716,-1.0,12.04922222222222,0.04,178.89396212025986,10.485680800594189,59.388837860539184,1525.0,1435.0,1000.0,1528.0,1475.0,1021.47,61.0,292.97,1637226832.2894008,1637226833.4027882,e9ec5e57-415c-4fc6-b7ad-b93f2ba7f6c4
-0.0452665177596448,0.0687852751164488,0.0154804603391545,0.0869699218701247,-0.1056979284376596,-0.1420146298603251,-0.3058737004701352,-0.3328022347936297,-13.617999905557276,21.266249552077507,-0.5235821593712316,-0.3804997264783467,0.3496461352961764,0.5484574653241062,-1.0,12.050000000000002,0.04,179.00027022014157,10.502385735756745,58.76207314045204,1525.0,1435.0,1000.0,1528.0,1475.0,1021.47,61.0,292.97,1637226833.5108242,1637226834.7491062,e9ec5e57-415c-4fc6-b7ad-b93f2ba7f6c4
-0.0426334912513176,0.0671718205236857,0.0174670092222554,0.0874153339620729,-0.1033777312783448,-0.1409063042348607,-0.3040186382937044,-0.3294942415295595,-13.681393143006568,21.3007488616159,-0.5177459184267679,-0.3787172746125214,0.3440633368254241,0.5397065920133922,-1.0,12.049555555555555,0.04,179.1412923770249,10.527390773716949,58.243619283493246,1525.0,1435.0,1000.0,1528.0,1475.0,1021.47,61.0,292.97,1637226834.857458,1637226835.9769528,e9ec5e57-415c-4fc6-b7ad-b93f2ba7f6c4
0.0785810537097756,0.3066698351674193,0.0111665921863406,-0.0236911501217807,-0.1636152001299079,-0.2652162824275467,-0.3663790798293301,-0.3948131412189666,-13.762444849618143,20.81200853823224,0.3673347174478807,-0.4108827366503773,1.248327606771804,0.7485256729521351,-1.0,12.045777777777776,0.04,179.26209717396503,10.57007490257008,57.68968638834576,1644.0,1435.0,1000.0,1528.0,1569.0,1021.47,61.0,292.97,1637226836.795071,1637226837.9325469,e720bb19-1aee-4684-8fc4-194238db4385
0.0824571797623059,0.310587050669553,0.0161521395820286,-0.0235678810886658,-0.1588624939121585,-0.2687499950024254,-0.3633110501432351,-0.3874306950245341,-13.884017154483749,20.814389503045675,0.4583276434766132,-0.4188841862971066,1.2633744578753694,0.7314056510020487,-1.0,12.045,0.04,179.34760507109434,10.58245139507362,57.40206029220735,1644.0,1435.0,1000.0,1528.0,1569.0,1021.47,61.0,292.97,1637226838.04064,1637226839.162782,e720bb19-1aee-4684-8fc4-194238db4385
0.0781564603969418,0.3075738079731566,0.0118240270124615,-0.0247320886156979,-0.1628071031050451,-0.2652710686841095,-0.3662284176541632,-0.3816781389538306,-13.84580716727914,20.80868475488207,0.3528021183490076,-0.4086913234172606,1.2526066577567352,0.746337172395553,-1.0,12.045222222222222,0.04,179.4500548730049,10.601421391719684,57.17005963612448,1644.0,1435.0,1000.0,1528.0,1569.0,1021.47,61.0,292.97,1637226839.2711933,1637226840.3911254,e720bb19-1aee-4684-8fc4-194238db4385
0.212451213762157,0.5481264467679267,0.0002504347906912,-0.1989386281244296,-0.2399735218845051,-0.3283985165429874,-0.4220145117813651,-0.4446275353235694,-13.885375359592866,20.740125136620616,1.8216423524649925,-0.1583964089912068,2.1628007549830914,0.9762957878290318,-1.0,12.039444444444444,0.03,179.57879483194074,10.640090602569453,56.91186141002507,1763.0,1435.0,1000.0,1528.0,1663.0,1021.47,61.0,292.97,1637226842.2720344,1637226843.3553734,7ddaf3af-f236-4071-b0ec-63a462284564
0.204400924835749,0.546451083879784,0.0033705108965923,-0.213201677656187,-0.2385655154837992,-0.3118563582018213,-0.4143241664789138,-0.4431329663547493,-13.860225651105866,20.752285378738243,2.113942858161854,-0.0887548003893958,2.155702559179576,0.9592726941892964,-1.0,12.039333333333332,0.03,179.61572945933253,10.677765926031242,56.83826612171819,1763.0,1435.0,1000.0,1528.0,1663.0,1021.47,61.0,292.97,1637226843.4629934,1637226844.4869602,7ddaf3af-f236-4071-b0ec-63a462284564
0.2083422463646631,0.5391688982917623,-0.0012014004259935,-0.2107998488591231,-0.2418088609258615,-0.3058128877791941,-0.4175083430490167,-0.4423539060456458,-13.886750412343147,20.82190743620394,2.242509855922176,-0.0803512279235145,2.126853814786886,0.9737299783783214,-1.0,12.041,0.03,179.69543321348712,10.731077260050483,56.76977753818075,1763.0,1435.0,1000.0,1528.0,1663.0,1021.47,61.0,292.97,1637226844.594857,1637226845.6026418,7ddaf3af-f236-4071-b0ec-63a462284564
0.2627175812368456,0.6462896727249531,0.0068932657852756,-0.2862131096394021,-0.2665448488707441,-0.3295353309927316,-0.4331635129679335,-0.4586665117499784,-14.029160530925104,21.272697506166512,3.8843047161541135,0.0400365428124634,2.524884395506379,1.033008391090437,-1.0,12.029333333333334,0.03,179.77346888366444,10.82568221024433,56.75628070492584,1867.888888888889,1435.0,1000.0,1528.0,1746.5555555555557,1021.47,61.0,292.97,1637226846.2528293,1637226847.2409222,07e7bcde-0f84-4d1a-b458-905f4406dc34
0.2607041872666455,0.6460979209243717,0.0101941364683857,-0.2879388763918025,-0.2634768193289341,-0.3271795225959584,-0.4283971094732063,-0.4458739225897855,-13.9626930921277,21.231694395762023,3.997711367728768,0.0491673482523957,2.5231106902257205,1.01772875799363,-1.0,12.027,0.03,179.82719666949555,10.881343983111703,56.69656360210252,1881.0,1435.0,1000.0,1528.0,1757.0,1021.47,61.0,292.97,1637226847.349664,1637226848.4704962,07e7bcde-0f84-4d1a-b458-905f4406dc34
0.2701685087028355,0.6459609553511295,0.006633031199131,-0.2964581369835726,-0.26701053187129,-0.3191259448433429,-0.4288217028861953,-0.4488323796833047,-13.95317212644168,21.120224739776948,3.9942487298565577,0.0855701530204721,2.5233815460565694,1.027956764440397,-1.0,12.029888888888888,0.03,179.86552313765822,10.914060684099802,56.64876745611059,1881.0,1435.0,1000.0,1528.0,1757.0,1021.47,61.0,292.97,1637226848.5814772,1637226849.6526544,07e7bcde-0f84-4d1a-b458-905f4406dc34
0.3156783350431798,0.7205135079542114,0.0466823167000979,-0.3272140379426663,-0.2518719977306911,-0.3771527949825342,-0.413206527126208,-0.4425544239190755,-13.657007151201633,21.59096158143378,2.311683289896083,0.0295494798928941,2.822148902284038,0.9369052678180846,-1.0,12.009777777777778,0.04,179.8860880783392,10.958149460328494,56.607365505546646,2000.0,1435.0,1000.0,1528.0,1852.0,1021.47,61.0,292.97,1637226850.26499,1637226851.2464454,2192b3f4-16cb-493f-8a2b-b88ab90df5d9
0.3043573083371854,0.7232615852049503,0.0399633329009727,-0.3289759635078697,-0.2590511867629246,-0.376758333997838,-0.4204909063340066,-0.4383994345780467,-13.669960651349768,21.58962569214683,2.465971728961313,0.0340850164960211,2.8309710502867915,0.9667398699474528,-1.0,12.006666666666668,0.04,179.90703247397408,10.968884051246556,56.58579273250811,2000.0,1435.0,1000.0,1528.0,1852.0,1021.47,61.0,292.97,1637226851.3557177,1637226852.4780617,2192b3f4-16cb-493f-8a2b-b88ab90df5d9
0.316928556847862,0.735330991470108,0.0497908876596096,-0.3375889087580968,-0.2539851030271116,-0.3818424974713503,-0.4140978992995007,-0.4349577627992151,-13.661655432927232,21.71324969146615,2.3578731486047624,0.0433847307635607,2.878823503675965,0.9385288492272612,-1.0,12.005888888888892,0.04,179.89746717349647,11.004136270236543,56.51794618675266,2000.0,1435.0,1000.0,1528.0,1852.0,1021.47,61.0,292.97,1637226852.5865448,1637226853.7041752,2192b3f4-16cb-493f-8a2b-b88ab90df5d9
-0.1953063002799411,-0.2029982882758305,0.0182416865814595,0.1903318204188378,-0.0456346812331212,0.0266831495969307,-0.2336479025021655,-0.2568159083590797,-13.476602315276493,21.94377979298845,-0.5881745598523375,-0.229882610460038,-0.6826752915925076,0.3278013064590748,-1.0,12.049,0.04,-179.84841579051707,10.99114895012098,56.414278713895065,1406.0,1435.0,1000.0,1528.0,1381.0,1021.47,61.0,292.97,1637226855.2738063,1637226856.3656228,92f361b4-b69e-496f-9204-31bd9051e89f
-0.1907480851585242,-0.2017190295723567,0.0215211906075939,0.1924953287633379,-0.0426471877729374,0.0232332604454548,-0.2322486619114968,-0.2526565368813788,-13.540502056600715,22.006546317213736,-0.5995957155739755,-0.2419699186050995,-0.6773812082339691,0.3173568914932292,-1.0,12.049666666666669,0.04,-179.81731110903684,11.003230416397871,56.53028947694773,1406.0,1435.0,1000.0,1528.0,1381.0,1021.47,61.0,292.97,1637226856.473901,1637226857.59389,92f361b4-b69e-496f-9204-31bd9051e89f
-0.1862556135447808,-0.1995275799856798,0.0202337140867601,0.18835896822652,-0.0444688301264998,0.0256301582068805,-0.2331252417670347,-0.2597102657623736,-13.563613825851483,21.98198417871,-0.5030512579488294,-0.2274763305892634,-0.6694267927520311,0.323200052608322,-1.0,12.049666666666669,0.04,-179.81531365815957,10.998342277681866,56.665000918492936,1406.0,1435.0,1000.0,1528.0,1381.0,1021.47,61.0,292.97,1637226857.7022064,1637226858.8233812,92f361b4-b69e-496f-9204-31bd9051e89f
-0.3008684294200324,-0.4139883267369174,0.0250412061944415,0.2945346850074101,0.0025925463677186,0.1448450030166841,-0.1832834599660028,-0.2047459696993758,-13.38242772883237,23.15058956586543,0.6656312544325628,-0.1908273538067685,-1.4981732935568626,0.1578601384373162,-1.0,12.037444444444445,0.0311111111111111,-179.75503951546392,10.99845563984934,56.80901545714266,1300.2222222222222,1435.0,1000.0,1528.0,1297.4444444444443,1021.47,61.0,292.97,1637226859.753692,1637226860.7585545,85af6f06-396c-4215-9ed3-87f76b716869
-0.3063607502408688,-0.4220692980096825,0.0277257317003725,0.2696069498528916,0.0034417330207099,0.1761690315153954,-0.1717098669644619,-0.1948433566905092,-13.387493357315526,23.184082902348774,0.7842797373081399,-0.063835149970943,-1.526257683879291,0.1355195686873535,-1.0,12.03711111111111,0.03,-179.76269236297398,10.99952437472697,56.88790869551574,1287.0,1435.0,1000.0,1528.0,1287.0,1021.47,61.0,292.97,1637226860.8670323,1637226862.099406,85af6f06-396c-4215-9ed3-87f76b716869
-0.3033612034750986,-0.4216720977255663,0.0328756377629261,0.2588140622735848,0.0065508518622456,0.1856470496800401,-0.1633275724067131,-0.1887072980349259,-13.282792773197867,23.180348031679376,0.8257018711347052,-0.0178996889568886,-1.5242208609272154,0.1124169491615744,-1.0,12.037,0.03,-179.79740034869636,10.99883632803183,56.92898507372925,1287.0,1435.0,1000.0,1528.0,1287.0,1021.47,61.0,292.97,1637226862.2080348,1637226863.3276436,85af6f06-396c-4215-9ed3-87f76b716869
-0.3967991422519221,-0.6099039530869704,0.0366558879123468,0.3323234876822746,0.0432987188624274,0.3205581446483608,-0.1147732687884495,-0.1305790985909719,-13.118856193928677,24.4186097441694,3.592355857220941,0.1283646611091866,-2.264675785677527,-0.030541829673584,-1.0,12.019222222222222,0.03,-179.78162716517306,11.008778996461125,56.99762316251852,1169.0,1435.0,1000.0,1528.0,1193.0,1021.47,61.0,292.97,1637226865.4676316,1637226866.6051247,e1a630cb-9d56-402d-a39f-8b9f85afb138
-0.3959773486024204,-0.6107531400017662,0.0353958044882876,0.3256121743897707,0.0412990212781552,0.3272968509992438,-0.114156923633191,-0.1384957099833625,-13.105730390449713,24.4233967992768,3.550908934368767,0.158615503094007,-2.266839806157696,-0.0271909208970944,-1.0,12.018444444444444,0.03,-179.81363191380393,11.006635170835386,56.98805748258592,1169.0,1435.0,1000.0,1528.0,1193.0,1021.47,61.0,292.97,1637226866.713602,1637226867.74459,e1a630cb-9d56-402d-a39f-8b9f85afb138
-0.397031983838741,-0.6042198794246524,0.033533072574776,0.3251327949069701,0.0388884270143863,0.3203526962797331,-0.1184439466635135,-0.1471930254409694,-13.1625488817418,24.37637001232876,3.3882971546403984,0.143633402800133,-2.2405525983287027,-0.0147281498652715,-1.0,12.018999999999998,0.03,-179.82822575133048,10.992602357458118,57.01216387635158,1169.0,1435.0,1000.0,1528.0,1193.0,1021.47,61.0,292.97,1637226867.8534863,1637226869.062884,e1a630cb-9d56-402d-a39f-8b9f85afb138
-0.4289175788589677,-0.6591157051287144,0.0442026917267505,0.3503207643256294,0.0594195683343537,0.3448969275345998,-0.0998577156046614,-0.1183891607385442,-13.337745211544098,24.84458554669449,2.636634461127872,0.1453968041051599,-2.440960197628146,-0.091495392161579,-1.0,11.977333333333332,0.1677777777777778,-179.8430533331087,10.997494100996184,57.09365334551919,1050.0,1435.0,1000.0,1528.0,1098.0,1021.47,61.0,292.97,1637226870.7511451,1637226871.9299283,1f54984b-9620-45a5-b3b3-8e800a181fb6
-0.4103269619988199,-0.6549716728702758,0.0478919967769022,0.3486158168855249,0.0628946591878845,0.3409369788333929,-0.0961651231691197,-0.1185968004034892,-13.30634278013648,24.72550770339185,2.457527392299496,0.1397257921751823,-2.423610616058377,-0.106210288563527,-1.0,11.979,0.16,-179.89389574347047,11.00490608947425,57.03094575820425,1050.0,1435.0,1000.0,1528.0,1098.0,1021.47,61.0,292.97,1637226872.0383775,1637226873.1588566,1f54984b-9620-45a5-b3b3-8e800a181fb6
-0.4258818729659388,-0.6550111189826296,0.0431058712449224,0.3410684657217108,0.057372206700469,0.3502725524529504,-0.099044687970442,-0.1244611193193229,-13.332015958827816,24.738953870334218,2.761452379780488,0.1776153910619121,-2.4256444803390576,-0.0877303678654607,-1.0,11.98,0.15,-179.9291941611011,10.990735344221244,56.96987324228563,1050.0,1435.0,1000.0,1528.0,1098.0,1021.47,61.0,292.97,1637226873.2668493,1637226874.3870225,1f54984b-9620-45a5-b3b3-8e800a181fb6
-0.0414008009502978,0.0764991768643097,0.0198639070029751,0.0562419667544908,-0.1065005468150238,-0.118567215724188,-0.2961020262690713,-0.3218652574939352,-13.619571993854246,21.256975465504656,-0.0839601740616046,-0.2582694435393527,0.3787537239904546,0.5309494705022841,-1.0,12.051111111111112,0.04,179.86413129688736,10.960945853611186,56.91087558605487,1525.0,1435.0,1000.0,1528.0,1475.0,1021.47,61.0,292.97,1637226876.3217344,1637226877.3537552,3b0f64ad-2898-4547-9af8-e62f1332a18f
-0.0504953161694405,0.0694728423538857,0.013193682888132,0.0615288383976922,-0.1110204114176886,-0.115800510660207,-0.301840885153902,-0.3197285937776913,-13.64781693064171,21.274912673100868,-0.0251491803098422,-0.2641962426620906,0.3510058884692013,0.553620853629337,-1.0,12.052111111111111,0.04,179.8734324967171,10.945138898597005,57.12764264355888,1525.0,1435.0,1000.0,1528.0,1475.0,1021.47,61.0,292.97,1637226877.465222,1637226878.5765972,3b0f64ad-2898-4547-9af8-e62f1332a18f
-0.0412775319169557,0.0723902093180497,0.0160425671115272,0.0590223681852269,-0.1089248378289797,-0.1167455732619466,-0.2991015730327059,-0.321920043869196,-13.633999153394782,21.245999023202625,-0.0594362265085569,-0.260714268504732,0.3626425885674273,0.5432872627500779,-1.0,12.051555555555556,0.04,179.87896039648538,10.943164594471918,57.3047710776697,1525.0,1435.0,1000.0,1528.0,1475.0,1021.47,61.0,292.97,1637226878.6847184,1637226879.7086637,3b0f64ad-2898-4547-9af8-e62f1332a18f
-0.0311283816799449,0.0704179048894312,0.0026473326137253,-0.1286615800092777,-0.1397968829082757,0.0692126077308084,-0.258778899067045,-0.2805290373376442,-13.569336875171672,20.70632908269457,1.6413401886779873,0.5765867304803448,0.3619632179561896,0.5469656134669533,-1.0,12.052,0.04,179.8830903842035,10.983581385111822,57.68229536475389,1525.0,1535.0,1000.0,1528.0,1475.0,1021.47,61.0,292.97,1637226881.852042,1637226882.818745,d2912dcf-fd47-44d1-92ef-d9ed82b58a25
-0.0450035438222263,0.0680883942191766,0.000635582055149,-0.1278797803933953,-0.1404104887765496,0.0702973751716056,-0.2594062015292624,-0.2904108315458801,-13.569010410858205,20.61478530937917,1.564398089079665,0.576541672206619,0.3536804188186425,0.5510910127260977,-1.0,12.050444444444445,0.04,179.86635490291715,10.993299700799628,57.8055977342005,1525.0,1535.0,1000.0,1528.0,1475.0,1021.47,61.0,292.97,1637226882.92616,1637226884.219392,d2912dcf-fd47-44d1-92ef-d9ed82b58a25
-0.038661489146147,0.0708014085298841,0.0059755964084776,-0.1247854536738313,-0.1361262049440132,0.0664732960258686,-0.256258731969085,-0.2900755399211543,-13.577157818492942,20.7098162533613,1.835147016463889,0.5619033392217233,0.3614730586663071,0.5341878835832866,-1.0,12.050666666666666,0.04,179.84886202954283,10.981415645962496,57.8873786247727,1525.0,1535.0,1000.0,1528.0,1475.0,1021.47,61.0,292.97,1637226884.3270652,1637226885.4468029,d2912dcf-fd47-44d1-92ef-d9ed82b58a25
-0.0355797633593302,0.0652406057708878,-0.0076661762000989,-0.3198244693279546,-0.170805893996116,0.2611561736998214,-0.2179905428541644,-0.2379464314404009,-13.607968999843012,20.59890365453989,3.300185518999309,1.4381454981512891,0.3509969228502291,0.5452396673142671,-1.0,12.048444444444446,0.04,179.80109320430762,11.03812812959719,58.034453847080485,1525.0,1636.0,1000.0,1528.0,1475.0,1021.47,61.0,292.97,1637226887.381243,1637226888.514612,41b9ddf0-7a6b-42ff-8bc7-85dc69daa69a
-0.0260880479664048,0.0651584264178883,-0.0065293618106204,-0.3181260958017493,-0.1709702527059003,0.2602795939969597,-0.2167304593303213,-0.2390969425693647,-13.43122382861872,20.66319734128013,3.3939054203587595,1.4329313168409663,0.3484711565341417,0.5423541824914062,-1.0,12.049666666666669,0.04,179.7807422762206,11.02903487108218,58.03063501242454,1525.0,1636.0,1000.0,1528.0,1475.0,1021.47,61.0,292.97,1637226888.6232307,1637226889.7483644,41b9ddf0-7a6b-42ff-8bc7-85dc69daa69a
-0.0362645913086279,0.0625149906188779,-0.0123503993378753,-0.3209886770012029,-0.1752435793608396,0.2654979825226537,-0.2215242553529968,-0.2381792727107521,-13.593184173432812,20.619251447467715,3.353360905150638,1.4504458532899684,0.3400450025968788,0.5624373004989222,-1.0,12.050333333333334,0.04,179.76866650176802,11.024308664767748,58.02084507461419,1525.0,1636.0,1000.0,1528.0,1475.0,1021.47,61.0,292.97,1637226889.856982,1637226890.90666,41b9ddf0-7a6b-42ff-8bc7-85dc69daa69a
-0.0154184285593109,0.0668157099994423,-0.0131174066329224,-0.4901412100095352,-0.1987468760722284,0.4277337075161386,-0.1798456234531214,-0.2075811577283083,-13.379574105872146,20.66247479123174,5.027468729104316,2.19720059054088,0.3606042663505435,0.5376837311791887,-1.0,12.047222222222224,0.04,179.74558198019315,11.057071374669006,58.08917049252146,1525.0,1737.0,1000.0,1528.0,1475.0,1021.47,61.0,292.97,1637226892.775982,1637226893.8437908,47f4b510-662e-4ed4-91b7-9d9fb2c5c089
-0.0312105610352186,0.0589894964451816,-0.0213621872369727,-0.487549272620214,-0.2055096895062824,0.4316892733087383,-0.188416382729865,-0.2075871839301435,-13.516955269163738,20.80060279571631,4.77345043135622,2.200637985346927,0.333635459553517,0.5689011251369287,-1.0,12.045,0.04,179.7293610398243,11.05166841044431,58.097238463751054,1525.0,1737.0,1000.0,1528.0,1475.0,1021.47,61.0,292.97,1637226893.9517968,1637226894.960976,47f4b510-662e-4ed4-91b7-9d9fb2c5c089
-0.0205135484859709,0.0600222169618655,-0.0191575891185601,-0.4863746555582414,-0.2022805885443156,0.4288294321069179,-0.185680357941942,-0.2061156256370471,-13.5112652174032,20.668929389873423,4.685141537220024,2.190787574635686,0.3382441022615395,0.557671073587141,-1.0,12.04577777777778,0.04,179.72474990322465,11.055280537014124,58.06396405884449,1525.0,1737.0,1000.0,1528.0,1475.0,1021.47,61.0,292.97,1637226895.0696552,1637226896.30171,47f4b510-662e-4ed4-91b7-9d9fb2c5c089
-0.0216383098885589,0.0609355034849476,-0.0136964971410882,-0.4880883693341914,-0.2031692213405405,0.4298616046779049,-0.1870094721074453,-0.2153580642210079,-13.592836389129038,21.369726585151767,4.742626629874769,2.2018584204414218,0.3423064177900942,0.5531616240103018,-1.0,12.040333333333333,0.0311111111111111,179.72823329970134,11.08439801290084,58.056300586595725,1525.0,1837.0,1000.0,1528.0,1475.0,1021.47,61.0,292.97,1637226897.3039887,1637226898.3497326,c36fc510-1707-4e62-a6b6-6b072118df27
-0.0249101439306249,0.0669800687002106,-0.0092823701594209,-0.4875251666769611,-0.1997741180770491,0.4237343127457318,-0.1825438457451872,-0.2091973518667778,-13.407662139638669,21.241791964054524,4.821947870723217,2.186296686390114,0.3631718925629614,0.5371925396163152,-1.0,12.042666666666667,0.04,179.70056799792314,11.0602351752108,58.05404662416962,1525.0,1837.0,1000.0,1528.0,1475.0,1021.47,61.0,292.97,1637226898.45799,1637226899.5779045,c36fc510-1707-4e62-a6b6-6b072118df27
-0.0261291376683309,0.0567761325792135,-0.0152540698506039,-0.4870046973578141,-0.203937872322064,0.433116454587277,-0.1855570889338207,-0.2014587952552657,-13.417412441989027,21.28617355058739,4.767477370322261,2.2061888297204217,0.3250108069340298,0.5539620504209865,-1.0,12.041333333333334,0.04,179.6963530122954,11.061244051069457,58.04583749569718,1525.0,1837.0,1000.0,1528.0,1475.0,1021.47,61.0,292.97,1637226899.691548,1637226900.8072484,c36fc510-1707-4e62-a6b6-6b072118df27
-0.0574948057106003,0.0702447803935657,0.0304962716038049,0.2889470373212111,-0.0721030078145242,-0.3349849185313486,-0.3489356875823929,-0.3795984531965644,-13.813239553147536,21.970415271268312,-1.427639465515126,-1.2645673225674965,0.3406108213148103,0.543789782526304,-1.0,12.052,0.04,179.6873265378522,10.84128359553724,58.04379982259479,1525.0,1334.0,1000.0,1528.0,1475.0,1021.47,61.0,292.97,1637226901.922979,1637226903.0596125,1550d993-916e-4345-8618-426b648a8fa8
-0.0540290284040623,0.0728284991888469,0.0318073061881162,0.2869193989090326,-0.0719167346225174,-0.335780962659763,-0.3478065431143771,-0.3727342845325916,-13.75509243044989,21.97550408100888,-1.4373158469430027,-1.2616555421163935,0.3503083927619372,0.5404611052935696,-1.0,12.04911111111111,0.04,179.70737238415632,10.82748993364466,58.17937072961056,1525.0,1334.0,1000.0,1528.0,1475.0,1021.47,61.0,292.97,1637226903.1688468,1637226904.288945,1550d993-916e-4345-8618-426b648a8fa8
-0.0515384461110466,0.0743603222933786,0.03411216309533,0.2833193956663492,-0.0691314023342622,-0.3339987661480911,-0.3430845167634668,-0.3651743305861484,-13.69267902656499,21.796656956826908,-1.4129937484681876,-1.2505655215894969,0.3559826678308095,0.5271075880978784,-1.0,12.049444444444443,0.04,179.7215306073958,10.82701665845342,58.26819126848731,1525.0,1334.0,1000.0,1528.0,1475.0,1021.47,61.0,292.97,1637226904.3985455,1637226905.405015,1550d993-916e-4345-8618-426b648a8fa8
-0.0596117459165789,0.071507055221204,0.0443287001201731,0.4329909941239266,-0.0468049152382242,-0.478266290807152,-0.3763244267845724,-0.3998605978534262,-13.6834089737843,22.49061968156965,-2.8226616093810257,-1.9074873336019689,0.339941086857178,0.5287989346310517,-1.0,12.047222222222224,0.04,179.75110836214162,10.768484119132395,58.50409537768084,1525.0,1234.0,1000.0,1528.0,1475.0,1021.47,61.0,292.97,1637226907.339238,1637226908.595767,bbbf3336-e406-4e21-9806-d43b3f517781
-0.0620552120511243,0.0728832854256205,0.0435589535281018,0.4400332160844269,-0.0474135903269602,-0.4866074970780733,-0.380787862130008,-0.4073728881097805,-13.761998192959288,22.586895886082274,-2.9157057871115923,-1.941571158458259,0.3455694569354477,0.5370347697131953,-1.0,12.046,0.04,179.74183144742892,10.755094387038232,58.57252324842567,1525.0,1234.0,1000.0,1528.0,1475.0,1021.47,61.0,292.97,1637226908.7090824,1637226909.818134,bbbf3336-e406-4e21-9806-d43b3f517781
-0.0635300575525766,0.0707312821470058,0.0418304478200767,0.4404988990434206,-0.0481460823113383,-0.4839202315833589,-0.3825174638961624,-0.4155601445331027,-13.883125451612662,22.60557123333876,-2.785452704380231,-1.9365854569379728,0.3370344185447541,0.5426862073168351,-1.0,12.045666666666667,0.04,179.73259399603143,10.767785542562288,58.610827708201,1525.0,1234.0,1000.0,1528.0,1475.0,1021.47,61.0,292.97,1637226909.9267614,1637226911.0482397,bbbf3336-e406-4e21-9806-d43b3f517781
-0.0656995925322503,0.0744655118605951,0.0494829890601219,0.5138817662866779,-0.0379558423751666,-0.5600380550173426,-0.4005837760607184,-0.4284327208517646,-13.880199630112584,23.209907086177004,-3.526830784795437,-2.268895585529965,0.3490505351474314,0.5439016921868098,-1.0,12.042555555555554,0.04,179.7178984645772,10.746824450909426,58.70500994557622,1525.0,1133.0,1000.0,1528.0,1475.0,1021.47,61.0,292.97,1637226912.7792587,1637226913.9160173,6cd1331a-a59d-4433-b05b-6346fcbad228
-0.0639508158355232,0.0740316048857964,0.0498248551557299,0.5186021478159141,-0.0381136267423585,-0.5633515273620412,-0.4010308318280269,-0.4313517321161689,-13.76250936013043,23.270209786386705,-3.442195756089987,-2.286499914408485,0.3452815344361569,0.5444529217276579,-1.0,12.044333333333334,0.04,179.71407962992123,10.739095048362431,58.75277952972138,1525.0,1133.0,1000.0,1528.0,1475.0,1021.47,61.0,292.97,1637226914.0233638,1637226915.0729456,6cd1331a-a59d-4433-b05b-6346fcbad228
-0.0643321280686356,0.0762800319296854,0.0489044464170062,0.5102001316937266,-0.0386790207003636,-0.5577896271373549,-0.4002813559854371,-0.4278410291670444,-13.89085109013889,23.14640399167571,-3.4366944405161832,-2.2559789728987045,0.3555481354263502,0.5455777423586062,-1.0,12.045,0.04,179.729840670886,10.749053179581097,58.779279904791125,1525.0,1133.0,1000.0,1528.0,1475.0,1021.47,61.0,292.97,1637226915.1806996,1637226916.130844,6cd1331a-a59d-4433-b05b-6346fcbad228
-0.0628331766153289,0.0772924815347674,0.0563992032734527,0.5332760914742003,-0.0331565681103589,-0.5809576369122473,-0.4015830771861093,-0.4246590442338952,-13.726746007202408,23.540303884524207,-3.550137517935745,-2.3570453742570034,0.3568300480459045,0.5298110933462351,-1.0,12.039,0.04,179.72799955544974,10.7351312619141,58.832906755604526,1525.0,1033.0,1000.0,1528.0,1475.0,1021.47,61.0,292.97,1637226917.761816,1637226918.8299105,7b7e3932-918e-4910-b9b3-dd65b71aadea
-0.0672051182965017,0.0771703082326884,0.054776435020015,0.5339779030691001,-0.0355112805264239,-0.5812507433672214,-0.4054416724332099,-0.4302324494326218,-13.832068756142393,23.70147277685986,-3.539439557982163,-2.3583508450487405,0.3568359070946331,0.5405907836723768,-1.0,12.037888888888888,0.04,179.71600574326723,10.749502074791549,58.85932289167449,1525.0,1033.0,1000.0,1528.0,1475.0,1021.47,61.0,292.97,1637226918.9382198,1637226920.06427,7b7e3932-918e-4910-b9b3-dd65b71aadea
-0.0564670159307041,0.0781975501208996,0.0584060230465217,0.5355393106040162,-0.0306353055213919,-0.5835791590458276,-0.4014422765193661,-0.4208640009974099,-13.872123176122392,23.574726563494213,-3.491879006912495,-2.3677773264836595,0.3605863604131532,0.5235367886968075,-1.0,12.04022222222222,0.0322222222222222,179.7219753286018,10.737308384712044,58.89028186245245,1525.0,1033.0,1000.0,1528.0,1475.0,1021.47,61.0,292.97,1637226920.178487,1637226921.1745298,7b7e3932-918e-4910-b9b3-dd65b71aadea
-0.0435511607215317,0.0684866901411137,0.0166315191372127,0.0754856315303354,-0.1049117459307352,-0.1280041451609368,-0.3004438359704581,-0.3247552318117006,-13.647151653956175,21.176301294784697,-0.050529149101255,-0.3235887809929201,0.3460253395908312,0.5386335717258491,-1.0,12.050000000000002,0.04,179.69656702488933,10.86999676217059,58.89332660900246,1525.0,1435.0,1000.0,1528.0,1475.0,1021.47,61.0,292.97,1637226923.2500043,1637226924.1895907,c720109c-4328-4649-a51f-6492b8c3d249
-0.0411679594333716,0.066048702722239,0.0120157788289191,0.0774716324982518,-0.1084454582551485,-0.1260866268333345,-0.3049910941077982,-0.3369999570593052,-13.713510504781889,21.18886034032859,0.1072804904652062,-0.3239146180976792,0.3354154937082774,0.5561061369651251,-1.0,12.049333333333331,0.04,179.6933158548444,10.873861226284738,58.86157988974024,1525.0,1435.0,1000.0,1528.0,1475.0,1021.47,61.0,292.97,1637226924.3260186,1637226925.3888786,c720109c-4328-4649-a51f-6492b8c3d249
-0.0460302378959933,0.0676101103940943,0.0165219466627102,0.0771977013363493,-0.1052267667993069,-0.1285383109779321,-0.3007040706358426,-0.3336579960666233,-13.598908190466354,21.21351081460173,-0.0265893710032862,-0.3283818218349234,0.3419668918595828,0.5395436962267166,-1.0,12.050333333333334,0.04,179.7062522331324,10.880356451594205,58.8567167950512,1525.0,1435.0,1000.0,1528.0,1475.0,1021.47,61.0,292.97,1637226925.503731,1637226926.6164634,c720109c-4328-4649-a51f-6492b8c3d249
-0.026279799813001,0.0807314134382708,0.0926474192847291,0.0691715180566687,-0.0353195286920511,-0.1389476962250584,-0.2215927381439539,-0.2437126833621464,-13.126707179747356,21.01493565221153,-0.1317543972360048,-0.3309729057072703,0.3945804845475162,0.2297031300438011,-1.0,12.052,0.04,179.6817424787508,10.88205517655903,58.77006218505124,1525.0,1435.0,1000.0,1439.0,1475.0,1021.47,61.0,292.97,1637226928.27081,1637226929.4795475,a8bb20b9-e244-465f-80f8-21b2aa0f4879
-0.0227871772872181,0.0823886970118683,0.0963317934950144,0.0642544535410677,-0.0333061345199111,-0.1378519714634463,-0.2180864187788374,-0.2342894496583822,-13.111752553809184,21.077087743689045,-0.361816793081283,-0.3168526475417793,0.4035695172361538,0.2167642403437316,-1.0,12.050666666666666,0.04,179.6857161310279,10.882923748948482,58.74530957949911,1525.0,1435.0,1000.0,1439.0,1475.0,1021.47,61.0,292.97,1637226929.587447,1637226930.594445,a8bb20b9-e244-465f-80f8-21b2aa0f4879
-0.0130352273145184,0.0862922161713237,0.0994683053689891,0.0644051156746219,-0.0305257330451193,-0.1407282489835261,-0.2154429826893469,-0.2433702690509078,-13.092819536147992,21.01774685722417,-0.1844994230756817,-0.3238552887788437,0.4166838067943523,0.2056994650051654,-1.0,12.053999999999998,0.04,179.68096990846465,10.883762059805363,58.71222034861002,1525.0,1435.0,1000.0,1439.0,1475.0,1021.47,61.0,292.97,1637226930.702647,1637226931.821221,a8bb20b9-e244-465f-80f8-21b2aa0f4879
0.0115490000640038,0.0983698413899239,0.1860321969526017,0.0606593808635851,0.0468006550250542,-0.1537695651651537,-0.1276825499285503,-0.1446575181052643,-12.423470284869556,21.09199515046273,-0.1797703350842287,-0.3395712155267409,0.4631529697249427,-0.1406973007010322,-1.0,12.05125,0.04,179.652140059433,10.887084187926666,58.61445254651178,1525.0,1435.0,1000.0,1351.0,1475.0,1021.47,61.0,292.97,1637226932.847347,1637226933.985398,dac86e4f-3183-4244-b572-6ef4949ec678
0.0161115977429937,0.1002501049222018,0.188096542181096,0.0619479530930089,0.0489701899057349,-0.1555577879985649,-0.125210594878625,-0.1481419229700217,-12.35657774138338,21.0146795188028,0.01452309132488,-0.3468413948033096,0.4679805408819447,-0.1493943972225684,-1.0,12.051666666666668,0.04,179.6536977220187,10.887505477789224,58.58957519514355,1525.0,1435.0,1000.0,1351.0,1475.0,1021.47,61.0,292.97,1637226934.0934007,1637226935.2142572,dac86e4f-3183-4244-b572-6ef4949ec678
0.0115090061249869,0.0984410634938168,0.1819763721678554,0.0606385620831296,0.0430110911747396,-0.1537810702930487,-0.1318802715160313,-0.156725830893611,-12.440417208269276,21.08213720196104,-0.2057629201720867,-0.3398300835634141,0.4635156920896948,-0.12406661140149,-1.0,12.051333333333334,0.04,179.67218780301184,10.896716746794892,58.576321592514105,1525.0,1435.0,1000.0,1351.0,1475.0,1021.47,61.0,292.97,1637226935.3222065,1637226936.441789,dac86e4f-3183-4244-b572-6ef4949ec678
0.0426138909273042,0.1193283149866347,0.2792767196773705,0.0546805591151145,0.1275736430715975,-0.1720659774965617,-0.0360591428845426,-0.0646438619763101,-11.69690833678682,21.258496120401645,0.0616320234481171,-0.3610480165022426,0.5411281686898128,-0.505003989644933,-1.0,12.050000000000002,0.04,179.67062900206128,10.883605629500623,58.531810767512944,1525.0,1435.0,1000.0,1262.0,1475.0,1021.47,61.0,292.97,1637226937.35293,1637226938.293187,83e1d3fb-3afc-411a-9738-3955f488539b
0.0444996331476225,0.1132673139948935,0.2764952227226047,0.0595680390621115,0.1276388386944971,-0.1716912396344007,-0.038889399841815,-0.0611764409493998,-11.87049720357922,21.2436571393396,-0.1099349674557758,-0.3715824861726978,0.5203666060233829,-0.4983194317099129,-1.0,12.048666666666668,0.04,179.66247527401208,10.877499155791416,58.47939893146189,1525.0,1435.0,1000.0,1262.0,1475.0,1021.47,61.0,292.97,1637226938.402394,1637226939.5158932,83e1d3fb-3afc-411a-9738-3955f488539b
0.0418879733354339,0.1120006562799856,0.2722092958590327,0.0609535829345529,0.1228209373515504,-0.1715044185543547,-0.0436059469063667,-0.0618086741607554,-11.811126021813363,21.32681794580461,-0.1144110191995634,-0.3739210768552461,0.5147944413122856,-0.4793397690171153,-1.0,12.051,0.04,179.67097810061887,10.875528741079606,58.46278487576079,1525.0,1435.0,1000.0,1262.0,1475.0,1021.47,61.0,292.97,1637226939.6250925,1637226940.7501955,83e1d3fb-3afc-411a-9738-3955f488539b
0.0686143420189562,0.1323723692368429,0.354414391538725,0.0634863505451253,0.1956044474394074,-0.1955955715761032,0.0342830961363434,0.0158091775026606,-11.309918148213804,21.44750840229032,0.2420043193233047,-0.4285679710918124,0.5893959981741722,-0.7981346840474438,-1.0,12.046333333333331,0.04,179.67327000854033,10.870845887493653,58.44855683280975,1525.0,1435.0,1000.0,1173.0,1475.0,1021.47,61.0,292.97,1637226941.858928,1637226942.9931526,a6b7fa9d-b732-4609-8025-c0f7f2f62975
0.0640900948168374,0.1293268025409638,0.3525259101794485,0.0697056838424939,0.1955496612114164,-0.1984455517583626,0.0318346993151834,0.0084683699321614,-11.36193801081554,21.42765879632006,0.2106188016546031,-0.4492583569773569,0.5777338348946014,-0.7923863406561011,-1.0,12.046666666666663,0.04,179.66681472086478,10.876736735925313,58.43056763235575,1525.0,1435.0,1000.0,1173.0,1475.0,1021.47,61.0,292.97,1637226943.1034672,1637226944.1196775,a6b7fa9d-b732-4609-8025-c0f7f2f62975
0.0714588433016254,0.1342849566337426,0.356634877450936,0.0628300114596397,0.197234337839648,-0.19732243384414,0.035231445844178,-0.0003385175811457,-11.365534577172545,21.489528831730222,0.1890270935555602,-0.4306152379020198,0.5976548279783868,-0.804636859479268,-1.0,12.04888888888889,0.04,179.6661726830828,10.867861758872529,58.445842212069614,1525.0,1435.0,1000.0,1173.0,1475.0,1021.47,61.0,292.97,1637226944.2330048,1637226945.3414462,a6b7fa9d-b732-4609-8025-c0f7f2f62975
-0.0773405721112047,0.0459284581724876,-0.078860890143803,0.0914558186930244,-0.1896249671870638,-0.1150061102248308,-0.3987166608138603,-0.428602558318521,-14.32304085024344,21.350185828249085,0.0011497472609209,-0.3343394608478524,0.2577269707950635,0.9210416074094347,-1.0,12.052,0.04,179.71392936575953,10.875688017296502,58.49903344859596,1525.0,1435.0,1000.0,1617.0,1475.0,1021.47,61.0,292.97,1637226947.2758,1637226948.3209846,aa67731f-da20-46b6-ab80-158a13495f60
-0.0649293822723537,0.0545088253481954,-0.0749426206157125,0.0852691886044404,-0.1882489897035801,-0.1160828705067124,-0.3954800580126179,-0.4241543362625055,-14.266475292994745,21.326296215074954,0.2607552199622942,-0.3226969704202369,0.288217029484626,0.9106177042879768,-1.0,12.052444444444443,0.04,179.6998030167361,10.86752385423609,58.46540235603272,1525.0,1435.0,1000.0,1617.0,1475.0,1021.47,61.0,292.97,1637226948.4289253,1637226949.5499432,aa67731f-da20-46b6-ab80-158a13495f60
-0.0805729600955663,0.0503798397232701,-0.0770118546373977,0.0898533213589343,-0.1892962497378051,-0.1171016838153583,-0.3987714470508582,-0.4323554160728011,-14.358494588078624,21.420806742221743,0.1196815137112482,-0.3348723808045724,0.2739384652105829,0.9187894149584817,-1.0,12.054,0.04,179.69793306272334,10.876669003216044,58.4632432573451,1525.0,1435.0,1000.0,1617.0,1475.0,1021.47,61.0,292.97,1637226949.6578484,1637226950.7808487,aa67731f-da20-46b6-ab80-158a13495f60
-0.1235275616833571,0.028576561937745,-0.1839326769089333,0.1143455070495551,-0.2846254042825478,-0.1140604997726261,-0.512729032436229,-0.5443385075970701,-15.114133443887727,21.68133585787462,-0.1281819141667598,-0.3873035488451497,0.1899186467261823,1.3532189392569112,-1.0,12.049888888888889,0.04,179.73424386617094,10.864368781158236,58.54620045827434,1525.0,1435.0,1000.0,1706.0,1475.0,1021.47,61.0,292.97,1637226952.9184542,1637226954.0560272,b55a38e4-5898-4edd-8af0-315d1a758f0f
-0.1104709055098293,0.0377149058868021,-0.1732690833065651,0.1096908686616684,-0.2772621333712848,-0.1181365958561052,-0.5038668088231969,-0.525904029809407,-15.044370785289097,21.722244617428704,0.0301501731313192,-0.3851008365096992,0.2235457307302328,1.3173565667631215,-1.0,12.04922222222222,0.04,179.73733566513525,10.866617431214983,58.55824056396126,1525.0,1435.0,1000.0,1706.0,1475.0,1021.47,61.0,292.97,1637226954.1645534,1637226955.2847085,b55a38e4-5898-4edd-8af0-315d1a758f0f
-0.1057883257852472,0.0347794594327801,-0.1780513741161373,0.1136031535933755,-0.2808714509801895,-0.120128623450557,-0.5077138992092777,-0.5239854159359588,-14.93802812441876,21.65565112936713,-0.1826358698546513,-0.3990623163564451,0.2128832847782401,1.333749510804673,-1.0,12.050555555555556,0.04,179.74060201337832,10.87832105522154,58.56052867733322,1525.0,1435.0,1000.0,1706.0,1475.0,1021.47,61.0,292.97,1637226955.3927848,1637226956.3988516,b55a38e4-5898-4edd-8af0-315d1a758f0f
-0.1462479625244255,0.0223155910171409,-0.2659422001376944,0.1511865094804854,-0.3600375720668067,-0.1380711164033807,-0.6103833328035172,-0.6350097537744923,-15.640151730678973,22.13095893387845,-0.2851423409825838,-0.5257556114055874,0.1618231064627192,1.705551639235752,-1.0,12.049,0.04,179.73968525020973,10.850642662247449,58.55889550321167,1525.0,1435.0,1000.0,1795.0,1475.0,1021.47,61.0,292.97,1637226958.3349104,1637226959.4736824,52bcecca-23f1-48a3-8dcc-73fe0fb37def
-0.1476587081633954,0.0195625827124859,-0.2684075810542664,0.1501044813737768,-0.3612291729258515,-0.1351811423534483,-0.6118762582586981,-0.6337085802677683,-15.726711333487565,22.088806073227264,-0.4136116098688413,-0.5172869100894839,0.1532251329147526,1.7120938069157654,-1.0,12.050111111111113,0.04,179.732005081943,10.862070707093745,58.500256811367294,1525.0,1435.0,1000.0,1795.0,1475.0,1021.47,61.0,292.97,1637226959.5814877,1637226960.701192,52bcecca-23f1-48a3-8dcc-73fe0fb37def
-0.1453439896074247,0.0204528590290674,-0.2678871117579597,0.1480910873182076,-0.360777186406447,-0.1347839421254419,-0.6097395943823539,-0.6340783877500183,-15.620975550898777,21.98533550219591,-0.48574834970257,-0.5124709017711334,0.1567343167021598,1.7078313111045311,-1.0,12.047444444444446,0.04,179.74668998865857,10.865076464647238,58.47883050794097,1525.0,1435.0,1000.0,1795.0,1475.0,1021.47,61.0,292.97,1637226960.8090713,1637226961.8377416,52bcecca-23f1-48a3-8dcc-73fe0fb37def
-0.16317691026105963,0.013330648476268456,-0.32115303574735504,0.18274337941720356,-0.4101121998924659,-0.15575337488964167,-0.6775375832682475,-0.7025749023573745,-16.034074998592292,22.57283799895914,-0.3936513278107972,-0.636710023499759,0.12449600887445034,1.9432065197274604,-1.0,12.040333333333333,0.03444444444444445,179.7483368231584,10.85678357149372,58.49384554046638,1525.0,1435.0,1000.0,1883.0,1475.0,1021.4699999999999,61.0,292.96999999999997,1637226962.8406684,1637226963.9051912,aeaf5ea1-26e6-4fc9-a689-f90cf9df3dee
-0.1725179640166794,0.008673818486493894,-0.3241525826503299,0.1853320288924812,-0.41275563633358275,-0.15446589828596338,-0.680811062141358,-0.6986713818948019,-16.045431119791175,22.681019745426884,-0.5457108907391942,-0.6391184137561486,0.10795110224265396,1.9547488373577595,-1.0,12.04111111111111,0.04,179.74482155246562,10.854640599641629,58.47241468358061,1525.0,1435.0,1000.0,1883.0,1475.0,1021.4699999999999,61.0,292.96999999999997,1637226964.0135174,1637226965.0026913,aeaf5ea1-26e6-4fc9-a689-f90cf9df3dee
-0.1618072543036915,0.010194136516185774,-0.3227007470908978,0.18275707597934657,-0.4106600623289083,-0.15293188358487864,-0.6785922186633627,-0.7031227648272814,-16.12093122710697,22.582957645950803,-0.4372966761695409,-0.6304613117584114,0.11363412533215106,1.9470581551549222,-1.0,12.044666666666666,0.04,179.75779284060934,10.855741872781557,58.47633445325428,1525.0,1435.0,1000.0,1883.0,1475.0,1021.4699999999999,61.0,292.96999999999997,1637226965.1106722,1637226966.3440523,aeaf5ea1-26e6-4fc9-a689-f90cf9df3dee
