raw_voltage_G-,raw_voltage_G0,raw_voltage_G1,raw_voltage_G2,raw_voltage_G3,raw_voltage_G4,raw_voltage_G5,raw_voltage_G6,load_x,load_y,load_z,load_l,load_m,load_n,rpm,voltage,current,roll,pitch,yaw,aileron1_pwm,elevator_pwm,throttle_pwm,rudder_pwm,aileron2_pwm,pbaro,pdiff,Tt,sample_start_time,sample_end_time,uid
-0.0336956646982005,0.0764246675899826,0.0085379486249185,-0.0154452737893938,-0.1086563852681913,0.0546635753787901,-0.2504387895815786,-0.2750137062299027,-13.515689056239752,19.415969579473053,15.292114427245895,0.2824472450855669,0.249538255839755,0.5061868612507261,-1.0,12.057,0.04,179.10043418540988,0.9821390950059192,84.03766096495676,1525.0,1435.0,1000.0,1528.0,1475.0,1021.47,61.0,292.79999999999995,1637225429.8072922,1637225431.0519035,905020f1-988b-4c7f-ba10-18228563309e
-0.0239393318092158,0.073965861406967,0.005829317160629,-0.0127103449185667,-0.1102868236951471,0.0545189397102102,-0.2528450012916722,-0.2768808212961546,-13.522182710001813,19.39641109129576,15.267673641835325,0.2756812078679353,0.2400700434883492,0.5152211516853952,-1.0,12.057555555555556,0.04,179.11782384703673,0.9807204433709664,84.05164691564725,1525.0,1435.0,1000.0,1528.0,1475.0,1021.47,61.0,292.79999999999995,1637225431.1651878,1637225432.271575,905020f1-988b-4c7f-ba10-18228563309e
-0.0185615149115954,0.0795672059668128,0.0120092044857276,-0.0157739912020646,-0.1060266458634692,0.0513369552263959,-0.247427737774096,-0.2669272568608129,-13.448770540484158,19.38849947185828,15.238865437852304,0.2757293309565199,0.2615830624317105,0.4939465952777273,-1.0,12.055777777777775,0.04,179.10927245019587,0.9800513812814876,84.01972944165577,1525.0,1435.0,1000.0,1528.0,1475.0,1021.47,61.0,292.79999999999995,1637225432.3796628,1637225433.5013657,905020f1-988b-4c7f-ba10-18228563309e
0.1217350741763408,0.358911245331158,0.01445486202261,-0.1543218104544401,-0.168601295729312,-0.0911554695950099,-0.308069533064454,-0.3341828481961454,-13.38954457528265,18.803586191825524,15.53816886200221,0.2643816024650653,1.3234244682052003,0.695472301328481,-1.0,12.047444444444444,0.04,179.03395215966864,0.9666150473757994,84.01531789836184,1644.0,1435.0,1000.0,1528.0,1569.0,1021.47,61.0,292.79999999999995,1637225434.411267,1637225435.4433448,0024c197-49e3-45c8-bab7-40bbf7ef17e2
0.1212091263377539,0.3594371931425031,0.0177946309002482,-0.1532567659727361,-0.1655245005602821,-0.0928253541062138,-0.3049401429011774,-0.3231379418259579,-13.354281667089854,18.80566029943111,15.538153979669822,0.2584244653688065,1.3252282709192116,0.6823703037695965,-1.0,12.047777777777778,0.04,179.03550640715977,0.9744834015837196,83.95131371346946,1644.0,1435.0,1000.0,1528.0,1569.0,1021.47,61.0,292.79999999999995,1637225435.57586,1637225436.6731832,0024c197-49e3-45c8-bab7-40bbf7ef17e2
0.1253821937311369,0.3565937877858891,0.0142483179161908,-0.1523566280746337,-0.1682720304329194,-0.0904207861581289,-0.3080180339951564,-0.3094150835304078,-13.390286663714647,18.82118221084802,15.57623540575459,0.2617116203650933,1.3141457115190225,0.6950148158538655,-1.0,12.04788888888889,0.04,179.0355959585289,0.9711599809439796,83.89369879109069,1644.0,1435.0,1000.0,1528.0,1569.0,1021.47,61.0,292.79999999999995,1637225436.7849178,1637225437.8015184,0024c197-49e3-45c8-bab7-40bbf7ef17e2
0.2792170026633236,0.6294062005309079,0.027748194060474,-0.2811278506077282,-0.2218009258645542,-0.2367509951866347,-0.3608089623931201,-0.381281486615749,-13.235152955147017,18.642657250460555,15.767429545186843,0.2229617392386818,2.3512728669870584,0.8570169962173008,-1.0,12.040777777777777,0.0322222222222222,178.9667916684698,0.9660919212899932,83.73863072963417,1763.0,1435.0,1000.0,1528.0,1663.0,1021.47,61.0,292.79999999999995,1637225439.8280883,1637225441.0744898,8222a079-c884-4a32-9d3c-66c0657d8b3d
0.2712357445129106,0.6271840710814547,0.0276955992754378,-0.2813776759163389,-0.2214853571181915,-0.2338056869136566,-0.3601515274675842,-0.3894862745461049,-13.257487206517949,18.65953269617009,15.846102178032796,0.2302543337593645,2.3424270440993062,0.8555401729585113,-1.0,12.038666666666668,0.04,178.97660740921702,0.961178240512404,83.63883104112158,1763.0,1435.0,1000.0,1528.0,1663.0,1021.47,61.0,292.79999999999995,1637225441.1832688,1637225442.3956728,8222a079-c884-4a32-9d3c-66c0657d8b3d
0.2738654835965304,0.62727611194608,0.0250790087009774,-0.2801942930577032,-0.223786379210738,-0.2353309358413064,-0.3635438916892065,-0.3976516164448821,-13.296913461288428,18.668526824862774,15.774017422972095,0.2240554714906484,2.3433787628922933,0.8669595337312921,-1.0,12.040555555555551,0.0355555555555555,178.96000853171407,0.9674522672996876,83.5778905755269,1763.0,1435.0,1000.0,1528.0,1663.0,1021.47,61.0,292.79999999999995,1637225442.5052643,1637225443.5363748,8222a079-c884-4a32-9d3c-66c0657d8b3d
0.2947538299160105,0.677367161137629,0.0443122642395185,-0.3122502712774673,-0.2233869875315777,-0.2621756461223608,-0.3594760130871181,-0.3794729926330472,-13.15358525588855,19.122030690863067,14.822791517892936,0.2399267927278071,2.5438406558723603,0.8387591495149075,-1.0,12.020666666666669,0.0366666666666666,178.94199049268357,0.9616212660290376,83.4426680081588,1881.0,1435.0,1000.0,1528.0,1757.0,1021.47,61.0,292.79999999999995,1637225445.470413,1637225446.4162495,21f15fb0-e2e5-4479-8495-b59a80fa9673
0.3075601113802251,0.6882011379267343,0.0506674674467857,-0.3134555687300726,-0.2194560747792247,-0.27194129376456,-0.3566271284029307,-0.3896906273232917,-13.142870868059449,19.12153113177989,14.821198980400816,0.2210192088423062,2.584964212088236,0.8219918538101325,-1.0,12.021333333333333,0.03,178.9582053617732,0.9678804940731196,83.29954367083091,1881.0,1435.0,1000.0,1528.0,1757.0,1021.47,61.0,292.79999999999995,1637225446.528673,1637225447.6292143,21f15fb0-e2e5-4479-8495-b59a80fa9673
0.3159834943809564,0.6956520650746837,0.0476268314399081,-0.3180439165044261,-0.2248799125669257,-0.2762967999196478,-0.3618729112570553,-0.386458238950726,-13.116046716760003,19.158056720299644,14.606874815392246,0.2216520606321212,2.6149921970980063,0.8415557301334632,-1.0,12.023888888888887,0.03,178.93603153208767,0.9557661812267824,83.19374024603788,1881.0,1435.0,1000.0,1528.0,1757.0,1021.47,61.0,292.79999999999995,1637225447.7384949,1637225448.860795,21f15fb0-e2e5-4479-8495-b59a80fa9673
0.3795081285660608,0.8124152159642924,0.0741296722173846,-0.3620372701910043,-0.2307694334574351,-0.3466560322829193,-0.3699401857894532,-0.4080577160490124,-13.032083550090846,19.5821290705527,15.174831748517306,0.1670473903949736,3.0544007999563854,0.8393656001355461,-1.0,12.004444444444443,0.09,178.914073232816,0.9432891213024944,82.94001389657006,2000.0,1435.0,1000.0,1528.0,1852.0,1021.47,61.0,292.79999999999995,1637225450.8873165,1637225451.9332669,e08f2fb8-8f60-44f1-a6cf-b07019a89354
0.3783055708186793,0.8046651559643757,0.0747284857426399,-0.361242869494751,-0.2285199104418537,-0.3386271080461085,-0.3658054679329771,-0.3957976499858071,-12.985193075649711,19.545692242489107,15.358993827456722,0.1831387146041101,3.023308795760018,0.8289751601655355,-1.0,12.005666666666668,0.09,178.90429240192455,0.9421520608172296,82.75923017288844,2000.0,1435.0,1000.0,1528.0,1852.0,1021.47,61.0,292.79999999999995,1637225452.04183,1637225453.1582336,e08f2fb8-8f60-44f1-a6cf-b07019a89354
0.3634738425672603,0.7935808060546192,0.0668918628368916,-0.3556941187283967,-0.2329247241593452,-0.3337226435913353,-0.3716303413841743,-0.4039892892424892,-13.058975669607086,19.537384780156223,15.18662123802802,0.1811331786724122,2.9826055823650965,0.8523663737472512,-1.0,12.008555555555557,0.0877777777777777,178.9097626245398,0.9234957311224244,82.60663615773127,2000.0,1435.0,1000.0,1528.0,1852.0,1021.47,61.0,292.79999999999995,1637225453.265971,1637225454.390658,e08f2fb8-8f60-44f1-a6cf-b07019a89354
-0.1830385655411111,-0.1953720437008589,0.002831414364347,0.1145427375040001,-0.0532477766313251,0.1953414735278509,-0.196923590014638,-0.221182937323195,-13.66599297482494,20.21980011169708,14.62369031536473,0.3102104921852235,-0.7792290601435363,0.3291772715500701,-1.0,12.050222222222224,0.04,179.20231025143016,0.9358093408253244,82.44257577277747,1406.0,1435.0,1000.0,1528.0,1381.0,1021.47,61.0,292.79999999999995,1637225455.3931303,1637225456.4386275,8e9de9d3-121d-4346-8774-4e050c912a66
-0.1754353312400538,-0.192035561712643,0.0034965192639828,0.1142742849576805,-0.0534400763180733,0.1917283215134289,-0.197130681993361,-0.2187849436307779,-13.614035529191533,20.20763322661426,14.541330958563137,0.3026623078756008,-0.7662780072336909,0.3291539631794084,-1.0,12.051,0.04,179.2039616393895,0.9446742741797992,82.56378582760834,1406.0,1435.0,1000.0,1528.0,1381.0,1021.47,61.0,292.79999999999995,1637225456.5482776,1637225457.6679096,8e9de9d3-121d-4346-8774-4e050c912a66
-0.1692718793553993,-0.1891455875773449,0.0049346579377643,0.1119869596921281,-0.0529333036350517,0.1910024039295467,-0.1960760468859208,-0.2262906585709057,-13.599892358127509,20.20679114177562,14.550784976403156,0.306265373299406,-0.7552499650062833,0.3253550054803633,-1.0,12.050444444444445,0.04,179.19915015057418,0.9435969541338372,82.70480039539262,1406.0,1435.0,1000.0,1528.0,1381.0,1021.47,61.0,292.79999999999995,1637225457.7766068,1637225459.103891,8e9de9d3-121d-4346-8774-4e050c912a66
-0.3181123992896505,-0.4644464598000493,0.0012639801659146,0.2510892036682533,0.00272951196066,0.3311592802775329,-0.1438099748710534,-0.1652040013520038,-13.70710345781436,21.38535613757411,14.511205147172738,0.31500580424962,-1.8040251858135867,0.1474217495877336,-1.0,12.04077777777778,0.0322222222222222,179.28184249194564,0.9498198137921824,82.8199171625739,1287.0,1435.0,1000.0,1528.0,1287.0,1021.47,61.0,292.79999999999995,1637225459.8063328,1637225460.9436462,456fb78c-3058-42ef-8a58-9bed40570904
-0.3163532130253511,-0.4666822865577759,-0.0019284137815151,0.2528670168437764,0.0006881768206745,0.3321142042485377,-0.1467876069496171,-0.1703369240498818,-13.762346843411091,21.370716771894536,14.54494668180626,0.3128628994119896,-1.812740462675216,0.158553237293388,-1.0,12.041249999999998,0.04,179.2828692970509,0.9566615081549767,82.85358752872487,1287.0,1435.0,1000.0,1528.0,1287.0,1021.47,61.0,292.79999999999995,1637225461.0525565,1637225462.1689956,456fb78c-3058-42ef-8a58-9bed40570904
-0.3251628408959308,-0.4602788699635221,-0.0012052354691962,0.248028296906221,-0.0001401910521412,0.3302207921412448,-0.1468270530370848,-0.1699293144016107,-13.750276271659192,21.33297347103046,14.537330078922396,0.3193137827185711,-1.7881007284432666,0.1594974724268604,-1.0,12.039111111111112,0.04,179.2727431621514,0.9567244947128306,82.87901423600258,1287.0,1435.0,1000.0,1528.0,1287.0,1021.47,61.0,292.79999999999995,1637225462.2781098,1637225463.2900522,456fb78c-3058-42ef-8a58-9bed40570904
-0.4036885126506009,-0.6033296028467122,-0.0026258425488793,0.3447873550914229,0.0283557733945885,0.391355650820551,-0.1270864756646995,-0.146617770105915,-13.792596682533093,22.39120796570607,16.025952099036548,0.2455876633811494,-2.3495072598538385,0.0796899008970261,-1.0,12.02,0.0399999999999999,179.32892526262427,0.9421457500070276,82.8802741023405,1169.0,1435.0,1000.0,1528.0,1193.0,1021.47,61.0,292.79999999999995,1637225465.33614,1637225466.4735858,1617d277-4613-481c-8b18-2eb99918ddc1
-0.4020997115608192,-0.601398387462794,-0.0017218696695246,0.34314376818721,0.0284516493051268,0.3909721472004002,-0.1264153442637572,-0.1430292712283784,-13.76657876764606,22.400268662122528,16.031092807824148,0.2485524013951708,-2.342233916922004,0.0776125447140683,-1.0,12.021,0.04,179.3109436512693,0.9246832472585892,82.74946831474466,1169.0,1435.0,1000.0,1528.0,1193.0,1021.47,61.0,292.79999999999995,1637225466.581425,1637225467.7022305,1617d277-4613-481c-8b18-2eb99918ddc1
-0.4103861311714049,-0.6125884794670154,-0.0065019686973329,0.3489100189562622,0.0268491519459323,0.3984504676312396,-0.1287711524899908,-0.1562464512457333,-13.834356324679163,22.41799459919377,16.262892225061126,0.2522322599609397,-2.386790966015748,0.0886339900070966,-1.0,12.020444444444443,0.03,179.3129304774079,0.9450545710493676,82.66240085775489,1169.0,1435.0,1000.0,1528.0,1193.0,1021.47,61.0,292.79999999999995,1637225467.8103373,1637225468.931431,1617d277-4613-481c-8b18-2eb99918ddc1
-0.4390119447339067,-0.687782612997719,0.0100160812436465,0.3827953023730321,0.055433869831472,0.4317194057207702,-0.1009534402900231,-0.1239910533507162,-13.909277918611728,23.10799178157396,15.117777278828871,0.2557314202712467,-2.661248428386272,-0.0231738987864831,-1.0,11.982,0.19,179.33523635741733,0.9406074064216506,82.45284154710001,1050.0,1435.0,1000.0,1528.0,1098.0,1021.47,61.0,292.79999999999995,1637225470.8658288,1637225472.010841,dc3b0628-9118-43a7-be5a-1bbd741d90a6
-0.4402271037380237,-0.685923715359598,0.012719234074943,0.3821975845361908,0.0577535189845596,0.430361255032965,-0.0988869034520711,-0.1310486169407843,-13.934981859255547,23.110429814596813,15.123855171672012,0.2541665704524731,-2.6539033753988286,-0.0327510654937459,-1.0,11.984666666666666,0.19,179.3265711240903,0.945239911078408,82.11043961054783,1050.0,1435.0,1000.0,1528.0,1098.0,1021.47,61.0,292.79999999999995,1637225472.123777,1637225473.12098,dc3b0628-9118-43a7-be5a-1bbd741d90a6
-0.4502069663999306,-0.7058308491987636,0.0085379486150162,0.3958853763219884,0.0591604294857297,0.4360940861635277,-0.1005962340303103,-0.1203455771368889,-14.0489293436374,23.17179030952066,14.935060312820594,0.2362838155021914,-2.7280367450882235,-0.0291939511972775,-1.0,11.984111111111112,0.18,179.32738619333128,0.906618298109421,81.81826992079154,1050.0,1435.0,1000.0,1528.0,1098.0,1021.47,61.0,292.79999999999995,1637225473.229478,1637225474.256449,dc3b0628-9118-43a7-be5a-1bbd741d90a6
-0.0195821824735621,0.1057550256682306,0.0096188810436521,-0.0256771511797504,-0.1143897650390287,0.0376694333087448,-0.2563683044613064,-0.2816521551690513,-13.43705267770243,19.37038428412265,15.603558602866247,0.2671806096680379,0.3575555558787298,0.5249370958715186,-1.0,12.055222222222222,0.04,179.12243498363642,0.9266038347917668,81.4283920982285,1525.0,1435.0,1000.0,1528.0,1475.0,1021.47,61.0,292.79999999999995,1637225476.3956232,1637225477.533807,2f0dcf22-0ad7-4638-a6ed-9bb5df7b098e
-0.0186272583875758,0.1014992310500264,0.0057767223749453,-0.0212438489750392,-0.1163615217292507,0.0367944971353731,-0.260523840853279,-0.2868080883756143,-13.524086821139498,19.37254304066049,15.43647801982704,0.2549666200796694,0.3429012056703771,0.5380030998784724,-1.0,12.055666666666664,0.04,179.13208831766335,0.9460396123937306,81.79456157527251,1525.0,1435.0,1000.0,1528.0,1475.0,1021.47,61.0,292.79999999999995,1637225477.6417742,1637225478.6495504,2f0dcf22-0ad7-4638-a6ed-9bb5df7b098e
-0.0119805922817436,0.1082888889688119,0.010057170930477,-0.0230200187380152,-0.113718633621192,0.0306978849429119,-0.2585323609824619,-0.278337587565083,-13.53488078709985,19.37938010649153,15.30721940995638,0.2455057457902398,0.3700787218595865,0.5263465384426427,-1.0,12.055,0.04,179.1347186994037,0.9561131216343104,82.11793460479706,1525.0,1435.0,1000.0,1528.0,1475.0,1021.47,61.0,292.79999999999995,1637225478.757496,1637225479.6932845,2f0dcf22-0ad7-4638-a6ed-9bb5df7b098e
-0.005776051116077,0.1023719757511004,-0.0041735536851902,-0.2297284948679222,-0.1475628321996915,0.2385020669870987,-0.2135391608400572,-0.2287971290939191,-13.471364677414549,18.90731821764201,17.08764145568667,1.1752309991850676,0.3561973926312169,0.5280017776467393,-1.0,12.058555555555554,0.04,179.13726408323444,1.026188811090297,82.7683477165205,1525.0,1535.0,1000.0,1528.0,1475.0,1021.47,61.0,292.79999999999995,1637225481.8125727,1637225482.858058,5ad93cfc-5c18-47f0-b9fe-7883ab055a27
-0.0077072659108163,0.1019199893248806,-0.0072552794267206,-0.2298791570352924,-0.1498501576553013,0.2385979428950252,-0.2161141141215776,-0.2419869163656544,-13.489286660746885,18.844538473370207,16.997718061278693,1.1751933224325206,0.3552481249506654,0.5388145060932952,-1.0,12.055444444444444,0.04,179.12693380156972,1.0346615303180573,82.92954093984271,1525.0,1535.0,1000.0,1528.0,1475.0,1021.47,61.0,292.79999999999995,1637225482.966315,1637225484.086305,5ad93cfc-5c18-47f0-b9fe-7883ab055a27
-0.0073374588211306,0.1009612302366377,-0.0055979958044217,-0.2278383695963378,-0.1483846257761908,0.2372967698854088,-0.2148266374799939,-0.2306324681078174,-13.452712531186556,18.88725215962452,16.95700219605771,1.1680434924656324,0.3516087191632022,0.5325787506836152,-1.0,12.058,0.04,179.13206555036612,1.0454923604987971,83.0582763453191,1525.0,1535.0,1000.0,1528.0,1475.0,1021.47,61.0,292.79999999999995,1637225484.1941776,1637225485.316367,5ad93cfc-5c18-47f0-b9fe-7883ab055a27
0.0050140979410811,0.0994348857714597,-0.0182065000575307,-0.4268022818287262,-0.1826309558492364,0.4328200610917938,-0.1744919121556893,-0.1987775565111779,-13.428655164396982,18.671031866135607,18.60248408601088,2.054437513475485,0.3548236001250552,0.5394793646974926,-1.0,12.050666666666665,0.04,179.15837088558956,1.0848606815272026,83.37125155019714,1525.0,1636.0,1000.0,1528.0,1475.0,1021.47,61.0,292.79999999999995,1637225487.3425634,1637225488.5888784,1a77a9cb-0b67-4ead-a06b-fb1a20af5bb0
0.0049483544619173,0.1011836623467484,-0.0154058276942162,-0.4267891331106557,-0.1802510416194674,0.4310186898593649,-0.1717175370087469,-0.2013547014057983,-13.377135016192767,18.64259281313705,18.613238401205308,2.050338508604495,0.3610980598589147,0.5287446783370658,-1.0,12.054,0.04,179.14903174026443,1.0763865867752345,83.39818753955396,1525.0,1636.0,1000.0,1528.0,1475.0,1021.47,61.0,292.79999999999995,1637225488.697505,1637225489.821204,1a77a9cb-0b67-4ead-a06b-fb1a20af5bb0
-0.0059650636271754,0.0968840387341269,-0.0169442251925441,-0.4268417279096613,-0.1808427330036003,0.435791666196515,-0.1715334552499955,-0.1920717209142748,-13.380078356502151,18.63439341381556,18.68083479045688,2.061061001632364,0.3443023945999032,0.5309614248501744,-1.0,12.051444444444446,0.04,179.16577177501026,1.0835673211748371,83.46504977915903,1525.0,1636.0,1000.0,1528.0,1475.0,1021.47,61.0,292.79999999999995,1637225489.9299395,1637225490.944475,1a77a9cb-0b67-4ead-a06b-fb1a20af5bb0
0.0070258484890585,0.0959110352199364,-0.0252147553459721,-0.5728843352297969,-0.2087311204281089,0.5788100222456882,-0.1450256815073921,-0.1709023179336938,-13.36873023653325,18.89088015837907,19.82519864018549,2.7133552802733583,0.3478912658966037,0.542597082647495,-1.0,12.046333333333331,0.04,179.18391579308542,1.1288795313226752,83.54148490834083,1525.0,1737.0,1000.0,1528.0,1475.0,1021.47,61.0,292.79999999999995,1637225491.8474352,1637225492.8899145,67a57149-7c92-4f5e-9362-f3451cefc421
0.0254426207308387,0.0961674347975858,-0.0225374784415383,-0.56963711184427,-0.206050303283788,0.5751592365204506,-0.1432905592160064,-0.1670214291977099,-13.348311078080725,18.90882826668067,19.78368974913085,2.698082489325464,0.3488465174382217,0.5328337102945747,-1.0,12.046333333333331,0.04,179.17838333985773,1.117010666541668,83.50730436500436,1525.0,1737.0,1000.0,1528.0,1475.0,1021.47,61.0,292.79999999999995,1637225492.9989235,1637225494.1223133,67a57149-7c92-4f5e-9362-f3451cefc421
-0.0052418852797003,0.0986328153105348,-0.0213490385686877,-0.5686636023392408,-0.2052917245967862,0.5725674264504316,-0.1424940515939109,-0.1613068033563423,-13.290409433748009,18.881563736200462,19.89367809409906,2.689987462597773,0.356663574274622,0.5295601250563945,-1.0,12.04688888888889,0.04,179.18186673633443,1.1124377125967366,83.49226808300153,1525.0,1737.0,1000.0,1528.0,1475.0,1021.47,61.0,292.79999999999995,1637225494.2310195,1637225495.3513107,67a57149-7c92-4f5e-9362-f3451cefc421
0.010769391954275,0.0969755317446167,-0.0197328445950534,-0.5578022280431846,-0.2062936806097316,0.5629735148675254,-0.1472478113466286,-0.1647931045460456,-13.261030587170644,19.33376522856943,19.70322618779604,2.646990666336365,0.3507006469378059,0.5349511559565591,-1.0,12.044333333333334,0.04,179.19013581868958,1.1181603083302478,83.44386784472302,1525.0,1837.0,1000.0,1528.0,1475.0,1021.47,61.0,292.79999999999995,1637225497.3775637,1637225498.628796,776a5265-568a-4764-837b-4a4488b8a16e
0.0079068111482608,0.0952360688251722,-0.0229104462627106,-0.5555285986952646,-0.2088549373205933,0.5626447974900683,-0.1511650274013206,-0.1753257592075906,-13.32111918023682,19.377386482554176,19.684327053711723,2.641220931247416,0.3442887625928899,0.5480712623206397,-1.0,12.042599999999998,0.0399999999999999,179.17966650472977,1.1050110131244293,83.36648043538892,1525.0,1837.0,1000.0,1528.0,1475.0,1021.47,61.0,292.79999999999995,1637225498.7377832,1637225499.856227,776a5265-568a-4764-837b-4a4488b8a16e
0.0058249342189573,0.0946471168131753,-0.0197191480355338,-0.5536658661270949,-0.2049514177352388,0.56156276946518,-0.1489050950531946,-0.1666010504658475,-13.438612280887227,19.395629025188164,19.71369170591738,2.634812976724975,0.3426244420026202,0.5350836074080866,-1.0,12.0442,0.0399999999999999,179.2000477892131,1.1069202217521772,83.31446717882145,1525.0,1837.0,1000.0,1528.0,1475.0,1021.47,61.0,292.79999999999995,1637225499.965801,1637225501.085519,776a5265-568a-4764-837b-4a4488b8a16e
-0.0179112022837928,0.1088915375346627,0.0273285315040615,0.1902080035635485,-0.0778336481933965,-0.1767228078317061,-0.3016765264300303,-0.3209475877289316,-13.506677067514628,20.104513348358893,13.709709336651413,-0.6961598842790294,0.3611523693492968,0.5147667161638372,-1.0,12.0566,0.04,179.19416016614855,0.898491407011855,83.25129612522582,1525.0,1334.0,1000.0,1528.0,1475.0,1021.47,61.0,292.79999999999995,1637225501.882907,1637225502.934562,c9a7dc8f-05e3-4a80-b592-c9bda511c2a6
-0.0151034077077109,0.1085206347340269,0.0287606436839573,0.1892799247936804,-0.0772047021916743,-0.175386023588814,-0.299483433145247,-0.3258465734649657,-13.40682906883376,20.126954179552783,13.739726898637334,-0.6907873147515587,0.3589939490748938,0.5088853812188568,-1.0,12.055333333333335,0.04,179.19007207025734,0.8915802196245445,83.38760529979989,1525.0,1334.0,1000.0,1528.0,1475.0,1021.47,61.0,292.79999999999995,1637225503.0441885,1637225504.1572807,c9a7dc8f-05e3-4a80-b592-c9bda511c2a6
-0.0172400708974595,0.107645150725426,0.025301440820423,0.1932075497866588,-0.0795183249731913,-0.1783526984285932,-0.3039638520465011,-0.3254674526077052,-13.46842430491966,20.116741897021218,13.68010867388478,-0.7065940415696814,0.3559716596008944,0.5229365893860031,-1.0,12.055777777777775,0.04,179.18915834272835,0.8934667214306921,83.51387045352647,1525.0,1334.0,1000.0,1528.0,1475.0,1021.47,61.0,292.79999999999995,1637225504.265996,1637225505.3861094,c9a7dc8f-05e3-4a80-b592-c9bda511c2a6
-0.0296765464388529,0.1110282006359111,0.044572498863811,0.4109828177436589,-0.0432498363734331,-0.3921697045079566,-0.350285620635477,-0.3741861204090407,-13.57687773845879,21.10121371297773,12.148883715874405,-1.6711299789767828,0.3574245501334183,0.512900627802482,-1.0,12.048222222222222,0.04,179.18296108442144,0.8269283762736848,83.84485383160622,1525.0,1234.0,1000.0,1528.0,1475.0,1021.47,61.0,292.79999999999995,1637225507.278925,1637225508.4574354,ebe91daf-1db0-4c1f-9568-137472a4b6ae
-0.0330185068142393,0.1073438264409938,0.0403950484851461,0.4143932605529188,-0.0459480585019981,-0.3920875251627258,-0.3543534992387589,-0.3863075766368411,-13.621552789095952,21.098117317683105,12.062395629738072,-1.6789032449311208,0.3440038684750332,0.5274939590522177,-1.0,12.048555555555556,0.04,179.1740105009691,0.8206810121258956,83.89673139508217,1525.0,1234.0,1000.0,1528.0,1475.0,1021.47,61.0,292.79999999999995,1637225508.5659573,1637225509.580309,ebe91daf-1db0-4c1f-9568-137472a4b6ae
-0.027870792090847,0.1088625008317114,0.0426062209075122,0.4127551522764641,-0.0436229306410323,-0.3921028653231067,-0.3513287507257722,-0.3824254233978089,-13.60240685390372,21.01304196225041,12.078385709558509,-1.6756842320852108,0.3497630107991969,0.5172466370357155,-1.0,12.053999999999998,0.04,179.1827045728726,0.831433111332687,83.94747818279556,1525.0,1234.0,1000.0,1528.0,1475.0,1021.47,61.0,292.79999999999995,1637225509.6976268,1637225510.8031435,ebe91daf-1db0-4c1f-9568-137472a4b6ae
-0.0306626986724873,0.1154521889741803,0.0523110544341531,0.5151725297921549,-0.0303476778357485,-0.4970716710497032,-0.3776102600378156,-0.4070715636716682,-13.62739168422935,21.84853070551205,11.407701544555358,-2.13668936141374,0.3686190738791391,0.5237448204285154,-1.0,12.048555555555556,0.04,179.17761228739138,0.7916241778839956,84.05799292029607,1525.0,1133.0,1000.0,1528.0,1475.0,1021.47,61.0,292.79999999999995,1637225512.850258,1637225513.9875023,4c3a93ce-6595-4249-8453-e56a7f098f25
-0.041374503547215,0.1077054155785488,0.0520601335113366,0.5275169629931781,-0.0277787511933597,-0.5021837757495038,-0.378914720534678,-0.4005443302376065,-13.672017493311404,21.89048458946877,11.21173616283178,-2.175811038483751,0.3400815909022368,0.5212912144295683,-1.0,12.047,0.04,179.1845214031918,0.7893121351340119,84.0998460428002,1525.0,1133.0,1000.0,1528.0,1475.0,1021.47,61.0,292.79999999999995,1637225514.0965295,1637225515.1036046,4c3a93ce-6595-4249-8453-e56a7f098f25
-0.0385475337688435,0.1138064105260125,0.0538089101049488,0.5212713328583526,-0.0273842903038979,-0.5025124932165087,-0.3770476052575655,-0.4038578025393535,-13.65640749260043,21.81283062972252,11.212003546264098,-2.162880898909993,0.363729694670292,0.5164384180637073,-1.0,12.047999999999998,0.04,179.19281780630365,0.7966914015512865,84.13074733642515,1525.0,1133.0,1000.0,1528.0,1475.0,1021.47,61.0,292.79999999999995,1637225515.212293,1637225516.3324172,4c3a93ce-6595-4249-8453-e56a7f098f25
-0.0252051466820534,0.1147905398524624,0.0565317016653109,0.5458781041690346,-0.0259257964221522,-0.5271566965219557,-0.3848093832718729,-0.4040646413031312,-13.635078319900632,22.246584469566656,11.042225865168437,-2.27077190519869,0.3659248970696446,0.5217238232728971,-1.0,12.043555555555557,0.04,179.18752365078703,0.7885721979739271,84.15387966932417,1525.0,1055.2222222222222,1000.0,1528.0,1475.0,1021.47,61.0,292.79999999999995,1637225518.3797066,1637225519.4048436,a1f3590e-308b-44f7-954a-9735eca7645f
-0.0404672434436396,0.1135565853059975,0.0564123519547052,0.5543271521626124,-0.0255040266999918,-0.5334908296897735,-0.3875665642797843,-0.4077892633344006,-13.662959008373312,22.34458176738669,11.06380346171346,-2.303431432145416,0.3602567454313331,0.5251331718983386,-1.0,12.04411111111111,0.04,179.18974877463663,0.7790589895466667,84.13020092129156,1525.0,1033.0,1000.0,1528.0,1475.0,1021.47,61.0,292.79999999999995,1637225519.5130565,1637225520.6342714,a1f3590e-308b-44f7-954a-9735eca7645f
-0.0371148315073354,0.1169777748493408,0.0598315186649755,0.560114095094584,-0.0224110487184194,-0.5429857087225726,-0.3873126932900478,-0.4053415822603595,-13.675304744928807,22.38320133805712,10.961911335250452,-2.3374178098031235,0.3735836490806681,0.5161947763042382,-1.0,12.044111111111112,0.04,179.1903619738421,0.7972006834602592,84.11521624516246,1525.0,1033.0,1000.0,1528.0,1475.0,1021.47,61.0,292.79999999999995,1637225520.7432437,1637225521.8623989,a1f3590e-308b-44f7-954a-9735eca7645f
-0.012920724095606,0.0992771014155952,0.0069732537518827,-0.0250306735922137,-0.1146390424171692,0.0420145295712707,-0.2568159080420747,-0.2756579925282666,-13.508089317389224,19.295651217294218,15.393062082404866,0.2747898645838156,0.3353792252942738,0.5284261403173669,-1.0,12.056111111111113,0.04,179.20395405029043,0.9126661341702844,84.07772154225871,1525.0,1435.0,1000.0,1528.0,1475.0,1021.47,61.0,292.79999999999995,1637225522.8858109,1637225524.0230625,b2c3571b-2a05-4f16-a0c5-e3d4c688f984
-0.0148431730869819,0.1054537013854087,0.0095914879294941,-0.0252388613019375,-0.1141021372900313,0.0365463154850797,-0.2563956975756344,-0.2713934314742605,-13.439946983309497,19.34749455683944,15.459468248854757,0.2634906108571261,0.3576668733330828,0.5243932045360109,-1.0,12.053333333333336,0.04,179.20378253665126,0.94173285795692,84.08133623014947,1525.0,1435.0,1000.0,1528.0,1475.0,1021.47,61.0,292.79999999999995,1637225524.1321597,1637225525.138621,b2c3571b-2a05-4f16-a0c5-e3d4c688f984
-0.0082551282631154,0.1014816994555314,0.0082218320480415,-0.0250881991337005,-0.1142664960024035,0.0400937241902093,-0.256354607895645,-0.2834874943255703,-13.473062029170498,19.32216211117928,15.4256098856874,0.270864056884962,0.3431981088727827,0.52588574872722,-1.0,12.054333333333334,0.04,179.22102952321544,0.9403358115384042,84.08728456600664,1525.0,1435.0,1000.0,1528.0,1475.0,1021.47,61.0,292.79999999999995,1637225525.2468872,1637225526.4808283,b2c3571b-2a05-4f16-a0c5-e3d4c688f984
0.0069480520333388,0.1138633882121542,0.0893054590286288,-0.0298819947903603,-0.0412912284253561,0.0285201321078399,-0.1731890953894019,-0.2030065065426269,-12.847286401940387,19.29214920041612,15.506795123229566,0.2598366836452693,0.3902183203827548,0.1995755132550535,-1.0,12.05211111111111,0.04,179.20247265815044,0.9376500175168064,84.03001646545572,1525.0,1435.0,1000.0,1439.0,1475.0,1021.47,61.0,292.79999999999995,1637225528.3021882,1637225529.3477025,0182d511-f4d9-49bd-be5d-6e9a7e2bab99
0.016571802093613,0.1190395915383436,0.0907698950571229,-0.0365752292360119,-0.0409537452104114,0.0292339967437797,-0.1718227265874377,-0.1977914042634751,-12.896317644689072,19.240986213762792,15.464895195282438,0.2762415232043311,0.4112666692148848,0.1956694909608805,-1.0,12.05588888888889,0.04,179.21014675513788,0.9388207071973598,84.02231352989176,1525.0,1435.0,1000.0,1439.0,1475.0,1021.47,61.0,292.79999999999995,1637225529.4563837,1637225530.5726745,0182d511-f4d9-49bd-be5d-6e9a7e2bab99
0.0129197516746169,0.1138633882121383,0.087401637403868,-0.0342375005333396,-0.0432772294896279,0.0323003823115108,-0.173860226818753,-0.1998562977898449,-12.860695305545612,19.254959270005283,15.464661833635882,0.2778015643123425,0.3911015847147538,0.2057394565947317,-1.0,12.056,0.04,179.2169374809927,0.940018018014522,84.0071193946281,1525.0,1435.0,1000.0,1439.0,1475.0,1021.47,61.0,292.79999999999995,1637225530.6804173,1637225531.8057168,0182d511-f4d9-49bd-be5d-6e9a7e2bab99
0.0394373850671088,0.1296242917862978,0.1770647864440171,-0.040782812166113,0.0368865380187346,0.0190569057547109,-0.0831610618725509,-0.105566441630552,-12.249955775175918,19.26908226058133,15.611415793985175,0.2676953969976001,0.4510814877687547,-0.1523255469944898,-1.0,12.053777777777778,0.04,179.20844072566524,0.9340090049386282,83.99692268110718,1525.0,1435.0,1000.0,1351.0,1475.0,1021.47,61.0,292.79999999999995,1637225533.832229,1637225534.8840714,0b6a2078-13bf-4eed-a43b-61fc1fabb699
0.0404498346874068,0.1318595700967417,0.178484845578068,-0.042886603633954,0.037925285018932,0.0183337274507102,-0.0817147052378757,-0.1085774932946318,-12.247537890963777,19.22921828366396,15.556102008302714,0.2706148030166864,0.4602866418366919,-0.1575432992952563,-1.0,12.051333333333332,0.04,179.21838092763733,0.9398950390355596,83.99928972110956,1525.0,1435.0,1000.0,1351.0,1475.0,1021.47,61.0,292.79999999999995,1637225534.999688,1637225536.1133478,0b6a2078-13bf-4eed-a43b-61fc1fabb699
0.0447100122767484,0.1335557518732497,0.179313213416752,-0.0433468080203215,0.0378069467552085,0.0165192073438497,-0.0816095156530416,-0.1058162668579466,-12.206057634427394,19.26502551518008,15.477161237037752,0.2678623565439824,0.4671642001550322,-0.1585568661603225,-1.0,12.053999999999998,0.04,179.21047612203787,0.9355762487619304,83.98263240754369,1525.0,1435.0,1000.0,1351.0,1475.0,1021.47,61.0,292.79999999999995,1637225536.2265587,1637225537.3409357,0b6a2078-13bf-4eed-a43b-61fc1fabb699
0.070472691086956,0.1510632404598032,0.276523711559016,-0.0437976987392474,0.1244097381098542,-0.004899471313375,0.0138511176927133,-0.0156101807308478,-11.53445968258644,19.390039473648685,15.54859234233939,0.2267674430006213,0.5336616912047655,-0.5423036518614174,-1.0,12.052333333333332,0.04,179.1924307622507,0.9145329458217156,83.95506879969315,1525.0,1435.0,1000.0,1262.0,1475.0,1021.47,61.0,292.79999999999995,1637225538.4506214,1637225539.4762154,4cbe76d0-9a6b-4b03-8421-d7f884972860
0.0719935569422101,0.1423390807430117,0.2703810793243615,-0.0394153477011527,0.1209330037559349,9.648549886688728e-05,0.0091559373574183,-0.0189033815368786,-11.620544440107553,19.406089828786605,15.57581324177018,0.2278700587311537,0.5003801174908395,-0.5235557888935977,-1.0,12.05277777777778,0.04,179.18321759597026,0.9319113068057224,83.95960176857233,1525.0,1435.0,1000.0,1262.0,1475.0,1021.47,61.0,292.79999999999995,1637225539.5848534,1637225540.8182862,4cbe76d0-9a6b-4b03-8421-d7f884972860
0.0763348181318806,0.1438999405145969,0.2697576120125333,-0.0400859312372173,0.1198487841979805,-0.0006398415141815,0.008290314837424,-0.0170072296184761,-11.596461672967244,19.40327167296797,15.59492865049016,0.2276935491334999,0.5059374102276438,-0.5197687827225489,-1.0,12.052,0.04,179.1993064860152,0.9286488242599836,83.94535551178349,1525.0,1435.0,1000.0,1262.0,1475.0,1021.47,61.0,292.79999999999995,1637225540.927192,1637225542.045673,4cbe76d0-9a6b-4b03-8421-d7f884972860
0.0912366737367359,0.1588017958283219,0.3477184184470341,-0.0289095390985382,0.189262941048435,-0.0306490021018671,0.0797726543044349,0.0536122273173196,-11.087786248164472,19.66210825355222,15.43724802072775,0.1408764616594516,0.5631963037613952,-0.820429930364944,-1.0,12.051444444444446,0.04,179.19152614164062,0.906974286146006,83.91881263775892,1525.0,1435.0,1000.0,1173.0,1475.0,1021.47,61.0,292.79999999999995,1637225543.7780478,1637225544.9136827,0370466a-ad55-4cb0-80dd-9cc8c6afd6d8
0.0884557244971438,0.1604053888611352,0.3483396943110762,-0.0286465651709051,0.189648088274359,-0.0326306202506935,0.0795146111685822,0.0568725562155645,-11.111887000885806,19.67012712795432,15.4147785053759,0.1358986763390263,0.569587622414194,-0.8212894796559783,-1.0,12.049,0.04,179.20736003795653,0.9019637139175342,83.87333116698571,1525.0,1435.0,1000.0,1173.0,1475.0,1021.47,61.0,292.79999999999995,1637225545.022961,1637225546.2350142,0370466a-ad55-4cb0-80dd-9cc8c6afd6d8
0.0932774609248316,0.1596372858770941,0.3483758532190846,-0.0292382565204914,0.1899203758435817,-0.0308955401485375,0.0798411371107209,0.0569267944467895,-11.147704916820432,19.67371342453105,15.478495653018252,0.1411500452403979,0.5664707591260986,-0.8222093184472857,-1.0,12.049,0.04,179.2115871661429,0.9092931946590616,83.88265285738296,1525.0,1435.0,1000.0,1173.0,1475.0,1021.47,61.0,292.79999999999995,1637225546.342782,1637225547.468496,0370466a-ad55-4cb0-80dd-9cc8c6afd6d8
-0.0531935383041296,0.0859908918875929,-0.0903796964766154,-0.0095973910458821,-0.2038282998106975,0.0465448032691415,-0.3612154763055287,-0.3882935780489263,-14.186931812544788,19.56516777595017,15.430319517743024,0.2467596481166135,0.2819550756935485,0.929245551706023,-1.0,12.054555555555556,0.04,179.2335560901533,0.9205790624773194,83.96448914837842,1525.0,1435.0,1000.0,1617.0,1475.0,1021.47,61.0,292.79999999999995,1637225548.4860084,1637225549.6238306,ede20e80-a849-4f79-8063-62349cf8b453
-0.0411246783121728,0.0879166280021934,-0.0902745068960808,-0.0091207507645357,-0.2039449944938477,0.0440394287801381,-0.3615847355875602,-0.3832932374259862,-14.160564949832583,19.53942037572411,15.40395918671664,0.2398981789494629,0.2891723169161883,0.930015876408533,-1.0,12.056875000000002,0.04,179.24012426567762,0.9220371848387062,83.96696129740302,1525.0,1435.0,1000.0,1617.0,1475.0,1021.47,61.0,292.79999999999995,1637225549.73232,1637225550.735677,ede20e80-a849-4f79-8063-62349cf8b453
-0.048043632088235,0.0859634987675112,-0.0923109113371209,-0.0086249353256569,-0.2057321216426363,0.0455860442014795,-0.3635849813731471,-0.3792264545269971,-14.18487641240599,19.58013910161948,15.40077624143844,0.2424109770110756,0.2818577236000584,0.9378035913485444,-1.0,12.055333333333332,0.04,179.2486022379849,0.9316632381296172,83.97294795821053,1525.0,1435.0,1000.0,1617.0,1475.0,1021.47,61.0,292.79999999999995,1637225550.844073,1637225552.0821447,ede20e80-a849-4f79-8063-62349cf8b453
-0.0858959908733308,0.066576294157802,-0.1958979916069155,0.0146126463655227,-0.2982343068227858,0.0481023759459468,-0.4738351790354463,-0.4977263663697786,-14.892921434809644,19.792513225396057,15.2779611031823,0.1915211387994659,0.2058194845912361,1.3590706551047875,-1.0,12.052444444444443,0.04,179.24623747471225,0.9312304223228368,83.96959129968843,1525.0,1435.0,1000.0,1706.0,1475.0,1021.47,61.0,292.79999999999995,1637225553.7784731,1637225554.948634,6208741c-3c86-4499-bb7e-8c0924018865
-0.0775728657475346,0.0696793864560765,-0.1951879619434072,0.0137316836951166,-0.2981554146380358,0.0463273019504083,-0.4745057627112027,-0.4961485227399603,-14.951163650573385,19.81821352702974,15.34264221540912,0.189706264503964,0.2174508377094634,1.3593578198477394,-1.0,12.052444444444443,0.04,179.25487842292225,0.9268503856480564,83.98017733399203,1525.0,1435.0,1000.0,1706.0,1475.0,1021.47,61.0,292.79999999999995,1637225555.0571346,1637225556.1781833,6208741c-3c86-4499-bb7e-8c0924018865
-0.0813859878416489,0.0707312821526941,-0.1930841703432705,0.0135213045743583,-0.2968668422160562,0.045051878419728,-0.4722573351098345,-0.5005138907598397,-14.854286088493955,19.820365158713283,15.296550682960504,0.1874752179296011,0.2212782264714632,1.3516610488311018,-1.0,12.052,0.04,179.2470601330523,0.9346156111142896,83.9609169594425,1525.0,1435.0,1000.0,1706.0,1475.0,1021.47,61.0,292.79999999999995,1637225556.2879126,1637225557.4063327,6208741c-3c86-4499-bb7e-8c0924018865
-0.1173345253700829,0.0531465445573697,-0.281583672166185,0.0566939532228716,-0.3748435546259132,0.0268491519451394,-0.5752790420113633,-0.5946870719035964,-15.590418162305829,20.30100558952786,15.17186047154306,0.047573455744767,0.1507223348390696,1.7225465358784084,-1.0,12.052888888888887,0.04,179.2375282246106,0.924719342911078,83.91360727470146,1525.0,1435.0,1000.0,1795.0,1475.0,1021.47,61.0,292.79999999999995,1637225558.316971,1637225559.2935867,afb7e8e1-43bc-4b59-9c7b-062c51c69b96
-0.120032747586621,0.0553106008099667,-0.2799263883122584,0.0507496467990341,-0.3749805202029218,0.0293145325065614,-0.5725671225374804,-0.6010559737601399,-15.483381978111131,20.305455519945298,15.0618901822544,0.0666707641649358,0.159892959401342,1.7167404861721451,-1.0,12.050555555555556,0.04,179.2425385478217,0.9185439862697728,83.84569546269393,1525.0,1435.0,1000.0,1795.0,1475.0,1021.47,61.0,292.79999999999995,1637225559.4066522,1637225560.4786396,afb7e8e1-43bc-4b59-9c7b-062c51c69b96
-0.1182812315601786,0.0534275979399016,-0.2822060438613446,0.0523231074264643,-0.3766531442775103,0.0304042306954251,-0.5749749783187632,-0.6062425882472529,-15.528563308269316,20.33338229654384,15.142298712898318,0.0656318126220385,0.1520999062844176,1.7254106594562542,-1.0,12.050666666666668,0.04,179.2542895088338,0.9212930781208664,83.82123351963648,1525.0,1435.0,1000.0,1795.0,1475.0,1021.47,61.0,292.79999999999995,1637225560.5866475,1637225561.707834,afb7e8e1-43bc-4b59-9c7b-062c51c69b96
-0.14064606965013746,0.04821578346051142,-0.3389859579903349,0.08674420258644211,-0.4291915101043832,0.005975596386633186,-0.645734162714204,-0.6707166949270263,-15.85077686948766,20.7958134082749,14.95473551787371,-0.06686198959301155,0.12866567465374193,1.9741046017858135,-1.0,12.043333333333333,0.04,179.24723164669143,0.9077169150646698,83.79686795813733,1525.0,1435.0,1000.0,1883.0,1475.0,1021.4699999999999,61.0,292.79999999999995,1637225562.8224974,1637225563.9584267,a8615916-f579-4e5d-871f-f6b0fb38bc58
-0.14305666413490123,0.0429015187156429,-0.35009386883357435,0.08840148614926942,-0.43675201204214825,0.010235226170449039,-0.655554598651391,-0.681838304667158,-16.051553090079715,20.685563628649657,14.958818212478008,-0.06241283213559148,0.10920871156867278,2.0128078960852283,-1.0,12.044666666666666,0.04,179.25210384829938,0.9042123876902184,83.70665254285008,1525.0,1435.0,1000.0,1883.0,1475.0,1021.4699999999999,61.0,292.79999999999995,1637225564.0670369,1637225565.1890495,a8615916-f579-4e5d-871f-f6b0fb38bc58
-0.13375670021038188,0.04666807233266442,-0.33826004046501673,0.08786732037506943,-0.4273835641668294,0.005756451415801087,-0.6449671554366906,-0.6627452949388722,-15.929295395713211,20.765798739742323,14.861607829238364,-0.07010511050501382,0.12414917053724417,1.969209188316909,-1.0,12.044555555555554,0.04,179.26872397527976,0.9101212958060891,83.65079449690779,1525.0,1435.0,1000.0,1883.0,1475.0,1021.4699999999999,61.0,292.79999999999995,1637225565.2977536,1637225566.4182122,a8615916-f579-4e5d-871f-f6b0fb38bc58
