raw_voltage_G-,raw_voltage_G0,raw_voltage_G1,raw_voltage_G2,raw_voltage_G3,raw_voltage_G4,raw_voltage_G5,raw_voltage_G6,load_x,load_y,load_z,load_l,load_m,load_n,rpm,voltage,current,roll,pitch,yaw,aileron1_pwm,elevator_pwm,throttle_pwm,rudder_pwm,aileron2_pwm,pbaro,pdiff,Tt,sample_start_time,sample_end_time,uid
-0.037784909366822,0.0860319814279344,0.0599811272543911,0.153405351746146,-0.0617264946324804,-0.259039133842813,-0.2974031995525598,-0.3247278384318215,-13.905743842495363,21.836523678603907,-5.858695986623652,-0.7883305040863724,0.4583044830367043,0.4105566672030274,-1.0,12.049,0.04,179.56255112427462,15.885038116225491,45.8376708302476,1525.0,1435.0,1000.0,1528.0,1475.0,1021.47,138.0,293.41,1637230379.2898014,1637230380.426981,cf8da58e-76a7-47b9-9a36-bf834a22e7e2
-0.0397846069863606,0.0763074249899022,0.0543792348000498,0.1424891949601227,-0.0644247167694334,-0.2415212332012565,-0.2948830324382467,-0.3298914417728149,-13.902107457205783,21.579850733201823,-6.160511160046032,-0.7263680005118474,0.4254652561733358,0.4166893748048184,-1.0,12.0491,0.0399999999999999,179.75796086326292,15.937879988575782,45.77030725475745,1525.0,1435.0,1000.0,1528.0,1475.0,1021.47,138.0,293.41,1637230380.53522,1637230381.6279728,cf8da58e-76a7-47b9-9a36-bf834a22e7e2
-0.0387847581904658,0.0722395470420353,0.0508729157910954,0.1510495437993908,-0.0667394352823388,-0.2482325477657056,-0.3002794773114424,-0.3231390374012968,-13.89451801753578,21.650304957316056,-6.595504295633609,-0.7605323319358316,0.4127348083792044,0.4312507081141558,-1.0,12.05177777777778,0.04,99.95238877513944,15.978826099903618,45.76791904116866,1525.0,1435.0,1000.0,1528.0,1475.0,1021.47,138.0,293.41,1637230381.7358153,1637230382.773112,cf8da58e-76a7-47b9-9a36-bf834a22e7e2
0.0436712652617324,0.2407965142971332,0.0236589494457127,0.016966262887489,-0.1377413033060121,-0.2804967132358678,-0.3545764793212671,-0.3800981036654841,-14.09737097760077,21.355008489823,-5.565770523551315,-0.5338257838731644,1.0520134497125937,0.6630122521378741,-1.0,12.039888888888887,0.03,-179.74449370338542,16.05430272587189,45.90354648697256,1627.0,1435.0,1000.0,1528.0,1556.0,1021.47,138.0,293.41,1637230384.70716,1637230385.752889,a1d3898a-aef8-4f65-a3e5-d8426e214bc4
0.0440246364905725,0.2468843603256855,0.0216855492786661,0.0077972386200784,-0.1418650634429917,-0.2771733798205127,-0.3570106321491113,-0.3862527905696413,-14.152332448439251,21.380832294485057,-5.462674736709178,-0.505613042798712,1.0753260801686124,0.6755372473578084,-1.0,12.043333333333337,0.03,-179.67179165203996,16.08652414328142,45.9428656092946,1627.0,1435.0,1000.0,1528.0,1556.0,1021.47,138.0,293.41,1637230385.8612297,1637230386.8702505,a1d3898a-aef8-4f65-a3e5-d8426e214bc4
0.0549681868011694,0.2658951826696323,0.0370256950341978,0.0129334481943874,-0.130770850194962,-0.2992522352725806,-0.3500527791163461,-0.3757612244999979,-14.143224487915006,21.474573262843663,-5.196475266731258,-0.5653809339384026,1.1445461352432602,0.6322984138947694,-1.0,12.0435,0.04,-179.58940135681183,16.126816425264582,46.01211063628262,1627.0,1435.0,1000.0,1528.0,1556.0,1021.47,138.0,293.41,1637230386.9784005,1637230388.0977294,a1d3898a-aef8-4f65-a3e5-d8426e214bc4
0.1358189711113459,0.4073532299676743,0.0183846785762502,-0.0992961569378239,-0.1869541381180761,-0.3275356331381776,-0.3915122696732127,-0.4158099698613516,-14.241694508972603,21.26368920680344,-4.433680270425096,-0.3780291600539886,1.681668681229768,0.8104872631838017,-1.0,12.04,0.03,-179.52279335202587,16.122863026395613,46.2338032088156,1729.0,1435.0,1000.0,1528.0,1636.0,1021.47,138.0,293.41,1637230389.6802015,1637230390.6679585,390f528c-7483-4dc8-a2b9-2d302ef39f62
0.1480850608159703,0.4207758563187571,0.0295495654315928,-0.0999519480696349,-0.1788572797471532,-0.3397973422592733,-0.384910527099104,-0.4131539324492772,-14.241822070883607,21.2811735228824,-4.324860189518646,-0.4034144287272904,1.7318369568940313,0.7766052099916336,-1.0,12.037666666666668,0.03,-179.5252340062893,16.13471283542315,46.27469099791703,1729.0,1435.0,1000.0,1528.0,1636.0,1021.47,138.0,293.41,1637230390.77726,1637230391.8232324,390f528c-7483-4dc8-a2b9-2d302ef39f62
0.1505290745944161,0.4249533062877345,0.0439972433661164,-0.0995700880018437,-0.1675735059607032,-0.3447932998578544,-0.3716933455809477,-0.396128011033716,-14.03982318934005,21.39015610211453,-4.299103877852145,-0.4139547518922303,1.7467176970457274,0.7233657578081374,-1.0,12.037444444444446,0.03,-179.51662493229546,16.139408780205017,46.36047172315816,1729.0,1435.0,1000.0,1528.0,1636.0,1021.47,138.0,293.41,1637230391.9343176,1637230392.921054,390f528c-7483-4dc8-a2b9-2d302ef39f62
0.2168001448293558,0.5561022259896578,0.0267620418037426,-0.1842350971770587,-0.2188161715515512,-0.3868828320344448,-0.4175455977468815,-0.4428042489042652,-14.263056506463029,21.450475716189253,-3.340796567162621,-0.3179699751245101,2.2410248987300547,0.8982348563133985,-1.0,12.028,0.03,-179.58362605241368,16.12563039137433,46.49312196539384,1830.0,1435.0,1000.0,1528.0,1717.0,1021.47,138.0,293.41,1637230394.742273,1637230395.788591,f8271db4-c80b-43ec-8db3-54796b2712fc
0.2089311983249743,0.5536872490027186,0.0270546002880332,-0.1884744563344621,-0.2192780195662437,-0.3808015587398101,-0.4156182176167093,-0.4426689270701824,-14.220482464654074,21.50223553828332,-3.359921587678946,-0.2943655148133308,2.232376823019567,0.8953731140976288,-1.0,12.031444444444446,0.03,-179.6012767790488,16.123542061035597,46.54240178025548,1830.0,1435.0,1000.0,1528.0,1717.0,1021.47,138.0,293.41,1637230395.8977616,1637230397.0166864,f8271db4-c80b-43ec-8db3-54796b2712fc
0.2187987466054904,0.555563129504052,0.0208451284050702,-0.195385192527404,-0.2244438141830961,-0.3771527948776662,-0.4194258617534626,-0.4431461150518127,-14.260305020966728,21.2911512273972,-3.520295207541958,-0.2723314312996026,2.241569389320529,0.9162935597046276,-1.0,12.029444444444444,0.03,-179.62807237007266,16.142115622118588,46.59152753640585,1830.0,1435.0,1000.0,1528.0,1717.0,1021.47,138.0,293.41,1637230397.1247463,1637230398.2459118,f8271db4-c80b-43ec-8db3-54796b2712fc
0.1936458395827122,0.5181172896724159,0.0233154397184641,-0.1735315096073972,-0.2186342813184299,-0.3761995144926044,-0.4149059964463464,-0.4384092963080184,-13.977761093758788,21.81030022065713,-5.719373891480106,-0.316129651506653,2.116090078375056,0.8911217139807043,-1.0,12.014666666666669,0.03,-179.67495630635543,16.104250191724898,46.63814130076147,1932.0,1435.0,1000.0,1528.0,1798.0,1021.47,138.0,293.41,1637230399.3607576,1637230400.4978154,40e1861e-a167-4017-bf95-72f12f8f8ffc
0.1838117108838929,0.5070641678632929,0.0238496052473579,-0.1626290481076863,-0.2160730249655009,-0.3720083668602394,-0.4146868519984841,-0.443367452093115,-14.062352047525494,22.02124446891625,-5.235452351636229,-0.3298453334455601,2.0696389952824874,0.8858880104854657,-1.0,12.020555555555555,0.03,-179.7111638980556,16.094949561077588,46.62394627039141,1932.0,1435.0,1000.0,1528.0,1798.0,1021.47,138.0,293.41,1637230400.605966,1637230401.6159377,40e1861e-a167-4017-bf95-72f12f8f8ffc
0.1847841665444171,0.5079407475810915,0.0223977703100924,-0.1705730527151861,-0.2162921695071246,-0.369515592529616,-0.4141663821223513,-0.4406555325981292,-14.183093487457407,21.824617539082865,-5.799128743944682,-0.3078503953850655,2.079659833796873,0.8866621244592171,-1.0,12.01911111111111,0.03,-179.7401117575779,16.07794220031678,46.64690936638098,1932.0,1435.0,1000.0,1528.0,1798.0,1021.47,138.0,293.41,1637230401.7235367,1637230402.7558477,40e1861e-a167-4017-bf95-72f12f8f8ffc
-0.1352907149214189,-0.1140610477876254,0.070500084130464,0.2108761093514826,-0.0171989812807938,-0.1125407299606256,-0.2330978489333423,-0.2610662250480854,-13.534368029310237,22.82414392257069,-5.106782503435199,-0.5813913502910059,-0.307851014201598,0.2212204844592787,-1.0,12.051333333333332,0.04,-179.63628832873428,16.025483122123973,46.63655366123439,1423.0,1435.0,1000.0,1528.0,1394.0,1021.47,138.0,293.41,1637230403.8661318,1637230405.0959277,768e614f-ad35-411c-9017-2265a462a8c6
-0.143549740354,-0.1226624871051276,0.0750610381440293,0.2000558287125634,-0.0084605766820691,-0.099939895012941,-0.2199628476042398,-0.2479860098626318,-13.58438568996128,22.398015467012783,-5.856015537081433,-0.5314100511864773,-0.3315030736452993,0.1823474730011478,-1.0,12.05177777777778,0.04,-179.66527261593217,16.022820486712533,46.68244797899743,1423.0,1435.0,1000.0,1528.0,1394.0,1021.47,138.0,293.41,1637230405.203719,1637230406.233359,768e614f-ad35-411c-9017-2265a462a8c6
-0.1388655170339473,-0.1160059592063347,0.0840048908860267,0.2014802706736604,-0.0012561866757686,-0.1085687275807378,-0.2134021953148943,-0.2479449200853304,-13.517666786327046,22.40414167425012,-5.909722075056211,-0.5535024031936921,-0.3061415500226949,0.1517887322965967,-1.0,12.050555555555556,0.04,-179.67938834021686,16.01654581959501,46.7086732492256,1423.0,1435.0,1000.0,1528.0,1394.0,1021.47,138.0,293.41,1637230406.3410957,1637230407.461048,768e614f-ad35-411c-9017-2265a462a8c6
-0.2163705138765601,-0.2773804719230024,0.0844322234292912,0.2451355835769149,0.0276824505231408,0.0148493224365338,-0.1698109761708809,-0.1944647839193153,-13.437097762516329,23.1996814938562,-4.969125605664734,-0.3691557552566019,-0.9256351390899874,0.0316390621341838,-1.0,12.038333333333334,0.03,-179.69201356544266,16.016975742057767,46.760513246661134,1321.0,1435.0,1000.0,1528.0,1314.0,1021.47,138.0,293.41,1637230408.2591813,1637230409.392991,1222275f-d564-4519-a593-75c777f34a45
-0.2154155896496683,-0.2621482532321286,0.0914284255185233,0.2718120955468041,0.0326701893392317,-0.0235815778542022,-0.1778322292832054,-0.2028010582412048,-13.526067742864058,23.498310794814262,-4.825756205453626,-0.5133847122477028,-0.8719818927580127,0.0288239735346781,-1.0,12.038222222222222,0.03,-179.72238058649256,15.964527478331146,46.79987183229838,1321.0,1435.0,1000.0,1528.0,1314.0,1021.47,138.0,293.41,1637230409.500676,1637230410.6250036,1222275f-d564-4519-a593-75c777f34a45
-0.2433428757078324,-0.3099492491929452,0.0741159756239474,0.2596632488207689,0.026602613806438,0.026561524071494,-0.1730247368104467,-0.204115927855506,-13.519438986799146,23.12243388756156,-5.98901369563649,-0.3768375163526345,-1.0406097938605203,0.0464699434439167,-1.0,12.037,0.03,-179.7403257701719,15.9887852746234,46.79735528704418,1321.0,1435.0,1000.0,1528.0,1314.0,1021.47,138.0,293.41,1637230410.7339585,1637230411.9668255,1222275f-d564-4519-a593-75c777f34a45
-0.3168265662740605,-0.4615279966685003,0.0977912985938813,0.3442504496305835,0.0763852213556033,0.1045102818845528,-0.1212922834572072,-0.149785510150958,-13.199094939130896,24.33172330710368,-4.675238410497614,-0.3829181756032676,-1.6319266265588768,-0.143282531755964,-1.0,12.027,0.03,-179.73881098599597,15.96763540413098,46.79957775470912,1220.0,1435.0,1000.0,1528.0,1233.0,1021.47,138.0,293.41,1637230412.7651494,1637230413.8067768,9d3ba97a-cdbe-4255-9482-b6bbd821f4e0
-0.3170500940897004,-0.4535861826740744,0.1000528743705895,0.3438822862550645,0.0772398866576933,0.0972127555345377,-0.12264659916199,-0.1425142807901691,-13.297138473779556,24.36678179811456,-4.651038855040744,-0.3981866820403478,-1.6014712523050696,-0.1446922258245562,-1.0,12.027,0.03,-179.77581087963983,15.97668844042088,46.77496137348543,1220.0,1435.0,1000.0,1528.0,1233.0,1021.47,138.0,293.41,1637230413.915177,1637230414.9989262,9d3ba97a-cdbe-4255-9482-b6bbd821f4e0
-0.2950391733295138,-0.4246984903379664,0.0986854100449721,0.3290374094131044,0.0687721263931251,0.0879429251099181,-0.1307724938617407,-0.1618823117407382,-13.369064563999462,24.40079822610961,-3.925332112043768,-0.3852939390855709,-1.4973060788152373,-0.1154007459351067,-1.0,12.028200000000002,0.03,-179.8316831930884,15.974053694948545,46.70908089768256,1220.0,1435.0,1000.0,1528.0,1233.0,1021.47,138.0,293.41,1637230415.1139462,1637230416.2680862,9d3ba97a-cdbe-4255-9482-b6bbd821f4e0
-0.3993193096219675,-0.6141087986144567,0.0923460948027683,0.4045043453673966,0.0956195722279228,0.2143413379608225,-0.0939271055667828,-0.1267988484361054,-13.134350238414612,25.63989542402601,-2.360427537541689,-0.2632286729198116,-2.2329133150267646,-0.2161809483029022,-1.0,12.014333333333331,0.03,-179.8423399577954,15.982205905177912,46.66079552041858,1118.0,1435.0,1000.0,1528.0,1152.0,1021.47,138.0,293.41,1637230418.2943938,1637230419.431929,c3e3ed1d-b251-494e-9774-cef26aff236b
-0.379294937156844,-0.587181355618664,0.1048784455343504,0.4011486888541163,0.10055033314661,0.193508873360058,-0.0919548013908679,-0.1152252559624137,-13.169851481170111,25.86162653242541,-1.9573538535639987,-0.3003321719611929,-2.13402879710195,-0.2391064662665013,-1.0,12.013333333333334,0.03,-179.84557443182234,15.911840727166007,46.590287098161575,1118.0,1435.0,1000.0,1528.0,1152.0,1021.47,138.0,293.41,1637230419.5398157,1637230420.6618636,c3e3ed1d-b251-494e-9774-cef26aff236b
-0.38478725818463,-0.5892084472512905,0.0878673202537196,0.3734953392347882,0.0837035664614754,0.2240932874243134,-0.0989811358943087,-0.1230733841664852,-13.20761398711251,25.58624621904888,-1.6010925331351178,-0.1718605166351365,-2.1422002502203306,-0.1828671788205218,-1.0,12.012999999999998,0.03,-179.8806406230212,15.958022671784097,46.51629983288733,1118.0,1435.0,1000.0,1528.0,1152.0,1021.47,138.0,293.41,1637230420.770219,1637230421.9494095,c3e3ed1d-b251-494e-9774-cef26aff236b
-0.0411542629070637,0.0787591089177374,0.0527082546626063,0.1410510563166112,-0.0658354623597072,-0.2416308058117634,-0.2957733088584779,-0.3135651414428574,-13.875086879111462,21.469629928647464,-6.031608706189839,-0.7241498577820694,0.4333961224541882,0.4226861377142741,-1.0,12.04988888888889,0.04,179.90806914490815,15.93264396555805,46.43069669256461,1525.0,1435.0,1000.0,1528.0,1475.0,1021.47,138.0,293.41,1637230422.8002913,1637230423.9379694,fc7f41a0-e122-4540-8f5e-d121fb6213fb
-0.034247909961778,0.088021817478591,0.0549265492915097,0.1424968649974437,-0.0662255403623509,-0.2502547079651075,-0.2981817120818448,-0.3218230716743434,-13.894655931118834,21.5926361956696,-5.780358508944087,-0.7458342277213496,0.4660132961791449,0.4250463740827889,-1.0,12.048333333333334,0.04,179.90159412557497,15.910080815089868,46.41064249825154,1525.0,1435.0,1000.0,1528.0,1475.0,1021.47,138.0,293.41,1637230424.0471964,1637230425.1666477,fc7f41a0-e122-4540-8f5e-d121fb6213fb
-0.0392778343300055,0.0739790100277393,0.0489553975851135,0.1274503739727862,-0.0697800714101436,-0.2253455956763212,-0.2939653628603894,-0.3188246205198488,-13.849283367265704,21.401344875795047,-6.1694722280537375,-0.6575235334942499,0.4179425612513429,0.4297542468796049,-1.0,12.049444444444443,0.04,179.9042214716757,15.917656064061845,46.39989140104299,1525.0,1435.0,1000.0,1528.0,1475.0,1021.47,138.0,293.41,1637230425.2764652,1637230426.3034065,fc7f41a0-e122-4540-8f5e-d121fb6213fb
-0.0414829803039788,0.0725819610251168,0.04157295250892,-0.0358399979786812,-0.0950913129007505,-0.0650136688714338,-0.2576009949177562,-0.2763789795088427,-13.799763922509609,21.219485241934688,-4.834402436978656,0.0697713653693554,0.4201530497363875,0.4229085250331991,-1.0,12.050250000000002,0.04,179.88772694428508,15.950447280516514,46.372617412186,1525.0,1535.0,1000.0,1528.0,1475.0,1021.47,138.0,293.41,1637230428.2377272,1637230429.2667484,ccd6edb5-5877-43ae-9c42-bbafcbb1178d
-0.029991567312313,0.0775127221178463,0.0454079889244641,-0.0309777195654092,-0.091735655859116,-0.0733274802576518,-0.2563683044947621,-0.2863500754568158,-13.787375992813605,21.217995220684585,-4.673609420475291,0.0403339610547799,0.4367780635867347,0.4122306481342554,-1.0,12.0502,0.0399999999999999,179.89095147659225,15.975151647857626,46.34367636388009,1525.0,1535.0,1000.0,1528.0,1475.0,1021.47,138.0,293.41,1637230429.3766844,1637230430.6040332,ccd6edb5-5877-43ae-9c42-bbafcbb1178d
-0.0332239552153527,0.0753212727218195,0.0416688284111418,-0.0321008374429506,-0.0948721679584635,-0.0710127617858067,-0.2585871472514463,-0.2824602522396266,-13.744245676943684,21.16569047424417,-4.81927419939213,0.0475344924743984,0.4294449034066101,0.4243299060586665,-1.0,12.049,0.04,179.88641896305904,15.95512211811656,46.3237260643334,1525.0,1535.0,1000.0,1528.0,1475.0,1021.47,138.0,293.41,1637230430.7138538,1637230431.8334968,ccd6edb5-5877-43ae-9c42-bbafcbb1178d
-0.0167206974119302,0.083038461636849,0.0327841447354603,-0.2272707842081854,-0.1269725203318127,0.1122548643544705,-0.2187767254503339,-0.2378423373835277,-13.708844103437906,20.96437984494738,-3.119806560389859,0.8981287165047316,0.4665390935984692,0.4252078305642643,-1.0,12.049333333333331,0.04,179.85635550597226,16.014574361382078,46.213791892912326,1525.0,1636.0,1000.0,1528.0,1475.0,1021.47,138.0,293.41,1637230433.7673397,1637230434.7976573,6d553f2b-7b6d-48a7-955f-b6252b83a84d
-0.0177594444282387,0.0864308252840453,0.0328893343001517,-0.2305053639079216,-0.1290105683692536,0.1128728530278932,-0.2205649483463209,-0.2439433330283975,-13.7479928608672,21.11249959234944,-2.990985515493806,0.907801808666712,0.4788052938909053,0.4308620263150758,-1.0,12.051111111111112,0.04,179.847996872248,16.02345322784814,46.17226320439378,1525.0,1636.0,1000.0,1528.0,1475.0,1021.47,138.0,293.41,1637230434.9068508,1637230436.3398223,6d553f2b-7b6d-48a7-955f-b6252b83a84d
-0.0250306736257154,0.0714281629308314,0.0221074032878889,-0.2384997721584912,-0.136505325747466,0.1323197743583214,-0.2234445131068941,-0.2483087008006897,-13.745591939697809,20.979621781757,-3.413435301343505,0.9680512002452808,0.4265618695016941,0.4574419692334735,-1.0,12.049555555555555,0.04,179.86239946447782,16.016643149790685,46.148277856758426,1525.0,1636.0,1000.0,1528.0,1475.0,1021.47,138.0,293.41,1637230436.4496982,1637230437.4559536,6d553f2b-7b6d-48a7-955f-b6252b83a84d
-0.013405034407278,0.0787865020696517,0.0222745013186476,-0.4089890819840982,-0.1598897359182531,0.2917268906532097,-0.1843928813466655,-0.2014861883013047,-13.761835932505244,21.16158192235148,-1.897396111431349,1.712290432519282,0.4618430312362929,0.4349110990456132,-1.0,12.044,0.04,179.83635367644283,16.06497205053788,46.04888266722668,1525.0,1737.0,1000.0,1528.0,1475.0,1021.47,138.0,293.41,1637230439.1893437,1637230440.1319578,affbb8af-7b46-44a3-b881-5d4f2871d5c9
-0.008885170012044,0.0803889993216792,0.0223566806766666,-0.4145772793010218,-0.1607526191702952,0.2966713478953218,-0.1820096799362149,-0.2101698072715078,-13.650025515516669,21.09349859638222,-1.6932211965862305,1.7356484807358843,0.4659444882611754,0.4331201962906224,-1.0,12.048555555555556,0.04,179.8285050301766,16.063006473876733,46.01616112818792,1525.0,1737.0,1000.0,1528.0,1475.0,1021.47,138.0,293.41,1637230440.2468042,1637230441.1870987,affbb8af-7b46-44a3-b881-5d4f2871d5c9
-0.0275535797854983,0.0576253191674957,0.0024281876682762,-0.419097144314364,-0.173271274765537,0.3220647659844165,-0.1923916722868873,-0.2227706425664238,-13.874380453193345,20.87410442895104,-1.958470226841306,1.8003046767255724,0.3837950831938322,0.4888825304132549,-1.0,12.046333333333331,0.0344444444444444,179.84730474641208,16.08112487874253,45.99571381854261,1525.0,1737.0,1000.0,1528.0,1475.0,1021.47,138.0,293.41,1637230441.2961376,1637230442.3697393,affbb8af-7b46-44a3-b881-5d4f2871d5c9
-0.0103435795642397,0.082223242493388,0.0276955992219384,-0.4581487814577293,-0.166273976373231,0.3428698368796416,-0.1704684108768439,-0.1898627397286785,-13.645958740617814,21.672299726462803,-0.5166734731300593,1.9420416685369388,0.4680803785165687,0.4181952574373166,-1.0,12.045,0.03,179.82524778885238,16.092595043088707,45.90156914720784,1525.0,1837.0,1000.0,1528.0,1475.0,1021.47,138.0,293.41,1637230444.212267,1637230445.2381284,0b9934b0-ecf9-43d0-a285-45d5b016aa9c
-0.0155143045207113,0.0736502926345257,0.0226990946453261,-0.4467505022115953,-0.1661353671523375,0.3406646912556334,-0.1734630266075362,-0.1967745716477498,-13.676950362062133,21.46761395530186,-0.5603004817185576,1.909746452431363,0.4348090251631662,0.4281443620968061,-1.0,12.042666666666667,0.03,179.81524990972733,16.086636461947776,45.811352973010685,1525.0,1837.0,1000.0,1528.0,1475.0,1021.47,138.0,293.41,1637230445.3471668,1637230446.4661102,0b9934b0-ecf9-43d0-a285-45d5b016aa9c
-0.0132406757268613,0.0734448442413264,0.0159877808475424,-0.4465998399825361,-0.1734904197435454,0.3407331740428775,-0.180996134504057,-0.2069374192790395,-13.651085721620683,21.55022847736191,-0.6154014248556772,1.9097782045417864,0.4339011533145167,0.4579189375816905,-1.0,12.04211111111111,0.03,179.8149281319264,16.060401705345754,45.769806070654354,1525.0,1837.0,1000.0,1528.0,1475.0,1021.47,138.0,293.41,1637230446.5740998,1637230447.6943877,0b9934b0-ecf9-43d0-a285-45d5b016aa9c
-0.0417295183883227,0.0949347444242384,0.078978253930214,0.3529368067563342,-0.0255127924921589,-0.4630768039412385,-0.3363151285542283,-0.3678446125220684,-13.842801243500054,22.327532732033006,-7.586456314236705,-1.692967312240638,0.4832089119069578,0.3909718068569742,-1.0,12.052,0.04,179.81246167472614,15.84210696219738,45.67755829463407,1525.0,1334.0,1000.0,1528.0,1475.0,1021.47,138.0,293.41,1637230448.7180283,1637230449.8551986,ff39bcf6-bde0-4f53-a168-5bcbe0c5807f
-0.0468931211380599,0.0797178679717938,0.0651858194991634,0.3609766861317916,-0.03321025865964,-0.4575023031893447,-0.3462451352291729,-0.3688855507976177,-13.93429146629326,22.168638350133136,-7.9498104310963855,-1.700420738624539,0.4281373743253485,0.4321128578317846,-1.0,12.049,0.04,179.8452799747781,15.838186813068743,45.78473876145477,1525.0,1334.0,1000.0,1528.0,1475.0,1021.47,138.0,293.41,1637230449.9631605,1637230450.9714017,ff39bcf6-bde0-4f53-a168-5bcbe0c5807f
-0.0548782151279392,0.0780682544116487,0.0618559121657075,0.3579645391781287,-0.0372195154207848,-0.4542830633459588,-0.3486990111091621,-0.3688428177782068,-13.878390920182376,22.21332184139942,-8.139239272080006,-1.6862636633423764,0.4233940924290847,0.4451340039054374,-1.0,12.051,0.04,179.88587254792543,15.823746844525957,45.87674140957485,1525.0,1334.0,1000.0,1528.0,1475.0,1021.47,138.0,293.41,1637230451.0794802,1637230452.202258,ff39bcf6-bde0-4f53-a168-5bcbe0c5807f
-0.0536685349660118,0.0768454257754957,0.0739395637441764,0.3593188546298471,-0.0326963639986063,-0.4522055693881347,-0.3438997365296386,-0.3613349109047766,-13.882415316993882,23.07525977925444,-7.782514554472743,-1.6782798467692586,0.4162884948480637,0.4156792879688363,-1.0,12.043875,0.03,179.91308914422063,15.798485816767483,46.13201716848313,1525.0,1234.0,1000.0,1528.0,1475.0,1021.47,138.0,293.41,1637230454.2477436,1637230455.209225,c1a9a83d-82dd-4c97-a07c-b9db03f8d808
-0.0481855285267709,0.079606651928273,0.0716779880975327,0.3156125914558121,-0.0397572140015188,-0.4107871666995621,-0.3347482422320491,-0.3544712900850582,-13.87331675914982,22.966039455995865,-7.203864721776013,-1.487356370002448,0.426687767850787,0.4161676310483622,-1.0,12.041666666666666,0.03,179.8997605992378,15.8347679239342,46.14899274989156,1525.0,1234.0,1000.0,1528.0,1475.0,1021.47,138.0,293.41,1637230455.3171318,1637230456.3640778,c1a9a83d-82dd-4c97-a07c-b9db03f8d808
-0.0363254041168689,0.1030902231177271,0.074649593392809,0.2936148239359426,-0.0442935144103693,-0.410287516560479,-0.3347613910822754,-0.3514865356934753,-13.875673573151651,23.005877321074298,-6.730784605724096,-1.4361257339127655,0.5134866770954142,0.4216122077093651,-1.0,12.03977777777778,0.0311111111111111,179.9377227906447,15.829925888995092,46.25051782007948,1525.0,1234.0,1000.0,1528.0,1475.0,1021.47,138.0,293.41,1637230456.473415,1637230457.6387503,c1a9a83d-82dd-4c97-a07c-b9db03f8d808
-0.0331554724701678,0.098961532606251,0.0935239986183599,0.3447736583689706,-0.0235130953021293,-0.4551601914917599,-0.3308638979396404,-0.3495186139269194,-13.821918610373954,23.48831869460321,-6.906252690787343,-1.6482253527011828,0.4940822532693363,0.3615725343529491,-1.0,12.044111111111112,0.03,179.926610831775,15.822725162062603,46.34880272441615,1525.0,1133.0,1000.0,1528.0,1475.0,1021.47,138.0,293.41,1637230459.7778332,1637230460.8025143,cb65d2f1-1d41-4194-a4bd-3879db01cdef
-0.0392093515352008,0.0998107192250508,0.0942636125278651,0.3591687403483483,-0.0235130956153023,-0.4697333335002305,-0.3353974598296773,-0.3599416967628031,-13.724516766374698,23.68892631339788,-6.992761373830618,-1.712043007161969,0.495622504407066,0.3671119243422623,-1.0,12.043333333333331,0.03,179.92445856327654,15.812016563808887,46.374689520825456,1525.0,1133.0,1000.0,1528.0,1475.0,1021.47,138.0,293.41,1637230460.909731,1637230462.0327702,cb65d2f1-1d41-4194-a4bd-3879db01cdef
-0.0500844194862545,0.0796904748723487,0.0757869554528574,0.3441025270928308,-0.0363604675881939,-0.4370122470686131,-0.3426977264167432,-0.3669406396336503,-13.956781935933938,23.469715382333955,-7.211221137661774,-1.607053601132898,0.4244194083458918,0.4172430187633655,-1.0,12.041888888888888,0.03,179.92134855047445,15.817843284353335,46.44480065374572,1525.0,1133.0,1000.0,1528.0,1475.0,1021.47,138.0,293.41,1637230462.1423647,1637230463.2780735,cb65d2f1-1d41-4194-a4bd-3879db01cdef
-0.0416884287743568,0.0944827580153259,0.0941951293578778,0.3849730549931913,-0.0227597852326973,-0.4896344374072107,-0.3431908038805297,-0.3624618646774622,-13.6894033400574,24.03904132383866,-7.220616853668378,-1.8126727582018924,0.4742348964730633,0.3764163625313708,-1.0,12.037222222222224,0.03,179.92293619000154,15.816069901626337,46.54263286832241,1525.0,1033.0,1000.0,1528.0,1475.0,1021.47,138.0,293.41,1637230464.2835171,1637230465.304227,c437f516-4e82-41bb-898f-5b95a2445bc9
-0.0417426670649706,0.0849318738839414,0.097883339372951,0.3907705338537012,-0.0147615418471555,-0.4880357748477105,-0.3373122385464935,-0.3628601597821548,-13.835796380541952,23.909946151094008,-7.525426387952916,-1.822952460085275,0.4416687569981324,0.3505410799655427,-1.0,12.037333333333333,0.03,179.9207566007464,15.800142279936823,46.56738964787902,1525.0,1033.0,1000.0,1528.0,1475.0,1021.47,138.0,293.41,1637230465.412138,1637230466.5373025,c437f516-4e82-41bb-898f-5b95a2445bc9
-0.0343333765876507,0.1032211620935943,0.1066042119859551,0.379768363059054,-0.0130763172814875,-0.4939214615488927,-0.331617208573561,-0.3625029535519004,-13.602965675887214,23.99982233732869,-7.201863154935951,-1.810161361979049,0.507658040093785,0.3309485569887876,-1.0,12.037333333333336,0.03,179.90650730831794,15.813952542983632,46.56124816945032,1525.0,1033.0,1000.0,1528.0,1475.0,1021.47,138.0,293.41,1637230466.645717,1637230467.8780854,c437f516-4e82-41bb-898f-5b95a2445bc9
-0.030525733101526,0.0905381491658039,0.0528726133505275,0.1401881731540531,-0.0678625531132482,-0.2512457910622143,-0.2985811037610823,-0.3213173947818255,-13.802507631046382,21.41154799805355,-5.8806655830484535,-0.7441258128647994,0.4758388556324642,0.4309259568215095,-1.0,12.05,0.04,179.89051859438084,15.894435507886048,46.61421704537368,1525.0,1435.0,1000.0,1528.0,1475.0,1021.47,138.0,293.41,1637230468.7887056,1637230469.813258,ef8879c9-733d-4af2-949f-8c94d1f8c485
-0.0313612232076889,0.0952223721593344,0.0561323943156413,0.152131571897268,-0.06654768342471,-0.2658874140657916,-0.3036488311989114,-0.339794055218209,-13.927968003997677,21.758548642811974,-5.7567168060231735,-0.8015496470275968,0.4919390122495251,0.4325231587298503,-1.0,12.052,0.04,179.88929674942932,15.875030750726564,46.59172447352691,1525.0,1435.0,1000.0,1528.0,1475.0,1021.47,138.0,293.41,1637230469.9218032,1637230471.1543186,ef8879c9-733d-4af2-949f-8c94d1f8c485
-0.0371548676973869,0.078841288237013,0.0544751107077076,0.1542956280849622,-0.0635481369781667,-0.2557245662132056,-0.2980743310541573,-0.3289874687830806,-13.823809891685636,21.55166007640658,-6.293083693409717,-0.7850810319047783,0.4341415753276679,0.4201979423655799,-1.0,12.049,0.04,179.87420203136358,15.88143348389102,46.57540487487003,1525.0,1435.0,1000.0,1528.0,1475.0,1021.47,138.0,293.41,1637230471.2623196,1637230472.366284,ef8879c9-733d-4af2-949f-8c94d1f8c485
-0.002730484307484,0.1048521484525725,0.1382892823901869,0.1471120572755437,0.009484654757512,-0.2784849624655753,-0.2164099598570912,-0.2364091291908593,-13.210763348507196,21.49807399179284,-6.211532633819576,-0.815882556258247,0.5328332519919146,0.0938540957374438,-1.0,12.051444444444446,0.04,179.80810249621584,15.89802040856292,46.45152801062324,1525.0,1435.0,1000.0,1439.0,1475.0,1021.47,138.0,293.41,1637230474.2055504,1637230475.4571342,4c2d153a-63a5-4f43-9862-4b997a9675a1
-0.0113368540176861,0.0967289936155022,0.1306416721169995,0.1447491270867365,0.0035513054689733,-0.2674488218291139,-0.2214146829036469,-0.2301393919999173,-13.314407671108476,21.5313382463555,-6.1320584523292405,-0.7859524735336629,0.5022023475979032,0.1185080629647395,-1.0,12.049,0.04,179.81117304570273,15.893102482633031,46.44494143153362,1525.0,1435.0,1000.0,1439.0,1475.0,1021.47,138.0,293.41,1637230475.5647488,1637230476.8894613,4c2d153a-63a5-4f43-9862-4b997a9675a1
-0.0063463758255202,0.1049573380089934,0.1326090457396077,0.1357384353168645,0.0028051169481338,-0.2643632607574135,-0.2190791455128611,-0.2398672366936834,-13.257018622247676,21.50290285935175,-5.710490257321444,-0.7586873437645006,0.5301547557815585,0.1150803569464766,-1.0,12.050777777777778,0.04,179.82378916400964,15.883621610882622,46.42633334004983,1525.0,1435.0,1000.0,1439.0,1475.0,1021.47,138.0,293.41,1637230476.9974794,1637230478.1210988,4c2d153a-63a5-4f43-9862-4b997a9675a1
0.0124957062003082,0.1098618016698425,0.2103441352700975,0.127165485577826,0.0723485717319622,-0.262496145628159,-0.1361634596977716,-0.1548872046924496,-12.610446314903989,21.59172948277088,-5.270425792569332,-0.7302980647911919,0.546057926520169,-0.202101444128117,-1.0,12.049,0.04,179.80038590027354,15.887337613246062,46.365554142810566,1525.0,1435.0,1000.0,1351.0,1475.0,1021.47,138.0,293.41,1637230478.7038715,1637230479.757746,d36868fd-c478-4bf7-8f61-22b7ed8ca27e
0.0287606436200994,0.1206437323664042,0.2169184831323556,0.1234049584888484,0.0769900615027204,-0.2687154797916768,-0.1321662556825476,-0.1532830637574374,-12.670722517578906,21.54567623648578,-5.103532500815461,-0.7357725829489228,0.5863231700416317,-0.2215922687751597,-1.0,12.049333333333331,0.04,179.8061596868519,15.891186994025796,46.36915934432747,1525.0,1435.0,1000.0,1351.0,1475.0,1021.47,138.0,293.41,1637230479.8673546,1637230480.8721392,d36868fd-c478-4bf7-8f61-22b7ed8ca27e
0.0104817641532481,0.1101927104656292,0.2065616938338067,0.1261628973904933,0.0693632698529707,-0.2628741707858256,-0.139632524246045,-0.1624372961885146,-12.650957059543837,21.514836640119256,-5.435993868421211,-0.7296308013409537,0.5489355358612916,-0.1881393041072347,-1.0,12.050222222222224,0.04,179.81091046287463,15.892337691173468,46.37379818113877,1525.0,1435.0,1000.0,1351.0,1475.0,1021.47,138.0,293.41,1637230480.9800105,1637230482.1013842,d36868fd-c478-4bf7-8f61-22b7ed8ca27e
0.0462708720699135,0.1387500344648062,0.2893710827323939,0.1191091699415278,0.1395307384153849,-0.2858569991445021,-0.0621236948337114,-0.0891059167262726,-12.135671080167224,21.681791371202284,-5.036561187631751,-0.7598116329170382,0.6549766042609904,-0.5026955168807863,-1.0,12.048333333333334,0.04,179.81900954941045,15.880206895752572,46.35279193434639,1525.0,1435.0,1000.0,1262.0,1475.0,1021.47,138.0,293.41,1637230484.3534412,1637230485.4901297,94eb3b25-8f86-43ec-8def-3626cf7d50b3
0.0479829418978321,0.1338740597672171,0.2953701750268137,0.1229031166076983,0.1465981624540331,-0.285774819772958,-0.0550836634767019,-0.0806003535310409,-12.102613228947313,21.67870213682253,-5.157271696383139,-0.7679095446890853,0.6374377554571797,-0.5312251249493478,-1.0,12.049,0.04,179.80209344756605,15.88488557533403,46.354127236329134,1525.0,1435.0,1000.0,1262.0,1475.0,1021.47,138.0,293.41,1637230485.5986147,1637230486.7261243,94eb3b25-8f86-43ec-8def-3626cf7d50b3
0.0554130510192966,0.1407480884295635,0.294798206780775,0.1247592741778366,0.1454684703507303,-0.292817043325051,-0.0582574301260802,-0.0906821168066187,-12.1377392293573,21.645093492109893,-4.971857753512171,-0.7881607994664219,0.6615594739701361,-0.5232892480067186,-1.0,12.0483,0.0399999999999999,179.81461728242817,15.873833475483304,46.36673542402751,1525.0,1435.0,1000.0,1262.0,1475.0,1021.47,138.0,293.41,1637230486.840161,1637230488.0412,94eb3b25-8f86-43ec-8def-3626cf7d50b3
0.0765430057944219,0.1547383008485788,0.373256471841045,0.126731578581523,0.2145911639827007,-0.3151172355142662,0.0164929098954109,-0.0107643380969908,-11.601409877454568,21.86551866975711,-5.350543879129367,-0.8371438116989387,0.7183262958065473,-0.8293520556840319,-1.0,12.04411111111111,0.0377777777777777,179.78688641083397,15.873086992725266,46.34585170323975,1525.0,1435.0,1000.0,1173.0,1475.0,1021.47,138.0,293.41,1637230488.6998732,1637230489.7919369,8d7de737-927d-4eee-a80b-4af8f64e822a
0.0848403809208577,0.1688550694501822,0.3583195540010264,0.1041662247265151,0.1945224192943443,-0.3053198118166194,0.0006476349223076,-0.0162539188692457,-11.70340805934452,21.94038874565518,-5.064395144535546,-0.76447894825364,0.771291176880753,-0.7572849362885087,-1.0,12.044777777777778,0.0355555555555555,179.77412306400493,15.871375840610698,46.33808767542822,1525.0,1435.0,1000.0,1173.0,1475.0,1021.47,138.0,293.41,1637230489.8999405,1637230491.0205662,8d7de737-927d-4eee-a80b-4af8f64e822a
0.0636928946050454,0.1355724330272997,0.3450064999791442,0.1131922567326662,0.1895094789990976,-0.283788818733399,-0.0036256915496607,-0.0298546019776683,-11.768934517738446,21.91403491264621,-5.524745224174015,-0.7374004195132017,0.6490491846152633,-0.7308580186014074,-1.0,12.044222222222222,0.0311111111111111,179.7829476684126,15.880267988000147,46.33294302516338,1525.0,1435.0,1000.0,1173.0,1475.0,1021.47,138.0,293.41,1637230491.129269,1637230492.2519054,8d7de737-927d-4eee-a80b-4af8f64e822a
-0.0688350088761739,0.0582416642750627,-0.0426608843671574,0.1549256697561155,-0.1522333590764035,-0.2266056793027474,-0.3940872231384871,-0.4220008154478849,-14.467064319714709,21.72788351124808,-5.683148268843406,-0.7249633129197864,0.3497949283296265,0.8079504343308289,-1.0,12.049,0.04,179.83159531132105,15.883122817345736,46.38393873532651,1525.0,1435.0,1000.0,1617.0,1475.0,1021.47,138.0,293.41,1637230493.3646991,1637230494.3918717,7e5bc92a-34b4-4b5e-951a-7320f8ff8ddd
-0.0626096487954408,0.0753727718167453,-0.0348790473709558,0.1570787687589422,-0.147839502719569,-0.2458893402290027,-0.3939305344451196,-0.4169144606464385,-14.530552260560178,21.786258221531703,-5.7262043502217015,-0.7724175027201698,0.4151071786330073,0.7930979122307424,-1.0,12.050111111111113,0.04,179.80716751920943,15.881189494355668,46.34470726709882,1525.0,1435.0,1000.0,1617.0,1475.0,1021.47,138.0,293.41,1637230494.4998884,1637230495.55451,7e5bc92a-34b4-4b5e-951a-7320f8ff8ddd
-0.0699071755175532,0.0616586816900601,-0.0450298412103753,0.1551722078158757,-0.1552159218960271,-0.2330956573581766,-0.3989664861199931,-0.4322984383004056,-14.512856715805276,21.7559148032199,-6.125253353813767,-0.7401289498737548,0.3666732367498941,0.8219375151054298,-1.0,12.050111111111113,0.04,179.80839847107987,15.883060207278342,46.34181961489972,1525.0,1435.0,1000.0,1617.0,1475.0,1021.47,138.0,293.41,1637230495.6635785,1637230496.6112118,7e5bc92a-34b4-4b5e-951a-7320f8ff8ddd
-0.104774780385687,0.0371763571522458,-0.1412761113947732,0.180236909195783,-0.2391654248454076,-0.2283451424214364,-0.5006053835104685,-0.5209858683646053,-15.260175088440851,21.965911603212604,-6.3392711992646085,-0.789804358186894,0.272851864971419,1.2085329153657332,-1.0,12.047999999999998,0.0366666666666666,179.82383166296444,15.894587289867603,46.36426892888174,1525.0,1435.0,1000.0,1706.0,1475.0,1021.47,138.0,293.41,1637230498.178099,1637230499.41451,5708fd1b-f007-4017-8625-0d8a823f1e31
-0.1146499997436459,0.0266437034580421,-0.151438958635046,0.1769086456065801,-0.2463013327182327,-0.2162921696022373,-0.5046595659731693,-0.5278752394332149,-15.194358796485067,21.793887654040333,-6.581496428286553,-0.7568638630378635,0.234791607126154,1.2363490080289907,-1.0,12.049111111111111,0.04,179.83191860694177,15.878273762489982,46.37388962978265,1525.0,1435.0,1000.0,1706.0,1475.0,1021.47,138.0,293.41,1637230499.523288,1637230500.648318,5708fd1b-f007-4017-8625-0d8a823f1e31
-0.0917904421378449,0.0598167684652093,-0.1286752766235956,0.1871536709717213,-0.2325499863047052,-0.2554643316885085,-0.4984413267185104,-0.5200134124118861,-15.14150859465938,22.145141448389804,-6.081559097919613,-0.8644309292002438,0.3545934484589419,1.1824380144887223,-1.0,12.05,0.04,179.81571284477104,15.875839558960784,46.3385494721071,1525.0,1435.0,1000.0,1706.0,1475.0,1021.47,138.0,293.41,1637230500.7573032,1637230501.8752697,5708fd1b-f007-4017-8625-0d8a823f1e31
-0.134993225606476,0.0230935554610978,-0.2350679619447856,0.2078590317547831,-0.3233877666695036,-0.2353966794401307,-0.6035208069215486,-0.6234673859961843,-15.863055769791892,22.204153857530752,-6.444358278827926,-0.8713699419980263,0.2158884844786149,1.595495609538362,-1.0,12.044777777777778,0.04,179.83450041844802,15.86266317541444,46.34771862161289,1525.0,1435.0,1000.0,1795.0,1475.0,1021.47,138.0,293.41,1637230503.696475,1637230504.753853,29a3c290-8285-4984-a45c-d8bb56aacc1e
-0.1504391098287148,0.0160288704023386,-0.2477805612875133,0.2180394092307102,-0.3340278029693982,-0.2368370098255064,-0.6179849254440378,-0.6431318160023349,-15.93387827464227,22.34125922067415,-6.406420568475146,-0.8973247113812324,0.1874996353643291,1.6470923629661902,-1.0,12.047555555555556,0.04,179.81520133949323,15.86309328760467,46.3031455659993,1525.0,1435.0,1000.0,1795.0,1475.0,1021.47,138.0,293.41,1637230504.8627098,1637230505.973029,29a3c290-8285-4984-a45c-d8bb56aacc1e
-0.1390983584587412,0.0348753351893218,-0.2344264150607098,0.2246685433894757,-0.3256044180360384,-0.2589432579616941,-0.6144238190175796,-0.6380229978404761,-15.947853351819475,22.55690163632799,-5.993734000348162,-0.9598008882515966,0.2546606689009055,1.6151683104213803,-1.0,12.04622222222222,0.04,179.8430730647663,15.87960090619121,46.30147710256704,1525.0,1435.0,1000.0,1795.0,1475.0,1021.47,138.0,293.41,1637230506.080865,1637230507.0882795,29a3c290-8285-4984-a45c-d8bb56aacc1e
-0.15668857603004088,0.012232732207842927,-0.27855070593498654,0.25127602462230186,-0.3643196650671681,-0.2604580975515312,-0.665109321542404,-0.6927741893117261,-16.285609785378696,23.122963686839086,-6.249804461327383,-1.0218803323406893,0.1683336490155996,1.7968753490927714,-1.0,12.035999999999998,0.030000000000000002,179.85596997973911,15.861884913304014,46.331690064905644,1525.0,1435.0,1000.0,1883.0,1475.0,1021.4699999999999,138.0,293.40999999999997,1637230509.2256658,1637230510.1803257,92de0cda-aa22-4ed8-a88f-b0d1f8eec3c1
-0.15909533550262941,0.02204165968380914,-0.2766940001765101,0.2536778530333849,-0.36506421008826884,-0.27073599642734,-0.6676486643983691,-0.6936995295215443,-16.238285742128365,23.20784072378011,-6.034225708447966,-1.0496807819846339,0.2027009020536211,1.8004842904064022,-1.0,12.039333333333332,0.030000000000000002,179.86305060917869,15.848749890347644,46.33304471909102,1525.0,1435.0,1000.0,1883.0,1475.0,1021.4699999999999,138.0,293.40999999999997,1637230510.2885005,1637230511.3889453,92de0cda-aa22-4ed8-a88f-b0d1f8eec3c1
-0.15880770775884762,0.017302650461119163,-0.2835285838523641,0.2515822796996949,-0.370556531093647,-0.26423013018052816,-0.6716480610095245,-0.6977400155234245,-16.215911711994863,23.136215105378934,-6.084721363209916,-1.0311460501264478,0.18503943905084222,1.8223576373825736,-1.0,12.04,0.030000000000000002,179.8635378293395,15.858565441367388,46.29267602436653,1525.0,1435.0,1000.0,1883.0,1475.0,1021.4699999999999,138.0,293.40999999999997,1637230511.4964845,1637230512.6955483,92de0cda-aa22-4ed8-a88f-b0d1f8eec3c1
