raw_voltage_G-,raw_voltage_G0,raw_voltage_G1,raw_voltage_G2,raw_voltage_G3,raw_voltage_G4,raw_voltage_G5,raw_voltage_G6,load_x,load_y,load_z,load_l,load_m,load_n,rpm,voltage,current,roll,pitch,yaw,aileron1_pwm,elevator_pwm,throttle_pwm,rudder_pwm,aileron2_pwm,pbaro,pdiff,Tt,sample_start_time,sample_end_time,uid
-0.0429348155622665,0.0774305428437069,0.0178505128667278,0.0529821858355966,-0.1082400098602233,-0.0921739457667488,-0.2921026305881655,-0.3160442188313815,-13.59721894684342,21.19768082831468,3.377213359595576,-0.1915373166252665,0.3516851143561917,0.5353746336601478,-1.0,12.053888888888888,0.04,179.00883375954095,8.064656121395961,66.37597946530948,1525.0,1435.0,1000.0,1528.0,1475.0,1021.47,61.0,292.85,1637226458.320928,1637226459.458461,266ce5e8-63e3-4e75-a8e0-09e4b8d8536e
-0.0297998154598597,0.0798000474592282,0.0207678798776374,0.0476679211100396,-0.1051582839991646,-0.0891607027075323,-0.2875142828146241,-0.3206873530756252,-13.628477528670333,21.067245534869,3.470533556646956,-0.173498742832057,0.3608033764659303,0.521071097113368,-1.0,12.051444444444446,0.04,179.08506777759715,8.092481078845994,65.70694801681849,1525.0,1435.0,1000.0,1528.0,1475.0,1021.47,61.0,292.85,1637226459.5676792,1637226460.6884506,266ce5e8-63e3-4e75-a8e0-09e4b8d8536e
-0.0361276257174608,0.0781701570018656,0.0187544857478471,0.0517357990106613,-0.1071853747825825,-0.0939544984600083,-0.2908836366946845,-0.3094287800965351,-13.581701691672912,21.13247323306565,3.0730156653870098,-0.193154850053183,0.3572550443803686,0.5306575153685461,-1.0,12.053888888888888,0.04,179.17566644238786,8.118327273575227,65.25361090667684,1525.0,1435.0,1000.0,1528.0,1475.0,1021.47,61.0,292.85,1637226460.7969828,1637226461.91669,266ce5e8-63e3-4e75-a8e0-09e4b8d8536e
0.0993998225399669,0.3325563291733593,0.0221101426326533,-0.063589226647398,-0.1614511436969958,-0.2293723843012546,-0.3471491081821886,-0.3749394310381564,-13.590758103906651,20.61116837168632,3.961211865835754,-0.240463596491919,1.317952762899617,0.7113352821616451,-1.0,12.045,0.04,179.2603759662942,8.138215835800922,64.37613802182513,1644.0,1435.0,1000.0,1528.0,1569.0,1021.47,61.0,292.85,1637226463.866772,1637226464.988417,052ca5ee-ffd3-4e9a-b078-eb3928f5c0b0
0.095161559513016,0.3310228625775013,0.0176631439396052,-0.0633591244559567,-0.16590581277859,-0.2291116017930957,-0.3527488101614542,-0.3683563157378685,-13.668667873885518,20.70462443114808,3.775531484224777,-0.240067353200897,1.3140897760067072,0.7308989755529756,-1.0,12.045,0.04,179.35426222880537,8.156702217108254,64.10683732322985,1644.0,1435.0,1000.0,1528.0,1569.0,1021.47,61.0,292.85,1637226465.0978477,1637226466.2167168,052ca5ee-ffd3-4e9a-b078-eb3928f5c0b0
0.0980674213128993,0.3279855139528124,0.0159801108016251,-0.0658705255358848,-0.1664054632792964,-0.2226687399224845,-0.3516706168774444,-0.3708808661107943,-13.674314010419884,20.61273162546175,3.938317891374677,-0.2205941421250895,1.3014960155771564,0.7322123817370572,-1.0,12.043333333333331,0.04,179.4154227782733,8.17176411232047,63.93153824145176,1644.0,1435.0,1000.0,1528.0,1569.0,1021.47,61.0,292.85,1637226466.3249462,1637226467.4456947,052ca5ee-ffd3-4e9a-b078-eb3928f5c0b0
0.2349546584610983,0.5846414684926499,0.019822817325288,-0.1932819486729947,-0.2253182024923419,-0.3506417312400433,-0.4087562402763404,-0.440450084120674,-13.657873441726348,20.434073807467414,4.613441571579919,-0.221634694973434,2.2739395746477,0.919468660550994,-1.0,12.039111111111108,0.03,179.44942194214178,8.190436521418945,63.590940233750366,1763.0,1435.0,1000.0,1528.0,1663.0,1021.47,61.0,292.85,1637226469.3803122,1637226470.517379,dcc9dfa6-1f9b-4fee-87e8-bf3fe9c89c42
0.2266879639788867,0.5836355933268764,0.0208056823776507,-0.1960557760137776,-0.2234182156820817,-0.3479758326210115,-0.4066190288454913,-0.4383599884358958,-13.741533566320106,20.359864313955374,4.502623972953682,-0.2098897708533195,2.2721437979609824,0.9121677436649004,-1.0,12.041,0.03,179.50420309492495,8.202950471479532,63.5435220248925,1763.0,1435.0,1000.0,1528.0,1663.0,1021.47,61.0,292.85,1637226470.625969,1637226471.7466457,dcc9dfa6-1f9b-4fee-87e8-bf3fe9c89c42
0.2306676358253162,0.579245024925969,0.0157412428133218,-0.1919670789468512,-0.2276055280308089,-0.3449165688047942,-0.4110572625966284,-0.4439290107122381,-13.713411596503269,20.413267590896893,4.823617475598144,-0.2120711298251845,2.2518089404082207,0.931048574812592,-1.0,12.04,0.0333333333333333,179.5276245724988,8.21375355401677,63.517972563937214,1763.0,1435.0,1000.0,1528.0,1663.0,1021.47,61.0,292.85,1637226471.85559,1637226472.9753487,dcc9dfa6-1f9b-4fee-87e8-bf3fe9c89c42
0.2787151607870707,0.6528092339800206,0.0241235367223131,-0.287158172530093,-0.2493967553529389,-0.3224405125799222,-0.4092082268551603,-0.4336154997132935,-13.65053276655223,20.88015683005995,5.837378694708285,0.0568690531909112,2.530548841975055,0.9560191979633914,-1.0,12.026000000000002,0.03,179.5974837473297,8.293522574423442,63.45700098303632,1881.0,1435.0,1000.0,1528.0,1757.0,1021.47,61.0,292.85,1637226474.7973087,1637226475.841811,e6d97208-7cd3-4aa5-b3ee-dfa8a42cb347
0.2725106201074265,0.6295113900899644,0.0528315237041285,-0.226687858525319,-0.2108135454031595,-0.3626810083643731,-0.3869239215525311,-0.4139472374859216,-13.527362494732088,20.92599696042794,4.983203271932408,-0.1683037407913642,2.444242049487334,0.8291809732992433,-1.0,12.025666666666666,0.03,179.6531922880201,8.33878889423779,63.41941445203375,1881.0,1435.0,1000.0,1528.0,1757.0,1021.47,61.0,292.85,1637226475.9506662,1637226477.0766497,e6d97208-7cd3-4aa5-b3ee-dfa8a42cb347
0.2761812975447508,0.6512889161243968,0.0368476397663963,-0.2360152161224853,-0.2318103720378754,-0.3689951231965415,-0.4097286962198893,-0.440408994626802,-13.66747097993585,21.036916416796213,5.747608148296494,-0.161461435085224,2.520274750497432,0.9155242643398372,-1.0,12.026222222222223,0.03,179.68572979140626,8.36884665950025,63.36493382757409,1881.0,1435.0,1000.0,1528.0,1757.0,1021.47,61.0,292.85,1637226477.184331,1637226478.300711,e6d97208-7cd3-4aa5-b3ee-dfa8a42cb347
0.3361037375748759,0.7448637953352057,0.0732530924882468,-0.2873636207005717,-0.226098906436391,-0.4192204132736529,-0.3985386055344377,-0.4145498862752195,-13.396694209687434,21.5085507971628,5.096494371269441,-0.1535231671682076,2.883729752000367,0.8521378944919423,-1.0,12.006666666666668,0.0388888888888888,179.68504221902984,8.406045387539955,63.28066067686476,2000.0,1435.0,1000.0,1528.0,1852.0,1021.47,61.0,292.85,1637226479.3030193,1637226480.347854,7c2a2197-22fc-4824-b308-df05d1a2cad0
0.3234755114043858,0.7386592548882658,0.0730887337899711,-0.2938147008001948,-0.2257564924296587,-0.4050992585072118,-0.3948542305661748,-0.4228363058129272,-13.44411210217939,21.527901101835027,5.408605350219699,-0.1070930158622879,2.85881250819207,0.8462415774334988,-1.0,12.009666666666666,0.0355555555555555,179.69163866394825,8.426437960808151,63.232657348468,2000.0,1435.0,1000.0,1528.0,1852.0,1021.47,61.0,292.85,1637226480.4561722,1637226481.5776272,7c2a2197-22fc-4824-b308-df05d1a2cad0
0.3402006518934227,0.7414988251448412,0.0697977246991183,-0.2898191401921768,-0.2296112523280781,-0.4125490922473405,-0.4015962259021368,-0.4300500109057247,-13.489624244865295,21.61962412646817,5.228733562497817,-0.1324542023335799,2.8706799300758723,0.8656325281230339,-1.0,12.011,0.03,179.70337141112248,8.450633147033013,63.18614527804003,2000.0,1435.0,1000.0,1528.0,1852.0,1021.47,61.0,292.85,1637226481.685827,1637226482.8138592,7c2a2197-22fc-4824-b308-df05d1a2cad0
-0.1819685902822977,-0.1987331795058888,0.0254794960789824,0.1843458767134095,-0.0394832826368654,0.0535163516302951,-0.2212366275840814,-0.2426854412230923,-13.510582200635136,21.937302497488588,3.1105546928890786,-0.1551920501889422,-0.6980240568444169,0.2975451573903764,-1.0,12.047333333333334,0.04,179.95336392384402,8.457272849816173,63.09746058403675,1406.0,1435.0,1000.0,1528.0,1381.0,1021.47,61.0,292.85,1637226483.808443,1637226484.9455,99a44cfa-967a-43ba-adc0-e322de4c7a31
-0.1833382462661866,-0.2016505467713091,0.0251781717854901,0.1865647191217009,-0.0386751856550962,0.0543518417038596,-0.2212777172718198,-0.2367548304581188,-13.562334825433476,21.93675694566777,3.1123868077027503,-0.1583641366613913,-0.7089082020636773,0.2965468105923248,-1.0,12.047,0.04,179.99127602719705,8.489891841153646,63.22486865608445,1406.0,1435.0,1000.0,1528.0,1381.0,1021.47,61.0,292.85,1637226485.0535564,1637226486.2872612,99a44cfa-967a-43ba-adc0-e322de4c7a31
-0.1915835753077755,-0.201280739653323,0.0257808203714059,0.185619656611547,-0.0388532409192492,0.0544477176031167,-0.2205654961396199,-0.2460684915102605,-13.499553467460675,21.963976800037955,3.0582457656396933,-0.1557834375120448,-0.7073306770979677,0.2949466329181052,-1.0,12.048222222222222,0.04,-179.99335240470475,8.502648832112198,63.37707562718866,1406.0,1435.0,1000.0,1528.0,1381.0,1021.47,61.0,292.85,1637226486.3956482,1637226487.40351,99a44cfa-967a-43ba-adc0-e322de4c7a31
-0.303612124438488,-0.4257766832798184,0.0314955725025584,0.2944168946055072,0.013074248872852,0.1794184029652753,-0.1653272701191881,-0.1898101447914138,-13.334930351176068,22.942746406748547,4.0173036650868825,-0.1133688496470293,-1.572008610587132,0.1126382125958402,-1.0,12.036,0.03,-179.95640108129498,8.499384950326316,63.47961422155843,1287.0,1435.0,1000.0,1528.0,1287.0,1021.47,61.0,292.85,1637226488.3141243,1637226489.260742,ce643604-acb0-44a5-ba6f-3a19af117402
-0.3096473769467306,-0.4230943486686241,0.0346775570330618,0.2932335120204787,0.015940664711157,0.1783533586129772,-0.1625397462651188,-0.1869568775842949,-13.364579088088044,22.914024759984585,4.108043569399021,-0.1131251429664521,-1.562195670483868,0.1008610366127281,-1.0,12.038666666666666,0.03,-179.9573982889138,8.499543467633305,63.48025853607013,1287.0,1435.0,1000.0,1528.0,1287.0,1021.47,61.0,292.85,1637226489.3696356,1637226490.588516,ce643604-acb0-44a5-ba6f-3a19af117402
-0.2898426981580214,-0.4074276738260418,0.0312868369646012,0.2814818654662206,0.0091395014843257,0.1756485623246517,-0.1684363891648236,-0.1868719589369638,-13.43349766668416,22.85608340715648,4.332571658566208,-0.0932461821516141,-1.5037073695946892,0.1252268451620923,-1.0,12.039888888888887,0.03,-179.9792306091408,8.506729680413805,63.52053464378587,1287.0,1435.0,1000.0,1528.0,1287.0,1021.47,61.0,292.85,1637226490.6967452,1637226491.8168895,ce643604-acb0-44a5-ba6f-3a19af117402
-0.364776582255859,-0.5469271572663256,0.0398334895419061,0.3002050598288175,0.0349164249851537,0.3144083901764111,-0.1178549946634434,-0.136139901837875,-13.152682125218584,23.992540562416902,7.289146406199445,0.1849026678021967,-2.0568509784436766,-0.0063647522184534,-1.0,12.023666666666664,0.03,-179.99653527285798,8.490936006323013,63.57584248004501,1169.0,1435.0,1000.0,1528.0,1193.0,1021.47,61.0,292.85,1637226493.8434193,1637226494.9821422,d2de070e-3021-46c3-a1b9-b3bf66880834
-0.361448317903511,-0.5398460344509083,0.0336700381367779,0.2881109994043793,0.028081842199263,0.319969192642503,-0.1230459906629406,-0.1433579887129544,-13.290548698264727,23.85361389164403,7.44141789333371,0.223406784707254,-2.0295703035953334,0.0196626764949253,-1.0,12.021222222222224,0.03,-179.99713329386532,8.518116933852554,63.56635762401759,1169.0,1435.0,1000.0,1528.0,1193.0,1021.47,61.0,292.85,1637226495.0909016,1637226496.3222723,d2de070e-3021-46c3-a1b9-b3bf66880834
-0.3593253509484578,-0.5424346847543992,0.0382994749815273,0.2968083135826952,0.0333687138674758,0.3142166384479215,-0.1203340718718603,-0.1523566285043803,-13.293530084728644,23.94151033226085,7.428824519526628,0.1916707003675986,-2.039922453100884,0.001997250402456,-1.0,12.021888888888888,0.03,179.98561911274447,8.515964380762876,63.57418350298661,1169.0,1435.0,1000.0,1528.0,1193.0,1021.47,61.0,292.85,1637226496.4302676,1637226497.5568142,d2de070e-3021-46c3-a1b9-b3bf66880834
-0.4056197278338881,-0.618026015025173,0.0432439326224948,0.3303237902122129,0.0531328479444207,0.3496085433460514,-0.1022820066321519,-0.1323185616631458,-13.4501269869464,24.41069449326972,6.402634490791558,0.1987124042929014,-2.3170375132804915,-0.0679664655874743,-1.0,11.979333333333331,0.15,179.96360768977925,8.503185096825781,63.523080027616565,1050.0,1435.0,1000.0,1528.0,1098.0,1021.47,61.0,292.85,1637226498.462331,1637226499.5991485,321a3fb7-f2ac-4052-a5c1-26de352df6a4
-0.4144677064944781,-0.6282299546363751,0.0444492297866259,0.3359119857423154,0.0551873317428311,0.3519780478388744,-0.1008575644469865,-0.1312502300907742,-13.443320194873364,24.596866321965297,6.057749391410192,0.1926740182535129,-2.352908419346228,-0.0761795598337154,-1.0,11.983250000000002,0.1425,179.9304122115031,8.495374135179638,63.33103199390126,1050.0,1435.0,1000.0,1528.0,1098.0,1021.47,61.0,292.85,1637226499.7083015,1637226500.7164428,321a3fb7-f2ac-4052-a5c1-26de352df6a4
-0.4098382687577347,-0.6256002145019858,0.0495717427030734,0.3288856516906175,0.0590634578115715,0.357963443527557,-0.0930368290665997,-0.1159374766562417,-13.338860032482527,24.51213691790265,6.405221723679273,0.2217750468798989,-2.3456758816761223,-0.0987220970493176,-1.0,11.982666666666669,0.1366666666666666,179.93059662661068,8.491695864868175,63.22622558699956,1050.0,1435.0,1000.0,1528.0,1098.0,1021.47,61.0,292.85,1637226500.8244784,1637226501.94431,321a3fb7-f2ac-4052-a5c1-26de352df6a4
-0.0388121512908997,0.0797863509020355,0.0206720039658384,0.0461339065279459,-0.1057609326150655,-0.0846271416119942,-0.2864596476497938,-0.3160579155191889,-13.57932199684346,21.080184650018765,3.915302282884237,-0.1596742213309458,0.3566451327258149,0.5211623045731968,-1.0,12.052,0.04,179.71455774316317,8.47049154258987,63.08805996700911,1525.0,1435.0,1000.0,1528.0,1475.0,1021.47,61.0,292.85,1637226503.7870147,1637226504.8120873,75c0133e-9b30-4a6c-a75f-61def9f1d78a
-0.0310462023382785,0.0782112466783093,0.019439313680546,0.0472570243395709,-0.1074456094159048,-0.084147762011508,-0.2881580211599328,-0.3125515958805519,-13.556707549111596,21.16975758005817,3.8986015268535184,-0.1605893386095614,0.3505105863745946,0.5273300671479029,-1.0,12.051999999999998,0.0399999999999999,179.75848951990469,8.44570820118648,63.3605196280955,1525.0,1435.0,1000.0,1528.0,1475.0,1021.47,61.0,292.85,1637226504.919905,1637226506.1533625,75c0133e-9b30-4a6c-a75f-61def9f1d78a
-0.0299482861723369,0.0801457485984217,0.0198195301508922,0.0499826395080618,-0.107249474685901,-0.0878682953801457,-0.289109110316319,-0.3169317564651641,-13.5516058195871,21.183495643913147,3.993503244251241,-0.1749704944130635,0.3565776795471225,0.5282885492514287,-1.0,12.051666666666668,0.04,179.79199387451334,8.45030729009136,63.66065825133842,1525.0,1435.0,1000.0,1528.0,1475.0,1021.47,61.0,292.85,1637226506.2616863,1637226507.3856947,75c0133e-9b30-4a6c-a75f-61def9f1d78a
-0.0302791950200005,0.0782249432343331,0.0078657215209,-0.1536441046920049,-0.1376739161754576,0.1086176063612083,-0.2426443510855459,-0.2592171891980426,-13.441492315464378,20.498513150199965,5.142100296244784,0.7209940778787782,0.3627155346352786,0.5198264721317701,-1.0,12.051666666666668,0.04,179.7981364913069,8.487528880292038,64.08103818091492,1525.0,1535.0,1000.0,1528.0,1475.0,1021.47,61.0,292.85,1637226509.316763,1637226510.3412216,2107a575-008d-49c7-a84a-276eb1aec208
-0.0289752826086957,0.0716911369707895,0.0040805405277061,-0.1515474353296153,-0.1406077192371778,0.1138195592254803,-0.2461391653925721,-0.2788005313789584,-13.518004354387116,20.627940433915462,5.216746518742603,0.7285968853325672,0.3375938242773038,0.5331843556476649,-1.0,12.05177777777778,0.04,179.8125102449602,8.499781955071823,64.2241814909905,1525.0,1535.0,1000.0,1528.0,1475.0,1021.47,61.0,292.85,1637226510.4496872,1637226511.6853018,2107a575-008d-49c7-a84a-276eb1aec208
-0.0463052647694212,0.0701658882138411,-0.0010737484858776,-0.1520076397363394,-0.1445260310011659,0.1159364992782295,-0.2502941539023403,-0.2734227136076191,-13.561142932132318,20.55636315347735,5.210245437993958,0.7336381458877064,0.3319648499283511,0.5512643687626588,-1.0,12.052444444444443,0.04,179.80741947729882,8.497279259923445,64.3368894781245,1525.0,1535.0,1000.0,1528.0,1475.0,1021.47,61.0,292.85,1637226511.7940223,1637226512.8854673,2107a575-008d-49c7-a84a-276eb1aec208
-0.0241979228521758,0.0722669402929861,-0.0061321616032211,-0.3487105161540292,-0.1734356334640647,0.3066150489216456,-0.2058827838016144,-0.231276206814,-13.56061906478305,20.53505150287908,7.0106999691009095,1.6057259173297742,0.3477812782225307,0.5353811519066926,-1.0,12.053333333333336,0.04,179.77851563455116,8.5382951150718,64.55413730505512,1525.0,1636.0,1000.0,1528.0,1475.0,1021.47,61.0,292.85,1637226514.8462403,1637226515.988227,8c9ee06e-d3ba-401f-8bf4-7b579abad8d7
-0.02574563400308,0.0724312989914938,-0.0049816506576578,-0.3551752929247252,-0.1729425573106977,0.3112307888717402,-0.202664092209016,-0.2231541462845747,-13.512016378992325,20.483025621800326,6.860766273762827,1.630394020785366,0.3502505902945472,0.5283656370944706,-1.0,12.052666666666669,0.04,179.7672139482045,8.549616438212313,64.58024001133317,1525.0,1636.0,1000.0,1528.0,1475.0,1021.47,61.0,292.85,1637226516.097314,1637226517.099479,8c9ee06e-d3ba-401f-8bf4-7b579abad8d7
-0.0242253160081364,0.0697330769625971,-0.0112683711871794,-0.3519566011135355,-0.1772569736439217,0.3112718785297784,-0.2079783574817021,-0.2353714781396312,-13.518806052125097,20.386271546959417,6.868645215974657,1.62226918162913,0.3393123666532163,0.5501257123226048,-1.0,12.052,0.04,179.75803872741946,8.542083877922652,64.61790622787606,1525.0,1636.0,1000.0,1528.0,1475.0,1021.47,61.0,292.85,1637226517.2075443,1637226518.4404857,8c9ee06e-d3ba-401f-8bf4-7b579abad8d7
-0.0142953107408794,0.0661034889577035,-0.017897505705918,-0.5168084167172813,-0.2060882322200519,0.4753703341779099,-0.1739971924498991,-0.1964047646595296,-13.434004328099268,20.686192894125988,8.211519474663152,2.364800506488777,0.3330787601055983,0.5499948300074858,-1.0,12.046333333333331,0.04,179.72192524054788,8.581946095147446,64.66444941361027,1525.0,1737.0,1000.0,1528.0,1475.0,1021.47,61.0,292.85,1637226520.3759425,1637226521.5125244,90aef43b-661f-4398-b569-6f7b7bbb4b33
-0.0122819165775716,0.0689797662485638,-0.014267917588793,-0.51745215508182,-0.202513430063235,0.4713709394332661,-0.1716413841356666,-0.1912822512478024,-13.51178757725766,20.654584397992384,7.983319905849946,2.3571611108022554,0.3467484248895654,0.5368032301561135,-1.0,12.047,0.04,179.71226279960203,8.58899105582136,64.63847648092641,1525.0,1737.0,1000.0,1528.0,1475.0,1021.47,61.0,292.85,1637226521.620747,1637226522.7426713,90aef43b-661f-4398-b569-6f7b7bbb4b33
-0.015596483827499,0.0649529780369687,-0.0174044295737537,-0.5190820458962316,-0.2052116523724182,0.478589025180353,-0.1729151642120308,-0.2011985605207014,-13.514747040363355,20.68283643457677,8.217730471586448,2.377124733090864,0.3295912076982395,0.5463827268253837,-1.0,12.045666666666667,0.04,179.68408599254602,8.594833713473875,64.61482125910094,1525.0,1737.0,1000.0,1528.0,1475.0,1021.47,61.0,292.85,1637226522.8502038,1637226523.9704182,90aef43b-661f-4398-b569-6f7b7bbb4b33
-0.0146103315850234,0.067678593189019,-0.0098165359448044,-0.5021530949786538,-0.2010068084642815,0.4588659825476678,-0.1747094135364305,-0.1972676478593523,-13.440661407853574,21.166199698199943,8.0258842530784,2.298205668520275,0.3393948032931497,0.5329281526501904,-1.0,12.04077777777778,0.0377777777777777,179.65616266139918,8.59455082980575,64.55887366178956,1525.0,1837.0,1000.0,1528.0,1475.0,1021.47,61.0,292.85,1637226524.8814597,1637226525.9066074,414d7429-9a30-4a0d-aeb0-9e18de258ba3
-0.0211161970899875,0.070335725542097,-0.009967198095609,-0.5012902116141779,-0.2006506979097308,0.4548254981067919,-0.1760105867169669,-0.200431553243825,-13.51261524555541,21.106403028633625,7.9301367590556575,2.2867243232747883,0.3506017396382246,0.534669338008023,-1.0,12.041666666666666,0.04,179.66364854872953,8.572805784218154,64.51366615749306,1525.0,1837.0,1000.0,1528.0,1475.0,1021.47,61.0,292.85,1637226526.0144355,1637226526.97075,414d7429-9a30-4a0d-aeb0-9e18de258ba3
-0.0212531626725009,0.0655830197283689,-0.0109807434552935,-0.5002355763001971,-0.2015820639833321,0.4584413892630767,-0.176188641992828,-0.2068552399127515,-13.474883052762832,21.193206761357192,7.914392414206634,2.2930121629482136,0.3324560563447889,0.5369757033409991,-1.0,12.040777777777777,0.04,179.65828912696077,8.57069772222182,64.4868432457125,1525.0,1837.0,1000.0,1528.0,1475.0,1021.47,61.0,292.85,1637226527.0782678,1637226528.1591616,414d7429-9a30-4a0d-aeb0-9e18de258ba3
-0.0449246516415526,0.080316681647004,0.032928780420588,0.2691582506356637,-0.0731286061742964,-0.3053083064543309,-0.3376804017114909,-0.3627418212857187,-13.568747348709554,21.760393912112,1.6556551368906238,-1.1538979263897429,0.3519160261527236,0.5314968606903463,-1.0,12.0515,0.04,179.6490664743065,8.388936095692156,64.3941594759502,1525.0,1396.875,1000.0,1528.0,1475.0,1021.47,61.0,292.85,1637226529.7617404,1637226530.732115,566e0d4e-b36b-47c1-8c8e-14f53af80a0b
-0.0509609991551951,0.0751295210183832,0.0299171810998948,0.2764141390929418,-0.0742725427958578,-0.3070455782107248,-0.3417663597402403,-0.3602978070212295,-13.66168206079996,21.823663344578943,1.6084361685600097,-1.173954159419196,0.3324540880954952,0.5422560354476548,-1.0,12.050333333333334,0.04,179.67455104846465,8.349106559025266,64.50628044627054,1525.0,1334.0,1000.0,1528.0,1475.0,1021.47,61.0,292.85,1637226530.845461,1637226531.958541,566e0d4e-b36b-47c1-8c8e-14f53af80a0b
-0.0484747997563658,0.0759907606155294,0.0290367663077098,0.2716959488703972,-0.0757451968400272,-0.3029283920721551,-0.3409149815134289,-0.3677251780562879,-13.599528706182612,21.77438007910056,1.6961516612643266,-1.1543844859788015,0.334991194639733,0.5445000121974948,-1.0,12.05277777777778,0.04,179.6836154684032,8.350590227894974,64.62339845887867,1525.0,1334.0,1000.0,1528.0,1475.0,1021.47,61.0,292.85,1637226532.0669262,1637226533.4008112,566e0d4e-b36b-47c1-8c8e-14f53af80a0b
-0.0616169221592857,0.0733078787359477,0.0454216854994265,0.4639884950086043,-0.0428252430451618,-0.4863883520467669,-0.3814042073878296,-0.4081535920999963,-13.827541452242489,22.67260958923717,0.3126188489864638,-1.993973371570522,0.3161834126259233,0.5338573811875262,-1.0,12.043,0.0366666666666666,179.70153940260514,8.295150056720674,64.73625063889517,1525.0,1234.0,1000.0,1528.0,1475.0,1021.47,61.0,292.85,1637226534.3047593,1637226535.43933,dc4050ee-eca1-44ce-a72c-c70ee5c41eb5
-0.0535222557189688,0.0793206679118549,0.0532698135737632,0.4599480105813125,-0.0369357226661312,-0.4890865747514129,-0.3726384082522688,-0.4019353531456667,-13.633557572765616,22.57119133916351,0.3018043668406693,-1.9911079021145568,0.3384511856504306,0.5035112982575678,-1.0,12.044888888888888,0.04,179.70173064790188,8.28809636858282,64.79975090760877,1525.0,1234.0,1000.0,1528.0,1475.0,1021.47,61.0,292.85,1637226535.5475712,1637226536.564491,dc4050ee-eca1-44ce-a72c-c70ee5c41eb5
-0.062041515504267,0.0728832854242213,0.0413812007004154,0.4650568264749151,-0.0467561554990016,-0.4879360636008927,-0.3862253969379437,-0.4024147326987412,-13.84082649870093,22.70167377787997,0.1390149345731105,-1.999904060103272,0.3158364182114191,0.5512753176011574,-1.0,12.043555555555557,0.04,179.70095807761575,8.294406419874788,64.8680148538135,1525.0,1234.0,1000.0,1528.0,1475.0,1021.47,61.0,292.85,1637226536.695071,1637226537.6944144,dc4050ee-eca1-44ce-a72c-c70ee5c41eb5
-0.0692102946086269,0.0730060065869213,0.0454068932092466,0.5307646907055755,-0.0395994294627639,-0.5502685708651884,-0.4037526125065143,-0.4269074717432211,-13.86630705563762,23.24456651725656,-0.1616757350445175,-2.2844557738079923,0.3113164261708434,0.560921408251896,-1.0,12.044333333333334,0.04,179.68592255452282,8.265218460230384,64.92453315137556,1525.0,1133.0,1000.0,1528.0,1475.0,1021.47,61.0,292.85,1637226538.2805457,1637226539.4272544,3f7b2d30-598e-475b-8c17-58c8f322ecfa
-0.0579051546486237,0.0816901725275086,0.0512016332338992,0.5209935667180403,-0.0366343983621158,-0.5507621949139748,-0.3979359568230325,-0.429164117373473,-13.803713244858628,23.188202146154364,-0.2562116396824854,-2.26359241947803,0.3458516083278685,0.5416010644920729,-1.0,12.043,0.04,179.69415824484207,8.250756862755221,65.00406083843154,1525.0,1133.0,1000.0,1528.0,1475.0,1021.47,61.0,292.85,1637226539.5632827,1637226540.5678377,3f7b2d30-598e-475b-8c17-58c8f322ecfa
-0.0583889171050707,0.0823678782412229,0.0537431666427511,0.5229675145645065,-0.0342216125315376,-0.5507024778807506,-0.3953637426029779,-0.4180189515171603,-13.768132697907344,23.191327703460573,0.1243057380583658,-2.267685131948129,0.3446872079557936,0.5318476841628254,-1.0,12.045,0.04,179.6908554689234,8.256180886729858,65.03839695829909,1525.0,1133.0,1000.0,1528.0,1475.0,1021.47,61.0,292.85,1637226540.7004635,1637226541.6866238,3f7b2d30-598e-475b-8c17-58c8f322ecfa
-0.0561404899937042,0.0819865660548107,0.0537957614179187,0.5324345749924118,-0.0356679691711388,-0.5600117574674265,-0.4018986459531755,-0.4309309735224434,-13.890182604188906,23.56621456613329,-0.0416291436737691,-2.307559793675974,0.3444356656170763,0.5426139114617878,-1.0,12.041777777777778,0.0322222222222222,179.6779706965091,8.240037544899057,65.08206918785217,1525.0,1033.0,1000.0,1528.0,1475.0,1021.47,61.0,292.85,1637226542.2778976,1637226543.4340146,38a8beaa-5ba3-45f6-9495-da9e4e331f41
-0.0528648208908516,0.0835529044796042,0.0598715547897824,0.5318960263594947,-0.0301148363043065,-0.5619933761354856,-0.3951281617813881,-0.4178096677366483,-13.78791009746618,23.50469036199105,-0.1259504410712288,-2.310865199006042,0.3507843012613733,0.517291291331278,-1.0,12.041777777777778,0.04,179.65650113521804,8.251901109168674,65.08806761176326,1525.0,1033.0,1000.0,1528.0,1475.0,1021.47,61.0,292.85,1637226543.568916,1637226544.6565711,38a8beaa-5ba3-45f6-9495-da9e4e331f41
-0.0599596385121318,0.0812381860981024,0.056885705037766,0.5283897076867268,-0.0341553211899682,-0.5553231501176373,-0.3974565771837812,-0.4283149305241001,-13.783951324008392,23.632503220615064,0.0187568382054218,-2.28724324322635,0.3410367273505141,0.5300233707711782,-1.0,12.041,0.0322222222222222,179.65166232564604,8.246577545893082,65.11212202020023,1525.0,1033.0,1000.0,1528.0,1475.0,1021.47,61.0,292.85,1637226544.76597,1637226545.8829317,38a8beaa-5ba3-45f6-9495-da9e4e331f41
-0.0574953113984999,0.0759766004784632,0.0152270950676379,0.0453300238937126,-0.1091418756251628,-0.0842352092993882,-0.2884193093952618,-0.3129340457256188,-13.449472196529785,20.851274474886,3.3090454133423512,-0.1588000059102984,0.3465603615037907,0.5348410776358419,-1.0,12.050444444444445,0.04,179.65419556691822,8.37280788462764,65.16826693408764,1525.0,1435.0,1000.0,1528.0,1475.0,1021.47,61.0,292.85,1637226547.8287733,1637226549.1672523,9fc27ef0-29db-47eb-9fa6-e0335b043ef4
-0.0231635586713139,0.0724011665598478,0.0140078063409457,0.0519417952430655,-0.1098003219069387,-0.0847783516312878,-0.2923568387508986,-0.3265829008054302,-13.608998508901752,21.05564502980493,3.577699642365136,-0.1736784473053154,0.3310104418482916,0.5428149526512484,-1.0,12.0525,0.04,179.64782679497213,8.379239574948265,65.12576665115967,1525.0,1435.0,1000.0,1528.0,1475.0,1021.47,61.0,292.85,1637226549.275893,1637226550.394366,9fc27ef0-29db-47eb-9fa6-e0335b043ef4
-0.0497957380232714,0.0752306648351699,0.0172499714456226,0.0469736109470482,-0.1078775778260691,-0.0826927659903906,-0.2888112417304763,-0.3168786553275273,-13.601220220584056,21.062027019627383,3.64391915118838,-0.1575666350153305,0.3417981600920028,0.5311235282078605,-1.0,12.050666666666668,0.04,179.64563658097828,8.384810234546645,65.10665407431468,1525.0,1435.0,1000.0,1528.0,1475.0,1021.47,61.0,292.85,1637226550.525223,1637226551.616505,9fc27ef0-29db-47eb-9fa6-e0335b043ef4
0.002160830840133,0.0850370635537903,0.0932944447017721,0.0412913512755001,-0.03794269367828,-0.0916945661770534,-0.2092044735346555,-0.2387495978483057,-13.06341199830893,20.915888985177027,3.5845379657820384,-0.1618981026712198,0.3808158805788856,0.2203587048681667,-1.0,12.055,0.04,179.6376224923521,8.375149785739309,65.10936565941518,1525.0,1435.0,1000.0,1439.0,1475.0,1021.47,61.0,292.85,1637226552.2778978,1637226553.223462,12f04727-2f64-4e96-b41f-af5268dc9b26
-0.0012183841773052,0.0918612368327999,0.0975940683211116,0.039371641605831,-0.0359835378744212,-0.0957049187441723,-0.2071138306107607,-0.2265081597429416,-13.037081600593895,20.980315277593704,3.737269393985303,-0.1659007231255753,0.4053806877485765,0.2098690529164109,-1.0,12.050888888888888,0.04,179.61835984107287,8.384711007076204,65.06215690969186,1525.0,1435.0,1000.0,1439.0,1475.0,1021.47,61.0,292.85,1637226553.3323238,1637226554.4824712,12f04727-2f64-4e96-b41f-af5268dc9b26
0.0049736404494564,0.0866852020418308,0.0935882674901143,0.0365937266524414,-0.0383917722388565,-0.0899751211910299,-0.2085536129972326,-0.2427402274830581,-13.0778348784603,20.905864227537283,3.447515787698145,-0.1475185171329119,0.3889107425998477,0.2196021726685865,-1.0,12.053,0.04,179.6310245296139,8.39035492519662,65.08746351947667,1525.0,1435.0,1000.0,1439.0,1475.0,1021.47,61.0,292.85,1637226554.5915177,1637226555.6041424,12f04727-2f64-4e96-b41f-af5268dc9b26
0.0185016261785993,0.1056749534809487,0.184099338675157,0.028527507175635,0.0414865588471673,-0.1047674052797028,-0.1173598112773533,-0.1437077776590541,-12.40003466735552,20.915930854546147,3.629584903136506,-0.1576195494839939,0.4604540931875534,-0.1394583984580971,-1.0,12.050444444444445,0.04,179.61407048227412,8.38878189468527,65.03431098735561,1525.0,1435.0,1000.0,1351.0,1475.0,1021.47,61.0,292.85,1637226557.8655307,1637226559.19831,94bc5c0b-9786-4b77-9d8a-28c74231a18c
0.0217918345715838,0.1064825868511944,0.1911996343718692,0.029536416747287,0.047642171579055,-0.1072626234035287,-0.1119567082333498,-0.1442630573166466,-12.441503680907385,21.02080699813998,3.56657299109782,-0.1644846255436717,0.464662870986853,-0.1652682638278506,-1.0,12.05325,0.04,179.61037345265837,8.391826759814954,65.00576535008442,1525.0,1435.0,1000.0,1351.0,1475.0,1021.47,61.0,292.85,1637226559.3059697,1637226560.3445733,94bc5c0b-9786-4b77-9d8a-28c74231a18c
0.0140998471741856,0.1023538962952348,0.1810093951746808,0.0300623646184808,0.0391218163926306,-0.1020294419788866,-0.1200431569126473,-0.1366105153712778,-12.430423463357062,20.954666665097847,3.734543231749405,-0.1548248828873739,0.4468987481539541,-0.1284825937201373,-1.0,12.050888888888888,0.04,179.62743185011047,8.39571719287751,64.99850485899668,1525.0,1435.0,1000.0,1351.0,1475.0,1021.47,61.0,292.85,1637226560.4545758,1637226561.5426576,94bc5c0b-9786-4b77-9d8a-28c74231a18c
0.0367327993903717,0.1174202790538246,0.2614111403959965,0.024684042086,0.1102011392277158,-0.1136301327895565,-0.0390239211186736,-0.0555862218562701,-11.830223217804091,21.016166661673346,4.097286312977936,-0.1639898962530402,0.501704062752044,-0.4475637717873413,-1.0,12.049666666666669,0.04,179.60702172705066,8.390707913167473,64.90029888129044,1525.0,1435.0,1000.0,1262.0,1475.0,1021.47,61.0,292.85,1637226563.3835554,1637226564.5224934,f8deb049-123e-45ce-98cb-1f6d208966d2
0.0610831734524725,0.1224395408845996,0.2627765818522677,0.0200314264405878,0.1097080631278467,-0.1135542749197741,-0.0382274135316752,-0.0702141470030918,-11.802464327373286,21.03504265990873,4.20603599911203,-0.1530998429034772,0.5200287483783267,-0.4491559045377998,-1.0,12.049888888888889,0.04,179.61620605475457,8.39539920962615,64.890411044102,1525.0,1435.0,1000.0,1262.0,1475.0,1021.47,61.0,292.85,1637226564.6304345,1637226565.7517312,f8deb049-123e-45ce-98cb-1f6d208966d2
0.0354558586984826,0.1205430943499139,0.264989102730298,0.01889355848071,0.112780306520627,-0.1113164678471871,-0.0338782292604455,-0.056939020480622,-11.759843181736937,20.93097783757953,4.137379258460262,-0.1460736196705093,0.5135013548675723,-0.4628123976283054,-1.0,12.049,0.04,179.62528717071106,8.399089978235159,64.89537810944837,1525.0,1435.0,1000.0,1262.0,1475.0,1021.47,61.0,292.85,1637226565.8596947,1637226566.9806252,f8deb049-123e-45ce-98cb-1f6d208966d2
0.0908194555169722,0.1346526565394231,0.3406699591887193,0.0322192565312336,0.1802179448201207,-0.1420136184061406,0.0340904171518675,0.0001566657217494,-11.32813835179201,21.254778701629025,4.030183855241471,-0.2389985876293218,0.5674779366542703,-0.7527571897362262,-1.0,12.041777777777778,0.04,179.6196484700963,8.392876118774,64.85710552388917,1525.0,1435.0,1000.0,1173.0,1475.0,1021.47,61.0,292.85,1637226567.7775831,1637226568.8232417,d732b258-517c-400f-9c73-6e93cd972893
0.0764443905972981,0.1364226732968631,0.3418078270548224,0.0325606169175741,0.1817603879798656,-0.1447318587030447,0.0348742817468106,0.0035070548618312,-11.355648193231527,21.188248027795865,3.943394620828117,-0.2462889260310344,0.5751094720142762,-0.7574223245412361,-1.0,12.04888888888889,0.04,179.61562169412562,8.386291152367939,64.86431440910319,1525.0,1435.0,1000.0,1173.0,1475.0,1021.47,61.0,292.85,1637226568.9315653,1637226570.0522432,d732b258-517c-400f-9c73-6e93cd972893
0.074097348333283,0.1363169780153983,0.3415155214474352,0.0337702969834876,0.1802599195123693,-0.1445260310137904,0.0348353413861307,0.0179524152321539,-11.195567674812446,21.2509776817502,4.113297634886063,-0.2480461940200861,0.5719077894917419,-0.754601091339521,-1.0,12.04622222222222,0.04,179.61611953902514,8.389434936660914,64.8168468711013,1525.0,1435.0,1000.0,1173.0,1475.0,1021.47,61.0,292.85,1637226570.1592865,1637226571.1750524,d732b258-517c-400f-9c73-6e93cd972893
-0.0657891047901519,0.0576442836795694,-0.0805181737999271,0.0587442226812029,-0.1953290575744392,-0.0710738694424426,-0.3897654312120865,-0.404165785230467,-14.316829805265716,21.15402621152095,3.6244821269340073,-0.1626306845101398,0.2734300838357567,0.9246512407894344,-1.0,12.052222222222222,0.04,179.65846822969905,8.401225645579386,64.85628438336897,1525.0,1435.0,1000.0,1617.0,1475.0,1021.47,61.0,292.85,1637226571.7623265,1637226572.9187138,0fe38d5d-24cb-4be7-9e42-5b7629279d70
-0.077256285580403,0.0582511465807587,-0.0828065527765274,0.0636876267125354,-0.1973013622055421,-0.0770034260314875,-0.3946961932687188,-0.4068966687643386,-14.384918047728137,21.218417001735663,3.485072073283082,-0.1868498865698907,0.276671070471329,0.9373233641897832,-1.0,12.053333333333333,0.04,179.65567695905818,8.40558852377547,64.88594789493432,1525.0,1435.0,1000.0,1617.0,1475.0,1021.47,61.0,292.85,1637226573.027134,1637226574.148347,0fe38d5d-24cb-4be7-9e42-5b7629279d70
-0.0759526541134092,0.0554369135187221,-0.084207113767335,0.0669541974137083,-0.1979189951219691,-0.0783997726641087,-0.3961234452118472,-0.4113418470742009,-14.3684349636223,21.227449675931364,3.3112064198983795,-0.1973855250082505,0.2670494694502499,0.9415565407795502,-1.0,12.054555555555556,0.04,179.66629259084823,8.394462714799952,64.88782012567683,1525.0,1435.0,1000.0,1617.0,1475.0,1021.47,61.0,292.85,1637226574.2565634,1637226575.3635902,0fe38d5d-24cb-4be7-9e42-5b7629279d70
-0.1173608227447139,0.0409889312649424,-0.1817631418289308,0.0902965419820729,-0.2870184673266165,-0.081767300016121,-0.5034066043418238,-0.52324799259488,-15.038065413463578,21.58874827683118,3.086359977074153,-0.2604428825947222,0.2105406929345955,1.3461639694302314,-1.0,12.049,0.04,179.67353904210265,8.400557876008346,64.88098803923204,1525.0,1435.0,1000.0,1706.0,1475.0,1021.47,61.0,292.85,1637226577.3126504,1637226578.4491596,3d3a6876-f58d-4321-921b-01ac481adedb
-0.0998745728555008,0.03716266063722,-0.1896270743385645,0.0894413710166803,-0.2925282775451766,-0.0774206442644181,-0.5089508041368412,-0.5459188802562465,-15.096730572780492,21.45182297522953,3.009748996528417,-0.2500873190511619,0.1968885067898714,1.3717183353046072,-1.0,12.048555555555556,0.04,179.66401130766542,8.396660897347834,64.85010002653047,1525.0,1435.0,1000.0,1706.0,1475.0,1021.47,61.0,292.85,1637226578.5587397,1637226579.67757,3d3a6876-f58d-4321-921b-01ac481adedb
-0.0986370781733327,0.0380567719914733,-0.1811583017454841,0.0933733368729086,-0.2858087871039931,-0.0792164528265565,-0.5021574778681553,-0.534214008155464,-15.024467093046225,21.62000943534824,3.44979975657094,-0.26134915337431,0.1958859642541593,1.3420948529676833,-1.0,12.05,0.04,179.66424656973683,8.394167593709561,64.79607398910558,1525.0,1435.0,1000.0,1706.0,1475.0,1021.47,61.0,292.85,1637226579.7862785,1637226580.9067814,3d3a6876-f58d-4321-921b-01ac481adedb
-0.1422776038187526,0.0282478445279752,-0.2741853380805223,0.1265869430177691,-0.3703417689316428,-0.0968620040768382,-0.6090695585156106,-0.634407105034262,-15.683783530468268,21.992763795304864,3.1523050153576024,-0.3784632183224276,0.1564192883384014,1.7343286311021393,-1.0,12.04922222222222,0.04,179.6718720964902,8.383384337693666,64.80049084476885,1525.0,1435.0,1000.0,1795.0,1475.0,1021.47,61.0,292.85,1637226581.8163786,1637226582.842502,f2fbab0c-a139-4f17-84b3-879f076a4857
-0.1466156624785472,0.0255184785946404,-0.2759406892673811,0.1282553102315859,-0.3711296794037415,-0.0970551887846153,-0.6100567225220759,-0.6372391330395403,-15.660762496016048,21.954405548428912,2.952966236978173,-0.3830226316118349,0.1474689618391778,1.7386351089151555,-1.0,12.049555555555552,0.04,179.6719024528865,8.380446123121963,64.78280596718788,1525.0,1435.0,1000.0,1795.0,1475.0,1021.47,61.0,292.85,1637226582.9516456,1637226584.1838262,f2fbab0c-a139-4f17-84b3-879f076a4857
-0.1420136184460796,0.0223703772523363,-0.2784819279943513,0.1313275536269699,-0.3722928334991531,-0.0966000415687499,-0.6119025977335611,-0.6441674865613121,-15.664583630850265,21.91889211676359,2.964891173251314,-0.3892920655516871,0.1350430602304402,1.7459862273145317,-1.0,12.050555555555556,0.04,179.6694117105692,8.382701413640403,64.7672179576821,1525.0,1435.0,1000.0,1795.0,1475.0,1021.47,61.0,292.85,1637226584.2927103,1637226585.4123418,f2fbab0c-a139-4f17-84b3-879f076a4857
-0.13784143563787005,0.01774304756212965,-0.3187371732210832,0.15641121962899499,-0.4094758366387016,-0.11111418018308919,-0.6627147407595715,-0.6874696992831625,-15.99172232574001,22.33108494142181,3.186655022727516,-0.47789116721432223,0.11240436681205611,1.9234236765564516,-1.0,12.041666666666666,0.04,179.69154911257908,8.380407608444141,64.80056370012,1525.0,1435.0,1000.0,1883.0,1475.0,1021.4699999999999,61.0,292.84999999999997,1637226586.3220844,1637226587.4593995,e4de1fff-9d97-45c8-9746-1baf669be767
-0.13860911726360967,0.016440315176676972,-0.3144335031784985,0.15220060263898838,-0.4056065791760187,-0.10605294327765924,-0.6563917328263068,-0.6826233915247067,-15.950607417433398,22.313236870743893,3.214394927468862,-0.45689867666030737,0.10777241313812329,1.9031652686544793,-1.0,12.044,0.04,179.6853746215694,8.372730191225832,64.76012442677408,1525.0,1435.0,1000.0,1883.0,1475.0,1021.4699999999999,61.0,292.84999999999997,1637226587.5678656,1637226588.5774586,e4de1fff-9d97-45c8-9746-1baf669be767
-0.16923243320645986,0.018189091801279457,-0.3151829788515237,0.15141168089207904,-0.4068688541495768,-0.10836711394866246,-0.6583771864437863,-0.6814531569739447,-15.986657689559408,22.343737673985597,3.0151464981471765,-0.46020434649269876,0.11640261515916961,1.9086189471008927,-1.0,12.039222222222223,0.04,179.67345366473802,8.375308587637512,64.69017342384434,1525.0,1435.0,1000.0,1883.0,1475.0,1021.4699999999999,61.0,292.84999999999997,1637226588.6852891,1637226589.9192219,e4de1fff-9d97-45c8-9746-1baf669be767
