raw_voltage_G-,raw_voltage_G0,raw_voltage_G1,raw_voltage_G2,raw_voltage_G3,raw_voltage_G4,raw_voltage_G5,raw_voltage_G6,load_x,load_y,load_z,load_l,load_m,load_n,rpm,voltage,current,roll,pitch,yaw,aileron1_pwm,elevator_pwm,throttle_pwm,rudder_pwm,aileron2_pwm,pbaro,pdiff,Tt,sample_start_time,sample_end_time,uid
-0.0257012571595895,0.083169948706898,0.0162299360370212,0.0267488931375402,-0.1100369984509907,-0.0474360526884502,-0.2800891034399233,-0.3062681617040659,-13.57833760936362,20.77772850338764,7.145131216006944,-0.0340838925715572,0.3428027992915548,0.5288908478513654,-1.0,12.051,0.04,179.16915347755926,5.693226062375497,73.3973084436054,1525.0,1435.0,1000.0,1528.0,1475.0,1021.47,61.0,292.85,1637226108.7688415,1637226109.7182186,29d86145-f057-4ba6-98eb-9ba0ba879c0e
-0.0285413756276009,0.0844453722295764,0.0214105224149162,0.0271433540282274,-0.1057768206193923,-0.0499343050598707,-0.2748953677225019,-0.3066100279889956,-13.468429957739854,20.77781268206349,7.058681960071217,-0.0402875455016268,0.3478545675878265,0.5087445316317766,-1.0,12.053,0.04,179.2043896645775,5.714012082999007,72.8990203407161,1525.0,1435.0,1000.0,1528.0,1475.0,1021.47,61.0,292.85,1637226109.8274238,1637226110.8870842,29d86145-f057-4ba6-98eb-9ba0ba879c0e
-0.0307240592686141,0.086838434922198,0.0214762658928876,0.0262229452609406,-0.1062501737152339,-0.0503024685854817,-0.2763680219081621,-0.3019948347711488,-13.569973879475397,20.836305086043083,7.213516387888193,-0.0386740477455508,0.3562948987417755,0.5118012382784278,-1.0,12.053666666666668,0.04,179.24954480409033,5.7274524248976455,72.36522360215173,1525.0,1435.0,1000.0,1528.0,1475.0,1021.47,61.0,292.85,1637226110.9946148,1637226112.1166594,29d86145-f057-4ba6-98eb-9ba0ba879c0e
0.115137168103708,0.3459652590892895,0.0268217588310488,-0.0999535914564095,-0.1615744127332605,-0.1817905349513471,-0.3289326822295104,-0.3564764670236888,-13.410821660835497,20.300252478730226,7.921475755595789,-0.0526163576821012,1.3366417878592225,0.6862870967293198,-1.0,12.041666666666666,0.04,179.22529004343772,5.74652174387789,71.81504503431803,1644.0,1435.0,1000.0,1528.0,1569.0,1021.47,61.0,292.85,1637226112.7671406,1637226113.9663455,aeeda71d-f5ce-4bb0-9c31-b62d4b05fe44
0.0984821531218534,0.3371994622108832,0.0194667068015292,-0.0938723191029419,-0.1658203462404983,-0.1786540227616697,-0.3353563692489467,-0.3632014782053077,-13.517473021349886,20.30574459092925,7.889908625509498,-0.0596745986804033,1.303584438068174,0.7101132170576437,-1.0,12.044777777777776,0.04,179.25905394523485,5.741379797229602,71.47845786547926,1644.0,1435.0,1000.0,1528.0,1569.0,1021.47,61.0,292.85,1637226114.1002705,1637226115.196789,aeeda71d-f5ce-4bb0-9c31-b62d4b05fe44
0.1140140503172793,0.3436916305232536,0.022274501339282,-0.0961322514199113,-0.1649163733025356,-0.1818590177682089,-0.3345345756076252,-0.3593664412181212,-13.52444999877428,20.34792146557697,8.056154826406265,-0.0613364031841462,1.326966922425154,0.7048626051718742,-1.0,12.045555555555556,0.04,179.309390921598,5.759609429828759,71.18282526981378,1644.0,1435.0,1000.0,1528.0,1569.0,1021.47,61.0,292.85,1637226115.3063242,1637226116.4163768,aeeda71d-f5ce-4bb0-9c31-b62d4b05fe44
0.2656718234489146,0.6064885309176401,0.022724380613568,-0.2283398743841117,-0.2273157931002773,-0.3148810645062795,-0.3958340614458183,-0.4264932874845594,-13.56534404097238,20.021287946488897,8.214154395209194,-0.0641649882920457,2.3278047384773783,0.9074845883462896,-1.0,12.041555555555554,0.03,179.28249970792575,5.773890549041478,70.7954230113699,1763.0,1435.0,1000.0,1528.0,1663.0,1021.47,61.0,292.85,1637226117.3269703,1637226118.3519504,59363712-41e5-4601-a436-c9b57c36e594
0.25363570985159,0.6113940055805591,0.0275287119733729,-0.2320948390392081,-0.2251664867557756,-0.3157534300824128,-0.391750379029383,-0.4236739030213112,-13.460374767178562,20.08819203230272,8.314674773359034,-0.0569034286479524,2.3453374148356088,0.8929423923266102,-1.0,12.038666666666666,0.0344444444444444,179.29342345713837,5.777682300100089,70.58034414895575,1763.0,1435.0,1000.0,1528.0,1663.0,1021.47,61.0,292.85,1637226118.460344,1637226119.5873592,59363712-41e5-4601-a436-c9b57c36e594
0.2323702233779516,0.6068046053163832,0.0242036089578303,-0.2252170586830755,-0.2262284969437851,-0.3195083948621472,-0.396276565725788,-0.4115492855419044,-13.57488442036935,20.09979929619851,8.01237954931738,-0.081050374122714,2.330556680709675,0.904359478634698,-1.0,12.039666666666667,0.0388888888888888,179.3207927840525,5.791429668488294,70.40098110462151,1763.0,1435.0,1000.0,1528.0,1663.0,1021.47,61.0,292.85,1637226119.701328,1637226120.8109004,59363712-41e5-4601-a436-c9b57c36e594
0.2913570835899919,0.6540008344617495,0.0506948605600194,-0.2665448488045011,-0.2186753708651635,-0.3305762695674328,-0.3785553226743669,-0.406592184100815,-13.313012792433698,20.417215805920893,7.768101257766848,-0.009179837247776,2.514655927209283,0.8377867908490395,-1.0,12.026333333333334,0.03,179.34382418193377,5.7981181312330285,70.09104153937456,1881.0,1435.0,1000.0,1528.0,1757.0,1021.47,61.0,292.85,1637226122.8568983,1637226123.9952593,6533accd-bc97-4744-80b2-03a2730fafbd
0.2749075177027472,0.6501657984303723,0.0505989846584583,-0.2626002394528332,-0.2179905428532201,-0.3292340066084542,-0.3794045094490759,-0.4038254784506199,-13.401884331275149,20.519861238665257,7.936599709968308,-0.0144038664657278,2.498917820720173,0.8378977023395416,-1.0,12.026666666666666,0.03,179.35515167121727,5.810995456843833,69.98121057970094,1881.0,1435.0,1000.0,1528.0,1757.0,1021.47,61.0,292.85,1637226124.1033506,1637226125.2235756,6533accd-bc97-4744-80b2-03a2730fafbd
0.2799138835111565,0.6471832361231238,0.0520864309094879,-0.2617072236958312,-0.2167123798826837,-0.3283448258721014,-0.3772448357040641,-0.4097089733908645,-13.323489010214256,20.56629043165714,7.777623173729746,-0.0140242133321187,2.488570675120123,0.8305128155901167,-1.0,12.026444444444444,0.03,179.3828306333738,5.815757901106363,69.91600504042455,1881.0,1435.0,1000.0,1528.0,1757.0,1021.47,61.0,292.85,1637226125.332033,1637226126.657277,6533accd-bc97-4744-80b2-03a2730fafbd
0.3514427863579011,0.7618661536878822,0.0794620163820557,-0.3102522170663444,-0.223470810476567,-0.3922737984544883,-0.3816233523906923,-0.4132328247751677,-13.009578987560594,21.02997871414352,8.389936277113057,-0.0434829516093775,2.918772906790574,0.8229800108035812,-1.0,12.00477777777778,0.0411111111111111,179.3631627242038,5.818559654190277,69.8419248086866,2000.0,1435.0,1000.0,1528.0,1852.0,1021.47,61.0,292.85,1637226127.2652702,1637226128.393975,d621b819-4281-4363-aa3d-c9f521ccd2e5
0.3506275672714793,0.7632730640512814,0.0765167084535805,-0.3132369715856569,-0.2250092081075435,-0.3895388691166764,-0.3833984267095585,-0.4170722450619268,-13.126141472012726,20.88143326037515,8.56810667849685,-0.0317659809120894,2.9234738080018703,0.8319922807154673,-1.0,12.007666666666667,0.04,179.35440035040858,5.8063361768968935,69.67340886366424,2000.0,1435.0,1000.0,1528.0,1852.0,1021.47,61.0,292.85,1637226128.505931,1637226129.5286105,d621b819-4281-4363-aa3d-c9f521ccd2e5
0.3444586377252916,0.76301173373986,0.0708288016338336,-0.3135103548530537,-0.2299339432652968,-0.3911287658712765,-0.3905809034272008,-0.4242059618761422,-13.282428892396922,20.902530362508355,8.22113994595196,-0.0349993496912988,2.9263484159468724,0.8560381693689191,-1.0,12.00711111111111,0.04,179.34870852610024,5.799272907521453,69.54223583956406,2000.0,1435.0,1000.0,1528.0,1852.0,1021.47,61.0,292.85,1637226129.6380088,1637226130.7598715,d621b819-4281-4363-aa3d-c9f521ccd2e5
-0.1736547784731966,-0.1918848995502586,0.0221375357550809,0.1517069786777267,-0.0441675058231485,0.1043442801424138,-0.2101013242777462,-0.2337278907141309,-13.514659067374865,21.55769469407321,7.04967491760689,0.0305934422730338,-0.7034220648133275,0.2988775897041659,-1.0,12.0486,0.0399999999999999,179.6522609537813,5.813532758284007,69.5056059903912,1406.0,1435.0,1000.0,1528.0,1381.0,1021.47,61.0,292.85,1637226131.8660526,1637226132.8505847,43f99d42-1d02-44ce-968c-9ea74d94e735
-0.1718605291648063,-0.1917342373944658,0.0230278120692824,0.1507208264901765,-0.0433046226065484,0.104727783783395,-0.2086768820410416,-0.2396721982664051,-13.493066749293272,21.528174464647083,7.005265393951798,0.0335321704243605,-0.7024388601897771,0.2944348281405534,-1.0,12.047666666666666,0.04,179.67858996699383,5.853343056584736,69.64996841334265,1406.0,1435.0,1000.0,1528.0,1381.0,1021.47,61.0,292.85,1637226132.985533,1637226134.0329847,43f99d42-1d02-44ce-968c-9ea74d94e735
-0.1742026408537275,-0.1944735493731882,0.023301743235898,0.1504468953284297,-0.0431676570222113,0.1070835918142861,-0.2076770331677091,-0.2297969779328336,-13.4566685982687,21.57476581119016,6.9269409516413205,0.0397722433515823,-0.7122244924836366,0.2920133095175992,-1.0,12.047111111111112,0.04,179.70672579291488,5.870646344777708,69.7982305707462,1406.0,1435.0,1000.0,1528.0,1381.0,1021.47,61.0,292.85,1637226134.1671546,1637226135.2556174,43f99d42-1d02-44ce-968c-9ea74d94e735
-0.3094369977350743,-0.4411738099489027,0.0285239671420601,0.2809131843944913,0.0155725012085488,0.2296595691985983,-0.1516394762159893,-0.1766088526093809,-13.412688070371107,22.568286809862,7.29132279317411,0.0278432733059699,-1.656756534642841,0.0965331927200298,-1.0,12.037,0.03,179.846671815549,5.945039152533934,70.11622065229486,1287.0,1435.0,1000.0,1528.0,1287.0,1021.47,61.0,292.85,1637226137.397536,1637226138.5358746,1317cae9-e97f-40cc-aca7-c0bc4ab5e283
-0.3120311263836213,-0.4463533017111836,0.0249590268460953,0.2836185284548522,0.0125499446212737,0.2331193196976751,-0.1550822434497291,-0.1792977620218623,-13.436999515185912,22.68070065199622,7.387583311231022,0.0300860026798196,-1.6774210394680071,0.1098808274217857,-1.0,12.035444444444446,0.0322222222222222,179.84689797070152,5.9423744775521135,70.10998620740246,1287.0,1435.0,1000.0,1528.0,1287.0,1021.47,61.0,292.85,1637226138.644748,1637226139.7617252,1317cae9-e97f-40cc-aca7-c0bc4ab5e283
-0.3132106741444937,-0.4464201409264671,0.0263938783160798,0.2841872095543543,0.0143496724261117,0.2317107656971394,-0.1546110818134178,-0.184221948474159,-13.533132816910973,22.69979828713604,7.260177999147379,0.0257673348899731,-1.675840860219368,0.1045449771984792,-1.0,12.036333333333332,0.03,179.8566438917372,5.955586340136642,70.12064965051667,1287.0,1435.0,1000.0,1528.0,1287.0,1021.47,61.0,292.85,1637226139.8703392,1637226140.9236915,1317cae9-e97f-40cc-aca7-c0bc4ab5e283
-0.4052088309918433,-0.6143142464007978,0.0317251268347193,0.3527313585037639,0.0471748449949741,0.3501153160189214,-0.1114450047890542,-0.1317159131610895,-13.316337798975471,24.01305644792049,9.847311670140718,0.1467121032342482,-2.338088963930552,-0.0253431234398547,-1.0,12.020555555555555,0.03,179.8842257134255,5.98440324026801,70.14314449909314,1169.0,1435.0,1000.0,1528.0,1193.0,1021.47,61.0,292.85,1637226142.8123603,1637226143.956128,900fab9f-8a4d-4006-8957-21cadbdf53f0
-0.3997986892214143,-0.6099450427693199,0.0395047721302658,0.3492798260117907,0.0532424204314837,0.3504303368541039,-0.1043090973818492,-0.1405091043377056,-13.325479855595043,24.050202227386183,10.105730922564987,0.1558760186864032,-2.3230086764217144,-0.0535306553839692,-1.0,12.019666666666668,0.03,179.86737791347286,5.972334011413382,70.05625538593169,1169.0,1435.0,1000.0,1528.0,1193.0,1021.47,61.0,292.85,1637226144.066783,1637226145.093281,900fab9f-8a4d-4006-8957-21cadbdf53f0
-0.4004654378372588,-0.6233621960517757,0.0332180516911661,0.3532836037165083,0.0499826394767606,0.3593057061419668,-0.1072757721579936,-0.1365053259806304,-13.342121451460104,24.07810633637669,9.986871902213863,0.166633236197146,-2.373050951218264,-0.0380764129710523,-1.0,12.018111111111113,0.03,179.87952502545673,5.981892576565599,69.9942501697364,1169.0,1435.0,1000.0,1528.0,1193.0,1021.47,61.0,292.85,1637226145.2055557,1637226146.321025,900fab9f-8a4d-4006-8957-21cadbdf53f0
-0.4199649583129995,-0.6804012607991623,0.0503245055878497,0.3698378110393219,0.0754911101279688,0.3923220799050274,-0.0783091927870004,-0.1078148687293825,-13.351445771356044,24.51858288141654,9.0751516743794,0.2071049328748039,-2.579781823955074,-0.1456098742175379,-1.0,11.9785,0.153,179.85947659885898,5.979821354902102,69.8795226474468,1050.0,1435.0,1000.0,1528.0,1098.0,1021.47,61.0,292.85,1637226147.432133,1637226148.5667543,ebfd7861-ae2b-4c1d-8eca-606252d048da
-0.4327191965009496,-0.6805721939224223,0.0457093132080357,0.3745581926228796,0.0724669100198194,0.3866681409519759,-0.0851859612413871,-0.1133373216254279,-13.503340123407844,24.508588672239707,8.822349290305544,0.183338936270092,-2.577981203148253,-0.1258467072930029,-1.0,11.984,0.14,179.83053435526998,5.95706260963475,69.6053513409544,1050.0,1435.0,1000.0,1528.0,1098.0,1021.47,61.0,292.85,1637226148.6752596,1637226149.7988472,ebfd7861-ae2b-4c1d-8eca-606252d048da
-0.4347966909021979,-0.682860067911989,0.0489044463947802,0.3695879858434039,0.0747810805366761,0.3947940346191967,-0.0793610885326481,-0.0986896731801725,-13.422107394488386,24.53336871497301,9.042071169492331,0.2132097547375785,-2.588269542886041,-0.1416112631317707,-1.0,11.986333333333334,0.14,179.8430305658115,5.9620406317429575,69.47485298776223,1050.0,1435.0,1000.0,1528.0,1098.0,1021.47,61.0,292.85,1637226149.9066772,1637226150.9148262,ebfd7861-ae2b-4c1d-8eca-606252d048da
-0.0278412075241935,0.0858950159773046,0.0195899758277152,0.0305335262235507,-0.1075551818905522,-0.0510842681713653,-0.2788306634651457,-0.3033749004854261,-13.575079616357073,20.862496540356968,7.51802868139761,-0.0500287977701907,0.3494438951585855,0.5199950139456799,-1.0,12.053555555555556,0.04,179.63361393021924,5.950981227384368,69.25201806609056,1525.0,1435.0,1000.0,1528.0,1475.0,1021.47,61.0,292.85,1637226152.9620826,1637226154.1000311,fe0cdfc3-8919-4047-9b80-ad5b7a6107ae
-0.0252114682016953,0.088045375654574,0.0218636045797173,0.0283968630805735,-0.106390974341091,-0.0530017864429458,-0.2765296413099352,-0.3037447073755443,-13.487070462139895,20.850333433279697,7.282693724154942,-0.0494785601527141,0.3593789106130833,0.5120100286052044,-1.0,12.051222222222224,0.04,179.65869590267135,5.940734947560095,69.56483238206816,1525.0,1435.0,1000.0,1528.0,1475.0,1021.47,61.0,292.85,1637226154.2225056,1637226155.2227986,fe0cdfc3-8919-4047-9b80-ad5b7a6107ae
-0.0300052638469275,0.0871277062371998,0.0188229685385986,0.029971967315211,-0.1093768242889858,-0.0544399251593014,-0.2804194644785909,-0.2968005512240196,-13.498626404948284,20.899181900880983,7.129500627781478,-0.0561211169363005,0.3569907683121346,0.5254184427244923,-1.0,12.051,0.04,179.69001611456537,5.950345972359687,69.82741596906966,1525.0,1435.0,1000.0,1528.0,1475.0,1021.47,61.0,292.85,1637226155.3558545,1637226156.3524656,fe0cdfc3-8919-4047-9b80-ad5b7a6107ae
-0.0131721929350228,0.0871414027950264,0.0081122595787487,-0.1856392682761443,-0.1415363459774599,0.1556241943193318,-0.2313172958175872,-0.257669478074057,-13.43196932921009,20.37289741564624,8.92185238186538,0.8985842696654984,0.3665432187197313,0.5148114471131614,-1.0,12.05311111111111,0.04,179.69902741081034,6.017027306815491,70.36310770567378,1525.0,1535.0,1000.0,1528.0,1475.0,1021.47,61.0,292.85,1637226158.491573,1637226159.6367292,e9bb3766-519c-48dc-9d9b-1f7b76d1ee0c
-0.0218558112714068,0.0834296354550759,0.004016988498531,-0.1837354464706704,-0.1442619613351003,0.1571582088405418,-0.2341250906483787,-0.2579981956401254,-13.41168974243376,20.32371118538862,8.84608392071734,0.8972050012402869,0.3526549807600379,0.5275989134811002,-1.0,12.053999999999998,0.0399999999999999,179.70011872325773,6.023159204006609,70.46262204406105,1525.0,1535.0,1000.0,1528.0,1475.0,1021.47,61.0,292.85,1637226159.7689188,1637226160.8543532,e9bb3766-519c-48dc-9d9b-1f7b76d1ee0c
-0.0221379603936565,0.0801194512035237,0.0033836596126557,-0.1832226472924043,-0.1435924735054282,0.1617728531887755,-0.2334375233358534,-0.2545411834796881,-13.478704240711814,20.299779952516047,9.108840727189412,0.9062359469169048,0.3382815903526982,0.5265089104053505,-1.0,12.05188888888889,0.04,179.69983185531262,6.031404902450237,70.57873677777108,1525.0,1535.0,1000.0,1528.0,1475.0,1021.47,61.0,292.85,1637226160.9638062,1637226162.083129,e9bb3766-519c-48dc-9d9b-1f7b76d1ee0c
-0.0119531991576639,0.0805944478528131,-0.0087619009035074,-0.3843215749458027,-0.178681415862277,0.3561554979367931,-0.1929806243467982,-0.218168598322006,-13.384192625177874,20.1132113199787,10.593070672806858,1.7951122310735996,0.3502259484936354,0.5337853118464418,-1.0,12.0524,0.0399999999999999,179.65388927087946,6.090552424415031,70.80037489851817,1525.0,1636.0,1000.0,1528.0,1475.0,1021.47,61.0,292.85,1637226163.7658412,1637226164.8384793,6e61f86d-c138-4127-bc8e-8cd7a421438a
-0.0101315568369303,0.082375000453194,-0.0069813482527726,-0.383718926255735,-0.1769419527705888,0.3540599246214262,-0.1923779757130486,-0.2142924719484667,-13.452609721299956,20.123666089338474,10.631462991924638,1.7891734163312822,0.3570869284404237,0.5283537112832729,-1.0,12.05322222222222,0.04,179.6562522127683,6.094547914324759,70.82943507670686,1525.0,1636.0,1000.0,1528.0,1475.0,1021.47,61.0,292.85,1637226164.9463785,1637226166.069863,6e61f86d-c138-4127-bc8e-8cd7a421438a
-0.0163130877906555,0.0818813764865767,-0.004794829594421,-0.3825700586743303,-0.175228239207801,0.3528365481057512,-0.1912696500854465,-0.2161995808828699,-13.47419533463084,20.207988835711006,10.551020225414764,1.7844769331780226,0.3560998718121648,0.5212482707420866,-1.0,12.051,0.04,179.6518019650691,6.098897464165588,70.85012599643255,1525.0,1636.0,1000.0,1528.0,1475.0,1021.47,61.0,292.85,1637226166.178546,1637226167.2989273,6e61f86d-c138-4127-bc8e-8cd7a421438a
-0.0111456500693071,0.0761353962685163,-0.0168390356212867,-0.544114979189031,-0.2055359869074745,0.5163800183450482,-0.1603965086143289,-0.1821707515902771,-13.459005710225512,20.214473623297973,11.92416522400519,2.516056510152032,0.3413975035173335,0.5348222779365158,-1.0,12.046333333333331,0.04,179.62329275547347,6.13001054108668,70.90525245322371,1525.0,1737.0,1000.0,1528.0,1475.0,1021.47,61.0,292.85,1637226168.342283,1637226169.4603546,2f5747d2-d181-4845-8a49-3d0cdec005e9
-0.0026778894958504,0.0775686041530938,-0.0120923561708569,-0.5277842937863542,-0.1998820469619164,0.4994707965280397,-0.1593446128214038,-0.17813410155609,-13.3252453356156,20.211797045506906,11.879451860846872,2.441500019331294,0.3445126866867663,0.519501668649723,-1.0,12.046222222222225,0.04,179.62237599230488,6.142476727254946,70.84704785784659,1525.0,1737.0,1000.0,1528.0,1475.0,1021.47,61.0,292.85,1637226169.5681078,1637226170.688945,2f5747d2-d181-4845-8a49-3d0cdec005e9
-0.0111193526496459,0.0826571495536039,-0.0068197288724833,-0.5184092708801137,-0.1945831218684962,0.4893594500232441,-0.1584767988166066,-0.1865098217570044,-13.420439016659286,20.275475375344385,12.401131129149771,2.398350632460831,0.3588290234439152,0.5052025796828999,-1.0,12.045,0.04,179.6248363782259,6.152000050528321,70.80475304977615,1525.0,1737.0,1000.0,1528.0,1475.0,1021.47,61.0,292.85,1637226170.7977684,1637226171.8015938,2f5747d2-d181-4845-8a49-3d0cdec005e9
-0.0064608790572972,0.0832926698695653,-0.0023382148024939,-0.4845256196341649,-0.1900769536549921,0.4550720361367,-0.1664640845570638,-0.1994727940287528,-13.38023643611723,20.6800849867731,12.032597877886504,2.247735865761895,0.3603135312441865,0.5040446764289667,-1.0,12.042333333333334,0.0333333333333333,179.59672331960212,6.107571662115896,70.78268243183811,1525.0,1837.0,1000.0,1528.0,1475.0,1021.47,61.0,292.85,1637226173.8518543,1637226174.9856417,4533e178-d89d-4d61-a034-ba91b32c9063
-0.0059814995360712,0.0739653135459276,-0.0076250865251195,-0.4768007586626128,-0.1927340862750657,0.457085430080862,-0.1713811495093878,-0.2058690875298194,-13.452917954958217,20.74732968997332,11.99114937606162,2.2349741662273845,0.3249269382165833,0.5206734633939497,-1.0,12.044000000000002,0.04,179.59772963413982,6.111754014617667,70.77617326155911,1525.0,1837.0,1000.0,1528.0,1475.0,1021.47,61.0,292.85,1637226175.0949547,1637226176.2182596,4533e178-d89d-4d61-a034-ba91b32c9063
0.0012272733518012,0.0859311748911813,-0.0028488225173194,-0.4802385957167602,-0.191519475339294,0.4490061047934121,-0.1693902175815482,-0.2019332442259233,-13.329120339639074,20.758940548600165,12.084501747367709,2.224965754975724,0.3688288625509605,0.5113050847469406,-1.0,12.044249999999998,0.04,179.6055649994827,6.107346408168892,70.7580499237789,1525.0,1837.0,1000.0,1528.0,1475.0,1021.47,61.0,292.85,1637226176.325532,1637226177.4440882,4533e178-d89d-4d61-a034-ba91b32c9063
-0.0335115829315362,0.0912695455048343,0.0380567719849341,0.2169579292271887,-0.0733521340180523,-0.235935775909953,-0.3134999454518876,-0.3419668777792397,-13.492426285975451,21.41194711105178,6.323672334120899,-0.8815294807240539,0.3578293792892955,0.4980312884371535,-1.0,12.053333333333336,0.04,179.59695251039426,5.883200042744715,70.73416000906444,1525.0,1334.0,1000.0,1528.0,1475.0,1021.47,61.0,292.85,1637226178.355325,1637226179.4982045,dfe0be2a-9c0a-41b3-82ed-86ba161547f3
-0.0336485485526835,0.0940307716858577,0.0379159713675644,0.2178750507454336,-0.0739575219313931,-0.2415623228420984,-0.3149621902606623,-0.332123981250451,-13.458347459448577,21.39442503525193,6.02251952581128,-0.8963959023725172,0.3704914240048509,0.5010781245478387,-1.0,12.050666666666666,0.04,179.61475957247038,5.887236589680454,70.89149872896503,1525.0,1334.0,1000.0,1528.0,1475.0,1021.47,61.0,292.85,1637226179.612066,1637226180.6155064,dfe0be2a-9c0a-41b3-82ed-86ba161547f3
-0.0388762511755469,0.085931174891686,0.030890732491776,0.2272270605123351,-0.0781908544560124,-0.2413398907118201,-0.322178086315147,-0.3559176472868832,-13.529776029087245,21.445480769116816,6.095063448371171,-0.9170276572223168,0.3383796810301621,0.5258275069756416,-1.0,12.051777777777778,0.04,179.6302929404628,5.886052974815534,71.00992662007398,1525.0,1334.0,1000.0,1528.0,1475.0,1021.47,61.0,292.85,1637226180.7298558,1637226181.839892,dfe0be2a-9c0a-41b3-82ed-86ba161547f3
-0.0476332831722781,0.0931366603533911,0.0525992300764416,0.4251280744295468,-0.0405066895238032,-0.4404243341200792,-0.3595729847053301,-0.3805846054979437,-13.581180816814108,22.151881280535168,4.6357334549964,-1.8053079340392844,0.3557248001750315,0.4983745619625084,-1.0,12.047444444444444,0.04,179.62471950610006,5.842024294765164,71.20647214363026,1525.0,1234.0,1000.0,1528.0,1475.0,1021.47,61.0,292.85,1637226182.8629558,1637226183.8911254,bf2c80e8-9628-4194-821e-3f09a1a386ce
-0.0513581993858701,0.0900313766273561,0.0479281557264668,0.4262407827582308,-0.0438524849714841,-0.4389160687501128,-0.3645848303270186,-0.3849516170339349,-13.715988561588397,22.176645603809387,4.526476688598804,-1.8045823553124496,0.3455678748166382,0.5158101267171645,-1.0,12.046,0.04,179.6252097619005,5.834209846876631,71.28412304648431,1525.0,1234.0,1000.0,1528.0,1475.0,1021.47,61.0,292.85,1637226183.999501,1637226185.1166904,bf2c80e8-9628-4194-821e-3f09a1a386ce
-0.0633854218288069,0.0913615863818871,0.0472345619982911,0.4290989803696239,-0.0457267221109715,-0.4441059698739981,-0.3673964603870284,-0.3884869732597187,-13.652003862497695,22.28159006587224,4.333144191239495,-1.8220296065225003,0.3514235075751817,0.5232265250833978,-1.0,12.048777777777778,0.04,179.63433489463165,5.824266609264907,71.34749885397306,1525.0,1234.0,1000.0,1528.0,1475.0,1021.47,61.0,292.85,1637226185.2247295,1637226186.3460314,bf2c80e8-9628-4194-821e-3f09a1a386ce
-0.049066491108655,0.0939913255926216,0.06090920606061,0.5307383933156163,-0.0269109372352189,-0.5457454180024313,-0.3869485754383024,-0.4117207242073783,-13.66524731998805,22.99425682468336,3.5250257289246747,-2.274430856544805,0.3569076946205707,0.5065645961724831,-1.0,12.047222222222222,0.04,179.6273772085971,5.765904634945655,71.50620816516711,1525.0,1133.0,1000.0,1528.0,1475.0,1021.47,61.0,292.85,1637226188.376269,1637226189.3255937,a4c65789-7e05-4e03-83e9-06a80dac1f43
-0.0533529662573785,0.0902045011204457,0.063617837496818,0.5330657123439618,-0.02368950655032,-0.5451405777379698,-0.3845949582946664,-0.4127857688578581,-13.72436555738146,23.07436798730219,3.4071120333963005,-2.2777041776444404,0.3440548195759925,0.4944553502114132,-1.0,12.043888888888889,0.04,179.61932213883597,5.792356866668123,71.52101601528769,1525.0,1133.0,1000.0,1528.0,1475.0,1021.47,61.0,292.85,1637226189.4334242,1637226190.5543382,a4c65789-7e05-4e03-83e9-06a80dac1f43
-0.0516699330721482,0.0909013820144273,0.0577535189882992,0.5358400869882375,-0.0286728625631786,-0.547507343775472,-0.3909457798315319,-0.4186369399114373,-13.732175595285057,23.021813911842663,3.484502732608139,-2.289912912493329,0.3453236696354106,0.5185126984012943,-1.0,12.045,0.04,179.61323871701518,5.792231788828947,71.5254746109959,1525.0,1133.0,1000.0,1528.0,1475.0,1021.47,61.0,292.85,1637226190.662701,1637226191.7841957,a4c65789-7e05-4e03-83e9-06a80dac1f43
-0.0496713311613558,0.0959504813089433,0.0607514217352124,0.5274643682590546,-0.0307372079230788,-0.5444436966344042,-0.3910115232954553,-0.41074772054448,-13.74836932076154,23.36832307534879,3.534067068819541,-2.2616888429271635,0.3651633474290371,0.5177854147760316,-1.0,12.039333333333332,0.03,179.59314733611666,5.786706118358538,71.5706047064818,1525.0,1033.0,1000.0,1528.0,1475.0,1021.47,61.0,292.85,1637226192.7662847,1637226194.0367217,82a366b3-6494-49e2-ae37-d15b7fb9aba9
-0.0460576310219184,0.0919215016888028,0.0640627017317654,0.5290882321076366,-0.0261976204133325,-0.5413663528981486,-0.3866773834548466,-0.4093314962369045,-13.809298274318564,23.366043759776066,3.652627968236233,-2.2582986806635623,0.3494426085915756,0.5005700790282531,-1.0,12.039,0.0333333333333333,179.5842832683938,5.781893159155271,71.5703603374915,1525.0,1033.0,1000.0,1528.0,1475.0,1021.47,61.0,292.85,1637226194.14501,1637226195.1529744,82a366b3-6494-49e2-ae37-d15b7fb9aba9
-0.04807102521445,0.0963180969412835,0.0638983430241214,0.5222125603337614,-0.0282931939378895,-0.5398734275987501,-0.3849379201896538,-0.4125227951229677,-13.605675389672802,23.27470507384115,3.583320488551142,-2.239956275794413,0.3659401654707725,0.5017255752073859,-1.0,12.041333333333332,0.04,179.58287928506445,5.774354575018216,71.55517834478638,1525.0,1033.0,1000.0,1528.0,1475.0,1021.47,61.0,292.85,1637226195.2615683,1637226196.3520432,82a366b3-6494-49e2-ae37-d15b7fb9aba9
-0.0298819948186408,0.0832241870786515,0.0173574367548927,0.0200693553620781,-0.1092946449324462,-0.0391682617885787,-0.2757763304836096,-0.3011286646467774,-13.52019133049915,20.69500282440117,7.475066303136593,-0.0008480553566811,0.3405629433701686,0.5206903138098399,-1.0,12.050222222222224,0.04,179.5862275955775,5.907421933111959,71.54558648246196,1525.0,1435.0,1000.0,1528.0,1475.0,1021.47,61.0,292.85,1637226197.291249,1637226198.3804903,27530e22-4522-4587-99e8-b39f4ec41257
-0.0336074588518123,0.0842651255228221,0.0195625827079222,0.0200556588175553,-0.1078291130769129,-0.0404009520934925,-0.274256012285747,-0.2935818594664334,-13.503520996515196,20.73889857238901,7.45676614868498,-0.0031809129802123,0.3446535259781378,0.5136174057457614,-1.0,12.052666666666664,0.04,179.57162009767256,5.920129926949589,71.54085164354733,1525.0,1435.0,1000.0,1528.0,1475.0,1021.47,61.0,292.85,1637226198.4886663,1637226199.5652173,27530e22-4522-4587-99e8-b39f4ec41257
-0.0224721564309968,0.0921680397408573,0.0277668213743291,0.0165904294463857,-0.1018574131993244,-0.0455782514284487,-0.2686267259784543,-0.2857063372271439,-13.551838035516267,20.777213329767125,7.421032711281223,-0.0063657956102977,0.3759003385878001,0.4871115067417079,-1.0,12.053,0.04,179.57565142710268,5.915582965669,71.53765132046621,1525.0,1435.0,1000.0,1528.0,1475.0,1021.47,61.0,292.85,1637226199.6739895,1637226200.6815183,27530e22-4522-4587-99e8-b39f4ec41257
-0.0171809017386967,0.0989089379282231,0.0932287012163788,0.0125745984239277,-0.041782113110012,-0.0529322079134854,-0.1992377607853893,-0.2208542197469001,-12.986956390555696,20.65293567353038,7.30659719989887,-0.0111305685180306,0.4028412120560513,0.2183250048227389,-1.0,12.052,0.04,179.5661574641564,5.915039111856339,71.50672118826476,1525.0,1435.0,1000.0,1439.0,1475.0,1021.47,61.0,292.85,1637226202.2850406,1637226203.248253,6c90269c-f2da-4303-b432-e02e43514d82
0.0001622289539549,0.0982515031255916,0.0923345898893223,0.0107469296074738,-0.0434914436735922,-0.0484879484343166,-0.1997900060708414,-0.225048654408921,-12.97999427530917,20.73546652722174,7.600782619093706,0.0035320346416042,0.3978885406703227,0.2229485709485026,-1.0,12.053666666666668,0.04,179.56001484736282,5.916106708369106,71.47964935403446,1525.0,1435.0,1000.0,1439.0,1475.0,1021.47,61.0,292.85,1637226203.358956,1637226204.364208,6c90269c-f2da-4303-b432-e02e43514d82
-0.0096729960369665,0.1001317666625125,0.0921110620565953,0.0117067844659558,-0.0428997523197206,-0.0530111000956497,-0.1997505599782663,-0.2219850077788514,-12.942190435546545,20.59255284070947,7.3462951656665725,-0.0097773480474813,0.4067938488459963,0.2223532837715303,-1.0,12.04977777777778,0.04,179.5672912755586,5.914624699614822,71.46913086271265,1525.0,1435.0,1000.0,1439.0,1475.0,1021.47,61.0,292.85,1637226204.4717562,1637226205.7098396,6c90269c-f2da-4303-b432-e02e43514d82
0.031903182068466,0.1169752462659862,0.1860058995583086,0.0042909196697606,0.0406996599442473,-0.0658442281417405,-0.1048169657430489,-0.1257496915471349,-12.30142608339709,20.63219986164152,7.62026707385352,-0.0165823480963853,0.4698699155232189,-0.1518750644633443,-1.0,12.051,0.04,179.56371984553255,5.925776501254682,71.38564697830739,1525.0,1435.0,1000.0,1351.0,1475.0,1021.47,61.0,292.85,1637226207.265234,1637226208.372228,0ff89529-9562-4285-9433-447b4a680022
0.0243821277535784,0.1178693575946241,0.1895823448028371,0.0034362544000087,0.0434608861688993,-0.0677244917804978,-0.1021346315561182,-0.1200168598501927,-12.308037326074777,20.683198361308865,7.389291589802727,-0.0184036245423305,0.4756501193055716,-0.1645807462123903,-1.0,12.050666666666665,0.04,179.56142338415168,5.923115288799317,71.3614134671322,1525.0,1435.0,1000.0,1351.0,1475.0,1021.47,61.0,292.85,1637226208.4807107,1637226209.6026504,0ff89529-9562-4285-9433-447b4a680022
0.0202402884032737,0.1145690348972671,0.1852958699773943,0.0020819386325378,0.0398712920625987,-0.0631487453150263,-0.1048038170587391,-0.1322319995604274,-12.30325910686179,20.666619566172173,7.376183764502403,-0.0053893316026206,0.4632489823212943,-0.1504678566363565,-1.0,12.053666666666668,0.04,179.5729178336149,5.924375600996792,71.34880266119463,1525.0,1435.0,1000.0,1351.0,1475.0,1021.47,61.0,292.85,1637226209.7114952,1637226210.8302743,0ff89529-9562-4285-9433-447b4a680022
0.0614877486954813,0.1325695996774528,0.2790066235570515,0.0037123770264462,0.1231682820677375,-0.0860143291019287,-0.0133809284323761,-0.0437018233458027,-11.61846450788238,20.79182178915876,7.55390527667175,-0.0545800324405651,0.5300822389532417,-0.5189556198945999,-1.0,12.052222222222222,0.04,179.57870831621125,5.919977907808688,71.33371325549825,1525.0,1435.0,1000.0,1262.0,1475.0,1021.47,61.0,292.85,1637226212.8589122,1637226213.9019346,73b63862-5d86-46ac-8ca4-6829b1f2129f
0.0568857050073559,0.1330248732721866,0.2829200040469521,0.004249829979038,0.1267381530233825,-0.0884210885201459,-0.0094193357346636,-0.0277042423548248,-11.552127891374454,20.774994962217164,7.375810867761756,-0.0611123883559894,0.5330803538477531,-0.5349308345028443,-1.0,12.050444444444445,0.04,179.57792208554676,5.912497427711447,71.33118684441527,1525.0,1435.0,1000.0,1262.0,1475.0,1021.47,61.0,292.85,1637226214.0095031,1637226215.018368,73b63862-5d86-46ac-8ca4-6829b1f2129f
0.0500374257228787,0.1318332727032874,0.2832898111016111,0.0055510030663971,0.1275873396305726,-0.088626536903223,-0.0102000396053069,-0.0319912652845391,-11.676000693070948,20.835940183151376,7.349318506299757,-0.064153336294203,0.5295869447263925,-0.5357617695212168,-1.0,12.049888888888889,0.04,179.59643038037768,5.922668717750458,71.3541856091705,1525.0,1435.0,1000.0,1262.0,1475.0,1021.47,61.0,292.85,1637226215.126035,1637226216.1540823,73b63862-5d86-46ac-8ca4-6829b1f2129f
0.0869633474981397,0.1465159831371715,0.3676195166197615,0.0196584586117888,0.2035073614041151,-0.1208956307815122,0.0679251311997508,0.0352451419697842,-11.098148921207525,21.065366871219705,7.273567788409045,-0.1624905079182974,0.5848505346274765,-0.8632484420692524,-1.0,12.047444444444444,0.04,179.5847310252394,5.924836496470159,71.32862931802603,1525.0,1435.0,1000.0,1173.0,1475.0,1021.47,61.0,292.85,1637226218.386022,1637226219.3322918,af6465a0-09e4-4d31-b77d-70841db7fdfe
0.084867774061922,0.1432425057198887,0.359168740605428,0.0183572855163134,0.1948785298550565,-0.11406104764044,0.0606385620781812,0.0325469199173166,-11.064654975125327,21.14610173616221,7.556953463146684,-0.1440207170549225,0.5694501393850065,-0.8296193231274526,-1.0,12.047777777777778,0.04,179.58109888242072,5.921320561731157,71.30053295542024,1525.0,1435.0,1000.0,1173.0,1475.0,1021.47,61.0,292.85,1637226219.4439752,1637226220.5391147,af6465a0-09e4-4d31-b77d-70841db7fdfe
0.0710994456280645,0.1460601616792676,0.3544275402184357,0.0131531410311911,0.1902923743494081,-0.1126798865902082,0.0557023223231138,0.0292339965282601,-11.193795659007426,21.086453446255337,7.428745813572838,-0.1298947278416968,0.5824075526872778,-0.8098332316478195,-1.0,12.04588888888889,0.04,179.59728643075366,5.928529352081413,71.2851650297877,1525.0,1435.0,1000.0,1173.0,1475.0,1021.47,61.0,292.85,1637226220.6471417,1637226221.61475,af6465a0-09e4-4d31-b77d-70841db7fdfe
-0.057494805740986,0.0733873187767263,-0.0786116127601654,0.0330339699846193,-0.1972654561515981,-0.0374298945217078,-0.3801901442019745,-0.3971519662413865,-14.319754190816898,20.940147019412898,7.27908234064107,-0.0297739542584536,0.3033888266886222,0.9179763698686472,-1.0,12.052333333333332,0.04,179.62266589588964,5.942237162290675,71.35365437223507,1525.0,1435.0,1000.0,1617.0,1475.0,1021.47,61.0,292.85,1637226223.2648177,1637226224.3465655,30c8659d-b8d0-426d-942f-4fd6d453061f
-0.0556539881834067,0.0695478994927949,-0.0769680256468077,0.0351377614012633,-0.1951879619400391,-0.0337088133595454,-0.3765216572552879,-0.4012806572912988,-14.206377731241805,20.93375595881878,7.568416290076283,-0.026015161165218,0.2854669243406602,0.9077270797651904,-1.0,12.052555555555555,0.04,179.6225080426288,5.942069727792271,71.36108561805203,1525.0,1435.0,1000.0,1617.0,1475.0,1021.47,61.0,292.85,1637226224.4544322,1637226225.5758152,30c8659d-b8d0-426d-942f-4fd6d453061f
-0.0701224853918303,0.0664185098041826,-0.0787924073460091,0.0341631142944386,-0.1960349572108547,-0.0303887674561498,-0.3768021628426565,-0.3985796955662139,-14.220742154898105,20.89018350972355,7.469465310559883,-0.0167587027388306,0.2747120831382111,0.9112480048607456,-1.0,12.052,0.04,179.6346718506307,5.94185988920277,71.36883788275999,1525.0,1435.0,1000.0,1617.0,1475.0,1021.47,61.0,292.85,1637226225.6842768,1637226226.8050754,30c8659d-b8d0-426d-942f-4fd6d453061f
-0.0988343086616697,0.0520995796184759,-0.1758330793299459,0.0588317120736025,-0.2847963373865665,-0.0336825159872524,-0.4839991237808375,-0.503025292323799,-14.892169561599031,21.28873814871924,7.448449937264957,-0.0823377483946225,0.2167635116410714,1.3148679075773924,-1.0,12.04911111111111,0.04,179.62946876430297,5.927895662308417,71.3568774626134,1525.0,1435.0,1000.0,1706.0,1475.0,1021.47,61.0,292.85,1637226228.7851746,1637226229.8835208,699f5014-fe85-4248-a922-22412422c435
-0.0892752059416553,0.045853948893581,-0.1868385390403301,0.0633022687784722,-0.2919623778108329,-0.0308161001288518,-0.4926772654481903,-0.5146224453159419,-14.951252895225815,21.120758553825308,7.497720520448873,-0.0876644523419164,0.1920691349837962,1.3513663830399918,-1.0,12.049222222222223,0.04,179.6369060813992,5.9296336134291,71.30743448212158,1525.0,1435.0,1000.0,1706.0,1475.0,1021.47,61.0,292.85,1637226229.9968784,1637226231.105471,699f5014-fe85-4248-a922-22412422c435
-0.0965069893105543,0.0551763745404546,-0.1761223506472374,0.0538352074942561,-0.2864267759226757,-0.0320915236956054,-0.4840911646511944,-0.5021837757112658,-14.865294289059772,21.29036395896784,7.447491798668036,-0.0674819365949692,0.2287185046324034,1.3179592376168048,-1.0,12.04911111111111,0.04,179.64952523534575,5.9289935677856285,71.31244404642283,1525.0,1435.0,1000.0,1706.0,1475.0,1021.47,61.0,292.85,1637226231.2130835,1637226232.3354638,699f5014-fe85-4248-a922-22412422c435
-0.1223611626839009,0.039901972368644,-0.2653258549350752,0.0974275181599783,-0.3651737824713367,-0.0545221045078946,-0.5875100726051165,-0.6039185554926335,-15.48726775689723,21.66708066921673,7.095059712728325,-0.2185337230413808,0.1679401975915848,1.6915035623553405,-1.0,12.050666666666665,0.04,179.6146548429031,5.913026008462214,71.26318775776832,1525.0,1435.0,1000.0,1795.0,1475.0,1021.47,61.0,292.85,1637226234.473029,1637226235.4975865,5c69ac89-b2ce-41f9-8677-949172646c29
-0.1292472449406415,0.0379778798136238,-0.268939007564362,0.1004341866546227,-0.3685798432918697,-0.0555225011835966,-0.5925153445685173,-0.624558728241118,-15.539629585282428,21.76681809999985,7.044353822905796,-0.2271172352553145,0.1609461414683174,1.7078387850589956,-1.0,12.050000000000002,0.04,179.62664865508566,5.918391596373953,71.2438492154983,1525.0,1435.0,1000.0,1795.0,1475.0,1021.47,61.0,292.85,1637226235.6061573,1637226236.7617476,5c69ac89-b2ce-41f9-8677-949172646c29
-0.1284013454183805,0.0366421914128987,-0.2758585098749204,0.1040840455266332,-0.3738300090839526,-0.0548782150622044,-0.5999465517500127,-0.6246140624400867,-15.652486069668754,21.749264722193416,7.3730438829804,-0.2343679481733732,0.1529337636255925,1.735264452827302,-1.0,12.0484,0.0399999999999999,179.6293852842131,5.92168385190401,71.24598736827248,1525.0,1435.0,1000.0,1795.0,1475.0,1021.47,61.0,292.85,1637226236.8706045,1637226237.956662,5c69ac89-b2ce-41f9-8677-949172646c29
-0.14852159142087612,0.03420420396989834,-0.3184137236498205,0.13201132793326673,-0.41370069903707907,-0.07869653147924804,-0.6550889155559048,-0.6803453792200503,-15.907422976475267,22.15318181611121,6.9239334178423055,-0.3505292621930824,0.14344529422412883,1.925060574335566,-1.0,12.042666666666667,0.04,179.6315026428558,5.906531162607703,71.26535140991541,1525.0,1435.0,1000.0,1883.0,1475.0,1021.4699999999999,61.0,292.84999999999997,1637226239.798002,1637226240.9367306,fc539bff-f612-44f0-8666-2968ef9cdf4d
-0.14332949960681143,0.030338487245002578,-0.31701064795919276,0.13349000838144304,-0.4112210735388894,-0.07717840480787165,-0.6525654606819492,-0.6746421300360258,-15.910994039078071,22.131473595994294,6.810324420657936,-0.3505473197961828,0.12988521709573037,1.9155692158315747,-1.0,12.041444444444444,0.04,179.6305934687863,5.905563837066499,71.20820321712989,1525.0,1435.0,1000.0,1883.0,1475.0,1021.4699999999999,61.0,292.84999999999997,1637226241.0453327,1637226242.0486538,fc539bff-f612-44f0-8666-2968ef9cdf4d
-0.15532878157577593,0.030040450128928736,-0.32583725952374515,0.13373709429449224,-0.41887799921293906,-0.07746384110290461,-0.6620741628955127,-0.6911793611817892,-16.02843660379034,22.104222966186274,6.691012556185252,-0.3524443891882511,0.1300656405282488,1.9512951133181222,-1.0,12.045,0.04,179.62822718769382,5.906064670173764,71.16503566266553,1525.0,1435.0,1000.0,1883.0,1475.0,1021.4699999999999,61.0,292.84999999999997,1637226242.1569607,1637226243.2787428,fc539bff-f612-44f0-8666-2968ef9cdf4d
