raw_voltage_G-,raw_voltage_G0,raw_voltage_G1,raw_voltage_G2,raw_voltage_G3,raw_voltage_G4,raw_voltage_G5,raw_voltage_G6,load_x,load_y,load_z,load_l,load_m,load_n,rpm,voltage,current,roll,pitch,yaw,aileron1_pwm,elevator_pwm,throttle_pwm,rudder_pwm,aileron2_pwm,pbaro,pdiff,Tt,sample_start_time,sample_end_time,uid
0.1639818341176408,0.3238436748909137,0.070718133298805,-0.2150424956279048,-0.0992813644872534,0.2837007077158159,-0.1304174792270235,-0.1515474355001423,-11.35138172684891,16.40106051271332,56.88743689344557,1.2381966475764576,0.8219986853497642,0.3273796350800045,5566.664659288194,11.950333333333331,0.1177777777777777,178.64978437525173,-11.190337756886064,109.11364030551742,1553.0,1435.0,1200.0,1528.0,1471.0,990.0,160.0,294.53,1649328244.8766308,1649328245.966833,1e80257f-8d21-4612-a9de-82a85a8bdc89
0.1601950096966097,0.3293924243331218,0.0774239683308134,-0.2118079158290259,-0.0921416220809135,0.2807816974204582,-0.123080506207049,-0.1458277525866267,-11.271366764746803,16.221898838171573,57.72407414040287,1.2236606858774572,0.8348522780386064,0.3000772213245754,5568.272298177083,11.956333333333331,0.1233333333333333,178.86739572002818,-11.275881322781029,109.17645527858431,1553.0,1435.0,1200.0,1528.0,1471.0,990.0,160.0,294.53,1649328246.075291,1649328247.1955426,1e80257f-8d21-4612-a9de-82a85a8bdc89
0.1597110365593054,0.3081775100661085,0.065634645140688,-0.204394073311193,-0.0982689147614697,0.289200402551019,-0.1329738892181668,-0.1521659301516402,-11.561726262095496,16.335334169658278,56.85357213579759,1.225734852373394,0.7633955222888914,0.3345996508780525,5566.22255859375,11.9522,0.121,179.12162082508732,-11.37630937921089,109.28928044140808,1553.0,1435.0,1200.0,1528.0,1471.0,990.0,160.0,294.53,1649328247.303487,1649328248.424139,1e80257f-8d21-4612-a9de-82a85a8bdc89
0.3761228873949019,0.7137682274393362,0.1407349396882861,-0.4173352189418594,-0.1307593452952417,0.0818945250049739,-0.1434872842223555,-0.162316219176404,-10.25328236255566,15.855529555616585,56.25092042022544,1.241355300952713,2.311658186065289,0.3389230486077292,5565.86083984375,11.922111111111112,0.1177777777777777,179.22773676898044,-11.46867176011362,109.42644627348604,1637.0,1435.0,1200.0,1528.0,1535.0,990.0,160.0,294.53,1649328250.371179,1649328251.5005844,2b81fa95-aa4f-4fca-b4ed-4a1d7722600d
0.3687727667656177,0.698344808232209,0.1356200969727611,-0.3996765160789094,-0.1281690519664059,0.0819208225163579,-0.1447232617596809,-0.1675888469607738,-10.276176902037436,15.59199701843912,56.39669454448082,1.1995907263819912,2.2501781488332617,0.3427131850901584,5564.657063802083,11.920333333333332,0.1133333333333333,179.30383570107304,-11.47220401141564,109.41400015099843,1637.0,1435.0,1200.0,1528.0,1535.0,990.0,160.0,294.53,1649328251.6139705,1649328252.7251508,2b81fa95-aa4f-4fca-b4ed-4a1d7722600d
0.3709554501656342,0.7147543795590956,0.1328194247609561,-0.4120625907853734,-0.135453430149625,0.075267581999608,-0.1509951903448331,-0.1806586524492299,-10.277843360699348,15.58173283749335,56.08056851763845,1.2123212280747877,2.315884899179316,0.3668164228453447,5565.86083984375,11.919,0.12,179.41559580973228,-11.489578779435554,109.38748535664048,1637.0,1435.0,1200.0,1528.0,1535.0,990.0,160.0,294.53,1649328252.8341427,1649328253.9492562,2b81fa95-aa4f-4fca-b4ed-4a1d7722600d
0.5561022260053555,0.9983322872558876,0.1944210646673892,-0.5607743824135712,-0.1515868817096985,-0.0696442016081029,-0.1522706139490395,-0.1816711011572907,-9.440683464867137,15.54941366051784,55.74106920480034,1.2253628581768146,3.3987725008135707,0.3397657962592694,5576.72509765625,11.8952,0.11,179.26362592208324,-11.481905384439754,109.34133741118626,1723.0,1435.0,1200.0,1528.0,1599.0,990.0,160.0,294.53,1649328255.069252,1649328256.2029269,69f76d62-8403-43e3-be53-4dfe3f96b951
0.556286307739859,1.0042360514492177,0.1975110081870556,-0.5696497549718637,-0.1511135285373093,-0.0711431530566434,-0.1498381049902826,-0.1614484048144676,-9.408590429145324,15.561132671643836,55.20975801744856,1.2421781861814611,3.426685890047591,0.331350566651048,5549.449164496527,11.892666666666669,0.1188888888888888,179.28244051295297,-11.4559190380233,109.27100786399453,1723.0,1435.0,1200.0,1528.0,1599.0,990.0,160.0,294.53,1649328256.311093,1649328257.435643,69f76d62-8403-43e3-be53-4dfe3f96b951
0.5194568129946828,0.9894569178541164,0.1969587630103098,-0.5543446680526496,-0.1460512800556889,-0.0688158337312546,-0.1481682203040066,-0.1741894923106516,-9.487092939981304,15.506742101435693,55.49073628478988,1.2125006707438462,3.3674001559899267,0.3215404512130628,5531.73779296875,11.897000000000002,0.11,179.29064205232632,-11.437521876062002,109.1797371844805,1723.0,1435.0,1200.0,1528.0,1599.0,990.0,160.0,294.53,1649328257.5435274,1649328258.6629398,69f76d62-8403-43e3-be53-4dfe3f96b951
0.6826058203579909,1.2323264759273365,0.2447674203175197,-0.6652671060966029,-0.1646698354694633,-0.2224320634197439,-0.1650379990186498,-0.1869042829431036,-8.940362235132971,15.77559425071603,53.076407085394834,1.1215714931451473,4.312529475273889,0.3310315694686552,5530.349338107639,11.845888888888888,0.1,179.11335386767993,-11.4106235001775,109.05636765150706,1813.0,1435.0,1200.0,1528.0,1662.0,990.0,160.0,294.53,1649328259.3755596,1649328260.508046,4300373c-6077-4aaa-ba2e-84c527910bbf
0.659477265914115,1.2333126281244602,0.2521964332328573,-0.6563917329611374,-0.1598311149485495,-0.2311759474693328,-0.1628947615008373,-0.1839195287817482,-8.900956374445657,16.12159437942686,53.16501084101437,1.0845997026281051,4.314548027082417,0.311470646265409,5523.538818359375,11.8526,0.109,179.0924190343099,-11.371208593938723,108.86511135055302,1813.0,1435.0,1200.0,1528.0,1662.0,990.0,160.0,294.53,1649328260.6162026,1649328261.946653,4300373c-6077-4aaa-ba2e-84c527910bbf
0.6706273592438283,1.241701496252705,0.2442546211987556,-0.6671605199004936,-0.1715729015528673,-0.2278756249384465,-0.173124447987308,-0.1937021597435524,-8.961770867428124,16.283329077414848,53.3212988151958,1.1169787233648023,4.34588177915875,0.3538859966257079,5510.203125,11.846666666666668,0.0955555555555555,179.07964308957636,-11.334879358466733,108.70365212930814,1813.0,1435.0,1200.0,1528.0,1662.0,990.0,160.0,294.53,1649328262.0740993,1649328263.1690185,4300373c-6077-4aaa-ba2e-84c527910bbf
-0.112535250904418,-0.0991893234828909,0.0016348827723211,-0.0247808484561827,-0.0661729457689055,0.5207453851086143,-0.107249474919262,-0.1293392859564767,-12.462248298152126,17.398645135309447,56.38457339326231,1.34421790978933,-0.78010082588339,0.2920522130227174,5527.278198242188,11.933,0.1275,89.98332659761957,-11.24070954824126,108.4185057712934,1470.0,1435.0,1200.0,1528.0,1403.0,990.0,160.0,294.53,1649328264.899873,1649328265.943881,b3660540-1836-4aaa-85c7-f2e2f11c4822
-0.0919049453727139,-0.0984529964579691,0.0036729307746694,-0.0271607625798936,-0.0658705256974083,0.5221259980818126,-0.1063948095662288,-0.1281953500196202,-12.480610092557797,17.54958601483963,56.38128000046786,1.3537811533289608,-0.7767552227302474,0.2876341543412651,5547.84912109375,11.939333333333334,0.1244444444444444,179.9820142906825,-11.225956339634031,108.29685289253136,1470.0,1435.0,1200.0,1528.0,1403.0,990.0,160.0,294.53,1649328266.077092,1649328267.263729,b3660540-1836-4aaa-85c7-f2e2f11c4822
-0.1074861512602809,-0.0933381533593984,-0.0004031651546582,-0.0322493083025184,-0.0697625399689974,0.5213107789619901,-0.1103657160871375,-0.1348880362125493,-12.552721432237012,17.40422811005576,56.28293341698656,1.3622092260633898,-0.7558237807168969,0.3045899096092248,5547.84912109375,11.929,0.12,179.93953051404503,-11.20090491330572,108.14069807208688,1470.0,1435.0,1200.0,1528.0,1403.0,990.0,160.0,294.53,1649328267.3719776,1649328268.4911711,b3660540-1836-4aaa-85c7-f2e2f11c4822
-0.3203109712543767,-0.4767278929750899,-0.0518014201926086,0.1438511806781699,-0.0317891038279039,0.7270615580542388,-0.0864745337056151,-0.105171980936786,-13.84031810039467,18.84422889988917,55.06646258432527,1.4334637341074288,-2.198789253566032,0.2408609353091141,5544.659016927083,11.87322222222222,0.11,179.9844913726215,-11.116665534087277,107.81444422055245,1385.0,1435.0,1200.0,1528.0,1331.0,990.0,160.0,294.53,1649328270.4308157,1649328271.5631514,36cc72e1-8520-4b44-8dbf-989c748c819d
-0.3149463023313343,-0.4626456359532848,-0.0546809847987206,0.1335557517571983,-0.0376402738670581,0.7236560460546787,-0.0905900758326532,-0.1218839746826885,-13.798686457033156,18.722547165432715,55.170385753861645,1.4481225554356325,-2.1461049797813363,0.260454571226708,5545.057779947917,11.874666666666668,0.11,179.9632692159604,-11.115288586923349,107.48312843993308,1385.0,1435.0,1200.0,1528.0,1331.0,990.0,160.0,294.53,1649328271.6717274,1649328272.7917836,36cc72e1-8520-4b44-8dbf-989c748c819d
-0.3144598005268572,-0.4666559892833543,-0.0519460558045154,0.1364747622063185,-0.0358651997654537,0.7251812946768846,-0.0892489087128685,-0.1113781657519761,-13.814285920648873,18.956813286082248,55.22364754919261,1.4466552178207293,-2.1616899315731386,0.2519077164589245,5555.03955078125,11.886666666666663,0.11,179.94528456896583,-11.069409637085942,107.26390820615217,1385.0,1435.0,1200.0,1528.0,1331.0,990.0,160.0,294.53,1649328272.900323,1649328274.0140946,36cc72e1-8520-4b44-8dbf-989c748c819d
-0.4785555622760931,-0.7557696182658838,-0.0774939737108142,0.2459639516438572,0.0013061654090158,0.8766805589115262,-0.0572318319323516,-0.0877105113579418,-14.696583126793406,20.113692400028462,50.84083873479365,1.54536771136023,-3.216032857771964,0.149221953079741,5551.44189453125,11.7362,0.054,35.99872239037863,-11.013316841336446,106.6440875117212,1297.0,1435.0,1200.0,1528.0,1253.0,990.0,160.0,294.53,1649328275.9591844,1649328277.0965402,eb2ce0de-f1a1-4d04-bab0-1367396f5624
-0.4681812383474575,-0.7508520038440438,-0.0750220187139526,0.2396920238766524,0.0008459610156672,0.8753788381019529,-0.0557723266261532,-0.0805313228230599,-14.61735152480036,20.194094123377017,50.53366898131633,1.5572375014335116,-3.194496876953468,0.1445304101145061,5555.03955078125,11.74888888888889,0.0588888888888888,-179.9931459812098,-11.006120724781647,106.08004214205256,1297.0,1435.0,1200.0,1528.0,1253.0,990.0,160.0,294.53,1649328277.2055376,1649328278.3218508,eb2ce0de-f1a1-4d04-bab0-1367396f5624
-0.4768988261188214,-0.7493662004951459,-0.0703147852714986,0.2413224621077812,0.0041199864257329,0.8780611719123891,-0.0518145689082417,-0.0759818738030966,-14.589886052830323,20.32536473125636,51.36650580382641,1.5608383764098557,-3.196400118719525,0.129353640580302,5551.44189453125,11.755000000000004,0.06,-179.9809396742531,-10.979619021619571,105.60980562608452,1297.0,1435.0,1200.0,1528.0,1253.0,990.0,160.0,294.53,1649328278.4318569,1649328279.5528386,eb2ce0de-f1a1-4d04-bab0-1367396f5624
0.146625555515224,0.335217296350597,0.0734662107807363,-0.2124259049438802,-0.0989789444903548,0.2682509905490419,-0.1343226422813914,-0.1677466307869315,-11.439293160740176,16.50913282105239,56.612772414747496,1.1983419075260924,0.8675671287659634,0.3296878445002167,5547.84912109375,11.943666666666664,0.12,179.56013323730843,-10.978825581310986,105.16202753101736,1553.0,1435.0,1200.0,1528.0,1471.0,990.0,160.0,294.53,1649328280.463591,1649328281.6095998,528d9724-540d-4746-8423-b7c211f29a39
0.1365010596793432,0.3123517151255696,0.0629078078088477,-0.19737064609369,-0.1006619776005009,0.2766661556583576,-0.1410810725118821,-0.1543349593048393,-11.732526924006809,16.409866276287655,56.53105221156882,1.181946510754163,0.7820823630555007,0.3530807110331166,5547.84912109375,11.943700000000002,0.12,179.36923430703,-10.954352159741184,105.41950016335396,1553.0,1435.0,1200.0,1528.0,1471.0,990.0,160.0,294.53,1649328281.741079,1649328282.8357646,528d9724-540d-4746-8423-b7c211f29a39
0.1439695190007126,0.3291031530002086,0.0691665870981299,-0.2267185392039018,-0.1040937876209351,0.2838979381583165,-0.1343226423518169,-0.1510083388815485,-11.464688989332023,16.556706811810837,56.09781663005108,1.2657497798295207,0.8508671221989168,0.340886590197889,5544.26025390625,11.947333333333331,0.1233333333333333,179.25839672925468,-10.933571024600203,105.69026980796671,1553.0,1435.0,1200.0,1528.0,1471.0,990.0,160.0,294.53,1649328282.9444363,1649328284.067032,528d9724-540d-4746-8423-b7c211f29a39
0.1661119227994611,0.3172430298255013,0.0419356372032851,-0.6331316812118546,-0.1673653184495494,0.6945185379973214,-0.0400201879545765,-0.058901716704454,-11.16021706903292,15.246518009819692,59.88745489165304,3.095953605506448,0.8189316433629686,0.3310139394121713,5533.127983940973,11.934222222222225,0.12,179.136773827434,-10.752335180341024,105.98245239919144,1553.0,1522.0,1200.0,1528.0,1471.0,990.0,160.0,294.53,1649328284.9894617,1649328286.1079342,549d9086-2dde-471e-bc90-8f90c676a6a0
0.1656517184474551,0.309353812578614,0.0345986647026614,-0.6329738966088284,-0.1726773921001457,0.697608481315609,-0.0460159936389678,-0.0638456266703739,-11.233468352665907,15.24607855391403,59.19796050554542,3.102026169635524,0.7954871489617449,0.354810296967542,5531.142740885417,11.933666666666666,0.1133333333333333,179.07831651505757,-10.740217476116037,106.0838685658076,1553.0,1522.0,1200.0,1528.0,1471.0,990.0,160.0,294.53,1649328286.2165196,1649328287.3328416,549d9086-2dde-471e-bc90-8f90c676a6a0
0.1563687391734505,0.3070922369624446,0.0439605365161292,-0.6278327548199079,-0.1633812630583884,0.6978057117434078,-0.0362859580744036,-0.0597037870221813,-11.15086243267048,15.30076360299706,59.65611399148887,3.091815502995109,0.7823210337729014,0.3159868106772978,5537.09716796875,11.933666666666667,0.1133333333333333,179.01663990685236,-10.732336006996272,106.18652175557344,1553.0,1522.0,1200.0,1528.0,1471.0,990.0,160.0,294.53,1649328287.44116,1649328288.565654,549d9086-2dde-471e-bc90-8f90c676a6a0
0.182705576873399,0.3183738176161289,0.0091953833274848,-1.0894705700342486,-0.2467177082892927,1.1301085138662736,0.0504954385470573,0.017623697128405,-10.998830661945387,14.248398770590518,62.4626219931547,5.096416006974787,0.853299490435667,0.3551385249494992,5548.250054253473,11.912444444444445,0.11,179.00505894165966,-10.56569817426818,106.33210647882235,1553.0,1613.0,1200.0,1528.0,1471.0,990.0,160.0,294.53,1649328289.476288,1649328290.818454,031f8361-897d-465f-b875-d557222b7e8d
0.1816142351659305,0.3013462570936828,0.0074729041211109,-1.0736658258494567,-0.2422471509537178,1.1390101808867812,0.0525071891011965,0.0218444290169608,-11.088917046695046,14.202593252939542,63.42677707026099,5.08048653707061,0.7794722378471587,0.3479269853469466,5565.86083984375,11.912555555555556,0.11,178.9631428296332,-10.544534169078725,106.32400739228652,1553.0,1613.0,1200.0,1528.0,1471.0,990.0,160.0,294.53,1649328290.926988,1649328292.0470335,031f8361-897d-465f-b875-d557222b7e8d
0.1675451306394288,0.310063842136101,0.017479061848844,-1.0753620092050438,-0.2396305604019531,1.1288593878540347,0.0539009505644444,0.0337308505537958,-11.08070277695481,14.781931172138554,63.013119357723056,5.065779460188843,0.8166295800027416,0.3289636827114971,5564.255805121527,11.924,0.11,178.9373672135254,-10.53535069514843,106.34912882805384,1553.0,1613.0,1200.0,1528.0,1471.0,990.0,160.0,294.53,1649328292.1554115,1649328293.279807,031f8361-897d-465f-b875-d557222b7e8d
0.1804571499329416,0.305488096152213,-0.0161421548246458,-1.476252968488545,-0.3124611984663412,1.5207694368992424,0.1294533586257851,0.100144915277112,-11.148688118882164,13.973010453775691,65.7802053660752,6.844135776499981,0.8226374537092468,0.3665390010151319,5569.47802734375,11.881,0.1,178.89722998632274,-10.374454585055116,106.39737424871116,1553.0,1710.0,1200.0,1528.0,1471.0,990.0,160.0,294.53,1649328294.8775055,1649328295.9346917,cfb56f39-26a1-4c82-9e3c-6997e61d7285
0.2011006022210587,0.3043573083402346,0.0043435143538091,-1.4775020960459049,-0.2953021472805002,1.5216635483078285,0.1504912721099995,0.1202098253559889,-10.924269216192403,14.158774353383452,65.74274532370293,6.851321186254554,0.8185955644488635,0.2851701132915425,5568.272298177083,11.869,0.1,178.93928573777222,-10.371571960634151,106.29186603987227,1553.0,1710.0,1200.0,1528.0,1471.0,990.0,160.0,294.53,1649328296.0449114,1649328297.1674037,cfb56f39-26a1-4c82-9e3c-6997e61d7285
0.2090424144192409,0.3138112203185353,-0.0033616218390508,-1.4813546685727348,-0.3064390947159481,1.5205327603421557,0.139591003170113,0.1173565580768389,-10.904468239280854,14.308062347317648,66.32062566775326,6.858178683029191,0.8487799983582643,0.3282394181352188,5573.09912109375,11.883,0.1,178.930424705689,-10.36144819732812,106.18488706363208,1553.0,1710.0,1200.0,1528.0,1471.0,990.0,160.0,294.53,1649328297.2754295,1649328298.3962972,cfb56f39-26a1-4c82-9e3c-6997e61d7285
0.1981552943846191,0.3020694353426075,-0.0141567016907563,-1.614498526354722,-0.3375620636571785,1.6571477324596549,0.1563292929929598,0.1361854908155192,-11.10976296687447,15.174574507052055,66.69017176456765,7.470672947773278,0.818642117312539,0.3589469878591143,5569.47802734375,11.821000000000002,0.09,178.94993172595858,-10.260693515560323,106.00261663544111,1553.0,1814.0,1200.0,1528.0,1471.0,990.0,160.0,294.53,1649328299.3722744,1649328300.3157704,8a1b2b9f-f67c-4328-b4b9-c89df6218642
0.1982736326356964,0.3080126456536405,-0.0092653867269054,-1.612131758613648,-0.335063811101002,1.6510861828637164,0.1596164667426073,0.1367771820720112,-10.912578342620009,15.221595342884884,66.995810114181,7.4524162281867214,0.8368477611044084,0.3454861966061432,5569.47802734375,11.834,0.0933333333333333,178.97362337545962,-10.285964930898151,105.8321260068387,1553.0,1814.0,1200.0,1528.0,1471.0,990.0,160.0,294.53,1649328300.4247074,1649328301.6730297,8a1b2b9f-f67c-4328-b4b9-c89df6218642
0.2002459369930257,0.3009649449193198,-0.0178251880769703,-1.5862813892243113,-0.3377329968334763,1.6307977412981258,0.1462179458340037,0.1261661845639422,-11.050038484175175,15.164046308519245,66.43113578746863,7.347546364316928,0.8126658462580515,0.3783712670507315,5562.24951171875,11.833800000000002,0.09,178.9829242717254,-10.260795114624226,105.67988063489318,1553.0,1814.0,1200.0,1528.0,1471.0,990.0,160.0,294.53,1649328301.781461,1649328302.9025834,8a1b2b9f-f67c-4328-b4b9-c89df6218642
0.1244963003271242,0.3165067028882595,0.1013414465826813,0.2027836351900281,-0.0298167992906543,-0.1126272918367159,-0.2178168706775515,-0.24266790940663,-11.634431361177668,17.949637735822442,53.985776409467455,-0.5837331485150884,0.7727255566764558,0.3133112697775683,5553.84033203125,11.950666666666669,0.1266666666666666,178.99787965393205,-10.846453100101552,105.38959349705416,1553.0,1349.0,1200.0,1528.0,1471.0,990.0,160.0,294.53,1649328305.041521,1649328306.1752765,f44da25b-9e0f-4524-9b27-a690cc0a9787
0.1030770745585388,0.3156651863764695,0.0951089646825105,0.1931719386058812,-0.0362070658136652,-0.1055401442388089,-0.2226818887655453,-0.2444561324336274,-11.755643226090555,17.93892871120365,53.57613535710534,-0.5466333904815146,0.7748460220549178,0.3365931182180471,5537.81298828125,11.949000000000002,0.12,178.8926646878815,-10.851853218414096,105.73868583157132,1553.0,1349.0,1200.0,1528.0,1471.0,990.0,160.0,294.53,1649328306.283308,1649328307.2743022,f44da25b-9e0f-4524-9b27-a690cc0a9787
0.1019988814803556,0.3220028575444961,0.098908937828883,0.1927248828676305,-0.0324465385968248,-0.1091297385409477,-0.2181850342113351,-0.2520166338573016,-11.665077826645472,17.742158317143737,53.9237169366378,-0.5547054465463958,0.7951871388710475,0.3212860647802806,5541.472710503473,11.945666666666666,0.12,178.8078637912223,-10.83837033012875,106.0041086523198,1553.0,1349.0,1200.0,1528.0,1471.0,990.0,160.0,294.53,1649328307.3833027,1649328308.436505,f44da25b-9e0f-4524-9b27-a690cc0a9787
0.1088493520835049,0.330181346044375,0.1255087498240177,0.5080963404471244,0.0168347759149782,-0.4241199474171797,-0.2901215603703839,-0.3113041134037791,-11.863807903027698,19.339019267267545,51.377005947921305,-1.9625269648222208,0.8127238324236038,0.3196954815510145,5551.44189453125,11.937666666666663,0.11,178.68567474261042,-10.944908759167472,106.55073931633466,1553.0,1264.0,1200.0,1528.0,1471.0,990.0,160.0,294.53,1649328310.5713997,1649328311.709273,ee8c08b6-3c6e-4ff2-8563-35eeb7c424fb
0.1161074323103008,0.3160333498509521,0.1164755957396245,0.5274380708499902,0.0151122967354658,-0.4233704714365182,-0.297392790298313,-0.3107387189825055,-12.002613022697028,19.20120965034918,51.98406076099722,-2.005809447541018,0.7523059898467931,0.3439807941916759,5547.84912109375,11.941555555555556,0.12,178.6743836810025,-10.930399634959334,106.71586445188906,1553.0,1264.0,1200.0,1528.0,1471.0,990.0,160.0,294.53,1649328311.8186555,1649328312.9372454,ee8c08b6-3c6e-4ff2-8563-35eeb7c424fb
0.1030244797336514,0.3243301766263677,0.1259689541914994,0.5189834599365233,0.0195565560889985,-0.42329157927242,-0.2890039209994899,-0.3166950796750323,-11.83280085108388,19.34813737683617,52.11028899496058,-1.98500832733093,0.7827487518918359,0.3142093690201489,5547.84912109375,11.9362,0.11,178.6372456657554,-10.93175396660801,106.89665561288776,1553.0,1264.0,1200.0,1528.0,1471.0,990.0,160.0,294.53,1649328313.0458243,1649328314.1660988,ee8c08b6-3c6e-4ff2-8563-35eeb7c424fb
0.0836433017411378,0.3256713435524421,0.1536995538899771,0.8845303299860774,0.0739790100106145,-0.7781224118555626,-0.3763244269423282,-0.3949166876112014,-12.324161457971032,21.493741624625613,49.455896032342864,-3.59201096075776,0.7715702070716128,0.3250093814057741,5543.54833984375,11.935199999999998,0.114,178.6205608796509,-11.037769260074551,107.10432888063984,1553.0,1178.0,1200.0,1528.0,1471.0,990.0,160.0,294.53,1649328315.0776017,1649328316.2140424,38d17bf7-1c25-4ce4-a43b-977a33470185
0.0876010592472921,0.3428829857348953,0.1488345363638326,0.8456233412739433,0.0633022686223039,-0.7625017547933969,-0.3757984792440957,-0.3932731000906713,-12.244483496311888,21.209266343777493,48.967381302355165,-3.471310454982361,0.8443671249383352,0.3466591441711559,5533.52294921875,11.901333333333334,0.1011111111111111,178.6333934390635,-11.063000737778484,107.17388024161214,1553.0,1178.0,1200.0,1528.0,1471.0,990.0,160.0,294.53,1649328316.3217876,1649328317.442919,38d17bf7-1c25-4ce4-a43b-977a33470185
0.0996847109497572,0.3281564469762409,0.1495314172984524,0.8693041410271749,0.0699029141856409,-0.7691024023734875,-0.3752462337007034,-0.4037657618445729,-12.268503249357735,21.19781206643719,49.082723684742334,-3.539596010301908,0.7854097511807905,0.3345089273569046,5537.09716796875,11.916111111111112,0.1044444444444444,178.64314694919827,-11.077281619831858,107.26505491902284,1553.0,1178.0,1200.0,1528.0,1471.0,990.0,160.0,294.53,1649328317.5514128,1649328318.6715584,38d17bf7-1c25-4ce4-a43b-977a33470185
0.0768717232187432,0.3304969147291263,0.1555403712944399,1.076041077593817,0.0887318470590168,-0.9694360432850766,-0.4375710666927663,-0.4677867781682092,-12.578217936617634,22.682327461244267,47.76033056532129,-4.446346790365881,0.7830527196902305,0.3888145599158373,5541.472710503473,11.899444444444445,0.1077777777777777,178.67463412127205,-11.150419285464356,107.4093790929149,1553.0,1088.0,1200.0,1528.0,1471.0,990.0,160.0,294.53,1649328320.3731737,1649328321.5450008,18e04b13-19bb-4317-af75-6223fcc1d1bd
0.0811187520549798,0.3254741131174844,0.1605237269425146,1.0744895316351937,0.0954508306503357,-0.9622699997252084,-0.4282091930661736,-0.4520740820465566,-12.518690235714564,22.525730731589235,47.93300315411281,-4.427476297171513,0.7627667354913052,0.3592689609890859,5536.38427734375,11.8952,0.1,178.68287132941106,-11.165305796596884,107.38765878779031,1553.0,1088.0,1200.0,1528.0,1471.0,990.0,160.0,294.53,1649328321.6574876,1649328322.7685516,18e04b13-19bb-4317-af75-6223fcc1d1bd
0.0875221670654273,0.3428303909317378,0.161720258253538,1.0600128177555763,0.0896391069998852,-0.9666090725217524,-0.4309967175529707,-0.4463543981158713,-12.42303795630999,22.68292446546574,47.830187721621606,-4.403437458338544,0.8299584900331318,0.3713531185745558,5534.317220052083,11.889333333333331,0.1022222222222222,178.7126964887868,-11.150147311126156,107.3847532253174,1553.0,1088.0,1200.0,1528.0,1471.0,990.0,160.0,294.53,1649328322.877059,1649328323.9972165,18e04b13-19bb-4317-af75-6223fcc1d1bd
0.1578145900474797,0.317874672931756,0.0599073764739125,-0.2417793607565916,-0.1107348909630293,0.3144863552540621,-0.1315578756944302,-0.1536957302637459,-11.354586913678418,16.26910874815259,56.8880463460519,1.3662733813596704,0.8022328810620938,0.3584357777284007,5545.457953559027,11.951222222222222,0.1188888888888888,178.77465844711736,-10.794874167674296,107.3225795311226,1553.0,1435.0,1200.0,1528.0,1471.0,990.0,160.0,294.53,1649328325.9316971,1649328327.0658653,c291c397-fd57-4595-ae7d-93370f85be7e
0.1506359078230866,0.3243433253168142,0.0606988268361054,-0.2418658388558094,-0.1101158907989247,0.3091434334593412,-0.1311406574270409,-0.1581612303133557,-11.295959539517604,16.114545251959896,57.02432408978755,1.3535282199338263,0.8249296838093475,0.3569984056078251,5562.24951171875,11.951666666666666,0.11,178.7642355784439,-10.764476979955582,107.38419466762528,1553.0,1435.0,1200.0,1528.0,1471.0,990.0,160.0,294.53,1649328327.1744518,1649328328.298239,c291c397-fd57-4595-ae7d-93370f85be7e
0.1412345902374522,0.3101953291012168,0.0606725294804615,-0.2345420140638201,-0.1069207573759092,0.3152444281324761,-0.1287344458270523,-0.1469716893950905,-11.337252166000384,16.177156364887566,56.88839052671356,1.351088508145919,0.7724608060310323,0.3473624429324209,5569.47802734375,11.951,0.11,178.76400031637252,-10.761908164781492,107.4448110786893,1553.0,1435.0,1200.0,1528.0,1471.0,990.0,160.0,294.53,1649328328.407069,1649328329.5235984,c291c397-fd57-4595-ae7d-93370f85be7e
0.1763416081658012,0.3455784682741833,0.2373910021252194,-0.2508989942759149,0.0486414723631863,0.2914321407264618,0.0504165463436889,0.0204638160000857,-9.970457990442345,16.24836057947234,57.65211676433868,1.3445576319680117,0.9019444819321704,-0.3543367881637336,5565.86083984375,11.952444444444446,0.1122222222222222,178.74393018495138,-10.766890787781016,107.56136598014588,1553.0,1435.0,1200.0,1446.0,1471.0,990.0,160.0,294.53,1649328331.4603662,1649328332.4965725,ca777440-f350-490a-b36f-97c3a2201703
0.2058078352653161,0.3543880941249779,0.2309481412551189,-0.2544885892312981,0.0408705928362561,0.2813733885033026,0.0407259570974943,0.0143233740632787,-10.008861235042044,16.193617372243327,56.9185736813664,1.3292315464033249,0.9417917021802326,-0.3211774012568305,5565.86083984375,11.95411111111111,0.1177777777777777,178.76358139810338,-10.77270489144825,107.59057414576657,1553.0,1435.0,1200.0,1446.0,1471.0,990.0,160.0,294.53,1649328332.6044009,1649328333.8232937,ca777440-f350-490a-b36f-97c3a2201703
0.2054265230960025,0.3483002482173337,0.2259779343277231,-0.2574601944725209,0.0366498613428365,0.2914058433346497,0.0377149057163185,0.0204638159487354,-10.092589019325295,16.264616845462182,57.07656191255735,1.358685244108421,0.9182029253121624,-0.3049941268181987,5565.459581163194,11.947777777777778,0.11,178.77216922261982,-10.77659364067945,107.62887025753292,1553.0,1435.0,1200.0,1446.0,1471.0,990.0,160.0,294.53,1649328333.931589,1649328335.0562184,ca777440-f350-490a-b36f-97c3a2201703
0.2608219776561683,0.3623956495591826,0.4575396078885697,-0.2573287074314729,0.2505002516182215,0.2655686567522937,0.2779810252254177,0.2455694904004132,-8.422984548415647,16.277516547570684,57.19161276117904,1.312803548669324,0.9728963127375184,-1.250966632624583,5569.47802734375,11.939444444444444,0.11,178.7206544180798,-10.773647742144927,107.64094375525578,1553.0,1435.0,1200.0,1354.0,1471.0,990.0,160.0,294.53,1649328336.9907515,1649328338.1301205,5b959470-39a4-47a2-b22d-76c2b019c8bf
0.272708398404523,0.3741900292035123,0.455107099293713,-0.2695701454129132,0.2426504803526208,0.2632018914884335,0.2714987183399595,0.2453854088149151,-8.452596539536449,16.48702989317383,56.85904846206488,1.3362986440216276,1.021646030878644,-1.2269857216871674,5562.650770399306,11.944888888888888,0.11,178.732658855001,-10.777558025444758,107.617397816457,1553.0,1435.0,1200.0,1354.0,1471.0,990.0,160.0,294.53,1649328338.2382948,1649328339.354955,5b959470-39a4-47a2-b22d-76c2b019c8bf
0.277178954859222,0.3865892488024094,0.4650869588210393,-0.2779458661827451,0.2489224080578537,0.2594676618928788,0.2804924258987873,0.2618344267248105,-8.34384933647418,16.432743400885162,57.03188188853281,1.3470202553915391,1.067512118483572,-1.2601681205171855,5567.468478732639,11.94122222222222,0.11,178.75568721724267,-10.768228935675904,107.616352797514,1553.0,1435.0,1200.0,1354.0,1471.0,990.0,160.0,294.53,1649328339.4639103,1649328340.5592222,5b959470-39a4-47a2-b22d-76c2b019c8bf
0.3262104400751802,0.4171468164547064,0.7178180255013706,-0.2752898289687916,0.4770128253074011,0.2149724761241438,0.5343674331179186,0.5112257298747299,-6.464881289517518,16.721016332893054,57.24744826174568,1.256517765756492,1.182611818633571,-2.271579205049992,5572.29443359375,11.926555555555556,0.1077777777777777,178.7094696038589,-10.753649043118868,107.5734963961118,1553.0,1435.0,1200.0,1252.0,1471.0,990.0,160.0,294.53,1649328341.494646,1649328342.640802,3df05942-5547-470a-903c-a4a74806ac67
0.3373210876278438,0.4048790838516077,0.710691432815826,-0.2745535017511243,0.4743699376247,0.2281474691632569,0.5305017168005309,0.5079122587156475,-6.757094224608659,16.685791843448328,57.46752444927756,1.2837623852020217,1.1361750012754854,-2.2541186472372003,5573.502007378473,11.926111111111112,0.1011111111111111,178.69628733876078,-10.766321415622704,107.56957131406875,1553.0,1435.0,1200.0,1252.0,1471.0,990.0,160.0,294.53,1649328342.749604,1649328343.8722336,3df05942-5547-470a-903c-a4a74806ac67
0.348484329943302,0.411032673194973,0.7116249901629412,-0.2802205907159507,0.4706751542805321,0.2263723952303718,0.528660899482456,0.5032181745628008,-6.647989709745064,16.92714886855618,57.32357423455554,1.2942355650638242,1.1605193306147925,-2.247268720243981,5567.870388454861,11.935666666666666,0.11,178.7116400861952,-10.757161467899545,107.56841169972968,1553.0,1435.0,1200.0,1252.0,1471.0,990.0,160.0,294.53,1649328344.005235,1649328345.095029,3df05942-5547-470a-903c-a4a74806ac67
0.0745181065815709,0.2848840904020398,-0.1555709368491146,-0.1962793041621745,-0.30604463375754,0.3177952749991964,-0.3647009773873671,-0.3884343790913298,-12.92217179452628,16.900094718510125,56.99282272904031,1.2637531062172105,0.6694129826607833,1.2453211131612871,5573.09912109375,11.951333333333332,0.1144444444444444,178.80381121231477,-10.768356337676671,107.66096455753288,1553.0,1435.0,1200.0,1604.0,1471.0,990.0,160.0,294.53,1649328346.0026257,1649328347.1389644,3bc6c73e-d79c-4aea-851d-84235c684523
0.0915021762637367,0.2903888423250863,-0.1451617201149637,-0.2016884760697719,-0.2985336927408579,0.3139047783175308,-0.3550225237842948,-0.3716606849792997,-12.804837483268791,16.928509029761635,56.575051439363214,1.2679115466203643,0.6942577377855959,1.207221786833554,5570.28271484375,11.951666666666666,0.11,178.8054914388506,-10.760744091846696,107.6434534703208,1553.0,1435.0,1200.0,1604.0,1471.0,990.0,160.0,294.53,1649328347.2476566,1649328348.369351,3bc6c73e-d79c-4aea-851d-84235c684523
0.0601728790845578,0.3007414171043331,-0.1496671717826628,-0.2050363366214757,-0.3043090055528276,0.3108264664599819,-0.3614795462137553,-0.3891707059384374,-12.857576473453255,16.85599894630757,57.09983470864543,1.267898208533738,0.728933662209573,1.2323791689921917,5580.35546875,11.950666666666669,0.1133333333333333,178.8171892761691,-10.765494867869393,107.62947662654922,1553.0,1435.0,1200.0,1604.0,1471.0,990.0,160.0,294.53,1649328348.477211,1649328349.5937836,3bc6c73e-d79c-4aea-851d-84235c684523
0.0230935555106559,0.275443327066301,-0.3143677597535322,-0.1687459315746292,-0.4522976097536513,0.3114576038347955,-0.53930255517455,-0.5727791459353281,-14.086787610436671,17.23280170372332,57.0996471311324,1.1811322937263555,0.6278492858755348,1.907874702304498,5580.35546875,11.952777777777778,0.11,178.8804914693968,-10.756058487212329,107.6147917198337,1553.0,1435.0,1200.0,1676.0,1471.0,990.0,160.0,294.53,1649328350.505834,1649328351.6521902,c3842ebc-324f-4dc1-94a8-5bcf09325d0c
0.0227779867809266,0.2746412566336202,-0.307438395788433,-0.1692587307998661,-0.4459730853916802,0.3109973994834206,-0.5321365137081273,-0.547454749129768,-14.044836338339506,17.262847242673555,56.90917545045448,1.1817898690025457,0.6267351898462835,1.879258885378424,5580.35546875,11.954,0.11,178.8706605504514,-10.759686645753945,107.60831214704108,1553.0,1435.0,1200.0,1676.0,1471.0,990.0,160.0,294.53,1649328351.7666745,1649328352.8697188,c3842ebc-324f-4dc1-94a8-5bcf09325d0c
0.0197011918261738,0.2687900871410306,-0.3196140904628475,-0.168206835076715,-0.4544539965158071,0.3163226210967386,-0.5421032284237254,-0.5644823161694557,-14.198864837645496,17.114798383810975,56.90624209410063,1.1897178302704694,0.6050020250772821,1.9208476230765896,5572.01279296875,11.9532,0.11,178.89600328434784,-10.79066949373486,107.57959529969466,1553.0,1435.0,1200.0,1676.0,1471.0,990.0,160.0,294.53,1649328352.978492,1649328354.102929,c3842ebc-324f-4dc1-94a8-5bcf09325d0c
-0.0187324479267845,0.2382982621889462,-0.4796600531132318,-0.1224362199153379,-0.5981166911711824,0.3078811586886621,-0.7183484132978041,-0.739925432757086,-15.367048738914644,17.70907395222385,56.15538769424205,1.062764022732258,0.4897907402288985,2.5802092136923784,5562.97333984375,11.9432,0.11,178.8846979552336,-10.775142680826765,107.55583033949654,1553.0,1435.0,1200.0,1747.0,1471.0,990.0,160.0,294.53,1649328356.0374217,1649328357.1749432,41cee268-d323-4c83-8e75-5c213e902d3b
-0.0335641777523818,0.2493694638511701,-0.4821977521586632,-0.1336652073378697,-0.6051643946827621,0.3033185613789832,-0.7249753589926441,-0.7471703680012145,-15.430763968528195,17.863106813398794,55.54252874740968,1.078606077970276,0.5384214562174247,2.60297196313153,5540.318359375,11.943,0.11,178.8743488526032,-10.765977079224797,107.53631034186758,1553.0,1435.0,1200.0,1747.0,1471.0,990.0,160.0,294.53,1649328357.2829285,1649328358.400171,41cee268-d323-4c83-8e75-5c213e902d3b
-0.0510519442877352,0.2441099856456491,-0.4729410676622757,-0.1297205982097126,-0.5952239770246277,0.3070922369288983,-0.712931148259866,-0.7431468648317064,-15.27895127551526,17.840081867880166,55.943997386814814,1.0786366600497974,0.5141632840028283,2.5597465267676927,5533.52294921875,11.933777777777776,0.1044444444444444,178.90028383979168,-10.775194115945762,107.46233886191938,1553.0,1435.0,1200.0,1747.0,1471.0,990.0,160.0,294.53,1649328358.5086098,1649328359.6331203,41cee268-d323-4c83-8e75-5c213e902d3b
0.1465466634213154,0.3106160873633933,0.0118908660675207,-0.1991457201536992,-0.1263150856278116,0.3088673108751865,-0.1496014282026234,-0.1602781708701383,-10.628993587609596,13.132350817584449,60.43655089885799,1.2352216388671735,0.7300765927188806,0.477093716928801,8019.013075086806,11.663666666666666,6.991111111111112,-179.11942059348272,-10.806646093572551,95.3070898459744,1553.0,1435.0,1350.0,1528.0,1471.0,990.0,160.0,294.53,1649328363.5668695,1649328364.753699,02414fb7-957a-4f70-b667-2069d0b1b746
0.1470331651664714,0.3038576579296625,0.0022791688949323,-0.1915194756195222,-0.1324292298775901,0.302345557946828,-0.1590553415893631,-0.1813292348579203,-10.642187506329714,13.013175724412733,59.49503060615394,1.2019381003076497,0.7116161217515262,0.5099444124412047,8033.201171875,11.652333333333331,6.982222222222222,-178.58455151521864,-10.64967459120358,90.05912158629417,1553.0,1435.0,1350.0,1528.0,1471.0,990.0,160.0,294.53,1649328364.868468,1649328365.9864476,02414fb7-957a-4f70-b667-2069d0b1b746
0.1214063568037757,0.313443056871277,0.016624396833094,-0.2002502106938981,-0.1213580267278147,0.3039891448828091,-0.1447364102295515,-0.1602518731447143,-10.605666251999793,12.999277146001791,60.0309436195684,1.2260518316197302,0.7445430392859046,0.4567941863205408,8029.858506944444,11.66688888888889,6.992222222222221,-178.4090869910807,-10.521543657468724,86.33325946533147,1553.0,1435.0,1350.0,1528.0,1471.0,990.0,160.0,294.53,1649328366.094876,1649328367.2114918,02414fb7-957a-4f70-b667-2069d0b1b746
0.3248298270557176,0.6620675588218923,0.0607251242227872,-0.3703023231520193,-0.1646698354334533,0.1146873731430035,-0.1755701054163586,-0.1939782825687598,-9.557222128789228,12.30201967555127,59.47366624210144,1.182274021853449,2.0733363698520715,0.5404988486476573,8018.171875,11.640999999999998,6.982222222222223,-178.65256805679348,-10.358541382653849,81.12408060885767,1637.0,1435.0,1350.0,1528.0,1535.0,990.0,160.0,294.53,1649328367.8525312,1649328369.0497406,e7318b5c-9c0d-47eb-9663-982efb4d360e
0.32755160698231,0.6544018696582441,0.0685485984872565,-0.3609535983935428,-0.1550449889709972,0.1138327079058174,-0.1695742993945946,-0.1889949255943273,-9.744117295273933,12.478650641171193,59.56023384723844,1.1607452282527118,2.044488860311026,0.5072617773587895,8018.171875,11.633222222222225,7.013333333333333,-178.7897850393992,-10.341035228356152,77.78303514028303,1637.0,1435.0,1350.0,1528.0,1535.0,990.0,160.0,294.53,1649328369.158272,1649328370.2818768,e7318b5c-9c0d-47eb-9663-982efb4d360e
0.3338103859733102,0.6569527164810757,0.0611590311456529,-0.3610587880322993,-0.160764672361812,0.1111503738910008,-0.1754254698047036,-0.2078764556807326,-9.685970170374546,12.222681532484732,59.47230118126166,1.1529053991634268,2.0539640316046945,0.5337852338520377,8011.51171875,11.636888888888889,6.992222222222223,-178.97334561443338,-10.28412087468599,75.48655175095587,1637.0,1435.0,1350.0,1528.0,1535.0,990.0,160.0,294.53,1649328370.3899963,1649328371.508177,e7318b5c-9c0d-47eb-9663-982efb4d360e
0.5185627017355453,0.9911530995435238,0.1245488950302572,-0.5335697221892111,-0.1861548070061858,-0.0719320748092327,-0.1880087731784085,-0.2104667487012006,-8.834709257818261,11.994043760241167,57.608875941054094,1.132409280310117,3.343163625854611,0.5368627319852236,8015.67431640625,11.603333333333332,7.01,-179.54817888844113,-10.266893335188184,71.76926455304117,1723.0,1435.0,1350.0,1528.0,1599.0,990.0,160.0,294.53,1649328372.421748,1649328373.5545473,718f7567-2fc3-4371-aa8a-b7f4d9681993
0.5272539891446801,0.997819488089605,0.1181586287797837,-0.5355288783579619,-0.195187962165049,-0.0759029812617622,-0.19748898413551,-0.2203545693597685,-8.80239214053538,12.122174503028951,57.65363342986827,1.1284601034227129,3.3673794971933853,0.5721972476470742,8002.3759765625,11.605666666666666,7.0344444444444445,-179.71072221248926,-10.276141506188122,70.07714134550368,1723.0,1435.0,1350.0,1528.0,1599.0,990.0,160.0,294.53,1649328373.662681,1649328374.7841587,718f7567-2fc3-4371-aa8a-b7f4d9681993
0.5199170173194438,0.9891019030740636,0.1326616404690041,-0.5406042766042762,-0.1796724991003596,-0.0623203774666392,-0.1770822056040024,-0.1925056278795198,-8.754068787330354,12.055383063249431,57.84068176632945,1.1707644086572,3.3342265986608184,0.5014662112429241,7995.7333984375,11.606666666666666,7.06,-59.98731573163367,-10.277807123708218,68.28982503259382,1723.0,1435.0,1350.0,1528.0,1599.0,990.0,160.0,294.53,1649328374.8942282,1649328376.0171878,718f7567-2fc3-4371-aa8a-b7f4d9681993
0.6559008208838967,1.2382433890939384,0.1716080775987538,-0.6417177827859959,-0.2096778268554694,-0.2320832075403571,-0.2101906259140374,-0.2272707847855921,-8.140532269518966,12.591681568769554,55.188564938582346,1.0227524954160574,4.302749160424538,0.5621135573529167,7995.7333984375,11.551666666666668,7.029999999999999,179.2910693186044,-10.27024401729477,65.36807804697709,1813.0,1435.0,1350.0,1528.0,1662.0,990.0,160.0,294.53,1649328377.9516747,1649328378.896825,1f566397-4baf-4aa2-97ae-c15df8283bd6
0.6550724531012183,1.2389402699877354,0.1706482228094891,-0.6384174588111539,-0.2097830164387013,-0.234279040019897,-0.2122418227455902,-0.2383025417515687,-8.220486304323538,12.57871458927863,55.3943726081633,1.0102322504128278,4.303637304188451,0.5668386262281284,7995.7333984375,11.552444444444442,7.029999999999999,179.11258585085324,-10.26547227638587,64.43416275555413,1813.0,1435.0,1350.0,1528.0,1662.0,990.0,160.0,294.53,1649328379.0115306,1649328380.113003,1f566397-4baf-4aa2-97ae-c15df8283bd6
0.6786875092568684,1.2377963334235529,0.1741983706374013,-0.6390485966431263,-0.2085207415652644,-0.2343184861892433,-0.208310362188503,-0.225535156204447,-7.993267468908953,12.70344844249359,55.17303125486085,1.0126500444490112,4.300005272757207,0.5543341315197732,7989.109700520833,11.55577777777778,7.04,178.9142857275902,-10.28735933298996,63.55374909480975,1813.0,1435.0,1350.0,1528.0,1662.0,990.0,160.0,294.53,1649328380.221444,1649328381.3421984,1f566397-4baf-4aa2-97ae-c15df8283bd6
-0.1323240400289237,-0.1173476740185044,-0.0516962306477628,-0.0115006650066423,-0.0872897529453931,0.5387065025130117,-0.1227912347271771,-0.1471820679093474,-11.897615814177032,14.203474905943557,57.91639853780471,1.331313799116452,-0.8708487091393671,0.4174244024688128,7994.077473958333,11.647444444444444,7.083333333333333,179.5617982856461,-10.34161162043111,62.231158094117646,1470.0,1435.0,1350.0,1528.0,1403.0,990.0,160.0,294.53,1649328382.4627247,1649328383.5944035,07fd1a35-a463-41be-8e92-367d57168ba5
-0.1353219429838851,-0.1232514390229869,-0.0481197850858133,0.0023712097963817,-0.0833056977318765,0.530514865515766,-0.1205954022797226,-0.1431980126885114,-11.681911245334163,14.333027814744652,57.76505622913152,1.2827359064349195,-0.8946557782045282,0.4032879839329318,7995.7333984375,11.641333333333332,7.07,179.44104964803918,-10.351958977568724,61.602339763820055,1470.0,1435.0,1350.0,1528.0,1403.0,990.0,160.0,294.53,1649328383.7025254,1649328384.823033,07fd1a35-a463-41be-8e92-367d57168ba5
-0.1242123053727337,-0.1281063425645634,-0.0528300528258275,-0.0024857164649329,-0.0848926443112295,0.543994300781515,-0.1214561362051942,-0.138612657364698,-11.919449979709675,14.181366073043696,58.350521930796326,1.3227158647459876,-0.9160755315784178,0.4131874238598458,8002.369249131944,11.648555555555554,7.0888888888888895,179.32116920336674,-10.33719438531288,61.120750714541536,1470.0,1435.0,1350.0,1528.0,1403.0,990.0,160.0,294.53,1649328384.9311244,1649328386.0504963,07fd1a35-a463-41be-8e92-367d57168ba5
-0.3320527588661949,-0.501933949980175,-0.1023318621474619,0.1636005218046671,-0.0500920895732418,0.7448122962824596,-0.0983872529829587,-0.1114044632373465,-13.085928340503406,15.76377088147985,56.455996674295605,1.4064667713783956,-2.316669253071374,0.3525048760695308,7995.7333984375,11.58,7.035,179.06993473458112,-10.430985926381194,60.01182301955811,1385.0,1435.0,1350.0,1528.0,1331.0,990.0,160.0,294.53,1649328387.9874084,1649328388.9275205,41eb8844-2c2f-4c9c-937b-2c1f321a65b9
-0.3283316772044198,-0.4916648155828669,-0.1136397416425863,0.1570393225111771,-0.0638719238162447,0.7404600782482453,-0.1088799132092576,-0.1320610662262098,-12.771688108142625,15.57978111646062,56.32546989323005,1.4098418409603908,-2.279133170587337,0.4029229145711169,7995.7333984375,11.584444444444443,7.050000000000001,178.96509019245656,-10.448524950964272,59.64253081797106,1385.0,1435.0,1350.0,1528.0,1331.0,990.0,160.0,294.53,1649328389.0360796,1649328390.148618,41eb8844-2c2f-4c9c-937b-2c1f321a65b9
-0.3279372162926639,-0.4909547858343128,-0.1105497977857398,0.1493341867769747,-0.0609266156952659,0.747271102248411,-0.1036598804783194,-0.1275116170292361,-12.838049963441268,15.506732263983755,56.41714436417503,1.442178837237997,-2.275669628728321,0.3873983757105266,7995.7333984375,11.583333333333334,7.04,178.86303654151783,-10.487068657088038,59.26429998576272,1385.0,1435.0,1350.0,1528.0,1331.0,990.0,160.0,294.53,1649328390.2575085,1649328391.373039,41eb8844-2c2f-4c9c-937b-2c1f321a65b9
-0.5695577138605131,-0.9084523541612428,-0.1635127500263817,0.3285903538492167,-0.0225718674751304,0.9726397365493104,-0.0758766838834251,-0.0895118825688641,-14.039122225315344,17.431355761860488,53.655320406417125,1.553330775692768,-3.8339556754419646,0.3133241407435553,7995.7333984375,11.504666666666669,7.016666666666667,178.8084602944098,-10.481307202795657,58.50216167523583,1297.0,1435.0,1350.0,1528.0,1253.0,990.0,160.0,294.53,1649328393.516492,1649328394.6539743,f3707874-2bf9-45a3-9249-de71269e6684
-0.5656788472679432,-0.909714629714955,-0.1661424894933111,0.333350181591789,-0.0244521310950452,0.9758480182029362,-0.0777306501596742,-0.0950737814604149,-13.992732059938678,17.43068748575787,54.54062831050415,1.5498323089977482,-3.8476175354970223,0.3232797689957287,7995.7333984375,11.518,7.02,178.74636476793552,-10.519371562448924,58.24003267526908,1297.0,1435.0,1350.0,1528.0,1253.0,990.0,160.0,294.53,1649328394.7616966,1649328395.8832371,f3707874-2bf9-45a3-9249-de71269e6684
-0.5589993075946295,-0.908925707467922,-0.1637099805334555,0.3333107354061171,-0.0222431501085828,0.9734681043755968,-0.0777832449164916,-0.1071705826701171,-14.171178149502737,17.53350744904741,54.31604386365159,1.5452504091763644,-3.841244305043051,0.3166415296704634,7992.421549479167,11.518999999999998,7.015555555555554,178.68957402171657,-10.52182341063348,58.01718712885869,1297.0,1435.0,1350.0,1528.0,1253.0,990.0,160.0,294.53,1649328395.9921472,1649328397.045986,f3707874-2bf9-45a3-9249-de71269e6684
0.1292429795509174,0.3066714787486576,0.009024450256314,-0.186128509713895,-0.1236721974950698,0.2852128078036793,-0.1555840854398683,-0.1696268942936862,-10.78553515488155,12.849957310779278,58.1999608359352,1.1502531010738453,0.734423514229648,0.4824080284254721,7995.7333984375,11.650499999999996,7.084999999999999,178.161201971173,-10.54878406456229,57.745393790671336,1553.0,1435.0,1350.0,1528.0,1471.0,990.0,160.0,294.53,1649328398.0224144,1649328399.1559095,f2bed0fb-4bd9-4bbe-90d2-686da450dc2f
0.1326090457059099,0.3144160603329709,0.0112465799389617,-0.1895471708578218,-0.1237905357518128,0.2836349643467943,-0.1563467099513992,-0.1743341279729631,-10.888080178128645,12.959684773612404,58.61147925151798,1.155271161806404,0.761112557406464,0.4819968009419243,8003.19873046875,11.648,7.059999999999999,178.10692245783892,-10.539164596889972,57.73612180887304,1553.0,1435.0,1350.0,1528.0,1471.0,990.0,160.0,294.53,1649328399.2646496,1649328400.3888762,f2bed0fb-4bd9-4bbe-90d2-686da450dc2f
0.125758575127732,0.3077102256837022,0.0040542429630243,-0.196016330135416,-0.1295102190662955,0.2950611806856779,-0.157477497901183,-0.187364487029885,-10.74419505170115,12.783352628877344,58.42432879558548,1.1940557717380906,0.7369394722566952,0.5002420687145189,8003.19873046875,11.649444444444445,7.074444444444444,178.09153176490915,-10.573128186856554,57.764998330864046,1553.0,1435.0,1350.0,1528.0,1471.0,990.0,160.0,294.53,1649328400.497359,1649328401.620576,f2bed0fb-4bd9-4bbe-90d2-686da450dc2f
0.1318990161803768,0.2975331354263915,-0.020310291630634,-0.6539197770835912,-0.1966606162368005,0.752399093288274,-0.0510387956304285,-0.0727078479960869,-10.694919906545726,11.634178192154495,62.40637617288484,3.246501473336377,0.7179412978159209,0.4742449063875344,8003.19873046875,11.631666666666668,7.07,178.10637148924584,-10.446313866947955,57.77107188685601,1553.0,1522.0,1350.0,1528.0,1471.0,990.0,160.0,294.53,1649328402.5275755,1649328403.6662912,a3e9ca25-4baf-4baa-9e1e-4e7f0a869a73
0.1587749505380865,0.3025296396934948,-0.0208493883275296,-0.6562602460885388,-0.2002633595137236,0.7471790613814956,-0.0541550368193583,-0.0728787811290861,-10.590655664341146,11.774763954203852,62.03779179820504,3.240949735377929,0.739466394221443,0.4844031003840347,8003.19873046875,11.637,7.07,178.09759241943271,-10.419947913795632,57.76117494274865,1553.0,1522.0,1350.0,1528.0,1471.0,990.0,160.0,294.53,1649328403.7751434,1649328404.894294,a3e9ca25-4baf-4baa-9e1e-4e7f0a869a73
0.1577230548952251,0.2955213850376011,-0.0176016602439294,-0.654708699384812,-0.1943201482224825,0.7517416585430117,-0.0483170154761438,-0.0731286064562536,-10.673367424806058,11.680973708904183,61.949931113996165,3.2471869189885707,0.7145585682265505,0.4625914581624119,8003.19873046875,11.632444444444443,7.07,178.11011443291102,-10.3757397041202,57.76964817186901,1553.0,1522.0,1350.0,1528.0,1471.0,990.0,160.0,294.53,1649328405.002414,1649328406.1229484,a3e9ca25-4baf-4baa-9e1e-4e7f0a869a73
0.1714765907103061,0.2950085859174603,-0.0479225546067613,-1.1463124261238484,-0.2762496838616077,1.228473907929941,0.054689872733502,0.0285108183090229,-10.466171730273771,10.77491573791624,65.58394318716984,5.420572935325117,0.7375500140923168,0.4701230407708534,8004.029893663194,11.608555555555556,7.042222222222223,178.18570944882492,-10.26021217695131,57.81841875818253,1553.0,1613.0,1350.0,1528.0,1471.0,990.0,160.0,294.53,1649328407.8715508,1649328408.991104,8bc55aac-9fd9-4285-b34b-d4c761c6cd1e
0.1718053080779076,0.3034500483658151,-0.0510650931761824,-1.1477456350365394,-0.2816932448767975,1.224095392102023,0.0486020263382151,0.0259862686356167,-10.45723446140923,10.841818765170842,65.91311001888036,5.414310794500197,0.7662083506600815,0.4919406936803691,8010.67919921875,11.61,7.043333333333333,178.183684677191,-10.218478677621412,57.80436222887064,1553.0,1613.0,1350.0,1528.0,1471.0,990.0,160.0,294.53,1649328409.0988562,1649328410.2198782,8bc55aac-9fd9-4285-b34b-d4c761c6cd1e
0.1671112236869111,0.2870930712599868,-0.0488692607920232,-1.1429069112250518,-0.2749611114470371,1.231958312365255,0.0548608057762013,0.0328235905081932,-10.561980311670466,10.796536079255484,65.41988888112309,5.420742655483284,0.7095151990634574,0.4681798740829225,8010.67919921875,11.612111111111112,7.050000000000001,178.2037851650084,-10.218074652959258,57.85807938996307,1553.0,1613.0,1350.0,1528.0,1471.0,990.0,160.0,294.53,1649328410.3275807,1649328411.4473608,8bc55aac-9fd9-4285-b34b-d4c761c6cd1e
0.1997857326530928,0.2964154963240429,-0.067382625836893,-1.572475240187042,-0.3498560967629388,1.641342996716971,0.1407612371647092,0.1261924820494655,-10.321108503020346,11.006214493845327,68.93665097374895,7.310835590971719,0.7633251190343721,0.4755253883824711,8010.67919921875,11.572777777777778,7.04,178.25808061545058,-10.087873412995982,57.912055339334046,1553.0,1710.0,1350.0,1528.0,1471.0,990.0,160.0,294.53,1649328412.563283,1649328413.7003071,8f9cb7a9-5416-48ad-b3d2-8e118c05d8f5
0.1937585728243762,0.2967229735129635,-0.0659534637311207,-1.571404125943484,-0.34723444868209,1.6383071645940452,0.143490097266127,0.1269530834320831,-10.255719414900769,10.835110395390783,68.70598400306233,7.300530538074105,0.7660157554415647,0.4659584017506927,8010.67919921875,11.58311111111111,7.031111111111112,178.30217328109256,-10.07367136270928,57.90850136423592,1553.0,1710.0,1350.0,1528.0,1471.0,990.0,160.0,294.53,1649328413.8086786,1649328414.9290097,8f9cb7a9-5416-48ad-b3d2-8e118c05d8f5
0.1854931003931644,0.2889996321033299,-0.0751272082634722,-1.5570255030726612,-0.3508028030202175,1.6310475659721364,0.1316360421984937,0.1104534927901715,-10.595451660563835,10.791503505510878,68.40198407298801,7.250817261759682,0.7397947921672895,0.4987441986630064,8010.67919921875,11.566,7.029999999999999,178.3435338710665,-10.075827615484757,57.91358036879374,1553.0,1710.0,1350.0,1528.0,1471.0,990.0,160.0,294.53,1649328415.037651,1649328416.1576512,8f9cb7a9-5416-48ad-b3d2-8e118c05d8f5
0.1817457221121142,0.2828197452341426,-0.0726421046520422,-1.6879340924051809,-0.3739050665638282,1.7637047880435457,0.1582095564922717,0.1415501587277546,-10.576315029031353,11.99478557919354,69.3596191966293,7.852476186468912,0.724289117256571,0.4879624323837187,8010.67919921875,11.51,7.0,178.3542572680634,-10.006245917088895,57.98877733646098,1553.0,1814.0,1350.0,1528.0,1471.0,990.0,160.0,294.53,1649328417.8863676,1649328419.023269,b0c08eea-56df-450c-85f8-0bbde51df482
0.2040064639775123,0.2941013259245453,-0.0720767106369037,-1.6837922502585585,-0.374930665138209,1.7450862309456507,0.1554746278087646,0.1419446197582785,-10.34934526959897,11.84763042947124,68.81897408447587,7.800375533973269,0.7693105897071577,0.4933405729829042,8004.029893663194,11.517888888888889,7.028888888888889,178.4082203159659,-10.033225164310446,57.94626623906683,1553.0,1814.0,1350.0,1528.0,1471.0,990.0,160.0,294.53,1649328419.135124,1649328420.4601717,b0c08eea-56df-450c-85f8-0bbde51df482
0.1891878839008752,0.2967047676227386,-0.0694995660917042,-1.689170073043008,-0.3748649216591318,1.7462959107335312,0.1580386234754257,0.1363695725939687,-10.243808223038126,11.92842072446983,68.667939447017,7.815917838689386,0.7804936023283492,0.486183001957547,8003.19873046875,11.518666666666668,7.015555555555555,178.41956146562782,-10.023137828679983,58.008276767631465,1553.0,1814.0,1350.0,1528.0,1471.0,990.0,160.0,294.53,1649328420.5687306,1649328421.688513,b0c08eea-56df-450c-85f8-0bbde51df482
0.0816446999516918,0.3041863753187711,0.0279454243491116,0.2475417950540249,-0.0638719238533078,-0.1285109178845091,-0.2594982425262092,-0.2918308917481979,-11.061736001663498,14.316393411912047,55.46746571914324,-0.7476045972891623,0.699106044295034,0.5219709558761896,7997.392361111111,11.653444444444444,7.084444444444445,178.4318315210168,-10.64833378712401,58.098408702828856,1553.0,1349.0,1350.0,1528.0,1471.0,990.0,160.0,294.53,1649328422.351867,1649328423.5283308,dae2a887-e3c3-4252-9d48-9dab4ffef51d
0.082959569554125,0.3024770449134822,0.031206301025784,0.2494483558728538,-0.0599930583033887,-0.1287607431548886,-0.2565266367625067,-0.2836392521334918,-11.124043326225925,14.336518139818835,55.4675226951019,-0.7522022978233102,0.6931078320114136,0.5077700690120637,8003.19873046875,11.65788888888889,7.08,178.42014734407664,-10.676897448505528,58.27501538637806,1553.0,1349.0,1350.0,1528.0,1471.0,990.0,160.0,294.53,1649328423.636463,1649328424.7604697,dae2a887-e3c3-4252-9d48-9dab4ffef51d
0.1257454264624548,0.3179136133006157,0.029996621006535,0.24437295944069,-0.0680137632861496,-0.1356506604467517,-0.260563287023311,-0.2821140031116052,-10.71219798541473,14.468883897905528,55.94954968482433,-0.7551346261044372,0.7443676631993952,0.5288276854213043,8003.19873046875,11.657222222222224,7.082222222222223,178.4348352864318,-10.692036278209644,58.446090375609465,1553.0,1349.0,1350.0,1528.0,1471.0,990.0,160.0,294.53,1649328424.8681498,1649328425.9896803,dae2a887-e3c3-4252-9d48-9dab4ffef51d
0.0891920514580178,0.313114339485852,0.0672731749320799,0.6442510771398964,0.0063158187464696,-0.5168577242168698,-0.3431371116356143,-0.3563515541579467,-11.610966392004196,16.264155861925268,53.245839270723465,-2.500911066758537,0.7098516736052204,0.4920903609385151,8003.19873046875,11.642,7.06,178.3974923655096,-10.80806999828702,58.71214218088953,1553.0,1264.0,1350.0,1528.0,1471.0,990.0,160.0,294.53,1649328426.9000547,1649328427.8406713,010a810d-1c76-41ac-b7e8-8f6b77921aef
0.0939518794471866,0.3178084237235904,0.06733891839698,0.6355071949805411,0.0047116777492548,-0.5125186533238695,-0.3402575466783459,-0.3630573901654009,-11.433971642472743,16.12929414677978,53.38382984352304,-2.4722161890853145,0.7260600508504232,0.4909508239190056,8009.18310546875,11.6402,7.072,178.4270998695238,-10.829839860228605,58.85939422920583,1553.0,1264.0,1350.0,1528.0,1471.0,990.0,160.0,294.53,1649328427.9502342,1649328429.0605612,010a810d-1c76-41ac-b7e8-8f6b77921aef
0.0922688463775038,0.3117600238630418,0.0670627957792712,0.6336400803000187,0.0054480047794153,-0.507508998686178,-0.3381406062457365,-0.3615058436665991,-11.42405228885351,16.109408849701484,53.01659157269838,-2.456946190794648,0.7067715305971778,0.4860591461868076,8004.861056857639,11.643333333333333,7.087777777777777,178.45840399252776,-10.83559262500254,59.0213638173637,1553.0,1264.0,1350.0,1528.0,1471.0,990.0,160.0,294.53,1649328429.168656,1649328430.2858765,010a810d-1c76-41ac-b7e8-8f6b77921aef
0.0807768859852076,0.3115759421293048,0.0890474157655239,1.035937556173047,0.0612773694515455,-0.8974994841983839,-0.4397668992214051,-0.4551377286841063,-12.084421447361306,18.09882315306551,49.8882204377402,-4.227339764637357,0.6903777339848073,0.5225587752596614,8002.452197265625,11.6261,7.079000000000001,178.50555278836833,-10.95443830550209,59.19883004227445,1553.0,1178.0,1350.0,1528.0,1471.0,990.0,160.0,294.53,1649328430.8703642,1649328431.9290402,fdb66e91-0a9e-41e5-8e70-42494dd243cb
0.0701921855737516,0.3153759150952557,0.0968314438252626,1.0398295700311564,0.0675887436045459,-0.902167273904378,-0.4337184976334045,-0.465130741179768,-11.996667903427651,18.1664779119144,50.31515451374029,-4.2456600282161245,0.7002403620574547,0.4958700102321382,7995.7333984375,11.6265,7.080000000000001,178.51236248697086,-10.9877509310089,59.33732647109372,1553.0,1178.0,1350.0,1528.0,1471.0,990.0,160.0,294.53,1649328432.0378325,1649328433.1563246,fdb66e91-0a9e-41e5-8e70-42494dd243cb
0.0536905718532903,0.3225814001552793,0.0874432748368763,1.026628279805226,0.0548739543755175,-0.8991036260126861,-0.440700456856356,-0.4715210083299099,-11.708466122829783,18.05955840613061,49.96314936037496,-4.210084014603797,0.7293736916185383,0.536431013072885,7995.7333984375,11.623888888888889,7.093333333333333,178.5258634942303,-10.962340730021683,59.44083229614095,1553.0,1178.0,1350.0,1528.0,1471.0,990.0,160.0,294.53,1649328433.2649546,1649328434.3877723,fdb66e91-0a9e-41e5-8e70-42494dd243cb
0.0675098515429281,0.326723239194997,0.1107427642309279,1.2800430947673305,0.0917954931829018,-1.146180938838183,-0.5018550578680354,-0.5354762833699089,-12.0108938364067,19.994523565158605,48.42279108935834,-5.323351961982154,0.7310098630653978,0.5409988427486521,7995.7333984375,11.579333333333333,7.067777777777778,178.56396532506022,-11.099627627202675,59.62161526091266,1553.0,1088.0,1350.0,1528.0,1471.0,990.0,160.0,294.53,1649328435.3787916,1649328436.6381865,b38986c6-71be-4eb2-b879-9971ecc9ac92
0.0583846563483543,0.3253557748770418,0.1100327345932537,1.2886291932257408,0.0939124332158516,-1.1523213845698983,-0.5040245935097165,-0.5296908565759605,-12.150267006261195,19.90904338914724,48.47402085354279,-5.357182501676573,0.7253098471110337,0.5420919900295876,7995.7333984375,11.568500000000002,7.050999999999999,178.6081067127183,-11.103336856295192,59.74523356455389,1553.0,1088.0,1350.0,1528.0,1471.0,990.0,160.0,294.53,1649328436.7534115,1649328437.8710787,b38986c6-71be-4eb2-b879-9971ecc9ac92
0.0698634681536066,0.3339550216270938,0.1092569615270493,1.271496441893244,0.0886924008766928,-1.1474695117520337,-0.5037353220750621,-0.5261275579387835,-12.026133486024891,19.91490613768229,48.116391939885,-5.307626692079303,0.7619136481706649,0.550317753485604,7995.7333984375,11.579888888888892,7.059999999999999,178.6017377889902,-11.071567881999927,59.8289350284297,1553.0,1088.0,1350.0,1528.0,1471.0,990.0,160.0,294.53,1649328437.979845,1649328439.09803,b38986c6-71be-4eb2-b879-9971ecc9ac92
0.1364747623355764,0.2989268971506796,0.0023580611301789,-0.2135961388680289,-0.1293918807636979,0.3204907575715873,-0.152296911161853,-0.1685881471545792,-11.026105922899983,12.699320413677455,58.53050197208562,1.2900886674639256,0.7071064324160724,0.4937870827138318,7994.905436197917,11.650666666666666,7.076666666666666,178.6656941625584,-10.647420154458782,59.943623770423,1553.0,1396.4444444444443,1350.0,1528.0,1471.0,990.0,160.0,294.53,1649328440.881698,1649328441.964816,4fab8bb4-1c7c-4363-8a23-0fe63c83c4ce
0.1263371177582073,0.3041863753155683,0.0041594325599331,-0.2043789017654114,-0.1320610662763919,0.3092749204296725,-0.1557550185285661,-0.1879430297240262,-10.729764164541416,13.038173615816964,58.86301499609376,1.246631525655684,0.720773289510546,0.5011451129626012,8003.19873046875,11.656555555555556,7.07,178.66479257758797,-10.593190729178604,59.97849795741519,1553.0,1435.0,1350.0,1528.0,1471.0,990.0,160.0,294.53,1649328442.072888,1649328443.1940367,4fab8bb4-1c7c-4363-8a23-0fe63c83c4ce
