raw_voltage_G-,raw_voltage_G0,raw_voltage_G1,raw_voltage_G2,raw_voltage_G3,raw_voltage_G4,raw_voltage_G5,raw_voltage_G6,load_x,load_y,load_z,load_l,load_m,load_n,rpm,voltage,current,roll,pitch,yaw,aileron1_pwm,elevator_pwm,throttle_pwm,rudder_pwm,aileron2_pwm,pbaro,pdiff,Tt,sample_start_time,sample_end_time,uid
-0.5368791483480447,-0.4767870621343085,-0.9909645182080932,0.0721331350555114,-0.8626129409080322,0.8226202048293907,-1.1227929314554557,-1.148306477990776,-30.9698438675189,18.58492283536708,51.74516753434724,1.7523400884696572,-2.0990483508807767,4.11095925715634,4608.317708333333,11.924666666666669,0.16,-179.4256361878122,-11.00014601680518,110.38577897554036,1553.0,1435.0,1200.0,1528.0,1471.0,990.0,160.0,294.53,1649332762.4351766,1649332763.4217482,7801ba7e-ce45-48f8-9f61-c7a78fa0c0da
-0.5291780559700553,-0.4683521715211005,-0.992512019299322,0.0659188589342563,-0.8717148775159049,0.8172616058943508,-1.1318619981144835,-1.1511380011659818,-30.947421465832203,19.15272978465693,51.297259260127184,1.757943378937478,-2.0629246465067084,4.138495298909769,4620.71484375,11.920333333333332,0.1566666666666666,-179.3121912991577,-11.010492045850455,110.02113566632087,1553.0,1435.0,1200.0,1528.0,1471.0,990.0,160.0,294.53,1649332763.531614,1649332764.6459153,7801ba7e-ce45-48f8-9f61-c7a78fa0c0da
-0.5326230153120582,-0.4768199339092784,-0.9860034106924088,0.0624213060116936,-0.8666131808261581,0.8275307366804653,-1.1228945809471726,-1.1442875254740528,-30.84989865186726,19.3641636487846,51.176368804294526,1.790664635207713,-2.0934558767764737,4.1086626136213935,4620.161946614583,11.924666666666669,0.16,-179.25685007086264,-10.97352326751281,109.71280726680818,1553.0,1435.0,1200.0,1528.0,1471.0,990.0,160.0,294.53,1649332764.753915,1649332765.702379,7801ba7e-ce45-48f8-9f61-c7a78fa0c0da
-0.3373779817500552,-0.1037913674261812,-0.9657281086194376,-0.2615231423770875,-0.9362487141709492,0.777920710332291,-1.1268523410124365,-1.1532417955659389,-30.037554716576555,16.57660872164037,53.76764049406296,2.393276103908049,-0.6819653330598581,4.229169301922855,4616.844563802083,11.921,0.16,-179.3415337918321,-10.925058047573431,109.30670774496636,1637.0,1435.0,1200.0,1528.0,1535.0,990.0,160.0,294.53,1649332766.2891304,1649332767.5203507,877861d8-930f-4bee-93f1-dfa8940bbccd
-0.3394160299773239,-0.1136265928129221,-0.9807702262401972,-0.2604186518809434,-0.9536444495670682,0.7841005970046286,-1.1488238292933743,-1.1808935242320044,-30.42840893633791,17.33329477546123,53.2715681586859,2.4086630178379083,-0.7127671049184771,4.302185765241037,4629.951318359375,11.9241,0.168,-179.34227145226245,-10.922391826312673,109.05228722060588,1637.0,1435.0,1200.0,1528.0,1535.0,990.0,160.0,294.53,1649332767.6524131,1649332768.7389162,877861d8-930f-4bee-93f1-dfa8940bbccd
-0.3246631904105128,-0.0964412459372087,-0.965504580598622,-0.2548699015106032,-0.949094997853026,0.757934693943253,-1.1465622519353094,-1.1727018819059192,-30.133495066975232,18.017933386848814,52.72997621174764,2.3427089170975,-0.6453026160199156,4.273249952845702,4625.203125,11.9158,0.1599999999999999,-179.34665370163395,-10.939896064362852,108.86411619199096,1637.0,1435.0,1200.0,1528.0,1535.0,990.0,160.0,294.53,1649332768.8468597,1649332769.9772484,877861d8-930f-4bee-93f1-dfa8940bbccd
-0.1594498025100112,0.2149593274329538,-0.9614942261673968,-0.5434838433713657,-1.0246080074732355,0.734372232527042,-1.164523385984406,-1.1864554289374838,-29.74572418212981,16.15304556765797,54.93974322046687,2.9291878280424744,0.5360663693718981,4.435509826248396,4626.535481770833,11.890333333333334,0.1566666666666666,-179.5757774061474,-10.814461916985293,108.34503228802672,1723.0,1435.0,1200.0,1528.0,1599.0,990.0,160.0,294.53,1649332771.923023,1649332773.2471611,977f456a-ff07-4013-9c4a-88bf324f7454
-0.1510477849362867,0.2153800856923994,-0.9758657602043354,-0.5413800497352582,-1.0325235281462397,0.7293757283863517,-1.1772776307443364,-1.2138441850750343,-30.022974535372374,15.650141892174108,54.466835644919,2.908950012442391,0.5426195168513792,4.483455238152701,4638.22021484375,11.89,0.1433333333333333,-179.62485459206366,-10.82003051329736,108.16545523109848,1723.0,1435.0,1200.0,1528.0,1599.0,990.0,160.0,294.53,1649332773.3556232,1649332774.482506,977f456a-ff07-4013-9c4a-88bf324f7454
-0.1548609071491364,0.2075040169973903,-0.9527766350811224,-0.5399073964441746,-1.0227014453288743,0.7310193152930751,-1.163879098821422,-1.1982235213892292,-29.73473986158853,17.077984046535246,53.91829374397324,2.919994098332237,0.517207757039987,4.417429326335752,4643.24267578125,11.887999999999998,0.1433333333333333,-179.68623522540486,-10.78096097747124,108.00269865336622,1723.0,1435.0,1200.0,1528.0,1599.0,990.0,160.0,294.53,1649332774.5913792,1649332775.7050211,977f456a-ff07-4013-9c4a-88bf324f7454
-0.0008502206923026,0.4877684579237826,-0.9421261848867178,-0.7934932462054395,-1.0855654046990717,0.6944264971550125,-1.17813229597293,-1.2024968499074264,-29.32827483691681,15.629783347436016,54.55975905396592,3.4010295795313503,1.591680126546854,4.542300002705466,4650.240451388889,11.848111111111113,0.1377777777777778,-179.89021806605737,-10.726926307446146,107.63003518424134,1813.0,1435.0,1200.0,1528.0,1662.0,990.0,160.0,294.53,1649332777.8447535,1649332778.981781,14b06c02-7e4f-4df9-92dc-59a635162b4a
0.0055268970252743,0.4857304101847535,-0.9415870886502412,-0.8001596374968416,-1.0869591674544317,0.7013295619997824,-1.1790132596768437,-1.197066433660746,-29.50889301747632,15.901159971818918,54.38103231444799,3.433285856584648,1.5877581837183277,4.543922992582156,4647.719401041667,11.84911111111111,0.14,-179.95574386531484,-10.688125235999902,107.41059334876736,1813.0,1435.0,1200.0,1528.0,1662.0,990.0,160.0,294.53,1649332779.0903614,1649332780.2114532,14b06c02-7e4f-4df9-92dc-59a635162b4a
0.0076964319571302,0.4856252206335725,-0.930818299919954,-0.8060371071528448,-1.0803585173253785,0.7040381931611657,-1.1697434213411777,-1.1981446281329042,-29.4531408253953,16.22097522379222,54.05524579597383,3.455263083729853,1.5912682462858816,4.506439324839954,4645.759765625,11.843,0.1333333333333333,179.98110815225266,-10.678844242146456,107.20722522514014,1813.0,1435.0,1200.0,1528.0,1662.0,990.0,160.0,294.53,1649332780.3195982,1649332781.4364846,14b06c02-7e4f-4df9-92dc-59a635162b4a
-0.7400174734619087,-0.8278245069467599,-1.0221097537306358,0.3808169714159576,-0.7871161247186046,0.8729726269912031,-1.108693978499708,-1.143275074932295,-31.755523561892645,18.85455281739701,50.35152168020293,1.1687925359452909,-3.437714958548264,3.988115624918571,4645.2591796875,11.9104,0.1539999999999999,-179.6735574836134,-10.815154782758343,106.96190577606674,1470.0,1435.0,1200.0,1528.0,1403.0,990.0,160.0,294.53,1649332782.3636467,1649332783.4868042,9a649ea6-4676-404b-879a-f5fbe784b180
-0.7678138294499977,-0.8542402508494357,-1.0259491758449109,0.3868127764839836,-0.8017637793546752,0.8904735402160511,-1.1256952553578268,-1.153702000582198,-32.0351264940105,20.878132392200527,49.84205382318741,1.2075957762531409,-3.531242989481779,4.03261766765494,4634.040256076389,11.912555555555556,0.15,-179.72631022199505,-10.823427868363272,106.91880986269764,1470.0,1435.0,1200.0,1528.0,1403.0,990.0,160.0,294.53,1649332783.5951707,1649332784.7221549,9a649ea6-4676-404b-879a-f5fbe784b180
-0.7849976658255071,-0.8501596014500188,-1.0320289344054785,0.3885868388547189,-0.8007634661228682,0.8862270173954706,-1.1219332083507003,-1.145575592772304,-31.69522032333595,19.84304772068724,50.040602830545694,1.1870897396460922,-3.520724984061024,4.035638104207288,4642.405924479167,11.92,0.16,-179.8002948310846,-10.815461401333836,106.86690877301452,1470.0,1435.0,1200.0,1528.0,1403.0,990.0,160.0,294.53,1649332784.8356278,1649332785.9409945,9a649ea6-4676-404b-879a-f5fbe784b180
-0.9847148372316228,-1.2095182589275175,-1.0718776033587734,0.6865372801741277,-0.752824310064241,0.9527589094551376,-1.134425996471227,-1.164286707892903,-32.69224680333432,22.399754330232835,48.22085236608469,0.6786651500980213,-4.8845202367546685,3.9972652918681306,4625.147677951389,11.825777777777777,0.13,-179.81139312957598,-10.868694188177622,106.70618986838468,1385.0,1435.0,1200.0,1528.0,1331.0,990.0,160.0,294.53,1649332787.8797138,1649332789.0168068,f4962bb4-47e9-458a-86ea-75cf104fd56b
-0.9745640374567066,-1.2025625928881978,-1.0599122801905363,0.6786480631768859,-0.739491525636912,0.9539422919630044,-1.120146501075689,-1.1339000485613122,-32.852576899213666,22.052461813644825,48.431152374996266,0.6973668753863979,-4.857437387461348,3.943564031172762,4621.545572916667,11.826666666666666,0.13,-179.81665996433594,-10.82115009513881,106.4326612826932,1385.0,1435.0,1200.0,1528.0,1331.0,990.0,160.0,294.53,1649332789.125106,1649332790.2453623,f4962bb4-47e9-458a-86ea-75cf104fd56b
-0.9741432789233888,-1.1995909851458928,-1.0553233824575925,0.6696938019123857,-0.7392285522228778,0.9547180649611228,-1.1174773141543457,-1.1337948600650796,-32.81385616101174,22.307346655933017,47.80824012049919,0.7211471146054902,-4.839647556431035,3.932475284795909,4624.872287326389,11.836,0.1377777777777778,-179.8208218262702,-10.79410368439042,106.16138969506744,1385.0,1435.0,1200.0,1528.0,1331.0,990.0,160.0,294.53,1649332790.3545332,1649332791.479004,f4962bb4-47e9-458a-86ea-75cf104fd56b
-1.1210800586585647,-1.424486495228106,-1.079924611267166,0.8458337204387825,-0.7125366880222281,0.9844998600739514,-1.1266682609550345,-1.1509144749681974,-33.22996600360499,24.013771973738844,43.6279317344647,0.3999535813059934,-5.666364604564112,3.910184864307209,4629.311252170139,11.724222222222222,0.09,-179.85726164440217,-10.829950793884374,105.78005568024616,1297.0,1435.0,1200.0,1528.0,1253.0,990.0,160.0,294.53,1649332792.386185,1649332793.5241668,fe2435f7-62a7-425c-a9f6-353e885d3c6d
-1.1159257659341806,-1.4338878230685177,-1.0707073680076302,0.84240191092487,-0.6982440492328728,0.999581413460384,-1.1085756409850556,-1.1294426388191845,-33.27073230411474,23.600992872272062,44.123175940704535,0.4393661856674315,-5.704726250161377,3.85206537019736,4624.316514756944,11.727222222222222,0.09,-179.8474034047001,-10.79866245620645,105.40790599312884,1297.0,1435.0,1200.0,1528.0,1253.0,990.0,160.0,294.53,1649332793.6322238,1649332794.7474158,fe2435f7-62a7-425c-a9f6-353e885d3c6d
-1.0969784809389305,-1.430784727455693,-1.0667496074464689,0.8496205444316797,-0.6932475425498132,0.986735138039488,-1.110587391922263,-1.1435774951800175,-33.58900102066245,23.687481542192103,43.6825767444597,0.3947553923877413,-5.687566508236423,3.84228866155146,4618.7244140625,11.7292,0.09,-179.86433013128317,-10.849438575787763,105.03059875427827,1297.0,1435.0,1200.0,1528.0,1253.0,990.0,160.0,294.53,1649332794.8560295,1649332795.985857,fe2435f7-62a7-425c-a9f6-353e885d3c6d
-0.55491006188342,-0.4748476289505926,-0.9821508400620458,0.0671153904223811,-0.8602623572041301,0.8242172655401465,-1.119765188489516,-1.1373318601303533,-31.03873345031729,19.211827465775546,51.62398608066637,1.7717883942486905,-2.089025521725104,4.091147093198746,4622.21103515625,11.9364,0.1599999999999999,179.7417364319085,-10.733313407066502,104.48038398644196,1553.0,1435.0,1200.0,1528.0,1471.0,990.0,160.0,294.53,1649332797.914828,1649332798.951957,77f3e052-fee2-4924-910f-08a4c4ff4ce4
-0.5431682727673766,-0.4735722051276633,-0.984070550850696,0.0798564769965131,-0.8516236592645479,0.814763353801148,-1.1163859709436237,-1.1358197583458918,-31.17758697244522,18.270117800445664,52.14294184562397,1.7154779558306927,-2.089564998367819,4.078473739978988,4631.813639322917,11.939,0.16,179.59893478307336,-10.71661499852915,104.7921841711098,1553.0,1435.0,1200.0,1528.0,1471.0,990.0,160.0,294.53,1649332799.0597112,1649332800.178889,77f3e052-fee2-4924-910f-08a4c4ff4ce4
-0.5514782512068311,-0.4731514467376034,-0.9909604719992324,0.0640648929766109,-0.8599467883462188,0.8295293383562405,-1.117096001277005,-1.1429463586230888,-30.97989032258974,18.11098835638076,52.20501832337213,1.7829924897241818,-2.088431530127471,4.10041636235079,4632.70263671875,11.9264,0.152,179.50007341077077,-10.689319646358262,105.05746871847307,1553.0,1435.0,1200.0,1528.0,1471.0,990.0,160.0,294.53,1649332800.2877572,1649332801.4141538,77f3e052-fee2-4924-910f-08a4c4ff4ce4
-0.5549080390730228,-0.5057900591662093,-1.0394250812642405,-0.3351098319387326,-0.9373076909830252,1.2486758683935535,-1.0432053344667174,-1.0722083438231438,-31.16098412905827,16.879457074535264,55.10183862495649,3.615104517382439,-2.1891852098531657,4.16365797315896,4630.702799479167,11.922666666666666,0.1533333333333333,179.39469087741256,-10.540808964932651,105.3291144486834,1553.0,1522.0,1200.0,1528.0,1471.0,990.0,160.0,294.53,1649332802.321,1649332803.455321,0d444a48-eb31-41b4-8077-0a3bf009f3c1
-0.5519495814993145,-0.5035269656736348,-1.0316243586240077,-0.3186739586264869,-0.9266622978817745,1.2308745565028874,-1.0383251411735068,-1.069034953501636,-31.14489651680596,16.704210857689493,55.08885586760472,3.5372600134442616,-2.1822280872598747,4.132059773401003,4632.925075954861,11.923444444444444,0.1588888888888889,179.3558483505126,-10.571473004347688,105.39486412636369,1553.0,1522.0,1200.0,1528.0,1471.0,990.0,160.0,294.53,1649332803.565223,1649332804.8857477,0d444a48-eb31-41b4-8077-0a3bf009f3c1
-0.5554754559991819,-0.4843015439541489,-1.029275797962263,-0.3254652615828128,-0.9378660050751728,1.217639382596334,-1.04955110082712,-1.0735869336975403,-31.00444287077854,17.629185894724266,54.95028770165145,3.529135652216368,-2.108886309125249,4.161891544262864,4630.70068359375,11.923444444444442,0.1555555555555555,179.33008791260295,-10.552130382936904,105.4788648284161,1553.0,1522.0,1200.0,1528.0,1471.0,990.0,160.0,294.53,1649332804.995924,1649332806.0112789,0d444a48-eb31-41b4-8077-0a3bf009f3c1
-0.5495979871292764,-0.5245365649354077,-1.082422864122305,-0.7211753849429475,-1.018967212837414,1.6398440456172227,-0.980467806229076,-1.0072517173188984,-31.240967683921685,16.54493384072211,57.6393871213407,5.360986582977732,-2.236618699174006,4.242173993133064,4645.759765625,11.898111111111112,0.15,179.26256618028802,-10.378705429176064,105.6325645753089,1553.0,1613.0,1200.0,1528.0,1471.0,990.0,160.0,294.53,1649332807.8478873,1649332808.9841127,63541755-c593-4a7e-8096-3dcd59e9bf9f
-0.5492035260799759,-0.5245497136142885,-1.077544694707992,-0.7104197466350205,-1.0037015672163014,1.6349921757426102,-0.9658727447353,-0.9917625441261912,-31.11176063691422,15.44797769970892,58.44278996469582,5.318985850732466,-2.2457366525787945,4.195718305364145,4637.383138020833,11.909,0.15,179.25776228057177,-10.396640841890347,105.60426937830728,1553.0,1613.0,1200.0,1528.0,1471.0,990.0,160.0,294.53,1649332809.092229,1649332810.21496,63541755-c593-4a7e-8096-3dcd59e9bf9f
-0.5563432702300067,-0.5378036031283776,-1.088208294435943,-0.7187954704488629,-1.020426718920304,1.6515989821195998,-0.9809543084184368,-1.002689116881441,-31.284972951478384,16.419491159097355,57.75155070548422,5.380909068722891,-2.287722714511234,4.251335208227916,4628.19970703125,11.908333333333337,0.15,179.24667764245876,-10.367531619148878,105.58579447551227,1553.0,1613.0,1200.0,1528.0,1471.0,990.0,160.0,294.53,1649332810.324157,1649332811.4393032,63541755-c593-4a7e-8096-3dcd59e9bf9f
-0.5549626566931188,-0.5473758566987434,-1.1178454775733715,-1.0734685960931645,-1.0753225632074424,2.005627722473161,-0.8984724892143291,-0.920956773315732,-30.9647534589384,14.544916441165585,60.54043806905644,6.963217833996825,-2.308851536230066,4.249726266177492,4629.311252170139,11.863222222222223,0.1344444444444444,179.23994004029748,-10.264278985419626,105.48149065669703,1553.0,1710.0,1200.0,1528.0,1471.0,990.0,160.0,294.53,1649332813.3770587,1649332814.7198455,d4622b0f-2707-48d8-886e-d2b419e6861f
-0.5431945701722748,-0.5489668494262153,-1.125064116846893,-1.0846318468201115,-1.0821072951463273,2.0205120521840008,-0.9032060222005214,-0.9169990119824156,-31.195725745680257,14.540170173722018,60.92847028820788,7.021401154263867,-2.315706349605178,4.275643976678441,4635.708984375,11.86133333333333,0.1333333333333333,179.26616493107073,-10.3065294921242,105.3257790396387,1553.0,1710.0,1200.0,1528.0,1471.0,990.0,160.0,294.53,1649332814.8283737,1649332815.947909,d4622b0f-2707-48d8-886e-d2b419e6861f
-0.5463239607571926,-0.5437205181298499,-1.1136115940217592,-1.0706284752963346,-1.080200732990107,1.9981066652103123,-0.9055201941041474,-0.9317781553657768,-30.955846509100866,15.50599092530088,60.3298768429734,6.9464632142764415,-2.2934036113619563,4.260415697312853,4633.4537109375,11.8726,0.139,179.28443887452212,-10.264996790869525,105.18045651976291,1553.0,1710.0,1200.0,1528.0,1471.0,990.0,160.0,294.53,1649332816.0564065,1649332817.3792646,d4622b0f-2707-48d8-886e-d2b419e6861f
-0.5248652824909917,-0.5464160016713869,-1.0799246104284383,-1.283926796369402,-1.0765453932393612,2.204514992532269,-0.8171214636537282,-0.8402763287484929,-30.654675880170466,15.755992390674578,61.83974673213942,7.895166000229903,-2.2906254601496983,4.083698144440194,4642.964898003473,11.845222222222224,0.13,179.29681123096665,-10.20622968198238,104.97319784449348,1553.0,1814.0,1200.0,1528.0,1471.0,990.0,160.0,294.53,1649332818.495636,1649332819.6406314,97e0b08f-a40f-43d2-acd4-25dfb8aa88b2
-0.5217753379782616,-0.538198064098446,-1.0844740632060452,-1.2925129062170149,-1.084460913927591,2.2014644953403866,-0.825707566565049,-0.8521496076631488,-30.786858408293263,15.926800646702432,61.3751648366697,7.908444467770729,-2.253978445080736,4.113006850157962,4638.496799045139,11.82911111111111,0.13,179.27955210184393,-10.207226035827556,104.8010603813912,1553.0,1814.0,1200.0,1528.0,1471.0,990.0,160.0,294.53,1649332819.7487466,1649332820.8627574,97e0b08f-a40f-43d2-acd4-25dfb8aa88b2
-0.5196189512450861,-0.5497294740184973,-1.0798062716926062,-1.270488816736414,-1.0759537014768938,2.191445181491464,-0.8240376815309677,-0.8611959162757502,-30.86825096636101,16.075005047376628,61.25081579978345,7.837402878651544,-2.2979632747020533,4.091184123648046,4639.222265625,11.843800000000002,0.1299999999999999,179.29369241480964,-10.218299897419886,104.67312031349812,1553.0,1814.0,1200.0,1528.0,1471.0,990.0,160.0,294.53,1649332820.9708726,1649332822.091222,97e0b08f-a40f-43d2-acd4-25dfb8aa88b2
-0.5240970948794421,-0.4428280175439306,-0.9494196696594536,0.4468583158661671,-0.7813691300278642,0.4313580272313527,-1.1861216525306717,-1.2112053393469018,-31.129826398853297,18.47854233823191,49.82704506110342,0.0288106894870765,-1.9970534712624128,4.038459764723982,4650.240668402777,11.944,0.16,179.2710143653814,-10.786442014552698,104.44911135819912,1553.0,1349.0,1200.0,1528.0,1471.0,990.0,160.0,294.53,1649332824.289626,1649332825.3657236,45a55ffc-a947-4222-a029-8f44a0ef444e
-0.5409724398358804,-0.427104701971294,-0.9420735898535616,0.4322678158022255,-0.7913631553450979,0.4241287735232227,-1.1944498412164,-1.2124372733095523,-31.079972589577665,19.82639189483112,49.05967717096097,0.0546818001373303,-1.929348205140058,4.054090007955587,4640.170952690973,11.931333333333336,0.1522222222222222,179.17869904637934,-10.789066419877535,104.7223045057114,1553.0,1349.0,1200.0,1528.0,1471.0,990.0,160.0,294.53,1649332825.4742985,1649332826.8032706,45a55ffc-a947-4222-a029-8f44a0ef444e
-0.5304534798097743,-0.4057117687315987,-0.9354597919150328,0.4250228847589208,-0.7845784247855809,0.4114139852916011,-1.1846935007320814,-1.2083743217431882,-30.792925141609548,19.06848891491928,49.35403212707634,0.0379492695051304,-1.8524537784525004,4.025394656243647,4631.535319010417,11.938,0.1566666666666666,179.1277807450268,-10.79934073193653,104.93563635751786,1553.0,1349.0,1200.0,1528.0,1471.0,990.0,160.0,294.53,1649332826.9123638,1649332828.031151,45a55ffc-a947-4222-a029-8f44a0ef444e
-0.5209469698760598,-0.3730898469467181,-0.9048496101108742,0.7280740076051166,-0.7425683219814228,0.08274919021496,-1.2631255400572736,-1.2862146712268356,-30.90181252988472,21.17414976397445,46.63923471294799,-1.3692181969460255,-1.740605725427121,4.039955946706764,4628.19970703125,11.924777777777775,0.1444444444444445,178.98544112054358,-10.896085144024145,105.36225376762638,1553.0,1264.0,1200.0,1528.0,1471.0,990.0,160.0,294.53,1649332829.9665031,1649332831.104451,6a1f9381-d481-4c5f-948a-5bd9a1de0600
-0.5280867140494413,-0.3871589547196488,-0.9077160272725888,0.7409597287045774,-0.7399254328150947,0.0874695721315286,-1.2645587491362331,-1.289567591872038,-31.114780835150214,21.17080250442069,47.0217840307271,-1.3878890383577478,-1.7970249015660105,4.041106674305634,4620.161946614583,11.931111111111113,0.15,178.95470223363887,-10.904920468034248,105.53848554968116,1553.0,1264.0,1200.0,1528.0,1471.0,990.0,160.0,294.53,1649332831.2123394,1649332832.2802813,6a1f9381-d481-4c5f-948a-5bd9a1de0600
-0.5264431265041984,-0.3789936127050305,-0.9090571950085748,0.7370019715380193,-0.7447904526704628,0.0797381386627552,-1.270436221581107,-1.3004941681373023,-31.130637733354,21.34492003243432,46.51246425056018,-1.3953365767141803,-1.761368370280607,4.058081839334439,4620.71484375,11.928111111111113,0.15,178.92863064266703,-10.872826926944173,105.6729431358622,1553.0,1264.0,1200.0,1528.0,1471.0,990.0,160.0,294.53,1649332832.389315,1649332833.5642445,6a1f9381-d481-4c5f-948a-5bd9a1de0600
-0.5301773572478363,-0.358994442036032,-0.8626685697182306,1.093397355845921,-0.6797438261700889,-0.2839022264572713,-1.3386517206542383,-1.3617145567519335,-30.9486953510594,23.420080667400352,44.14909474148664,-3.000644516027055,-1.707604495232835,4.004864553425792,4623.20703125,11.922999999999998,0.15,178.8921537897316,-11.00369959347561,105.84562473736835,1553.0,1178.0,1200.0,1528.0,1471.0,990.0,160.0,294.53,1649332834.4712722,1649332835.6115234,24354e2d-1c86-4d71-b458-a69458c43ecf
-0.53264931279003,-0.3610061929393808,-0.8644830905457164,1.090622980990887,-0.6820317001390369,-0.279628899361755,-1.3430170918252409,-1.365369897608693,-31.24473367624163,23.65704323802421,44.08815878713398,-2.983461698721192,-1.7122838512255714,4.016011497119885,4630.145290798611,11.914777777777775,0.15,178.9038810727545,-11.01838736507604,105.93751127227256,1553.0,1178.0,1200.0,1528.0,1471.0,990.0,160.0,294.53,1649332835.7207758,1649332836.843797,24354e2d-1c86-4d71-b458-a69458c43ecf
-0.5258251375414198,-0.3610982338987573,-0.8704657504856184,1.0965135966049584,-0.6870808014357541,-0.2860980587236157,-1.3500516509208973,-1.3728646627275716,-31.180918218192627,23.612486552199485,43.87701101661949,-3.011881352476192,-1.712314618800474,4.040864914707723,4628.479112413194,11.91711111111111,0.1455555555555555,178.9052213076517,-11.03107425173186,106.02080694702067,1553.0,1178.0,1200.0,1528.0,1471.0,990.0,160.0,294.53,1649332836.9575577,1649332838.066428,24354e2d-1c86-4d71-b458-a69458c43ecf
-0.5232742897463767,-0.3478837918432961,-0.8009880054781777,1.3542543375078957,-0.6025609522481319,-0.5472443700589272,-1.3613858387687483,-1.3957171189662751,-31.23520736400956,24.973256738209244,42.541707895128766,-4.16787189250115,-1.677839229226454,3.848556544171073,4629.311252170139,11.88522222222222,0.14,178.89506102180633,-11.135855519742856,106.09245790814384,1553.0,1088.0,1200.0,1528.0,1471.0,990.0,160.0,294.53,1649332838.9785368,1649332840.1141338,5e1b7eaa-0110-41a3-a612-cff093252345
-0.5294936248537762,-0.3507239107390146,-0.815622511114601,1.3601712512463504,-0.6165511693846631,-0.5503343149126693,-1.3800570057403891,-1.404960661743848,-31.420366169909148,25.192605197676937,42.351632854779055,-4.187560635430634,-1.687148791406888,3.913364561824953,4620.71484375,11.8733,0.14,178.91920407092053,-11.148427460006772,106.09447858166428,1553.0,1088.0,1200.0,1528.0,1471.0,990.0,160.0,294.53,1649332840.2227335,1649332841.340702,5e1b7eaa-0110-41a3-a612-cff093252345
-0.5355157293659785,-0.3614795460889812,-0.818278549321344,1.354648798645766,-0.6166826569776263,-0.5338326967705239,-1.377322074825216,-1.4026727868604991,-31.526720549965003,25.135235601663563,42.47788696014293,-4.138567969480196,-1.7273446196269937,3.9120475515288655,4616.570149739583,11.870888888888889,0.1344444444444444,178.9548767829177,-11.141139809430724,106.09625245768274,1553.0,1088.0,1200.0,1528.0,1471.0,990.0,160.0,294.53,1649332841.4487307,1649332842.5729454,5e1b7eaa-0110-41a3-a612-cff093252345
-0.5337801009307319,-0.4482872563566712,-0.977154332604083,0.0431190194894386,-0.8501904507473977,0.8244670908104027,-1.102132773896672,-1.1193575782755174,-30.88800549661006,17.656322874053146,52.32247275843461,1.8166040989363768,-1.99342062266217,4.05024557634814,4610.229871961806,11.93077777777778,0.15,178.9670178236223,-10.72522881570992,106.09607031930486,1553.0,1435.0,1200.0,1528.0,1471.0,990.0,160.0,294.53,1649332843.4836566,1649332844.628341,cc8da2f3-a5d2-4cf9-b85e-227410ee709a
-0.5345164281893947,-0.4519951895111389,-0.9704616421651306,0.0605804883357545,-0.8489150266718285,0.8085571697598738,-1.1044995411153684,-1.1284170382557723,-30.629370972280675,18.40181770956895,51.83665858855642,1.7467915614565055,-2.006565375817744,4.041649450966229,4635.152506510417,11.925,0.15,178.9818939756346,-10.737382188700574,106.12313608225593,1553.0,1435.0,1200.0,1528.0,1471.0,990.0,160.0,294.53,1649332844.742241,1649332845.8537846,cc8da2f3-a5d2-4cf9-b85e-227410ee709a
-0.5602221367037292,-0.4629086100023428,-0.9843598227041874,0.0659451563962887,-0.8545558200590371,0.8179979328092531,-1.1144136651726682,-1.13794984946879,-31.03830123354137,18.070020292243687,52.275100807142834,1.7528773231627377,-2.0500361354898105,4.081587863698635,4640.72900390625,11.92922222222222,0.1444444444444445,179.00495572991218,-10.703939969840638,106.15641731735164,1553.0,1435.0,1200.0,1528.0,1471.0,990.0,160.0,294.53,1649332845.9619272,1649332847.0800805,cc8da2f3-a5d2-4cf9-b85e-227410ee709a
-0.4581882268804794,-0.4197545791964579,-0.7289857132148942,0.0282083981463141,-0.6240196318998801,0.7988271354166361,-0.8451544981966016,-0.8772636304697069,-29.18150452965908,17.568313143480328,52.636624981329305,1.805305204365826,-1.88370136195709,3.0430236106163324,4638.2177734375,11.945777777777778,0.15,179.00563419536977,-10.76311606476346,106.12528835075436,1553.0,1435.0,1200.0,1446.0,1471.0,990.0,160.0,294.53,1649332847.9919884,1649332849.125905,b89b4c98-0ef4-46aa-8ff4-ea00c00d9044
-0.4589114053545959,-0.4178611665298966,-0.7412797495894295,0.0249606701184903,-0.6416388907503229,0.7970389128876104,-0.8630367342359426,-0.8860075182474051,-29.138608720682733,18.0848652561344,52.09870181124004,1.8113608783336952,-1.8725066709083136,3.1085002259309973,4636.545247395833,11.945,0.15,178.99844883636288,-10.713292585816632,106.18992546650982,1553.0,1435.0,1200.0,1446.0,1471.0,990.0,160.0,294.53,1649332849.2348268,1649332850.56547,b89b4c98-0ef4-46aa-8ff4-ea00c00d9044
-0.451824256453284,-0.4111421813428966,-0.7384527788294836,0.0226727967862004,-0.6331579787838114,0.7947247425786393,-0.8544374828287907,-0.883969470911682,-29.188487629982,17.30305499190352,52.45956794143184,1.8063119763077105,-1.8497040660387989,3.082439838566048,4638.2177734375,11.948,0.15,178.98790757774384,-10.744997470170183,106.22044502845117,1553.0,1435.0,1200.0,1446.0,1471.0,990.0,160.0,294.53,1649332850.6793644,1649332851.7852466,b89b4c98-0ef4-46aa-8ff4-ea00c00d9044
-0.373707835825666,-0.387080062440033,-0.4671556407722434,0.0039227559344952,-0.3918267432689225,0.7743705626641811,-0.5761452137199133,-0.6081491502958957,-27.154976291654297,17.88575866525588,52.56125135347143,1.821280340698613,-1.7552331958506815,1.991774677296682,4629.589898003473,11.946333333333332,0.15,178.99630871042297,-10.72568283356225,106.2283695657082,1553.0,1435.0,1200.0,1354.0,1471.0,990.0,160.0,294.53,1649332852.9034646,1649332854.041463,5fc8dee9-0757-4d1d-bab7-d37d39d94e2c
-0.3780863525031018,-0.3804005234284207,-0.4709030194837252,-0.0007187341346751,-0.3996633674594112,0.769965749851809,-0.5847576119417685,-0.6177477014012617,-27.19976210175105,18.17158471261897,52.20729801706052,1.8234814173089413,-1.7263880506184173,2.019938432238589,4625.7021484375,11.947,0.1599999999999999,178.9899907854407,-10.74762120196248,106.2594112576661,1553.0,1435.0,1200.0,1354.0,1471.0,990.0,160.0,294.53,1649332854.149266,1649332855.2705605,5fc8dee9-0757-4d1d-bab7-d37d39d94e2c
-0.3606643267700571,-0.3689085607955233,-0.4691279450538993,-0.0021913884803917,-0.4030031368874331,0.7570405826838779,-0.589951348685262,-0.611304838066953,-27.17051796173054,18.45201797345988,51.761396302264046,1.7996498425549654,-1.6792425693874653,2.0301165389270155,4616.567545572917,11.946333333333335,0.1566666666666666,179.00519250980344,-10.759651071852016,106.3046020659446,1553.0,1435.0,1200.0,1354.0,1471.0,990.0,160.0,294.53,1649332855.3789132,1649332856.5337255,5fc8dee9-0757-4d1d-bab7-d37d39d94e2c
-0.3216126924721906,-0.3720773971765719,-0.2548436040423794,0.0107206316916469,-0.1948855425773507,0.7396843052703298,-0.3618345623672582,-0.3820441118483168,-25.945487671834904,18.031391141331795,52.24444687169352,1.7400968092891071,-1.6920917557321813,1.1312104197827826,4615.73876953125,11.942777777777778,0.15,179.00136001476915,-10.730569833913393,106.28564146080868,1553.0,1435.0,1200.0,1252.0,1471.0,990.0,160.0,294.53,1649332858.4333782,1649332859.585487,15702607-9f9d-4748-a290-492ae6107fac
-0.3098972022083081,-0.3664760515938163,-0.2508595483785625,0.0081566361071397,-0.1969367390570765,0.7354635741655668,-0.3616241822890502,-0.3885527171820678,-25.70876723835261,18.400111762348605,52.0995432631305,1.7391347422746184,-1.6708999723346818,1.1287391034964784,4603.618598090277,11.940666666666663,0.15,179.02919986582612,-10.73563290136314,106.27018626053676,1553.0,1435.0,1200.0,1252.0,1471.0,990.0,160.0,294.53,1649332859.7183695,1649332860.800368,15702607-9f9d-4748-a290-492ae6107fac
-0.3177864211790002,-0.3645563415395758,-0.2614705475152081,0.0140209548670313,-0.2061408273952163,0.7282317919150659,-0.3746939888001654,-0.3988875945883807,-25.78354163189956,18.356462096155404,52.01635285318609,1.7087868792144911,-1.6638287873695037,1.1744799784204007,4615.73876953125,11.938888888888888,0.15,179.05660713823565,-10.69741258572383,106.26535731679354,1553.0,1435.0,1200.0,1252.0,1471.0,990.0,160.0,294.53,1649332860.909125,1649332862.0348957,15702607-9f9d-4748-a290-492ae6107fac
-0.6080571085901181,-0.491638518321701,-1.2461637070161002,0.1436276527264818,-1.103381901100343,0.7787490780871172,-1.4199501914726975,-1.4458531506442285,-32.722686747352455,20.040784933063737,50.66470928443927,1.4883709954624076,-2.157724158662818,5.205331126713844,4614.358561197917,11.890666666666666,0.1355555555555555,179.09680052477145,-10.72523128216712,106.33338144746742,1553.0,1435.0,1200.0,1604.0,1471.0,990.0,160.0,294.53,1649332862.9395435,1649332864.083362,7906b5df-1ff8-4d77-b05e-9e4ee3b15b72
-0.6409946038740983,-0.4907838528705888,-1.2565117405849215,0.1333716698455065,-1.1041839723723004,0.7923711261381234,-1.4156768616023705,-1.447575632051695,-32.68216524471579,18.82925714046437,51.3682321566055,1.5337024569350424,-2.1604545761449785,5.215976091732773,4620.995334201389,11.892666666666663,0.14,179.1116539094865,-10.754160263805495,106.1848005479026,1553.0,1435.0,1200.0,1604.0,1471.0,990.0,160.0,294.53,1649332864.1946657,1649332865.3081355,7906b5df-1ff8-4d77-b05e-9e4ee3b15b72
-0.613268039780907,-0.5026166710647509,-1.2503606731609145,0.1395202021962067,-1.1063317624271165,0.7926816376789793,-1.422899547643535,-1.441876676387431,-33.00341905710908,20.254866741453377,50.549979168204,1.5299953103768096,-2.195651821219183,5.217458751246391,4619.608289930556,11.89122222222222,0.1355555555555555,179.15834660047253,-10.744206970637496,106.08817462062432,1553.0,1435.0,1200.0,1604.0,1471.0,990.0,160.0,294.53,1649332865.415762,1649332866.5310428,7906b5df-1ff8-4d77-b05e-9e4ee3b15b72
-0.6804933017553639,-0.4969768903297602,-1.4382400465621925,0.1909103628470541,-1.267819628413337,0.7554890366471159,-1.6236631789455591,-1.6515516002009736,-34.14707890234909,19.12419138009851,51.29848197136366,1.313188062448009,-2.191295587402718,5.981208929759974,4613.25439453125,11.813,0.12,179.17883868580236,-10.759897527844563,105.9160917990354,1553.0,1435.0,1200.0,1676.0,1471.0,990.0,160.0,294.53,1649332867.281852,1649332868.3776026,d9cb1d30-d1b1-4438-98ca-831fec125282
-0.6692117161772673,-0.4766227034727325,-1.4359258736930314,0.1704904379295969,-1.285044436113386,0.7491776630896674,-1.6375219230900386,-1.662188909984991,-34.03078604174253,20.51581355910936,50.50200158422816,1.3543399482639311,-2.1060344811046634,6.021917795290428,4614.358561197917,11.808777777777776,0.1155555555555555,179.2003993162824,-10.755360100369694,105.64493177116609,1553.0,1435.0,1200.0,1676.0,1471.0,990.0,160.0,294.53,1649332868.485604,1649332869.6070263,d9cb1d30-d1b1-4438-98ca-831fec125282
-0.6603494917444754,-0.4766490008720991,-1.4328753736514332,0.1802204731791587,-1.2796534658370335,0.7399078330685337,-1.6380084254193124,-1.6572975899135372,-34.259861765148486,20.51246992162887,50.46542428952208,1.3115694144699364,-2.105192233914245,6.01098132414603,4606.092502170139,11.806111111111113,0.1188888888888888,179.24756708487067,-10.768810260665266,105.41892081153036,1553.0,1435.0,1200.0,1676.0,1471.0,990.0,160.0,294.53,1649332869.71972,1649332870.6702168,d9cb1d30-d1b1-4438-98ca-831fec125282
-0.7265926489619272,-0.4801991496829509,-1.58291531806506,0.2260173804399438,-1.4163605931023893,0.7092582250649835,-1.8062199324262227,-1.8343318876687085,-35.025948785346024,20.617704261029484,50.38644106263812,1.1322174549554511,-2.127533775701384,6.640481329502276,4623.20703125,11.791,0.11,179.30767123174698,-10.77555526219813,104.97923649062967,1553.0,1435.0,1200.0,1747.0,1471.0,990.0,160.0,294.53,1649332872.282555,1649332873.4949143,0b6bbe87-fad0-4b4b-bc28-107e6a06a9b9
-0.7106169766883786,-0.4921513175716696,-1.571107774331313,0.24330791504572,-1.4023440686760924,0.7036305836215497,-1.7976732674266105,-1.82837552148722,-35.17234917040614,20.909824026559416,50.26073187698865,1.0829988844224234,-2.171586674289817,6.591432521850562,4615.73876953125,11.797777777777778,0.11,179.31307770593,-10.786539060157155,104.72973954607792,1553.0,1435.0,1200.0,1747.0,1471.0,990.0,160.0,294.53,1649332873.605363,1649332874.725943,0b6bbe87-fad0-4b4b-bc28-107e6a06a9b9
-0.7054758343962975,-0.4958855483096849,-1.582704939589413,0.2396131314662276,-1.4166498654895638,0.7100602954723317,-1.8130967117893488,-1.8375007297563544,-35.36605325830035,21.388355393236647,50.06232302175626,1.1082474796069786,-2.182735003273629,6.647589508771558,4608.29345703125,11.790333333333333,0.1066666666666666,179.3284152751662,-10.800403964717326,104.54396598975264,1553.0,1435.0,1200.0,1747.0,1471.0,990.0,160.0,294.53,1649332874.8347008,1649332875.9559307,0b6bbe87-fad0-4b4b-bc28-107e6a06a9b9
-0.5162002892112998,-0.4004917352083845,-1.006344456937177,-0.0087920344900728,-0.8693744089007079,0.851343023602142,-1.1052358686310242,-1.1377657672782686,-30.79741245855172,14.889431446516816,55.91144874034684,1.974918702824065,-1.842114618804291,4.132171292889706,7722.00537109375,11.626333333333337,7.313333333333333,-179.49315943794693,-13.34576958157096,95.41419328343945,1553.0,1435.0,1350.0,1528.0,1471.0,990.0,160.0,294.53,1649332880.922768,1649332881.894597,8cde9e17-e7a9-4e94-8890-815865ec19dc
-0.5073380656321063,-0.4058038095913747,-1.0052531149276072,-0.0126051563304228,-0.8634311953988373,0.8620855074195087,-1.1025403841138093,-1.1337554117990247,-31.37110165112516,14.745437067698576,56.21869414542086,2.00651994855094,-1.860164584524824,4.118166056855988,7728.96875,11.614333333333336,7.296666666666667,-179.20558570659216,-14.396565157073448,91.88554225002216,1553.0,1435.0,1350.0,1528.0,1471.0,990.0,160.0,294.53,1649332882.0028985,1649332883.1305444,8cde9e17-e7a9-4e94-8890-815865ec19dc
-0.5120190028498254,-0.4058827017993938,-1.0137340290080423,-0.0021913888381378,-0.8699135058140957,0.8486212436401732,-1.1127437794551336,-1.1414474055983224,-31.256639371366337,14.61546226279219,55.58626340797648,1.951445934679736,-1.857487403170171,4.152406243748195,7735.9443359375,11.603333333333332,7.311111111111111,-179.1018503112978,-15.53684455871209,88.47876987106449,1553.0,1435.0,1350.0,1528.0,1471.0,990.0,160.0,294.53,1649332883.2438152,1649332884.3598452,8cde9e17-e7a9-4e94-8890-815865ec19dc
-0.2987076600661479,-0.0549702559646867,-0.9976663134459014,-0.3342880401504064,-0.9510015615151454,0.8277148185773338,-1.1255769170696053,-1.156068766999862,-30.749478139742305,13.18876631957717,58.04522367305221,2.6455846770295377,-0.5248530260034219,4.303177642480928,7740.1373046875,11.6012,7.322000000000001,-179.3358538065183,-17.060770942843426,83.43252836466297,1637.0,1435.0,1350.0,1528.0,1535.0,990.0,160.0,294.53,1649332885.4706051,1649332886.6038537,303a3d91-3785-4ee6-a099-6fa3f3d93de7
-0.3039408418827414,-0.0538789141058317,-0.9990600755461064,-0.3197587275017886,-0.951724739951644,0.8165252790136626,-1.133387248766737,-1.155292992817604,-30.93569471436038,13.407920448792172,58.47117450712624,2.589023279443225,-0.5250905366070117,4.31782277927917,7742.9326171875,11.599222222222222,7.353333333333334,-179.2599798153223,-17.446475519823586,80.92469448551657,1637.0,1435.0,1350.0,1528.0,1535.0,990.0,160.0,294.53,1649332886.7183282,1649332887.832909,303a3d91-3785-4ee6-a099-6fa3f3d93de7
-0.291212902149665,-0.034011233435302,-0.990789539520422,-0.3402838479245023,-0.9499891101969772,0.8125675219597323,-1.1251824553562575,-1.1386467308668584,-30.688871023398736,13.262110668723649,58.05320103825923,2.6259321580862007,-0.4455682070556023,4.294370223508143,7742.9326171875,11.595222222222224,7.334444444444445,-179.4217763720212,-17.83727295146737,78.94255537454107,1637.0,1435.0,1350.0,1528.0,1535.0,990.0,160.0,294.53,1649332887.9412465,1649332889.063256,303a3d91-3785-4ee6-a099-6fa3f3d93de7
-0.0943900491199647,0.31350880030975,-1.0029652402851377,-0.6524076804458203,-1.058597410596449,0.7654557475900086,-1.1737143326718276,-1.192779957097133,-29.962504603990656,12.031570333487108,58.680261270573446,3.215842528225998,0.8847809287344093,4.569205172107352,7742.9326171875,11.567,7.319999999999999,-179.94380165900603,-17.953202700887385,76.1679283869167,1723.0,1435.0,1350.0,1528.0,1599.0,990.0,160.0,294.53,1649332889.9734032,1649332891.1159706,839665fb-9ab1-48e7-96cf-77b5f5039547
-0.0855409761426044,0.3332975868288557,-0.986384724021832,-0.6525917597519755,-1.048919963909131,0.7494537856519156,-1.1646943181842702,-1.1798416280624229,-29.82969015387684,12.260698820719712,59.23250314988789,3.1827986263490904,0.9542440420805804,4.523751053784776,7749.155707465277,11.563666666666668,7.35,179.77257185215342,-18.320739164402784,74.66546739007194,1723.0,1435.0,1350.0,1528.0,1599.0,990.0,160.0,294.53,1649332891.2236652,1649332892.3431523,839665fb-9ab1-48e7-96cf-77b5f5039547
-0.0690130641220975,0.3216478427610563,-0.9771543344903948,-0.6499357215279522,-1.039413451036018,0.7531091228425084,-1.1533206877377646,-1.1788554753815932,-29.70972106702503,12.407030389566584,58.554469158392415,3.186403253852074,0.915971329305477,4.479708377325164,7746.044162326389,11.566555555555558,7.355555555555556,179.37468601224353,-18.680363043492203,73.50007395203761,1723.0,1435.0,1350.0,1528.0,1599.0,990.0,160.0,294.53,1649332892.451804,1649332893.565254,839665fb-9ab1-48e7-96cf-77b5f5039547
0.0781208493065101,0.6165862229322949,-0.9418763603251548,-0.8887161535126031,-1.0892207458571384,0.6964513961780788,-1.164036884098411,-1.189755753159566,-29.64077637070361,12.285410552636748,60.41911665985327,3.5989982455905083,2.03678863348701,4.5510395075888255,7730.3638671875,11.4946,7.325999999999999,178.93936952142607,-19.25222381917314,70.99650514657291,1813.0,1435.0,1350.0,1528.0,1662.0,990.0,160.0,294.53,1649332895.302399,1649332896.4320724,8acc9be0-b261-41e0-ad9f-0f9462f36532
0.0967131056399855,0.6203336009986379,-0.9357622127366656,-0.8962240642982627,-1.088681648392374,0.7024734984917466,-1.1594216870575158,-1.17665964148878,-29.51483290788381,12.640554772954491,60.8504591099268,3.6322576137450486,2.0474472173854803,4.536338215029049,7733.619140625,11.510333333333332,7.326666666666666,178.73796818871585,-19.387835176086988,70.11263632080042,1813.0,1435.0,1350.0,1528.0,1662.0,990.0,160.0,294.53,1649332896.539832,1649332897.6634734,8acc9be0-b261-41e0-ad9f-0f9462f36532
0.0884557244655189,0.6159156394898715,-0.9387995636358112,-0.8990247351328111,-1.0933888852990652,0.7168318733776441,-1.1599607839712611,-1.179499761845508,-29.39858320127608,12.836706864662274,61.89223706651269,3.67221408520002,2.0209767343237792,4.548568441992208,7728.96875,11.504555555555555,7.342222222222222,178.41836542361318,-19.648911757739125,69.31353378539532,1813.0,1435.0,1350.0,1528.0,1662.0,990.0,160.0,294.53,1649332897.7724416,1649332898.8949687,8acc9be0-b261-41e0-ad9f-0f9462f36532
-0.7343240855545754,-0.774269842085298,-1.0232142456963391,0.3282879334927416,-0.7882600623478158,0.8797442049325852,-1.0935072235452463,-1.1167409861923303,-31.413017875083405,16.825330805475822,51.9733130311766,1.2894257929488844,-3.247287455513318,3.9789358372852495,7735.9443359375,11.589777777777776,7.389999999999999,178.1759225466542,-20.04562223592937,67.88354033673451,1470.0,1435.0,1350.0,1528.0,1403.0,990.0,160.0,294.53,1649332900.8274355,1649332901.9662085,00364a0f-84f4-4079-ab8c-6d703c7a4a8a
-0.74140466149415,-0.7813944157125516,-1.0196640968476056,0.3346013300864353,-0.7798646173922357,0.8798549574710991,-1.086254701761945,-1.1197080441112497,-31.44192172916976,16.525435620643,51.86854796843231,1.273590675442929,-3.273433173610236,3.951484038190696,7730.518880208333,11.59911111111111,7.400000000000001,178.01015537331782,-19.94210806287315,67.42340870618854,1470.0,1435.0,1350.0,1528.0,1403.0,990.0,160.0,294.53,1649332902.073879,1649332903.194549,00364a0f-84f4-4079-ab8c-6d703c7a4a8a
-0.7067644070407693,-0.7848808448627511,-1.013168635101651,0.3398193391714623,-0.7749667242756408,0.877863941632337,-1.0806477889561297,-1.0983853928923164,-31.2696395382304,16.728279840008728,51.82620689945684,1.2590941294551703,-3.2875807366846868,3.927577257594781,7723.552788628473,11.593666666666667,7.39777777777778,178.00496291172877,-19.67729688556484,66.9174495419514,1470.0,1435.0,1350.0,1528.0,1403.0,990.0,160.0,294.53,1649332903.3025837,1649332904.422067,00364a0f-84f4-4079-ab8c-6d703c7a4a8a
-0.9530001626614122,-1.1588036966923334,-1.05015594249141,0.648498105611177,-0.7155214435389624,0.93901852285123,-1.0838823713551031,-1.1176613959156594,-32.231328192974246,18.726947396509946,48.67176653547145,0.7106337307116186,-4.69557031805167,3.853153702117544,7728.96875,11.529333333333334,7.37,177.9744213414001,-19.413897470412465,65.88181451994915,1385.0,1435.0,1350.0,1528.0,1331.0,990.0,160.0,294.53,1649332906.3615427,1649332907.4961178,0af0a34c-bfd6-4c8b-812c-18561f32687a
-0.9319359388908594,-1.1611441664284885,-1.0330626257381428,0.6688259880330588,-0.696863436147841,0.926408924243804,-1.0701025275387146,-1.0878795778004655,-32.18810030471945,18.810635442814487,49.3314545029006,0.6379763857149625,-4.711919009728069,3.785642542330458,7722.00537109375,11.524666666666668,7.37,177.96709937860987,-19.321991014123203,65.52575220505693,1385.0,1435.0,1350.0,1528.0,1331.0,990.0,160.0,294.53,1649332907.6039553,1649332908.7249196,0af0a34c-bfd6-4c8b-812c-18561f32687a
-0.9403609710168536,-1.1569995846570504,-1.0391954017536231,0.6492618255912862,-0.7016572341187026,0.9342597909974878,-1.0717247494600914,-1.101501089201074,-32.370677291517005,18.42037535592297,48.44012555548948,0.6966238486348759,-4.6851688839036525,3.801946518648428,7722.00537109375,11.522899999999998,7.377,177.9047912055794,-19.258545500759443,65.15424614943241,1385.0,1435.0,1350.0,1528.0,1331.0,990.0,160.0,294.53,1649332908.833339,1649332909.951934,0af0a34c-bfd6-4c8b-812c-18561f32687a
-1.0654610336094832,-1.3831469516784836,-1.0435947388293727,0.8453603674204956,-0.6506194543745635,0.9432787001385864,-1.067985586050633,-1.0948220936045852,-33.238930371499094,20.16309941591473,43.87628768360501,0.2847093878454776,-5.511157811747588,3.699700454401223,7722.00537109375,11.38,7.294,177.94168105728664,-19.27434543585697,64.6254522208711,1297.0,1435.0,1350.0,1528.0,1253.0,990.0,160.0,294.53,1649332910.8635912,1649332911.844402,04523541-3d41-477e-8274-765ca73a55a3
-1.067315001241321,-1.3864209804099688,-1.0376383746799882,0.8374974477188009,-0.6480949032654401,0.9482357583037831,-1.060951028341362,-1.0841584936069424,-33.06461576409667,20.38015813195604,43.14255570340735,0.3152916598758525,-5.516818741382209,3.676659885805515,7715.0556640625,11.3854,7.292999999999999,178.02266114612416,-19.36432259137868,64.20612846621327,1297.0,1435.0,1350.0,1528.0,1253.0,990.0,160.0,294.53,1649332911.9523604,1649332913.232749,04523541-3d41-477e-8274-765ca73a55a3
-1.068958589258718,-1.386552467604002,-1.0458037211668654,0.8433223196235123,-0.6537356963113525,0.9453167478520385,-1.0671835149707931,-1.0852629850691555,-32.93330244831449,20.13013689999105,43.41849202936653,0.2936388546521434,-5.52192596439682,3.704965639744503,7722.00537109375,11.4044,7.303999999999999,177.9708131801346,-19.33377388729688,63.90051233481995,1297.0,1435.0,1350.0,1528.0,1253.0,990.0,160.0,294.53,1649332913.3410208,1649332914.4632597,04523541-3d41-477e-8274-765ca73a55a3
-0.4886669122238544,-0.3968889917417631,-0.9918677338210128,-0.0271870610864464,-0.8574748326889704,0.8554454164565297,-1.088313485262076,-1.114453113513997,-30.814715781634337,14.802561080321247,54.71121769162174,2.025576936708628,-1.8146609588979845,4.070741780063763,7725.487060546875,11.610500000000002,7.414999999999999,177.6857798238051,-18.96827116952509,63.42036233050857,1553.0,1435.0,1350.0,1528.0,1471.0,990.0,160.0,294.53,1649332916.3928509,1649332917.5325673,e12fc4cd-e1e8-401c-9280-798a3ec3fb72
-0.4772406922073579,-0.3908800363838899,-0.9941556081754376,-0.0207441992068546,-0.8595654765996977,0.8558793233641653,-1.095058770784628,-1.1093251165410272,-31.123507441156693,14.950557144978802,56.41734923368442,2.01300215787824,-1.805995355565768,4.08922502476374,7728.96875,11.6067,7.4,177.37955102444323,-18.998951354748407,63.48627502203702,1553.0,1435.0,1350.0,1528.0,1471.0,990.0,160.0,294.53,1649332917.640833,1649332918.7585475,e12fc4cd-e1e8-401c-9280-798a3ec3fb72
-0.5015000429830928,-0.3928260437949871,-1.0017818568759096,-0.0224535302275872,-0.8634969388499205,0.851816376575522,-1.0989507871611073,-1.1259582287980356,-31.06054221277925,14.526696186636691,55.3060391654401,2.004392990011848,-1.804170402501921,4.108916770924807,7728.96875,11.6138,7.409999999999999,177.3073996381269,-18.96855547614929,63.54949388695682,1553.0,1435.0,1350.0,1528.0,1471.0,990.0,160.0,294.53,1649332918.866811,1649332919.9312365,e12fc4cd-e1e8-401c-9280-798a3ec3fb72
-0.5004547213903181,-0.4271233292712095,-1.063205485193686,-0.4507909900280939,-0.958865034599385,1.2990950080844608,-1.030169363214944,-1.0429345650841837,-30.97762601299464,13.379337419558404,58.08156790579759,3.965531869402579,-1.9091682568296169,4.221146482720691,7735.9443359375,11.588666666666668,7.393333333333334,177.12954515490733,-19.21985691873428,63.70968686702059,1553.0,1522.0,1350.0,1528.0,1471.0,990.0,160.0,294.53,1649332921.9224622,1649332923.065603,5bba7f9c-49f8-4c34-be8e-a70cb508f1a4
-0.482013670179042,-0.4185186014844462,-1.0788332686542943,-0.4610940915312159,-0.974064388486463,1.2989640686892006,-1.045475002866362,-1.0731135806917904,-31.10259565886324,13.124562830559476,57.79758847565432,3.985903638501398,-1.8732203956682685,4.285510387332767,7742.9326171875,11.590999999999998,7.38,176.8715734634154,-19.30200189633473,63.87624330666106,1553.0,1522.0,1350.0,1528.0,1471.0,990.0,160.0,294.53,1649332923.1842816,1649332924.2934475,5bba7f9c-49f8-4c34-be8e-a70cb508f1a4
-0.5040903368797288,-0.4306548507456311,-1.0589524253397091,-0.4434353884732294,-0.9506465456585714,1.3033557334092591,-1.0272640458058293,-1.0559545205281125,-31.439345913174847,13.383711192846151,59.18754785593183,3.9586985029528448,-1.929583878449248,4.200891042426256,7745.7330078125,11.596,7.37,176.866680315894,-19.5006518011743,63.89639373075045,1553.0,1522.0,1350.0,1528.0,1471.0,990.0,160.0,294.53,1649332924.401419,1649332925.5203607,5bba7f9c-49f8-4c34-be8e-a70cb508f1a4
-0.4906655145295522,-0.4371371594286642,-1.109193630207674,-0.8926607657415262,-1.0408861051235767,1.7501221823391977,-0.9507385867720672,-0.968910095833515,-31.553327810695954,12.134835613372111,63.104738011372376,5.965771180700162,-1.9357046443430013,4.284563421820373,7756.9462890625,11.575,7.360000000000001,176.8639540079413,-19.6733940016366,64.07234107337177,1553.0,1613.0,1350.0,1528.0,1471.0,990.0,160.0,294.53,1649332927.4518898,1649332928.5863285,a43a681a-9f77-4a04-89a0-6483867c6cdb
-0.4936765667388273,-0.4457495573970931,-1.1184766157720631,-0.9066509844245556,-1.050879120428788,1.758866066605861,-0.9516984414160014,-0.984031105143007,-31.071314983218382,11.927559223220458,61.2783298216696,6.015093563890634,-1.9541000433037112,4.308876026513999,7756.9462890625,11.571444444444444,7.351111111111111,176.82046695240572,-19.7065234547508,64.16907628367674,1553.0,1613.0,1350.0,1528.0,1471.0,990.0,160.0,294.53,1649332928.6938426,1649332929.9259872,a43a681a-9f77-4a04-89a0-6483867c6cdb
-0.4938212024165698,-0.4510879292076903,-1.1324405427112958,-0.89285799308142,-1.0619766284712406,1.7574986015970782,-0.9684367428465088,-0.9923542355881776,-31.242500448947823,12.060027657824271,62.02658199781337,5.981123022504153,-1.9821235191996736,4.367213634736445,7756.9462890625,11.577666666666667,7.366666666666668,176.80005682934586,-19.785091500228408,64.26883347323451,1553.0,1613.0,1350.0,1528.0,1471.0,990.0,160.0,294.53,1649332930.0347457,1649332931.148938,a43a681a-9f77-4a04-89a0-6483867c6cdb
-0.4927693064387868,-0.463986803249526,-1.1621040233054736,-1.2780756248050624,-1.12865371483159,2.1427818333726343,-0.8916351633671132,-0.9135934980314993,-31.38051405645285,11.425084676547709,64.76234498215587,7.710542953351702,-2.0082350502916926,4.388199980637419,7748.377821180556,11.53077777777778,7.355555555555556,176.7389934203462,-20.15225002660973,64.4950645167435,1553.0,1710.0,1350.0,1528.0,1471.0,990.0,160.0,294.53,1649332932.7798824,1649332934.0235977,d4bc3c78-1a32-4269-975d-2a2f474404ad
-0.4841700570425813,-0.4588062157451932,-1.1495470084582056,-1.2723953806958967,-1.117372124494656,2.12994869890534,-0.8813134317018927,-0.9067824707990108,-31.2139930478793,11.396432907355754,64.49089349577302,7.669367818616743,-1.987481222229244,4.341443516183667,7742.9326171875,11.5312,7.358,176.67137788676663,-20.595400668514195,64.63106936844451,1553.0,1710.0,1350.0,1528.0,1471.0,990.0,160.0,294.53,1649332934.1554358,1649332935.247816,d4bc3c78-1a32-4269-975d-2a2f474404ad
-0.477004015718786,-0.4563342602601118,-1.1451684909597326,-1.2606009903061666,-1.1105347991440626,2.109988968570016,-0.880406171344288,-0.9042053242399806,-31.240490027643315,11.2206030475168,63.56488771410406,7.596801859382912,-1.97099273043608,4.324020790657707,7737.497287326389,11.520555555555555,7.344444444444444,176.74894880051642,-20.55498435219298,64.71197083421559,1553.0,1710.0,1350.0,1528.0,1471.0,990.0,160.0,294.53,1649332935.356858,1649332936.4739287,d4bc3c78-1a32-4269-975d-2a2f474404ad
-0.4763597294662769,-0.4482215128431873,-1.156502674983589,-1.532450564723553,-1.1618016037649184,2.363403933501273,-0.8273248574098118,-0.8364500572280684,-30.737013388930936,11.56824948917807,65.28626639601997,8.781753217068081,-1.926627144526575,4.3349565979438855,7735.9443359375,11.505333333333333,7.344444444444444,176.87299262494292,-20.35418779478827,64.90530768668178,1553.0,1814.0,1350.0,1528.0,1471.0,990.0,160.0,294.53,1649332938.4091403,1649332939.5481462,0dae9bfd-c31e-4faf-9de8-1aed2ea0c231
-0.465091294090375,-0.4482872563036914,-1.1415920412339926,-1.5279800014281373,-1.148205840655253,2.3612606948838235,-0.8160038241467599,-0.839618894129985,-30.898209135008003,11.83299157435318,65.65609513392573,8.769327846513171,-1.9286112788905323,4.280326573864925,7737.497287326389,11.508888888888889,7.34111111111111,176.88302844956343,-20.42799576759681,65.0252260768496,1553.0,1814.0,1350.0,1528.0,1471.0,990.0,160.0,294.53,1649332939.6565704,1649332940.9805176,0dae9bfd-c31e-4faf-9de8-1aed2ea0c231
-0.4693646212993586,-0.4497993566990144,-1.1437484292597235,-1.5193018513999037,-1.1515193147400058,2.355356925998002,-0.8222626063489712,-0.835161484126369,-30.886476253627247,12.11330677912914,65.70635257648459,8.738250296231369,-1.9360114631730208,4.296547380621941,7735.9443359375,11.508666666666668,7.35,176.98613394963428,-20.63375502661597,65.03003149438567,1553.0,1814.0,1350.0,1528.0,1471.0,990.0,160.0,294.53,1649332941.0896502,1649332942.2053158,0dae9bfd-c31e-4faf-9de8-1aed2ea0c231
-0.5044716490753214,-0.3767057391151582,-0.9590880135679564,0.4067987929895472,-0.7852227116513154,0.4173834928621364,-1.183510116857075,-1.2104912653281934,-31.108898254750265,15.916235551754571,51.80900168324745,0.0706317236183198,-1.7624930727379975,4.064680414610234,7735.9443359375,11.604888888888889,7.417777777777776,176.96634916833852,-21.445570251613745,65.35231928274207,1553.0,1349.0,1350.0,1528.0,1471.0,990.0,160.0,294.53,1649332944.2906885,1649332945.4916146,963fa332-b6c2-4a1b-9293-c808ae685a0e
-0.5215649587160593,-0.3834115755015699,-0.9620201744080322,0.3953725765811789,-0.7866427714683206,0.4301245783258977,-1.1799862634861382,-1.2114248217948522,-31.0688043575778,15.71098626575189,51.195350236469366,0.1234531269597283,-1.7812715862081654,4.063929411497351,7728.96875,11.603666666666667,7.41,177.04966381583432,-21.321930167258174,65.6658871962581,1553.0,1349.0,1350.0,1528.0,1471.0,990.0,160.0,294.53,1649332945.5995882,1649332946.7140305,963fa332-b6c2-4a1b-9293-c808ae685a0e
-0.5098990276870917,-0.3685125826570316,-0.9599386332847826,0.3879294037410942,-0.7930512467040712,0.4285133575484737,-1.1822276121959867,-1.2103076876056056,-30.779965009828043,16.077879782188468,52.06014061035952,0.1394415483357777,-1.7340456589213096,4.076020459956959,7728.96875,11.614555555555558,7.42,177.07400205657677,-21.05920599219625,65.96036397213402,1553.0,1349.0,1350.0,1528.0,1471.0,990.0,160.0,294.53,1649332946.8220568,1649332948.1483796,963fa332-b6c2-4a1b-9293-c808ae685a0e
-0.4974765408875076,-0.3275033093032714,-0.9110689473075696,0.7378566367066753,-0.7268950699882702,0.054545236707276,-1.252304153402851,-1.2755905149910185,-30.844073103959857,17.9170093710629,50.314552318714384,-1.4759501880530288,-1.6042653683681336,4.023841334863527,7728.96875,11.611,7.41,177.23446141401817,-20.605301027716127,66.2257942301996,1553.0,1264.0,1350.0,1528.0,1471.0,990.0,160.0,294.53,1649332948.7778826,1649332949.7848675,0c61974e-7112-4ddc-a523-016401e48ed6
-0.4933462057029316,-0.3345893619389743,-0.9203639853165172,0.719579950674497,-0.7342139662121899,0.0653364814851563,-1.2557518546456004,-1.273940900145244,-30.96111714532072,17.67012604644143,48.42476709904864,-1.412932704196886,-1.611608037941993,4.047725321602425,7728.96875,11.589999999999998,7.391111111111111,177.3468301684234,-20.235931417318486,66.37161269770012,1553.0,1264.0,1350.0,1528.0,1471.0,990.0,160.0,294.53,1649332949.89709,1649332951.0160153,0c61974e-7112-4ddc-a523-016401e48ed6
-0.4930980239179932,-0.3351690003729087,-0.9201415523648044,0.71754190295601,-0.7348237367956011,0.0732163854839002,-1.2542107159460985,-1.2899620545045456,-30.93204371106616,17.73966509880996,49.20275820286969,-1.390017461878418,-1.620616916935348,4.047059470837709,7728.96875,11.603333333333332,7.396666666666666,177.37014995206962,-19.94512966267098,66.41792745155207,1553.0,1264.0,1350.0,1528.0,1471.0,990.0,160.0,294.53,1649332951.1246004,1649332952.1690836,0c61974e-7112-4ddc-a523-016401e48ed6
-0.5106646866533463,-0.3215732462908702,-0.8653246085619029,1.130358339748239,-0.6558657853817776,-0.3355897593182952,-1.3328136937429174,-1.3527208393582555,-31.229753900266715,20.365178093520807,46.900927058521,-3.2202546189773926,-1.5944232924471735,3.977440666036877,7735.9443359375,11.607555555555557,7.41,177.4269740903245,-20.1184041625426,66.51479167654138,1553.0,1178.0,1350.0,1528.0,1471.0,990.0,160.0,294.53,1649332953.285372,1649332954.5029156,3efacced-b73a-4351-893b-d4db6dd70bbe
-0.5100598465150614,-0.3177469750810887,-0.8704394538717246,1.1239417761340176,-0.6595868677684945,-0.3360894095344863,-1.3340102261535838,-1.363700011723299,-31.09518372820476,19.97123299274684,46.502863387103545,-3.209765113552578,-1.5770377940255105,3.9912856941625394,7735.9443359375,11.580444444444444,7.377777777777778,177.61528847702104,-19.92624855334786,66.60071621521004,1553.0,1178.0,1350.0,1528.0,1471.0,990.0,160.0,294.53,1649332954.616441,1649332955.9292843,3efacced-b73a-4351-893b-d4db6dd70bbe
-0.5082716233552265,-0.3197455772171432,-0.8733847640865116,1.1150927041719343,-0.660928035685165,-0.3261358454343345,-1.3351278670258702,-1.366829405103249,-31.395800908608827,19.89872894127971,46.46792640243573,-3.1682209747779755,-1.581194863479423,3.998169309941472,7735.9443359375,11.57,7.39,177.78094143441632,-19.98165822583024,66.64723397746232,1553.0,1178.0,1350.0,1528.0,1471.0,990.0,160.0,294.53,1649332956.0378115,1649332957.1656933,3efacced-b73a-4351-893b-d4db6dd70bbe
-0.5158189769489743,-0.3051899682299147,-0.8098633807670294,1.419629658245497,-0.5836268241213698,-0.623480535043844,-1.3701823254237533,-1.3863289397304974,-31.44225418922703,22.03714861861616,46.175107940567344,-4.506086228001612,-1.557110286661694,3.8593140181918506,7735.9443359375,11.549666666666669,7.385555555555555,177.83925189772555,-19.66731816891492,66.81182977335605,1553.0,1088.0,1350.0,1528.0,1471.0,990.0,160.0,294.53,1649332958.4802558,1649332959.6169958,aed0e8a8-a782-4f09-b0ca-3b565211d547
-0.51241346376977,-0.3054923883007819,-0.8334258554526502,1.4003010742824058,-0.6086225036231316,-0.6137767939049631,-1.3898396457049444,-1.422658826464626,-31.33857664587298,21.932656230438447,44.81736538112351,-4.44271026608377,-1.5460604568934608,3.9514594655636746,7728.96875,11.5506,7.37,177.7978509337445,-19.77243663957069,66.85503701880862,1553.0,1088.0,1350.0,1528.0,1471.0,990.0,160.0,294.53,1649332959.725652,1649332960.848141,aed0e8a8-a782-4f09-b0ca-3b565211d547
-0.5210390107927089,-0.3271482943606908,-0.837791224755194,1.4243500405644405,-0.6023111272428476,-0.614197552192168,-1.3920354803778172,-1.4076561479955063,-31.67528823384636,21.73747917974777,44.868080611655,-4.4995769682717714,-1.6285905909648568,3.949446682207957,7735.9443359375,11.545111111111112,7.360000000000001,177.99394050422822,-19.735777724148395,66.859411906754,1553.0,1088.0,1350.0,1528.0,1471.0,990.0,160.0,294.53,1649332960.9650652,1649332962.0841372,aed0e8a8-a782-4f09-b0ca-3b565211d547
-0.4746898445830789,-0.3708677168796025,-1.0156011456618672,-0.0478436635827372,-0.886862184406346,0.8562869329306209,-1.1158731717393635,-1.144366417776558,-30.91285081301652,14.739798131719752,55.55458647419433,2.072551381479498,-1.7228079042504596,4.186472875765711,7750.712782118056,11.610555555555557,7.38,177.96620082927905,-18.9010885750752,66.96641744484096,1553.0,1435.0,1350.0,1528.0,1471.0,990.0,160.0,294.53,1649332963.8026867,1649332964.948665,124ad99c-c395-431d-925b-ea0e100126e5
-0.4840122725461764,-0.3655424939078118,-1.004621976788041,-0.041492842480716,-0.8740290497194974,0.8478060245036467,-1.1062351700567643,-1.131322901258785,-31.020815816224832,14.542093754220064,56.004124351205085,2.03842114661794,-1.706144427693584,4.141645115550471,7756.9462890625,11.615111111111112,7.37,178.13039402346672,-18.890849172871967,67.02292208202465,1553.0,1435.0,1350.0,1528.0,1471.0,990.0,160.0,294.53,1649332965.060691,1649332966.1725037,124ad99c-c395-431d-925b-ea0e100126e5
-0.4929270907971679,-0.3985588764857205,-1.007422650941037,-0.0273185484945167,-0.8678097134456764,0.8678840821103347,-1.100752159762879,-1.1272599513998929,-31.16319661246253,14.52086037974906,56.1262808001784,2.0512330765131,-1.831973936291145,4.125395874485348,7763.97314453125,11.612333333333332,7.36888888888889,178.173052349383,-18.85815514431736,67.02544393964821,1553.0,1435.0,1350.0,1528.0,1471.0,990.0,160.0,294.53,1649332966.2806263,1649332967.314616,124ad99c-c395-431d-925b-ea0e100126e5
