raw_voltage_G-,raw_voltage_G0,raw_voltage_G1,raw_voltage_G2,raw_voltage_G3,raw_voltage_G4,raw_voltage_G5,raw_voltage_G6,load_x,load_y,load_z,load_l,load_m,load_n,rpm,voltage,current,roll,pitch,yaw,aileron1_pwm,elevator_pwm,throttle_pwm,rudder_pwm,aileron2_pwm,pbaro,pdiff,Tt,sample_start_time,sample_end_time,uid
0.1505175695477907,0.3160727959397751,0.2363522551941941,-0.1452623581534639,-0.0194293289479985,0.0841166548155927,-0.0833845898518281,-0.098900052455073,-10.050756572683955,25.62268572653404,37.2798258697937,0.6992056140477766,0.9594947056642008,-0.1049824903205876,5221.545030381944,11.961666666666666,0.08,179.06141407359152,-3.951065221001585,100.51662311337512,1553.0,1435.0,1200.0,1528.0,1471.0,988.0,161.0,292.25,1649317774.243208,1649317775.431386,e91b2ea9-e109-45c7-901f-fbf0b7fac439
0.1492552947392409,0.3161385394125586,0.240770216943333,-0.1384907790474306,-0.0128681293265798,0.0817235921171394,-0.0773098918563993,-0.0963886517028844,-9.967591698468995,25.41891238526008,37.87726838156036,0.6775593049916065,0.9533004382429172,-0.1275385648215208,5627.6015625,11.961444444444444,0.08,179.08638828083673,-3.964610007876282,99.91811943934378,1553.0,1435.0,1200.0,1528.0,1471.0,988.0,161.0,292.25,1649317775.539828,1649317776.655999,e91b2ea9-e109-45c7-901f-fbf0b7fac439
0.1464546225482847,0.3266443470160207,0.2383377082621417,-0.1477343131780063,-0.0173123887569063,0.079803882489251,-0.0797555494528014,-0.1031996762847073,-9.911415094466788,25.26846100787252,37.840448635215495,0.6930005349945939,0.9936136497865584,-0.1134481920894381,5657.70654296875,11.961444444444444,0.0755555555555555,179.0931046335206,-3.983570707875975,99.3565784723708,1553.0,1435.0,1200.0,1528.0,1471.0,988.0,161.0,292.25,1649317776.7654965,1649317777.8840716,e91b2ea9-e109-45c7-901f-fbf0b7fac439
0.365156875560514,0.6912313642539444,0.2935753780753417,-0.2820088134295737,-0.0496187363995296,-0.1466166738809477,-0.1144023659905458,-0.1288790816029348,-9.006777391769646,24.80699493053708,38.938449790299536,0.4874154399028342,2.3649282842151083,-0.0501027202833819,5672.6845703125,11.933777777777776,0.0788888888888888,178.75249372435076,-4.0349782689596845,98.4822011810329,1637.0,1435.0,1200.0,1528.0,1535.0,988.0,161.0,292.25,1649317779.6140766,1649317780.7524548,dcfcb16f-0d4f-42af-8b19-7b1fcc2f872a
0.3754523039513703,0.7049717504959545,0.2819124852184156,-0.2974190875931331,-0.0615183069623882,-0.1494699411812667,-0.1268936281795248,-0.1458934958381989,-9.247254524286,24.500198519123952,38.34179477048881,0.5129348852768666,2.4246060294298863,0.0004313112206372,5667.685546875,11.938,0.0733333333333333,178.75875473108988,-4.047405181540221,98.20031396161714,1637.0,1435.0,1200.0,1528.0,1535.0,988.0,161.0,292.25,1649317780.8609264,1649317781.9817226,dcfcb16f-0d4f-42af-8b19-7b1fcc2f872a
0.3673001128964303,0.7055371443805096,0.291248058985898,-0.2951969576559602,-0.0532214793095029,-0.1511661231283648,-0.118780882085419,-0.1408312474730825,-9.23975918371681,24.604988273208697,38.536069846707775,0.5053050119720327,2.425271705980838,-0.0348213660483085,5669.766764322917,11.93477777777778,0.0777777777777777,178.7509409946794,-4.0614653156741705,97.9813547928445,1637.0,1435.0,1200.0,1528.0,1535.0,988.0,161.0,292.25,1649317782.091029,1649317783.2165625,dcfcb16f-0d4f-42af-8b19-7b1fcc2f872a
0.6347182732947172,1.1740909013356542,0.3302733868631053,-0.4654726062839101,-0.1248555802227144,-0.4522450147483156,-0.2001581698201404,-0.2312153936982997,-8.313584741738072,24.05342830051083,38.54888540132268,0.2115957859148702,4.199393574419124,0.1815091716553764,5679.78515625,11.916444444444444,0.07,178.30116544873502,-4.080526144349822,97.5975596331923,1723.0,1435.0,1200.0,1528.0,1599.0,988.0,161.0,292.25,1649317785.1444275,1649317786.2803228,8d0e7f90-e612-4a30-891b-3d18c91c5160
0.6395832904324454,1.1697649803931554,0.3478137464576784,-0.466590245743039,-0.1085511957670581,-0.4497730592632279,-0.1798171347173033,-0.213622436207774,-8.091419620630393,24.08220478363562,38.29589943481989,0.2208073811720958,4.185088577509278,0.105684773991055,5681.877170138889,11.909444444444444,0.0744444444444444,178.29746500402467,-4.070535712028209,97.52815276866646,1723.0,1435.0,1200.0,1528.0,1599.0,988.0,161.0,292.25,1649317786.388778,1649317787.5130975,8d0e7f90-e612-4a30-891b-3d18c91c5160
0.6346656785140816,1.1789033240462523,0.3329162746661196,-0.473992963507878,-0.1245268627155229,-0.4524159478255455,-0.1958059508564095,-0.2214985064909056,-8.1081801562741,23.959654540766618,38.10678304153744,0.2299743972139641,4.221122617407603,0.1713284478809878,5673.519422743056,11.911666666666669,0.07,178.26929730388756,-4.067511218886363,97.4359953029252,1723.0,1435.0,1200.0,1528.0,1599.0,988.0,161.0,292.25,1649317787.6213825,1649317788.7391984,8d0e7f90-e612-4a30-891b-3d18c91c5160
0.8516358347693423,1.550526962463228,0.3892569167544474,-0.640286091184808,-0.1648341940961936,-0.6755347242153257,-0.2343326463888405,-0.2656745906870675,-7.430985244557893,24.027766115140484,36.44871010933088,0.1070467532999242,5.648886740962614,0.2458992825177294,5676.44140625,11.86611111111111,0.07,178.0894386913835,-4.044538019908632,97.35507046272896,1813.0,1435.0,1200.0,1528.0,1662.0,988.0,161.0,292.25,1649317789.648576,1649317790.7766762,f672a9c6-a42b-4b28-800f-2f9f49d6c539
0.8574440179705385,1.5436744681105312,0.3865235053154401,-0.6382859715701164,-0.1661161920531755,-0.6726303784153435,-0.233595307837416,-0.2551460237409147,-7.245184470722256,23.93329951387628,36.16156029476634,0.1083468441707935,5.6239945268817415,0.2492736287775025,5676.44140625,11.855222222222222,0.07,178.09858507359206,-4.044589104031799,97.26126768030764,1813.0,1435.0,1200.0,1528.0,1662.0,988.0,161.0,292.25,1649317790.8855011,1649317791.8532574,f672a9c6-a42b-4b28-800f-2f9f49d6c539
0.8474510096961897,1.550248816951746,0.384893067117214,-0.6503827763817216,-0.1704289647667345,-0.6685411323626994,-0.236146155175814,-0.2605895850656683,-7.359307560863808,23.99968185462464,36.05886422686544,0.1451084085933119,5.651757400348044,0.2614396446147942,5672.6845703125,11.862888888888888,0.07,178.07938768856488,-4.032520396927733,97.17173831957705,1813.0,1435.0,1200.0,1528.0,1662.0,988.0,161.0,292.25,1649317791.9631586,1649317793.046872,f672a9c6-a42b-4b28-800f-2f9f49d6c539
-0.1525861824316503,-0.2170279486575347,0.2028230812797627,0.0709548099337992,0.065156234851344,0.4104935767065756,0.010497104261136,-0.019587113273102,-10.595052960254,27.10523698131419,37.94219564769442,0.9528752614049044,-1.0706967687511473,-0.3708189847095036,5661.44384765625,11.957,0.08,179.1194782706357,-4.010830230012841,97.01221014459249,1470.0,1435.0,1200.0,1528.0,1403.0,988.0,161.0,292.25,1649317795.179355,1649317796.3199308,e56b31f2-8794-4c4c-854c-71b45d274b29
-0.1333405354859444,-0.2132188721054727,0.2017615769876323,0.0617532511820062,0.0640416300160601,0.410547688642524,0.0131030747757002,-0.0046097365000297,-10.425469275551215,26.79975802762424,37.28503998395934,0.9716560172755012,-1.0507258989482955,-0.3718669255977487,5658.952311197917,11.958333333333334,0.0766666666666666,179.19952960552806,-3.994312271278812,96.94022829874956,1470.0,1435.0,1200.0,1528.0,1403.0,988.0,161.0,292.25,1649317796.4286492,1649317797.5413249,e56b31f2-8794-4c4c-854c-71b45d274b29
-0.1236721973457734,-0.2027353143579377,0.1935138047559122,0.0576088832887164,0.0574248015043991,0.4066804551048375,0.0036729308271014,-0.0116453006455493,-10.669962442655114,26.51012780014896,37.58956449157228,0.9699092993166712,-1.0123922302649653,-0.336575860843003,5667.685546875,11.958333333333334,0.07,179.18182120173998,-3.996838587498072,96.85809072052068,1470.0,1435.0,1200.0,1528.0,1403.0,988.0,161.0,292.25,1649317797.6495311,1649317798.7722292,e56b31f2-8794-4c4c-854c-71b45d274b29
-0.3858966794805373,-0.6465565042720588,0.1640475774712012,0.2293045543701469,0.1207094758043192,0.6843282993966965,0.0779104701081832,0.0617375735549615,-11.04194769684416,28.20964623235082,37.8690893012388,1.2161741108972064,-2.699814725661929,-0.5410649747601137,5683.9697265625,11.906555555555554,0.0777777777777777,179.29214697067346,-3.9732483473334472,96.74851930803555,1385.0,1435.0,1200.0,1528.0,1331.0,988.0,161.0,292.25,1649317799.6849544,1649317800.8231435,7ffa6f96-0a24-4f66-aef9-522c1b8726cb
-0.392221203630871,-0.6620851201542718,0.1518718851938213,0.2316187248153729,0.1157129713979348,0.6942950101803924,0.0723485716762285,0.0374782286922797,-11.175843810450084,27.8761902984096,37.362633794689856,1.2303855195642803,-2.753682543460169,-0.5122735523855778,5678.94921875,11.904333333333334,0.0733333333333333,179.3047190722057,-3.9620478805957497,96.58937058800488,1385.0,1435.0,1200.0,1528.0,1331.0,988.0,161.0,292.25,1649317800.9315193,1649317802.0581915,7ffa6f96-0a24-4f66-aef9-522c1b8726cb
-0.4006758169565346,-0.669343203114283,0.1501362572719523,0.2373121100080102,0.1134250982319906,0.695793961407154,0.0672074314401787,0.0388851394450186,-11.33370087049666,28.26715881563176,37.279746049504666,1.2233236618517342,-2.779857238541763,-0.5006877147386671,5672.6845703125,11.908,0.0766666666666666,179.31091633051264,-3.9462731318207824,96.42232692820362,1385.0,1435.0,1200.0,1528.0,1331.0,988.0,161.0,292.25,1649317802.1710331,1649317803.2800975,7ffa6f96-0a24-4f66-aef9-522c1b8726cb
-0.6664110427997924,-1.1570023238678626,0.1168832053149992,0.4273370552033443,0.1833630116589816,0.996977971586659,0.1462047972677664,0.1282699757621186,-11.924362275093284,30.11507179746201,37.20167273135149,1.4817591166759676,-4.629475782384862,-0.7217157721741065,5674.771701388889,11.822333333333336,0.07,179.47716313491074,-3.9337855538794906,96.1983369456523,1297.0,1435.0,1200.0,1528.0,1253.0,988.0,161.0,292.25,1649317804.190542,1649317805.3278944,ed936fc2-0780-45ed-9846-5858cacf3f13
-0.660283748091704,-1.1512957852410388,0.0859837695956902,0.4223799971290656,0.1571445122244137,0.9944534220754752,0.1149634956890041,0.0921636563924434,-12.296062627131596,29.707528636207485,36.756658186473246,1.4827697445269834,-4.602853287760852,-0.599478240832149,5676.023980034723,11.83188888888889,0.0788888888888888,179.5027201849651,-3.937628578788746,95.870723886473,1297.0,1435.0,1200.0,1528.0,1253.0,988.0,161.0,292.25,1649317805.4363947,1649317806.766648,ed936fc2-0780-45ed-9846-5858cacf3f13
-0.6680414817700314,-1.1467200354596252,0.0920453184922825,0.4232346623020233,0.1607735522716977,0.9911005047651515,0.1185793871079599,0.0930051730116549,-12.2493217381137,29.852556798246805,37.06432881329237,1.474643182931009,-4.58846763968881,-0.6168636748336139,5672.6845703125,11.830333333333336,0.0755555555555555,179.51667653816918,-3.930251073279616,95.67041948214349,1297.0,1435.0,1200.0,1528.0,1253.0,988.0,161.0,292.25,1649317806.8751123,1649317807.9218311,ed936fc2-0780-45ed-9846-5858cacf3f13
0.1315702987440261,0.2783097426800824,0.2389293995599478,-0.1349669282218972,-0.0062543349790151,0.1109136973964049,-0.0675535588051998,-0.0934696405485467,-10.102098520738783,25.40114258316716,37.25077594185205,0.7348273925591918,0.8173731828579668,-0.1534452685491504,5675.606553819444,11.960666666666668,0.07,178.9879303450411,-3.9839174348400914,95.29741905701955,1553.0,1435.0,1200.0,1528.0,1471.0,988.0,161.0,292.25,1649317809.5904224,1649317810.6531684,8eb05f28-3f5a-4451-a23d-f19d254dc919
0.1305057601152467,0.2905658440125202,0.2331793738134025,-0.1443146404854349,-0.0150654788402066,0.1051692343855515,-0.0751069794339878,-0.0847409286724733,-10.028425065724424,25.324885211258195,36.86718271402204,0.7421890719615555,0.8670044382100642,-0.1219089699518716,5674.354275173611,11.960222222222225,0.0755555555555555,178.9316495862802,-3.967756306058326,95.55099590123554,1553.0,1435.0,1200.0,1528.0,1471.0,988.0,161.0,292.25,1649317810.7613227,1649317811.8772876,8eb05f28-3f5a-4451-a23d-f19d254dc919
0.1408664267465154,0.284318696515795,0.2463978586037083,-0.1345593185973057,-0.0025069565336172,0.106548330316966,-0.062517608002975,-0.0795320218324321,-9.930159078030789,25.576050858656632,37.56547979787997,0.7257664454506034,0.8363304970509716,-0.1746768103422062,5680.203125,11.961999999999998,0.07,178.9047295340314,-3.957375746612245,95.77865673101076,1553.0,1435.0,1200.0,1528.0,1471.0,988.0,161.0,292.25,1649317811.985467,1649317813.110367,8eb05f28-3f5a-4451-a23d-f19d254dc919
0.1364732452075199,0.2756597748299828,0.2189560251913397,-0.4876600251946087,-0.0624892876683154,0.4564669778384823,0.0089941071676126,-0.0175182165265436,-10.014973239054637,24.74745032861921,40.059108765940096,2.3020845447220384,0.8240741356038185,-0.1577358585984529,5683.9697265625,11.943666666666664,0.0711111111111111,178.89984367204517,-3.835987442816793,96.04755596626484,1553.0,1522.0,1200.0,1528.0,1471.0,988.0,161.0,292.25,1649317814.2254589,1649317815.3635986,3243d179-e872-4154-802f-e3ec13e79f79
0.1713582524633428,0.2893414981730819,0.2188644900308085,-0.4977658123297585,-0.0663833248254239,0.448848320460107,0.0063026701247026,-0.0062806325838368,-9.956511480616546,24.70409008140884,39.54869005331901,2.307416650486647,0.8807366672738967,-0.1475695734174584,5683.132703993056,11.95411111111111,0.07,178.886011780066,-3.8229109033551967,96.153868619606,1553.0,1522.0,1200.0,1528.0,1471.0,988.0,161.0,292.25,1649317815.4726026,1649317816.5924451,3243d179-e872-4154-802f-e3ec13e79f79
0.1500968112847659,0.2773498879135749,0.2224672326350016,-0.4884565329845924,-0.0585861476176571,0.4541077985039023,0.0134818583729834,-0.0051761422669272,-9.960155355651988,24.6118680427234,39.88712157596697,2.2978561016915937,0.8318677774696316,-0.1741789120108915,5683.9697265625,11.950555555555557,0.07,178.8864079310378,-3.815406185572776,96.27155050227556,1553.0,1522.0,1200.0,1528.0,1471.0,988.0,161.0,292.25,1649317816.7010758,1649317817.8263786,3243d179-e872-4154-802f-e3ec13e79f79
0.1825740899601937,0.2859754321354443,0.2065573108976148,-0.9470569484861668,-0.1280507135630954,0.8851746159584698,0.1160942835527261,0.0940176228304942,-9.622801479150304,24.0498290238102,42.672243743518536,4.297106724610373,0.8925920282765493,-0.2025595162221654,5680.203125,11.934333333333331,0.07,178.87984032469592,-3.684966031284157,96.3235214116702,1553.0,1613.0,1200.0,1528.0,1471.0,988.0,161.0,292.25,1649317818.7312267,1649317819.8682692,a11c37a6-707c-4058-a979-a9dc6ba992f4
0.1897532778041525,0.2934964859348306,0.2175759178669694,-0.9491212949060028,-0.1204244692296056,0.8824002412811328,0.125311519432465,0.1088362033171006,-9.518659390042735,24.153180945544204,43.131052437640335,4.296888338699642,0.916951489737963,-0.2395202222081869,5683.551215277777,11.930555555555555,0.07,178.89084755399833,-3.658075718817425,96.3195606608615,1553.0,1613.0,1200.0,1528.0,1471.0,988.0,161.0,292.25,1649317819.976424,1649317821.0970142,a11c37a6-707c-4058-a979-a9dc6ba992f4
0.1735803820491581,0.2914452894465686,0.1917387308572088,-0.9528292294845144,-0.1436056222863237,0.8867393106778332,0.1007760527101044,0.0795540568768992,-9.655913273530356,24.00235713205636,42.78560406874449,4.312592493679774,0.9121074335687054,-0.1385964620040708,5681.878363715277,11.937777777777775,0.07,178.90634145867554,-3.651493930346602,96.3362027962292,1553.0,1613.0,1200.0,1528.0,1471.0,988.0,161.0,292.25,1649317821.2052193,1649317822.3255155,a11c37a6-707c-4058-a979-a9dc6ba992f4
0.1957622317764793,0.2874349373386595,0.2036120030481309,-1.3501831376070927,-0.1809347740052022,1.278478399489878,0.2164845761077035,0.1955781499461928,-9.421547027384152,24.045354236426675,46.387550797284,6.090783984386646,0.9131596276185412,-0.2674244775833962,5683.9697265625,11.902111111111113,0.0622222222222222,178.90861211711965,-3.5230373293975727,96.34921430659809,1553.0,1710.0,1200.0,1528.0,1471.0,988.0,161.0,292.25,1649317824.0909662,1649317825.1365936,d548d350-84ae-4da1-8aba-5039ed7e3c90
0.2009691152782437,0.2846079677934448,0.2046113039467341,-1.3468302168371016,-0.178436521462715,1.2764403515587943,0.2210208761292984,0.194552551543505,-9.151587607161687,23.818565911819505,46.16570545240612,6.077287729348385,0.902258964177455,-0.2789917605865057,5687.74169921875,11.9065,0.07,178.94818661262565,-3.5179899441095897,96.25071842530704,1553.0,1710.0,1200.0,1528.0,1471.0,988.0,161.0,292.25,1649317825.2468224,1649317826.4234934,d548d350-84ae-4da1-8aba-5039ed7e3c90
0.1970376552681683,0.2785332705211519,0.2002853830160194,-1.3475270983325174,-0.1820129672278347,1.285434059818953,0.2182727986929355,0.1946182949302,-9.214314433642391,23.90795894928478,46.478697341055565,6.099465299479758,0.8769581586224793,-0.2646913858172309,5684.388834635417,11.900222222222222,0.0622222222222222,178.94884648479044,-3.5160622595829776,96.1748843527722,1553.0,1710.0,1200.0,1528.0,1471.0,988.0,161.0,292.25,1649317826.5322392,1649317827.6575334,d548d350-84ae-4da1-8aba-5039ed7e3c90
0.2060839578891288,0.2849103878003677,0.1834682011751817,-1.5649015827723458,-0.2315572597341588,1.4900146339470837,0.2471604829073722,0.2158271412353227,-9.25187327134604,24.56209664347522,48.03221793009948,7.05325645386738,0.9130816699107972,-0.2146544656158159,5683.9697265625,11.855333333333334,0.0655555555555555,178.95736145395574,-3.4604881882418224,96.01892229544433,1553.0,1814.0,1200.0,1528.0,1471.0,988.0,161.0,292.25,1649317829.79082,1649317830.9273183,4beb1b8f-69b7-4247-8a09-9d8e42013003
0.1958699499385057,0.2805020347977055,0.1734033803021788,-1.568837599550982,-0.2395289105995367,1.4919267582466762,0.2379331329843629,0.2077037758702822,-9.422082799183231,24.486440260674826,47.10286189749635,7.065195421949179,0.9058344950145104,-0.1789062281148156,5680.203125,11.865555555555556,0.06,178.97616875929032,-3.453509940491989,95.8751248050282,1553.0,1814.0,1200.0,1528.0,1471.0,988.0,161.0,292.25,1649317831.035884,1649317832.1099863,4beb1b8f-69b7-4247-8a09-9d8e42013003
0.2039670178848077,0.2758640853233171,0.188398962136219,-1.5597209900325015,-0.2241413941399965,1.4893440503993856,0.2532220316030564,0.2364311473692756,-9.298210566416834,24.55150764537172,47.39807355836603,7.040114327064183,0.8847754675852019,-0.2420783095883705,5676.44140625,11.86411111111111,0.0655555555555555,178.99412001424895,-3.4307205874394184,95.73858856460976,1553.0,1814.0,1200.0,1528.0,1471.0,988.0,161.0,292.25,1649317832.2190082,1649317833.3853714,4beb1b8f-69b7-4247-8a09-9d8e42013003
0.1027746545456647,0.2789671774614272,0.2601382454840257,0.3321930964432171,0.0587659685442339,-0.3410727659220356,-0.1793437815965763,-0.2095463398600492,-10.34150427823429,26.89310898189582,33.87898505187649,-1.3243566108056006,0.7952699480941154,-0.1131095205658374,5680.623806423611,11.96322222222222,0.08,178.97928484337166,-4.058804814696843,95.6871526867001,1553.0,1349.0,1200.0,1528.0,1471.0,988.0,161.0,292.25,1649317834.295997,1649317835.4328325,ae44dcc7-3ae1-4802-9188-8904bfc658d5
0.1101116269452966,0.2996500753874598,0.2736156583585279,0.3225814001317422,0.0638282165701426,-0.3493695946671495,-0.171743834535787,-0.2042474152967624,-10.196719235323563,27.145703778043163,34.39925143099718,-1.3188176796296742,0.8692496151767216,-0.1460466594940791,5676.859375,11.960666666666668,0.08,178.96594776065234,-4.0452115050199176,96.01152064711374,1553.0,1349.0,1200.0,1528.0,1471.0,988.0,161.0,292.25,1649317835.541459,1649317836.6620977,ae44dcc7-3ae1-4802-9188-8904bfc658d5
0.1200879471772746,0.2775815072333948,0.2655453936505045,0.3289119912309968,0.063257765460817,-0.334945472460799,-0.1729636290425539,-0.1907270135812739,-10.355739105350567,26.97616951427661,34.17178817631764,-1.3023270275396903,0.7883266534543986,-0.1355095329280877,5684.391221788194,11.961333333333334,0.0744444444444444,178.95911908930216,-4.0359154278320535,96.28116285516752,1553.0,1349.0,1200.0,1528.0,1471.0,988.0,161.0,292.25,1649317836.770852,1649317837.890797,ae44dcc7-3ae1-4802-9188-8904bfc658d5
0.1077974564285629,0.3059088544027392,0.2870536251483273,0.7209474148901052,0.1128597043595939,-0.7463157015507114,-0.2806282001425563,-0.3140653397051213,-10.825678685013171,28.74746595504894,30.60890955551097,-3.099058120530044,0.8826008438210137,-0.0783115691103298,5687.74169921875,11.95722222222222,0.07,178.91075072523975,-4.159330021081275,96.56534653596424,1553.0,1264.0,1200.0,1528.0,1471.0,988.0,161.0,292.25,1649317838.5913851,1649317839.7353246,8064fb00-4b15-4845-bd97-227bf0f913d3
0.0995926700932397,0.2979801910536634,0.2920895755001888,0.7196851401722967,0.120078338454765,-0.7341531524546723,-0.2674663534805413,-0.2918834860704314,-10.545159065623292,28.4805950615092,31.13974838538705,-3.070172403716437,0.8466434150914839,-0.1136638621720723,5682.714192708333,11.949666666666666,0.07,178.92022495652847,-4.151535399714082,96.74929719069102,1553.0,1264.0,1200.0,1528.0,1471.0,988.0,161.0,292.25,1649317839.8433683,1649317840.963248,8064fb00-4b15-4845-bd97-227bf0f913d3
0.0980411239452034,0.286922138207407,0.3030161413755637,0.7279556693136687,0.1319384621971295,-0.7266583924762934,-0.2563557037603066,-0.2788136803844835,-10.638928006752968,28.755141284807326,31.82919024028669,-3.069560194541568,0.7994012244037921,-0.1610024548911955,5695.30029296875,11.934,0.07,178.93504191356794,-4.143866804823451,96.91820549213568,1553.0,1264.0,1200.0,1528.0,1471.0,988.0,161.0,292.25,1649317841.0722158,1649317842.1928456,8064fb00-4b15-4845-bd97-227bf0f913d3
0.0622898191547866,0.2896833642618647,0.3179662080275638,1.1186822973193091,0.1811145846546693,-1.1069057534549926,-0.3609798956554123,-0.3835693599594301,-11.311962241637811,30.51278949302516,28.94553711221741,-4.793812713768863,0.7929495687681203,-0.1008972840175821,5683.9697265625,11.92388888888889,0.07,178.93795612761383,-4.293727653379616,97.20923833485011,1553.0,1178.0,1200.0,1528.0,1471.0,988.0,161.0,292.25,1649317844.1272671,1649317845.2637403,cdeb967f-dccc-4ea2-b31c-291e5b299847
0.0710205534399905,0.2977961093307774,0.324395920063777,1.1136069007898746,0.1830342942381533,-1.1082995162807785,-0.3570221373508472,-0.3715383006031899,-11.214881710779236,30.703571052290428,29.25002772324957,-4.7838135576750105,0.8210272254830095,-0.116555218614795,5683.9697265625,11.916777777777778,0.07,178.94579111350174,-4.299666929749765,97.30571931033602,1553.0,1178.0,1200.0,1528.0,1471.0,988.0,161.0,292.25,1649317845.3717754,1649317846.4932995,cdeb967f-dccc-4ea2-b31c-291e5b299847
0.0836170043326765,0.3065399917875687,0.3179399106750568,1.1043370703162705,0.1782481690234339,-1.112493953456826,-0.3609667468653603,-0.3761666434526634,-11.223474033226484,30.2207641962441,28.624415640460228,-4.775954654119741,0.8601515492684861,-0.0953333028039539,5680.203125,11.930444444444444,0.0744444444444444,178.9485201535301,-4.304559384765871,97.41120247514796,1553.0,1178.0,1200.0,1528.0,1471.0,988.0,161.0,292.25,1649317846.6017818,1649317847.927173,cdeb967f-dccc-4ea2-b31c-291e5b299847
0.0724011665389006,0.3008466066822985,0.3306546990081371,1.2836852833600942,0.1981552942818173,-1.2762610986670488,-0.4106688285065693,-0.438162758696651,-11.59668922031548,32.1568183168823,27.86487185302277,-5.53536841845978,0.8269285165497565,-0.0702572278183571,5668.93310546875,11.909333333333333,0.0611111111111111,178.93179985044193,-4.310414232408779,97.55720308102632,1553.0,1168.0,1200.0,1528.0,1471.0,988.0,161.0,292.25,1649317849.656657,1649317850.7937114,01bc82bc-022c-4673-bc88-a2f7817932f1
0.0758987197119016,0.3045282413747493,0.3304837660038778,1.2725088914819616,0.1977871308560729,-1.2721849992909593,-0.4065138395175106,-0.4306680001463747,-11.462204669293255,31.865027115317176,27.512438610118235,-5.502928991317398,0.8442689116403307,-0.0753743831089727,5662.275444878473,11.880888888888888,0.07,178.97582421419222,-4.359100342563192,97.53052056757872,1553.0,1088.0,1200.0,1528.0,1471.0,988.0,161.0,292.25,1649317850.9022691,1649317852.0223217,01bc82bc-022c-4673-bc88-a2f7817932f1
0.0692980742463944,0.2995843319091862,0.3306546990372305,1.2780313440826503,0.1977476847514303,-1.2699234218820905,-0.4066584752566966,-0.4306154048243021,-11.402295010230429,32.0376105837972,27.86570933675151,-5.509065166586466,0.8215050209241532,-0.0754281963100977,5661.44384765625,11.881222222222222,0.0611111111111111,178.98727920034017,-4.368427060738584,97.5318038842328,1553.0,1088.0,1200.0,1528.0,1471.0,988.0,161.0,292.25,1649317852.1300633,1649317853.2514722,01bc82bc-022c-4673-bc88-a2f7817932f1
0.1553618525567284,0.2983033455448135,0.2446718394879564,-0.1334037503917648,-0.0060763218618705,0.0912113877996773,-0.0707325091258978,-0.0990907084895212,-10.069247749119947,25.586657750455856,37.446815627410686,0.6885910497256243,0.8905660707739821,-0.1543328934151378,5664.772406684027,11.962222222222223,0.08,179.01352078713137,-3.975530104834924,97.48473325611268,1553.0,1435.0,1200.0,1528.0,1471.0,988.0,161.0,292.25,1649317855.186118,1649317856.2951653,0afeb264-8601-4cfc-9a9a-c9a2d9b82eef
0.1499916217297598,0.2965995780536612,0.2393370091108293,-0.1279323752119654,-0.008765736028544,0.0911117611384293,-0.0745355168371327,-0.096270312864374,-10.053363684060272,25.41317571967362,37.87812546896561,0.6746861700427167,0.8792260097145942,-0.1374507300446158,5678.94921875,11.962333333333332,0.0733333333333333,179.02258217143026,-3.9437465310103073,97.49068007415003,1553.0,1435.0,1200.0,1528.0,1471.0,988.0,161.0,292.25,1649317856.4034736,1649317857.355019,0afeb264-8601-4cfc-9a9a-c9a2d9b82eef
0.1297689274360521,0.2922079137877225,0.2303170039352522,-0.1285372152961403,-0.0189428271479666,0.0932024038212487,-0.0855541248068335,-0.1189123692804913,-10.114523444105648,25.68491806229746,37.40462650363689,0.6819945063860243,0.8668913388401546,-0.0969645763554043,5680.203125,11.963,0.08,179.02717509419216,-3.9546317655450633,97.49944851922452,1553.0,1435.0,1200.0,1528.0,1471.0,988.0,161.0,292.25,1649317857.4628675,1649317858.5763428,0afeb264-8601-4cfc-9a9a-c9a2d9b82eef
0.2068728796364677,0.3226997384029389,0.4204997336959055,-0.1531778738721015,0.1511224094988246,0.0761748423482513,0.1120050390727339,0.0776474962227612,-8.732007484872605,25.572896107043263,37.49241269418052,0.7087517310567266,0.9857795287380736,-0.8645116473687273,5683.9697265625,11.955444444444446,0.0777777777777777,178.9863502946131,-3.958932128537493,97.53795333121552,1553.0,1435.0,1200.0,1446.0,1471.0,988.0,161.0,292.25,1649317859.6917412,1649317860.8278282,50b9a09a-76a2-457b-bfcf-c00abb55be4f
0.1996279483019615,0.3178873159040615,0.4310449872238623,-0.1511398257597412,0.1611285670695182,0.0783443772089282,0.1239177576698336,0.0966736590814586,-8.605999130811023,25.65755580669445,37.482077592149714,0.7101777128742506,0.967348783304778,-0.910001545876238,5683.9697265625,11.956333333333331,0.0733333333333333,179.00049333965444,-3.952311588229504,97.5732661681344,1553.0,1435.0,1200.0,1446.0,1471.0,988.0,161.0,292.25,1649317860.9360726,1649317862.0570323,50b9a09a-76a2-457b-bfcf-c00abb55be4f
0.1953677709063331,0.3198596202142536,0.4113613905607861,-0.151205569240253,0.1446926972351234,0.0738212257443868,0.1034452379768248,0.074991459391371,-8.812300434225124,25.42473955215181,36.95480793470065,0.6974505133417703,0.9796357621505,-0.832190196259896,5685.22705078125,11.955666666666666,0.07,179.00683175520422,-3.9627484018724974,97.58290811851272,1553.0,1435.0,1200.0,1446.0,1471.0,988.0,161.0,292.25,1649317862.1648655,1649317863.287017,50b9a09a-76a2-457b-bfcf-c00abb55be4f
0.278743649625401,0.3569520897099689,0.6754792276862303,-0.1743341278480974,0.3808958637707594,0.0459196923614329,0.3737298248631447,0.3560842757354046,-6.982985073631676,25.584165683833927,37.1730460953325,0.7020881832917616,1.1234673779324982,-1.892949736974856,5687.74169921875,11.941555555555558,0.07,178.94043776301226,-3.975543575485787,97.55472448126754,1553.0,1435.0,1200.0,1354.0,1471.0,988.0,161.0,292.25,1649317864.197332,1649317865.3337488,4d60b736-f1be-405c-b88f-565a765bb989
0.2693291836658329,0.3514164890085638,0.6664723716365072,-0.1626449358974929,0.3747685717668369,0.045249108856634,0.3657485668035697,0.3403452874976597,-6.887526671098928,25.51691086269146,37.771367316639726,0.6734624450031745,1.09471565572202,-1.860592274647259,5683.9697265625,11.947222222222225,0.0788888888888889,178.94579414914136,-3.973991082973817,97.5487328875456,1553.0,1435.0,1200.0,1354.0,1471.0,988.0,161.0,292.25,1649317865.4421432,1649317866.564235,4d60b736-f1be-405c-b88f-565a765bb989
0.2801111139751679,0.3562552088550559,0.6735858156137646,-0.1663134224259634,0.3806723359186573,0.0453280010193293,0.3744793004478242,0.3525341278694022,-6.737148235655087,25.39296197784599,38.03787498860849,0.681565642474698,1.1103379262287232,-1.8896752867220408,5681.460286458333,11.949333333333334,0.0733333333333333,178.9491166567176,-3.971181977950172,97.53989614057942,1553.0,1435.0,1200.0,1354.0,1471.0,988.0,161.0,292.25,1649317866.6719515,1649317867.793183,4d60b736-f1be-405c-b88f-565a765bb989
0.341513877855676,0.3883013185032647,0.9296303543777328,-0.1659847050663228,0.6101992443468612,-0.0056116923971064,0.6293744245119489,0.6148560738032268,-4.838066469801711,25.793959553058965,37.25580793072767,0.5825946973286006,1.2402187149467765,-2.910291545079699,5680.203125,11.938666666666668,0.0766666666666666,178.8880547655377,-3.9596627216193374,97.49061860244753,1553.0,1435.0,1200.0,1252.0,1471.0,988.0,161.0,292.25,1649317869.7273352,1649317871.0698612,700b24ff-1b6b-4a7b-be26-460bb6f2b9f9
0.3585430818465115,0.4018417352619831,0.9190062086531188,-0.1713362248664751,0.5988749308005379,-0.0113165830878228,0.6166914124898336,0.5890528556338758,-4.918884961336296,25.594400430364928,37.54324179104635,0.5799999873432075,1.289009992711668,-2.8603053800676013,5676.44140625,11.943666666666664,0.0777777777777777,178.892743310948,-3.9574714166924942,97.48001738994574,1553.0,1435.0,1200.0,1252.0,1471.0,988.0,161.0,292.25,1649317871.178275,1649317872.2971766,700b24ff-1b6b-4a7b-be26-460bb6f2b9f9
0.345197156125144,0.3851691897453427,0.9044111570175905,-0.165353567530652,0.5880272574366969,-0.0014945067837242,0.6014126289253917,0.5783103718348636,-5.298908370295451,25.874943577557943,37.28415942503038,0.5894765200276101,1.2298066791521824,-2.806593298219351,5683.132703993056,11.930666666666667,0.07,178.8879970883847,-3.9591051599964655,97.48637174260358,1553.0,1435.0,1200.0,1252.0,1471.0,988.0,161.0,292.25,1649317872.4053676,1649317873.4559145,700b24ff-1b6b-4a7b-be26-460bb6f2b9f9
0.0556365788546442,0.2461217360543148,0.0212790353610725,-0.0809389321869189,-0.206140827121529,0.1041815650213855,-0.3081484254056431,-0.341283145320325,-11.579868253397072,26.351368705842788,37.11504668060852,0.5925215911540881,0.6878770837595236,0.7530086961855883,5683.9697265625,11.959666666666667,0.07,179.01864342900888,-3.9634357370896,97.64627557799248,1553.0,1435.0,1200.0,1604.0,1471.0,988.0,161.0,292.25,1649317875.666258,1649317877.017234,06b7ae2d-99b4-432d-9c4b-80ea114049ff
0.0549134005811524,0.2509341586363286,0.014441713239841,-0.0860011804648901,-0.2111110347894948,0.1002369562093524,-0.3142494213792502,-0.3302908333424849,-11.688642489864492,26.047957498294423,36.51671841656514,0.5925747866056906,0.7121841156811318,0.7775273249504926,5695.30029296875,11.961666666666666,0.08,179.0365339711749,-3.977744082195262,97.63710339284704,1553.0,1435.0,1200.0,1604.0,1471.0,988.0,161.0,292.25,1649317877.137583,1649317878.2360294,06b7ae2d-99b4-432d-9c4b-80ea114049ff
0.0755042588525323,0.2499480064700929,0.0164666124544811,-0.0854226377824487,-0.2100722877234638,0.1032348589166183,-0.3120667374985402,-0.3255835996952557,-11.62881809116778,26.15066164993829,36.89568242918799,0.598878611553312,0.7047621532327636,0.7706646050754205,5697.403971354167,11.961333333333332,0.07,179.01209403650475,-3.9616515398964114,97.62199349658316,1553.0,1435.0,1200.0,1604.0,1471.0,988.0,161.0,292.25,1649317878.3443098,1649317879.4667456,06b7ae2d-99b4-432d-9c4b-80ea114049ff
0.0095109521362581,0.2223751918164926,-0.1530858330803343,-0.0425841836411785,-0.3606643269014034,0.099487480547691,-0.4958855483719255,-0.5091788844024193,-12.956242901597616,26.48419366512846,36.77273336066596,0.4869053485189136,0.5958148200648733,1.4644145749262838,5699.0869140625,11.952,0.07,179.0613730924565,-3.950841390010659,97.59099278576028,1553.0,1435.0,1200.0,1676.0,1471.0,988.0,161.0,292.25,1649317881.0887434,1649317882.1280372,0066945c-885b-43c2-9209-ac8d6789a4ff
0.0102998739346613,0.2346297761365364,-0.161448404449916,-0.0555356499435772,-0.3733528209561836,0.0991193170350902,-0.5071671325418763,-0.5317420528312187,-13.004105025579298,26.583115640772984,36.6554312736745,0.5154899450988097,0.644221501708763,1.510288171391427,5694.03955078125,11.956333333333331,0.0733333333333333,179.0500167645965,-3.950541715460824,97.5546060913219,1553.0,1435.0,1200.0,1676.0,1471.0,988.0,161.0,292.25,1649317882.2368698,1649317883.35716,0066945c-885b-43c2-9209-ac8d6789a4ff
0.0150071072457668,0.2347744117822071,-0.1418831429626149,-0.0476332831634403,-0.353090676422908,0.094845990825899,-0.4841963543686327,-0.5110591488919013,-12.652111676175656,26.351701303753376,37.26685325712201,0.4877762016443034,0.6371170914291137,1.4246055798514945,5691.51806640625,11.955999999999998,0.0788888888888888,179.05989473595616,-3.959786850821129,97.49981127816044,1553.0,1435.0,1200.0,1676.0,1471.0,988.0,161.0,292.25,1649317883.4650986,1649317884.5856917,0066945c-885b-43c2-9209-ac8d6789a4ff
-0.0512623234499603,0.2044403709372265,-0.3321053536963125,-0.0119740179412409,-0.5256016096817844,0.0967394030608371,-0.6912357907934821,-0.7104065978762629,-14.201097613206551,26.96941795640421,36.4505841384086,0.4053056700909965,0.5251048930415746,2.207799763230925,5702.87841796875,11.952666666666667,0.0744444444444444,179.10656010618547,-3.954310746654072,97.47777557007817,1553.0,1435.0,1200.0,1747.0,1471.0,988.0,161.0,292.25,1649317886.7253082,1649317887.863888,392f9299-2442-422a-9c2d-b42df79fdb9b
-0.0666725960485687,0.209791890080006,-0.3470948698570272,-0.0112376909385837,-0.5392368114367536,0.0932418498931793,-0.7063304998943752,-0.7324964166474581,-14.195000502701596,26.758032099835656,36.68172519731117,0.3936774619433059,0.542040094325463,2.2693664261283075,5699.0869140625,11.95322222222222,0.07,179.0948228055518,-3.949084893029104,97.43384075769704,1553.0,1435.0,1200.0,1747.0,1471.0,988.0,161.0,292.25,1649317887.9724224,1649317889.092128,392f9299-2442-422a-9c2d-b42df79fdb9b
-0.0474492014085341,0.2104493248662016,-0.3398236396353074,-0.018850786245733,-0.5352133092777065,0.0973047969906792,-0.700545071304505,-0.7244757083508964,-14.263719090966989,27.01919995313764,36.40195098309096,0.4219949075185497,0.5488746010090721,2.245200521744896,5689.839680989583,11.952333333333334,0.0755555555555555,179.08391423453736,-3.951538211601608,97.37960222549796,1553.0,1435.0,1200.0,1747.0,1471.0,988.0,161.0,292.25,1649317889.1999753,1649317890.320212,392f9299-2442-422a-9c2d-b42df79fdb9b
0.1392885832879611,0.2756668549058668,0.1818509116670793,-0.1361108648531467,-0.0392312660196783,0.1233523638102983,-0.0941139264358274,-0.1149020164143502,-9.582990650303133,22.61879668546293,38.209272772601295,0.7444866384760589,0.7917666802693746,0.0096180763365031,8010.67919921875,11.678999999999998,6.889999999999999,179.85799171573342,-4.152480527140483,85.87250552866112,1553.0,1435.0,1350.0,1528.0,1471.0,988.0,161.0,292.25,1649317894.5897882,1649317895.6117315,3093131c-01e4-49ee-b267-49ddb5fbe4e3
0.109252915947521,0.2726128175134067,0.1810776671923688,-0.1351484813833947,-0.039049207166866,0.1252083528114733,-0.0926554325230775,-0.1208113448798881,-9.478495654747467,22.530200304730496,38.17686626272027,0.7459080080646122,0.7796907992803299,0.0080501687315097,8014.00927734375,11.677888888888887,6.9188888888888895,-179.88263503825883,-4.180361596491821,80.57625769737771,1553.0,1435.0,1350.0,1528.0,1471.0,988.0,161.0,292.25,1649317895.7198193,1649317896.8733838,3093131c-01e4-49ee-b267-49ddb5fbe4e3
0.1375099693024904,0.2758747054260773,0.178372070152892,-0.1346427623226579,-0.0419318060729137,0.1225912565791073,-0.097434478147738,-0.1189022545952049,-9.585656195704145,22.56028229071532,38.29669575427767,0.7389161211681474,0.7913879972742599,0.0229495876733648,8018.171875,11.681,6.92,-179.75120853824944,-4.188669430684149,76.01723923562807,1553.0,1435.0,1350.0,1528.0,1471.0,988.0,161.0,292.25,1649317896.981424,1649317898.1033003,3093131c-01e4-49ee-b267-49ddb5fbe4e3
0.3549403393320391,0.6993572577430324,0.2194167352583596,-0.2976426154780515,-0.0995706357344579,-0.1388852399264803,-0.1600283451437148,-0.176464217443536,-8.784680116547502,21.79728186241904,38.69684788362936,0.5164839599334096,2.393147237368749,0.1858775955630023,8025.68017578125,11.651888888888887,6.928888888888888,179.87637099588002,-4.126958576669345,67.21153623813473,1637.0,1435.0,1350.0,1528.0,1535.0,988.0,161.0,292.25,1649317900.2425654,1649317901.3795574,d4bf1c88-4455-4858-bd93-b5902d5a83e7
0.3444739778702049,0.6910472825237362,0.2128292387406954,-0.2983000504079686,-0.1048432632354306,-0.1304963711305209,-0.1653141214463526,-0.1902309038315361,-8.900919855990317,21.904594599470528,38.59950892381951,0.5371272275826944,2.3633303590322585,0.2082905141998037,8025.68017578125,11.648,6.949999999999999,179.79866469260273,-4.120210444633111,64.80347563743615,1637.0,1435.0,1350.0,1528.0,1535.0,988.0,161.0,292.25,1649317901.4885972,1649317902.6081169,d4bf1c88-4455-4858-bd93-b5902d5a83e7
0.3509562846471498,0.6823691438461296,0.2151302604706752,-0.2978529946630408,-0.1003069627930993,-0.1268278846257508,-0.1619349062484018,-0.1924661818041387,-9.073955382773017,21.932383543255675,37.99358216389073,0.544477460231203,2.337468380893375,0.1921309255541777,8018.171875,11.651444444444444,6.965555555555556,179.68401161937507,-4.098275576704832,62.81662976721262,1637.0,1435.0,1350.0,1528.0,1535.0,988.0,161.0,292.25,1649317902.7168782,1649317903.7727013,d4bf1c88-4455-4858-bd93-b5902d5a83e7
0.629612533893524,1.159934813071388,0.2665947607110088,-0.4890633960202531,-0.1626343158182435,-0.4157341115586082,-0.2247745544587757,-0.2528293241613444,-7.959252006109124,21.110715753698443,38.37293527096046,0.3243276494141224,4.144168937501549,0.3541022796023265,8010.67919921875,11.619,6.966666666666666,179.08794252832786,-4.077143398299635,60.20822909341885,1723.0,1435.0,1350.0,1528.0,1599.0,988.0,161.0,292.25,1649317904.7477095,1649317905.704756,bfb0b947-0af4-4ca0-9fd6-ed36f2942fc3
0.5981568097733827,1.1497066448835207,0.2610444940448799,-0.4811362473302462,-0.1652514122978247,-0.4101585574866233,-0.2296926731150133,-0.2496938656859915,-8.091433868908995,21.20675009219989,38.737590463957176,0.31932680676283,4.102184478770917,0.3714491954311839,8010.67919921875,11.623666666666663,6.95,178.9862455650458,-4.055272136507999,58.97260006123936,1723.0,1435.0,1350.0,1528.0,1599.0,988.0,161.0,292.25,1649317905.8133323,1649317906.905278,bfb0b947-0af4-4ca0-9fd6-ed36f2942fc3
0.6073032442849593,1.1485824313920316,0.2552732281430198,-0.484367287440498,-0.1698767194648487,-0.406487541898331,-0.233779389502005,-0.2559875409199913,-8.137781994585545,21.101557817378584,38.6435200290461,0.3338414751832792,4.09915993791156,0.3911482375139732,8010.67919921875,11.621444444444444,6.96,178.89643464873942,-4.056820834470432,58.06944262946874,1723.0,1435.0,1350.0,1528.0,1599.0,988.0,161.0,292.25,1649317907.0144894,1649317908.137418,bfb0b947-0af4-4ca0-9fd6-ed36f2942fc3
0.8353936563124491,1.538743706461838,0.3248692731118611,-0.6740372896052667,-0.2036425745749527,-0.6288320555789307,-0.254725265133459,-0.272462858734347,-6.9554962686512205,20.868334080175973,36.7372789614422,0.2642633372308916,5.598789474027143,0.4158743920173017,8018.171875,11.579333333333333,6.956666666666667,178.42591050591625,-4.0242764534632665,55.72428617375121,1813.0,1435.0,1350.0,1528.0,1662.0,988.0,161.0,292.25,1649317910.2776086,1649317911.4147737,05b56a5e-eb37-4ad5-a34c-aa3c6e053ee6
0.8419154090684899,1.5289084806414794,0.3174928550139187,-0.666608273418619,-0.2088626075039536,-0.6257552596525486,-0.2610497888425128,-0.2746849891494978,-6.931967761131123,20.94524076295487,36.72342228681971,0.2545714302350423,5.560476687609221,0.4408843310649356,8010.67919921875,11.580999999999998,6.970000000000001,178.30118973385208,-3.994729529432484,54.98076278489728,1813.0,1435.0,1350.0,1528.0,1662.0,988.0,161.0,292.25,1649317911.5227988,1649317912.6429305,05b56a5e-eb37-4ad5-a34c-aa3c6e053ee6
0.8239279942531533,1.5305257704529596,0.3180582489111124,-0.6687252143596506,-0.2078633064802217,-0.6261891668061864,-0.2597480677470006,-0.2924357311365099,-6.943638765510787,20.837269015080462,36.61850718892047,0.257661479154031,5.567849624640684,0.4369644883456214,8013.1767578125,11.584,6.96,178.2105956225208,-3.980462639780536,54.47474290786753,1813.0,1435.0,1350.0,1528.0,1662.0,988.0,161.0,292.25,1649317912.7512977,1649317913.7691927,05b56a5e-eb37-4ad5-a34c-aa3c6e053ee6
-0.1709786813816536,-0.2313489032977682,0.1362836004984342,0.0590982259944994,0.0296274461215909,0.4386150956118987,-0.0158872723212336,-0.0333345813367303,-10.26383244068816,23.779773272623927,38.073450489155725,1.017643145858077,-1.1307315081769287,-0.194216333600187,8025.68017578125,11.668,6.98,179.2361576333171,-3.897274350784365,53.7253356904986,1470.0,1435.0,1350.0,1528.0,1403.0,988.0,161.0,292.25,1649317914.5775936,1649317915.7119455,04dc9022-8e03-4db3-8a92-f66616dd4af3
-0.1744428574058569,-0.2366842402628078,0.1390776983922645,0.0579350720990332,0.0340777741432103,0.4461376663821702,-0.0101979324519519,-0.0379239822652753,-10.317844762081648,23.71786299553592,38.2809926998951,1.036905768738548,-1.1518801310078604,-0.21256232993784,8033.201171875,11.672,6.98,179.13234786485182,-3.8641772462049904,53.30004599327371,1470.0,1435.0,1350.0,1528.0,1403.0,988.0,161.0,292.25,1649317915.820036,1649317916.9589758,04dc9022-8e03-4db3-8a92-f66616dd4af3
-0.157766769201182,-0.2463100984968503,0.1329772092017155,0.0671022419569917,0.0306146097995546,0.4438912623986399,-0.0161421547360084,-0.0338140030829605,-10.307414240197913,23.757994100742927,37.77428303857032,1.011065658133218,-1.1850805542946392,-0.1928746274108709,8033.201171875,11.67,6.978888888888889,179.11382742746238,-3.8441678750083534,53.001397110179774,1470.0,1435.0,1350.0,1528.0,1403.0,988.0,161.0,292.25,1649317917.0668256,1649317918.1734073,04dc9022-8e03-4db3-8a92-f66616dd4af3
-0.4101165828394964,-0.6799805023997915,0.1022750040686612,0.2235980204667006,0.0934390803024864,0.7273902754277488,0.0609880982466565,0.0488124054864139,-10.763223186790144,25.003807521095297,38.321886706200765,1.30169739059736,-2.8344287400208725,-0.3975700985095615,8040.73779296875,11.623555555555557,6.953333333333333,179.10074685629192,-3.775977116177847,52.31144327444121,1385.0,1435.0,1350.0,1528.0,1331.0,988.0,161.0,292.25,1649317920.107995,1649317921.2442577,222d87e3-38b0-4090-a7bd-97d5364dfcd4
-0.4007941552730964,-0.6741687764227804,0.1066403711332247,0.2209288352541685,0.0954508307856828,0.72019793927575,0.0647091792543018,0.0439210903584433,-10.552530623436196,24.96371764810205,37.79035703761912,1.291529212703959,-2.808806835306945,-0.4114647416745489,8040.73779296875,11.620333333333331,6.949999999999999,179.1047174729294,-3.7607202285512,52.075607087684425,1385.0,1435.0,1350.0,1528.0,1331.0,988.0,161.0,292.25,1649317921.3527718,1649317922.4775374,222d87e3-38b0-4090-a7bd-97d5364dfcd4
-0.4110106944065598,-0.6855292542688863,0.0987643022242454,0.2286734169784272,0.0909276793562049,0.7245764547005338,0.0560310397768604,0.0327052522339942,-10.824342580730496,25.11887362814525,37.78005464441975,1.284396349166828,-2.850850599479253,-0.3837872833996756,8040.73779296875,11.620111111111113,6.957777777777777,179.0868254129436,-3.753669670916715,51.89588583787369,1385.0,1435.0,1350.0,1528.0,1331.0,988.0,161.0,292.25,1649317922.5866,1649317923.702711,222d87e3-38b0-4090-a7bd-97d5364dfcd4
-0.6700269356043997,-1.178737135797611,0.056938299763713,0.4001455535557829,0.1522926434501454,1.047311177664599,0.1347522831739554,0.1153974026304892,-11.311956159297049,26.79423777578422,37.53160694411143,1.631563714114718,-4.718761850996126,-0.5819911495602297,8033.201171875,11.558555555555554,6.95888888888889,179.261471832201,-3.72972245850422,51.63552623635693,1297.0,1435.0,1350.0,1528.0,1253.0,988.0,161.0,292.25,1649317924.613547,1649317925.7515638,29fab127-ebc0-4cc9-ba69-e5fac8e82d04
-0.6765618401235122,-1.1872837952079012,0.0544531961817597,0.4146354156436982,0.1550933156662927,1.0436952864166198,0.1310312022270472,0.1110188866350965,-11.584512381876657,26.751787089250698,37.70187681568331,1.590237536689175,-4.752339306159871,-0.5779604003596361,8033.201171875,11.561555555555554,6.949999999999999,179.26261626834196,-3.728110012109535,51.5069145331955,1297.0,1435.0,1350.0,1528.0,1253.0,988.0,161.0,292.25,1649317925.8598185,1649317926.9804697,29fab127-ebc0-4cc9-ba69-e5fac8e82d04
-0.6909202219654152,-1.1916360171974465,0.0530199882917951,0.4137544530877228,0.1565002261394283,1.049927768060733,0.1317149344175587,0.1108216564026189,-11.77502077617353,26.63272920449244,37.86579608958164,1.605299610126775,-4.76875163709105,-0.5792840456466314,8027.351508246527,11.559888888888889,6.954444444444444,179.25171983988605,-3.7256149060602346,51.38952027738095,1297.0,1435.0,1350.0,1528.0,1253.0,988.0,161.0,292.25,1649317927.0880632,1649317928.2082846,29fab127-ebc0-4cc9-ba69-e5fac8e82d04
0.1267710247456245,0.2762716948997536,0.1725021889579849,-0.1430139309248317,-0.0449640977783324,0.1240229472996284,-0.1005699366471474,-0.1281690519346839,-9.757706035216907,22.227941554956978,37.43046215187277,0.7582965308603161,0.8024249967828186,0.0383141682987284,8033.201171875,11.678555555555556,7.0,178.68101655359644,-3.786796420414362,51.29241623686079,1553.0,1435.0,1350.0,1528.0,1471.0,988.0,161.0,292.25,1649317929.1195316,1649317930.2569003,aed2dff8-840f-48be-b083-5cb19a858667
0.1113476043617712,0.2657527384973602,0.1685707289078566,-0.1339939246589779,-0.0454768969560836,0.1300450500391527,-0.1030813377711561,-0.1238694279408353,-9.861338861597142,22.27130589198875,37.97702459500618,0.751608741633602,0.757502779319518,0.0474342333443805,8033.201171875,11.678,6.997777777777778,178.66859319840614,-3.7939821588761697,51.32478184715281,1553.0,1435.0,1350.0,1528.0,1471.0,988.0,161.0,292.25,1649317930.365348,1649317931.4859238,aed2dff8-840f-48be-b083-5cb19a858667
0.1222084272376893,0.2775734157481179,0.1708060071824537,-0.1403315967046733,-0.0455031943666685,0.1227475237896735,-0.1036730291422401,-0.1259995171269439,-9.91919568427122,22.21162704573794,37.763977330421866,0.7491590602018328,0.8050562305095549,0.0463238455897053,8033.201171875,11.676111111111112,7.007777777777778,178.68823834027887,-3.7872117338613935,51.31059971825118,1553.0,1435.0,1350.0,1528.0,1471.0,988.0,161.0,292.25,1649317931.5941117,1649317932.7106583,aed2dff8-840f-48be-b083-5cb19a858667
0.1571192263293528,0.2715381645166548,0.1565502923122739,-0.5461211674266797,-0.1017836625973358,0.5210346564048057,-0.0035350833631944,-0.0247120705652934,-9.541712909748306,21.36479843543712,40.760225922097874,2.553869345865315,0.8022362467280151,0.0003861029439631,8040.73779296875,11.65611111111111,6.972222222222222,178.7294092027759,-3.655548880847605,51.36429904496077,1553.0,1522.0,1350.0,1528.0,1471.0,988.0,161.0,292.25,1649317934.6486125,1649317935.786765,cd9773f3-0095-409f-96bf-6f06c908c383
0.1454876876600444,0.2776447221279853,0.1566893650729331,-0.551481791296552,-0.1030226744145228,0.521047299376616,-0.0051154555276412,-0.0296428318842812,-9.671416152098814,21.39397249735568,40.90557873057841,2.566148214447023,0.8254386186979346,0.0049284443754855,8040.73779296875,11.666111111111112,7.002222222222222,178.74841230686673,-3.6544301053479296,51.39122706576355,1553.0,1522.0,1350.0,1528.0,1471.0,988.0,161.0,292.25,1649317935.8947363,1649317936.941775,cd9773f3-0095-409f-96bf-6f06c908c383
0.1561846574848817,0.2689347228128987,0.1583541922644148,-0.5443516557391649,-0.1018585090002765,0.5228228789293101,-0.0028751199318458,-0.0254777292847163,-9.468102902473824,21.60754362864116,40.88953373563206,2.5556528110155994,0.7907053217088597,-0.0030757891425893,8034.8759765625,11.663444444444444,6.995555555555557,178.76184501223435,-3.643434971172157,51.411902427836125,1553.0,1522.0,1350.0,1528.0,1471.0,988.0,161.0,292.25,1649317937.0506723,1649317938.2437737,cd9773f3-0095-409f-96bf-6f06c908c383
0.1613783923412146,0.2599147176969374,0.1388546762620824,-1.0466452364523469,-0.1732822321112265,1.0164511894437966,0.1167385696999132,0.0952667489784541,-9.233837435098692,20.722548860267985,44.4463834184284,4.7918000132552745,0.7842843926060019,-0.04947042702197,8040.73779296875,11.643444444444444,6.993333333333333,178.77172450141384,-3.4860197910983493,51.46762083435537,1553.0,1613.0,1350.0,1528.0,1471.0,988.0,161.0,292.25,1649317939.154836,1649317940.2907193,f5cffd91-1d58-4366-bd8d-e731cedf3313
0.157775649670862,0.2647139915615876,0.1407217910505601,-1.0544555673673826,-0.1734137191029668,1.0191729693974232,0.1228658620174042,0.1072452110980231,-8.859364914623072,20.512383200926383,44.51065732750496,4.814432911096633,0.800140924811674,-0.0596093615414698,8040.73779296875,11.639444444444443,6.98,178.80704568634172,-3.465551137111898,51.5032903589309,1553.0,1613.0,1350.0,1528.0,1471.0,988.0,161.0,292.25,1649317940.3983183,1649317941.5202982,f5cffd91-1d58-4366-bd8d-e731cedf3313
0.1676108741142106,0.2676724480393128,0.1477037485690159,-1.0552444895944038,-0.168141091463312,1.016806204217341,0.1267052812270759,0.1057199623054674,-8.995230797047634,20.68954200898754,44.52326184660191,4.812349768800959,0.8126296036967894,-0.0815734523070603,8043.254231770833,11.645,7.003333333333334,178.8222117419388,-3.4638217237276776,51.54289103682873,1553.0,1613.0,1350.0,1528.0,1471.0,988.0,161.0,292.25,1649317941.6282818,1649317942.749223,f5cffd91-1d58-4366-bd8d-e731cedf3313
0.1846252864832075,0.2468449143224204,0.1284146117363705,-1.487245290683623,-0.2331745494345571,1.4559858050317525,0.2247419570352902,0.200719289953356,-9.115571679455435,20.52776442384404,47.80787691992841,6.772163035219723,0.7582169449614631,-0.1079787100148842,8037.911560058594,11.595,6.96375,178.8575158513937,-3.3272837253655614,51.65013254846514,1553.0,1710.0,1350.0,1528.0,1471.0,988.0,161.0,292.25,1649317944.6840155,1649317945.8215916,9d339ff9-1643-490a-b201-bbb5a1b80c65
0.1833235655860392,0.2506974821232776,0.1286249908217825,-1.4886916488877528,-0.2347918393229409,1.4500557426261913,0.2251495665724084,0.2013898732325242,-8.85334231819839,20.46960150809977,47.31413736514836,6.761778224067993,0.7753768509780854,-0.1066786640765873,8033.201171875,11.597666666666669,6.9688888888888885,178.8900081996403,-3.313200281432375,51.653398944140086,1553.0,1710.0,1350.0,1528.0,1471.0,988.0,161.0,292.25,1649317945.9297943,1649317947.0494597,9d339ff9-1643-490a-b201-bbb5a1b80c65
0.1826266847273589,0.2571403429402659,0.1274021621159418,-1.4994867406926011,-0.2370271178913992,1.45306679426432,0.22684574831974,0.2037960848035039,-8.740684070012877,20.23495003011368,47.23057426739455,6.791322508588399,0.8007323530136385,-0.1036401191142411,8033.201171875,11.595666666666666,6.986666666666667,178.895886715786,-3.328298533172361,51.66241820893909,1553.0,1710.0,1350.0,1528.0,1471.0,988.0,161.0,292.25,1649317947.15782,1649317948.2789142,9d339ff9-1643-490a-b201-bbb5a1b80c65
0.2007324386977803,0.2537479794683442,0.1273627160174876,-1.776490685708606,-0.2800365088053729,1.7247320434145157,0.2870404764380499,0.2536822357607658,-8.771460307701044,21.382696664393425,49.33296426431126,8.034569858476797,0.8037154035698812,-0.1310770876015697,8029.022840711806,11.556111111111113,6.96,178.9090750521634,-3.229550670076013,51.6851745019788,1553.0,1814.0,1350.0,1528.0,1471.0,988.0,161.0,292.25,1649317949.189963,1649317950.5324504,7d48a1ca-df89-4096-a70a-b3e24326bc5a
0.1841782308176166,0.2433473613058062,0.1168437592028942,-1.7711391593441868,-0.2865188170188373,1.7297416980695646,0.2784412295833976,0.2662523888260224,-8.903841366507299,21.33274402589024,49.22473111415917,8.03281668289854,0.7652764098330074,-0.0971022404580447,8025.68017578125,11.555666666666667,6.97,178.95664807864242,-3.219152181383361,51.69236517335501,1553.0,1814.0,1350.0,1528.0,1471.0,988.0,161.0,292.25,1649317950.6406448,1649317951.7609832,7d48a1ca-df89-4096-a70a-b3e24326bc5a
0.1948418230528971,0.2424138039192296,0.122629185454855,-1.7773979472754209,-0.2812987838158665,1.7357769507662142,0.2889996320551765,0.2718405843218747,-8.662684132444955,21.170805415593087,49.19695320400994,8.0598285231484,0.7614489548917568,-0.1271031094303068,8025.68017578125,11.561666666666667,6.98888888888889,178.9582736636649,-3.2325160631087915,51.70086458486718,1553.0,1814.0,1350.0,1528.0,1471.0,988.0,161.0,292.25,1649317951.869135,1649317952.9886105,7d48a1ca-df89-4096-a70a-b3e24326bc5a
0.0805007633785623,0.2770869140179536,0.1975636030568286,0.3854321636341739,0.0291814018968094,-0.3840558616437717,-0.2260085091747063,-0.2478484961391302,-10.047507537588984,23.98114648455303,34.08870968456705,-1.5632777868824974,0.7737070438705566,0.0808582970235461,8025.68017578125,11.677125,7.01,178.93411983802997,-3.950758253801855,51.773625783753545,1553.0,1349.0,1350.0,1528.0,1471.0,988.0,161.0,292.25,1649317953.585494,1649317954.828804,1a655430-bd61-424f-87a7-a220e481c1e0
0.0860100670502484,0.2802951957131986,0.1955781500151059,0.38502455408641,0.027498368780159,-0.3868302370821445,-0.2276520963745857,-0.2541204251579139,-9.99977488107734,23.85115988285904,34.075179113380905,-1.5695314002997176,0.7854442457854734,0.0886494322762102,8030.694173177083,11.676333333333332,7.016666666666666,178.95210827957408,-3.964850961772001,51.92264841631657,1553.0,1349.0,1350.0,1528.0,1471.0,988.0,161.0,292.25,1649317954.9373932,1649317956.0611346,1a655430-bd61-424f-87a7-a220e481c1e0
0.0842071785396838,0.2741426176633024,0.2007754248419084,0.3865007479807463,0.0337111277858618,-0.3794993318353352,-0.2217655255595403,-0.251135165585939,-10.15242544820096,23.96797789246409,34.49540356050717,-1.5553644730408296,0.7598740314800578,0.064428223521269,8025.68017578125,11.677666666666669,7.01,178.9798342941449,-3.96232421866592,52.06850141421789,1553.0,1349.0,1350.0,1528.0,1471.0,988.0,161.0,292.25,1649317956.1689408,1649317957.2911842,1a655430-bd61-424f-87a7-a220e481c1e0
0.080132599875824,0.2879214390659479,0.2251890126580643,0.8216138238846861,0.0954376820971543,-0.8141761535416008,-0.3277005396802777,-0.3461087176507685,-10.435907334488585,25.489417661826074,31.25157917780535,-3.503008166537467,0.7903110990815514,0.0979894555327925,8033.201171875,11.651222222222222,6.98888888888889,178.98277431112763,-4.129489161756835,52.3392945091468,1553.0,1264.0,1350.0,1528.0,1471.0,988.0,161.0,292.25,1649317959.225415,1649317960.3625214,86c6bafd-1074-4337-a3b3-728fafdd5788
0.0824336217063068,0.2898937433919925,0.2287786065538635,0.8229944368720004,0.0978570421815844,-0.8143996814707739,-0.3263593724302269,-0.351670617020557,-10.519800096862406,25.64157545796824,31.692588598344543,-3.505409308090293,0.7944537150355707,0.0886432942928365,8042.415418836806,11.649555555555557,6.974444444444444,178.98751142677196,-4.121604277542486,52.4558490311484,1553.0,1264.0,1350.0,1528.0,1471.0,988.0,161.0,292.25,1649317960.470791,1649317961.5919704,86c6bafd-1074-4337-a3b3-728fafdd5788
0.0838931269728472,0.2978224067341435,0.2268720456868364,0.8157758032947277,0.0947276525000904,-0.814951926976871,-0.3280687032161298,-0.3520782266510839,-10.5063901111929,25.510112881297204,31.76105975140601,-3.491315559067918,0.8242549254604954,0.0989941918861793,8040.73779296875,11.64311111111111,6.99,179.0011930545894,-4.118856359630156,52.571289093950405,1553.0,1264.0,1350.0,1528.0,1471.0,988.0,161.0,292.25,1649317961.7002614,1649317962.8276818,86c6bafd-1074-4337-a3b3-728fafdd5788
0.0645250974959484,0.2960210354392018,0.2540372507652303,1.2838825137274594,0.1610233775050151,-1.2647559788783602,-0.4442111595376821,-0.4602131265828889,-11.276875443864505,27.887709838796813,28.47925359984852,-5.541816332679477,0.7961670550230966,0.1347730741723632,8045.770670572917,11.631666666666668,6.983333333333333,179.0084482333078,-4.283058660736709,52.70729599470819,1553.0,1178.0,1350.0,1528.0,1471.0,988.0,161.0,292.25,1649317963.7309945,1649317964.8741024,79369ca9-36a3-4682-87c4-4cf3b94ccf31
0.058161128526689,0.3076313335052069,0.2510787942526812,1.2721144305543295,0.1556324122079243,-1.2650978452657096,-0.4470512785472887,-0.4717971312437475,-11.239505495522256,27.73964194453514,28.48660706214342,-5.517147527735524,0.8406419043345104,0.151591128533519,8040.73779296875,11.637,6.99,179.00428637137352,-4.286265149960816,52.80844768122149,1553.0,1178.0,1350.0,1528.0,1471.0,988.0,161.0,292.25,1649317964.9866514,1649317966.0960424,79369ca9-36a3-4682-87c4-4cf3b94ccf31
0.0451783081813726,0.3015273045300016,0.2569987415608758,1.2728239544208242,0.1615569111212346,-1.2595900538634788,-0.4392753401282121,-0.4701368548848862,-11.175727157466609,27.824272414040973,28.56355850705988,-5.505471126694384,0.8169040291408063,0.1237669616145306,8040.73779296875,11.63125,6.995000000000001,179.02224293870148,-4.295382705450842,52.88695729063621,1553.0,1178.0,1350.0,1528.0,1471.0,988.0,161.0,292.25,1649317966.2050283,1649317967.3267615,79369ca9-36a3-4682-87c4-4cf3b94ccf31
0.0491674202980624,0.3075787387265654,0.2670807566920442,1.5194282699665826,0.1838232159846576,-1.500670125102581,-0.5135574006332257,-0.5284680264326844,-11.487835796746303,29.83337930682988,27.147869230598108,-6.59005130099875,0.8246677827658787,0.1853133087863773,8039.06298828125,11.601555555555557,6.98,179.0183717392619,-4.397026865204457,53.0732252767664,1553.0,1088.0,1350.0,1528.0,1471.0,988.0,161.0,292.25,1649317969.0870216,1649317970.193119,3471420c-0289-4382-b39e-d6b1697b116b
0.0635864828975359,0.3215284930874837,0.2615502130475236,1.5054294586582049,0.1767031971992395,-1.502171100874001,-0.5180916792280589,-0.5487888364695459,-11.462639056270197,29.52377323968033,27.00996716364877,-6.564183404552441,0.8793994248137522,0.2105209870137488,8033.201171875,11.593333333333334,6.98,179.03559140506945,-4.402710626095032,53.130984012572696,1553.0,1088.0,1350.0,1528.0,1471.0,988.0,161.0,292.25,1649317970.3014977,1649317971.4219325,3471420c-0289-4382-b39e-d6b1697b116b
0.0537431666059487,0.3184790072013467,0.2645299097274874,1.5029266545926885,0.1794578489432663,-1.4965677270106108,-0.5132023858813123,-0.5441281285872499,-11.420225155681416,29.54666844326243,27.083889205285608,-6.545612884775004,0.8675040682358259,0.1954796772744865,8033.201171875,11.592333333333336,6.98,179.07645566796367,-4.376737076796896,53.178458760218696,1553.0,1088.0,1350.0,1528.0,1471.0,988.0,161.0,292.25,1649317971.5304348,1649317972.6553085,3471420c-0289-4382-b39e-d6b1697b116b
0.113083737960388,0.2817284034973452,0.1792697215205788,-0.1372598587430119,-0.0390112782110225,0.1195695851165354,-0.0968023292495958,-0.1239594458587742,-9.814592588525086,22.30645621571566,38.3500472565034,0.7362848673791562,0.8148652487226951,0.0175527531058345,8031.529839409723,11.678777777777778,6.994444444444445,179.0867100586376,-3.8838550686356665,53.24441030793442,1553.0,1435.0,1350.0,1528.0,1471.0,988.0,161.0,292.25,1649317973.7662132,1649317975.1086757,83077d11-67eb-4563-8609-351f0131ccb6
0.1281516378204275,0.2877242086367118,0.1772751655379593,-0.1363606901040837,-0.0425973323749643,0.1112029687015971,-0.1018848063491925,-0.1213711756269653,-9.780055895497211,22.351862301930915,38.08570864997273,0.7156325936629986,0.8392151665303348,0.0327583199033155,8034.8759765625,11.676,7.002222222222222,179.11195899126946,-3.881806533635225,53.22604392925626,1553.0,1435.0,1350.0,1528.0,1471.0,988.0,161.0,292.25,1649317975.2170498,1649317976.246051,83077d11-67eb-4563-8609-351f0131ccb6
0.1099538425965823,0.2768502374961179,0.1821138855477897,-0.1250528106069094,-0.0339849360921843,0.1147662653274092,-0.0967173684430655,-0.1195040604465294,-9.980598057663364,22.42472956146573,38.59629064711692,0.6988364149861331,0.7942410190281922,0.0064082640498725,8033.201171875,11.676666666666668,7.003333333333334,179.12438841773903,-3.879399888022049,53.202072621454185,1553.0,1435.0,1350.0,1528.0,1471.0,988.0,161.0,292.25,1649317976.354675,1649317977.565883,83077d11-67eb-4563-8609-351f0131ccb6
