raw_voltage_G-,raw_voltage_G0,raw_voltage_G1,raw_voltage_G2,raw_voltage_G3,raw_voltage_G4,raw_voltage_G5,raw_voltage_G6,load_x,load_y,load_z,load_l,load_m,load_n,rpm,voltage,current,roll,pitch,yaw,aileron1_pwm,elevator_pwm,throttle_pwm,rudder_pwm,aileron2_pwm,pbaro,pdiff,Tt,sample_start_time,sample_end_time,uid
0.1340159562140138,0.3076839282764259,0.0944252324439721,-0.210479897302798,-0.0942717109351447,0.2632413376587859,-0.1352430510041363,-0.1513107590047889,-11.808956554707668,19.043731630180574,52.371410180381446,1.199678436400942,0.8056398115983925,0.2854221285479316,5583.9912109375,11.9514,0.11,179.93279321544773,-9.479708341519906,109.51996188439826,1553.0,1435.0,1200.0,1528.0,1471.0,988.0,161.0,292.25,1649322312.1529744,1649322313.131756,b0ebc70a-14c6-4a3e-a2f9-470eeb4846b1
0.119000651162953,0.3087970159189226,0.0880253575287278,-0.2134338027887273,-0.099166566172853,0.2649638167753176,-0.1409768943092508,-0.1742658565273695,-11.94395310490668,18.90943781049976,52.34027550097175,1.2089305261576755,0.8110016787957377,0.3090021846850356,5583.9912109375,11.9488,0.12,179.98315629831174,-9.47030590310847,109.08398203043043,1553.0,1435.0,1200.0,1528.0,1471.0,988.0,161.0,292.25,1649322313.2403538,1649322314.3601,b0ebc70a-14c6-4a3e-a2f9-470eeb4846b1
0.1525687661336337,0.3169669072297125,0.0897442966816003,-0.2138065178332304,-0.100385854964787,0.2586392942256426,-0.1408838419984689,-0.1545716360769904,-11.727401474039516,18.92948559077058,52.5358489470677,1.195917906314334,0.8385328775096784,0.3095916507280808,5582.7822265625,11.95588888888889,0.1177777777777777,-179.9764287137613,-9.464028788506498,108.67830681511803,1553.0,1435.0,1200.0,1528.0,1471.0,988.0,161.0,292.25,1649322314.468675,1649322315.595031,b0ebc70a-14c6-4a3e-a2f9-470eeb4846b1
0.3531389680803405,0.699067986454566,0.1417342406505896,-0.4033187056023762,-0.1416727638385662,0.0619085069882092,-0.1679175636072,-0.1798039865440429,-10.799863663718437,17.973270899134995,53.08611121338565,1.178135127617034,2.2868150699948235,0.3798379596813592,5625.77255859375,11.9326,0.11,179.6873735902665,-9.40355514736885,108.117490455325,1637.0,1435.0,1200.0,1528.0,1535.0,988.0,161.0,292.25,1649322316.703294,1649322317.8503058,dfc976df-507b-4197-852d-07cfd0849b35
0.365788012935704,0.7087848720366351,0.160523727059762,-0.3989007426920943,-0.1271828995424304,0.0538746535945426,-0.1530463869592001,-0.1746365483026698,-10.637705688361294,18.16833506629473,54.00166393563628,1.1525724099297503,2.314647579390677,0.3158558462007121,5635.38916015625,11.9292,0.106,179.63499150348383,-9.365154116307746,107.8483796359887,1637.0,1435.0,1200.0,1528.0,1535.0,988.0,161.0,292.25,1649322317.9589815,1649322319.0692546,dfc976df-507b-4197-852d-07cfd0849b35
0.3625928799932096,0.7014084541604096,0.1512801938310249,-0.3999657873774762,-0.1342043038792286,0.0624607522279824,-0.1606331853174962,-0.1835119189128944,-10.80710393105758,18.188950991484543,53.99122945187501,1.1738584650048367,2.2878184559279258,0.3477776622714023,5638.272026909723,11.935333333333334,0.1077777777777777,179.5838855996021,-9.347768059502958,107.64657790241112,1637.0,1435.0,1200.0,1528.0,1535.0,988.0,161.0,292.25,1649322319.177268,1649322320.5134318,dfc976df-507b-4197-852d-07cfd0849b35
0.5793885648407108,1.0725040782845603,0.2349058986512033,-0.5862302658561599,-0.1510477850219799,-0.1392139573845442,-0.1582269738096566,-0.1755832543543911,-9.396948017802252,17.918158198754153,52.95614394464029,1.1437492144620525,3.70707584587694,0.2962089410294297,5633.53759765625,11.903000000000002,0.105,179.10124090664186,-9.26408140385672,107.15146128402644,1723.0,1435.0,1200.0,1528.0,1599.0,988.0,161.0,292.25,1649322322.6428173,1649322323.7614424,e56b38b9-960e-4ceb-a007-7d019c4b4bf0
0.5867255366443157,1.0705843687358618,0.2245184291469196,-0.593370010207807,-0.1603044678545075,-0.1368077457889888,-0.1671154931127789,-0.1936495645671633,-9.482544261293729,17.804743733235664,52.0243524947328,1.163801122469186,3.7089586629131297,0.3340090908309723,5635.38916015625,11.902,0.11,179.07824365970643,-9.259476575695665,107.0130748212528,1723.0,1435.0,1200.0,1528.0,1599.0,988.0,161.0,292.25,1649322323.8942862,1649322325.011761,e56b38b9-960e-4ceb-a007-7d019c4b4bf0
0.5709996974400459,1.0723331452329443,0.2182596500203218,-0.5971699846776205,-0.1657480285432556,-0.1317717947869705,-0.1735320574147928,-0.2012100657009234,-9.698710685003974,17.775557044522397,52.43885893263479,1.1831415227367872,3.713444440712088,0.3597143593156708,5627.98828125,11.9,0.105,179.00572754128842,-9.238618458630912,106.87676815108144,1723.0,1435.0,1200.0,1528.0,1599.0,988.0,161.0,292.25,1649322325.120573,1649322326.2375877,e56b38b9-960e-4ceb-a007-7d019c4b4bf0
0.7043143157484679,1.2975440091836312,0.2602828811000893,-0.6903679766743436,-0.1870752157547845,-0.288767244260553,-0.1963976423070223,-0.2149110087495446,-9.032907183521816,18.255912813730514,49.356545384262525,1.0457042444057374,4.594875044197619,0.3863906934597825,5624.29541015625,11.8539,0.1,178.77740524563757,-9.193137082721444,106.6458517495838,1813.0,1435.0,1200.0,1528.0,1662.0,988.0,161.0,292.25,1649322327.1508677,1649322328.2828186,17f688ec-703d-4b1c-97b8-f62355bf480f
0.7041170853227956,1.3048283869776507,0.2609666132921401,-0.685476659584824,-0.1875617175140642,-0.2997332584507533,-0.2031034779900748,-0.230045159841005,-9.328619524049316,18.471973710407227,49.42832681504679,1.0113574607412874,4.623097455430322,0.3963990706013995,5613.24560546875,11.856000000000002,0.09,178.7476898246345,-9.175817003646763,106.42523459033566,1813.0,1435.0,1200.0,1528.0,1662.0,988.0,161.0,292.25,1649322328.3909214,1649322329.5145862,17f688ec-703d-4b1c-97b8-f62355bf480f
0.7054845496022124,1.2927315863139444,0.2717090974821061,-0.6851347934188909,-0.1749915628352632,-0.2883990806646311,-0.1842876919545865,-0.2067588162657575,-9.000550406818222,18.304795470190328,49.51337050643149,1.0356610626123424,4.575287455433579,0.3368024765641607,5613.24560546875,11.855,0.1,178.72017782265772,-9.162555764486356,106.25224638922676,1813.0,1435.0,1200.0,1528.0,1662.0,988.0,161.0,292.25,1649322329.624018,1649322330.743049,17f688ec-703d-4b1c-97b8-f62355bf480f
-0.1251842974816506,-0.1562546690033958,0.0296942010107355,-0.0203760351245507,-0.0514464053106959,0.5476081690344677,-0.0910897262481712,-0.1001491788026929,-12.702318165295416,20.1802902852323,52.97142431018951,1.413818100093542,-0.9608970980788422,0.1977483920544143,5604.681803385417,11.953,0.12,179.65736629251293,-9.105402022172164,105.87926797249014,1470.0,1435.0,1200.0,1528.0,1403.0,988.0,161.0,292.25,1649322332.6851842,1649322333.824221,bbe757b2-18e8-4076-9520-00a512e3eeb7
-0.1553646032931041,-0.1712947558712042,0.0285275070743651,-0.0121955229373508,-0.0488348718459319,0.5547534733336251,-0.0897601906914503,-0.1207860589706766,-12.78633113992648,20.241350877559366,52.96346641407366,1.4117244476014288,-1.0177215370875934,0.1920455848103651,5617.743326822917,11.95677777777778,0.12,179.57774298280856,-9.078653483562576,105.74778075968814,1470.0,1435.0,1200.0,1528.0,1403.0,988.0,161.0,292.25,1649322333.9327462,1649322335.0455115,bbe757b2-18e8-4076-9520-00a512e3eeb7
-0.133020920985244,-0.1450782763267216,0.0398975893804968,-0.0282126583074228,-0.044109432522449,0.5443604413642531,-0.0822275044903203,-0.0953499040375388,-12.705083092520924,20.129769250126152,53.114583204887886,1.4243921034283915,-0.9186172348886265,0.1627332595021528,5624.29541015625,11.95322222222222,0.1155555555555555,179.56370314951462,-9.054892393804964,105.64008006012564,1470.0,1435.0,1200.0,1528.0,1403.0,988.0,161.0,292.25,1649322335.153839,1649322336.2697055,bbe757b2-18e8-4076-9520-00a512e3eeb7
-0.3625051445653688,-0.5717929928736282,-0.0161684522435252,0.1490712129500657,-0.0058993202522214,0.7887815323720321,-0.0484879485968127,-0.0781251116429004,-13.699757588627804,21.79429646650232,51.53147998357949,1.581219539642699,-2.523339294755061,0.0853862896054119,5633.331868489583,11.896555555555556,0.1044444444444444,179.66657794097353,-9.004218746033946,105.41164210660484,1385.0,1435.0,1200.0,1528.0,1331.0,988.0,161.0,292.25,1649322337.0019972,1649322338.3203487,69090d54-2bab-4bcd-b89e-bd8bc0e4c991
-0.3509737359028876,-0.5729500784900387,-0.0136701999002438,0.1528843347885023,-0.0015076556013483,0.788202989788874,-0.0475543911088079,-0.0717085473323858,-13.957292908434752,21.80649927713755,51.80149935262294,1.5714367046846098,-2.528560366575812,0.0747592596384094,5635.852478027344,11.898625,0.1,179.6541020312721,-8.990980131875169,105.0998867545398,1385.0,1435.0,1200.0,1528.0,1331.0,988.0,161.0,292.25,1649322338.430647,1649322339.549802,69090d54-2bab-4bcd-b89e-bd8bc0e4c991
-0.3472526542221436,-0.5517543738260323,-0.0024543617656522,0.1407480884818517,0.0021476820093712,0.7756722834432911,-0.0392312661159647,-0.0529716541820166,-13.587277324685274,21.78138154556149,51.45757769391899,1.5711783313711405,-2.4464294675275053,0.044884048241441,5637.860188802083,11.896333333333336,0.11,179.63091069312773,-8.981005778957227,104.90322255644668,1385.0,1435.0,1200.0,1528.0,1331.0,988.0,161.0,292.25,1649322339.6591637,1649322340.7824152,69090d54-2bab-4bcd-b89e-bd8bc0e4c991
-0.592607385549349,-0.972052634838425,-0.0776517579990788,0.306263869142501,0.0215946040510838,1.0215791806600871,-0.0271476138699243,-0.0518014208169124,-14.991496081431984,23.39871580209777,49.28501703482669,1.7563249230727698,-4.01872764036195,0.0495795515407065,5603.70498046875,11.8472,0.09,179.75669727826647,-8.934240555156768,104.4804010619149,1297.0,1435.0,1200.0,1528.0,1253.0,988.0,161.0,292.25,1649322341.689396,1649322342.8342216,dd5d1be4-32a9-48db-a6b5-1e29d89a8b4f
-0.6124487745505489,-0.9795868424191534,-0.0697493912624619,0.3201357427715823,0.0302727436157752,1.0161487694561426,-0.023426532784404,-0.0502893201650147,-15.13334644793327,23.72175232712521,49.32109570618432,1.715299796284267,-4.047502760036387,0.0207188856147137,5594.520236545139,11.84722222222222,0.09,179.75836202304015,-8.924613460439879,104.10416707345588,1297.0,1435.0,1200.0,1528.0,1253.0,988.0,161.0,292.25,1649322342.948122,1649322344.0561,dd5d1be4-32a9-48db-a6b5-1e29d89a8b4f
-0.5919893966565355,-0.9881072028237708,-0.0626490949967354,0.3305100634008621,0.0393321953903366,1.015925241636973,-0.0150508130602969,-0.0445038934372813,-15.040957737980316,23.751880102046083,49.51917594009073,1.692026923080703,-4.0826954456338935,-0.0138325229687774,5588.84619140625,11.853333333333332,0.09,179.75137246278953,-8.921495479083767,103.79437549564098,1297.0,1435.0,1200.0,1528.0,1253.0,988.0,161.0,292.25,1649322344.165,1649322345.4900916,dd5d1be4-32a9-48db-a6b5-1e29d89a8b4f
0.12679732214564,0.2967310649968493,0.0916377089019989,-0.2107823174013626,-0.0937589117248903,0.2768896835815864,-0.1341517090746201,-0.1660110027327499,-11.982928028650862,19.01816096153601,52.740901759440455,1.2306932928666006,0.7623765343939013,0.2860515588447693,5585.610026041667,11.956,0.12,179.2255586975451,-8.909313741835312,103.3908843471522,1553.0,1435.0,1200.0,1528.0,1471.0,988.0,161.0,292.25,1649322346.6077597,1649322347.7475765,6be63d6d-5dd0-40c5-bcc9-1fcb5eeea878
0.1322408822434027,0.3086174856570935,0.0951221133847526,-0.2202362309802723,-0.093916696057766,0.2727478445054696,-0.1319953227046654,-0.1469322428314398,-11.888492295638894,18.97651694463928,52.59200758999513,1.242632979059535,0.8089932566387488,0.2796751011118145,5591.27587890625,11.957666666666666,0.12,179.11976210294122,-8.896714793865053,103.59441260076996,1553.0,1435.0,1200.0,1528.0,1471.0,988.0,161.0,292.25,1649322347.8606358,1649322348.9699955,6be63d6d-5dd0-40c5-bcc9-1fcb5eeea878
0.1282831247790212,0.3009780936186282,0.1015123796724324,-0.218842469007193,-0.0862510057587083,0.277520820962961,-0.1211476475957934,-0.1386222665830345,-11.687184679308375,18.87572414971475,52.455471986082806,1.2499441024648237,0.7803579950715119,0.2441561678916564,5594.92578125,11.9556,0.12,179.0641051681245,-8.892483852156435,103.72829887957243,1553.0,1435.0,1200.0,1528.0,1471.0,988.0,161.0,292.25,1649322349.0778902,1649322350.1960115,6be63d6d-5dd0-40c5-bcc9-1fcb5eeea878
0.1328952827604047,0.2936760161963938,0.0699711862710242,-0.560041089334505,-0.151533781049293,0.6160339777468137,-0.057647027255876,-0.0827812670453579,-11.580110977039547,18.215373859896182,55.025032884084666,2.774804276428396,0.7694370809414305,0.285751258160646,5603.460774739583,11.941,0.11,178.9657868717519,-8.763614518054062,104.04657340055454,1553.0,1522.0,1200.0,1528.0,1471.0,988.0,161.0,292.25,1649322352.1356182,1649322353.2690856,af55059a-dac2-44c0-8676-2779cd5e1304
0.1628116001885066,0.2998604545115657,0.0674309593088471,-0.5642587877822797,-0.1542297697271311,0.6130492239889627,-0.0607556826046706,-0.0756137101320972,-11.637600682744964,18.08358371916527,54.89026537224461,2.7765606698763303,0.7945898408278016,0.2978471080115561,5609.57177734375,11.940222222222223,0.11,178.9400416120404,-8.736936652929636,104.09390054022344,1553.0,1522.0,1200.0,1528.0,1471.0,988.0,161.0,292.25,1649322353.3773088,1649322354.5009296,af55059a-dac2-44c0-8676-2779cd5e1304
0.1471909494830285,0.2982300162893428,0.0773582249415275,-0.5597882297114675,-0.1449336407302641,0.6134831309215769,-0.0518408661955992,-0.0828191959389123,-11.645706533864198,18.231173768942224,55.38057779419128,2.7689980151549416,0.7842678681425245,0.2594279045805822,5607.37041015625,11.9394,0.11,178.88622791760767,-8.726114616617455,104.14382983018416,1553.0,1522.0,1200.0,1528.0,1471.0,988.0,161.0,292.25,1649322354.6090477,1649322355.7357748,af55059a-dac2-44c0-8676-2779cd5e1304
0.1620095297344496,0.2986244771492012,0.0412913511786164,-1.0161402412055658,-0.229545508962625,1.0546350010413597,0.0340201221089893,0.0180707532274156,-11.493315122142226,17.48828382342392,58.60798541993949,4.783614082596883,0.8099519688385722,0.3025975277305164,5613.24560546875,11.935,0.11,178.86500788589427,-8.569888553505399,104.1893899240238,1553.0,1613.0,1200.0,1528.0,1471.0,988.0,161.0,292.25,1649322356.4944248,1649322357.5684764,490f7440-a661-4e60-84f0-0d2a27737931
0.1624828827786262,0.2963366041443689,0.0379121362682872,-1.0065679841195403,-0.2308340812663638,1.0516108010699647,0.0299440262889819,0.014112995712379,-11.51141346556609,17.46006003741257,59.08389329893462,4.754937025686844,0.7958879375619412,0.3152395942653311,5614.880588107639,11.929666666666668,0.1044444444444444,178.87980996829958,-8.557269095994883,104.19290109660317,1553.0,1613.0,1200.0,1528.0,1471.0,988.0,161.0,292.25,1649322357.6776009,1649322358.801255,490f7440-a661-4e60-84f0-0d2a27737931
0.1721997689917281,0.2932335120245475,0.039450533722917,-1.0091056841076904,-0.2287039922674673,1.0490336567584988,0.0328367394657923,0.007919959784336,-11.452633494530955,17.37212619206089,57.97158102002417,4.754216224914755,0.7941003010081125,0.3042333760408686,5613.24560546875,11.922,0.1,178.84702809592315,-8.541458915613596,104.21038182741894,1553.0,1613.0,1200.0,1528.0,1471.0,988.0,161.0,292.25,1649322358.91006,1649322360.032111,490f7440-a661-4e60-84f0-0d2a27737931
0.1785111429529052,0.2823069461105902,0.0334810255548314,-1.3722598204817005,-0.2751320444498853,1.412345279565861,0.125758575084622,0.1103351546090903,-11.300932043764297,17.14317960117607,60.89358931738883,6.388539901317225,0.7704773734930955,0.2431212659641963,5613.24560546875,11.8783,0.093,178.8351982082807,-8.39709834250505,104.1424617432934,1553.0,1710.0,1200.0,1528.0,1471.0,988.0,161.0,292.25,1649322361.14678,1649322362.278475,9b041449-e434-4191-9def-cd364068baae
0.1678738480551383,0.2875401269066601,0.0184915117210005,-1.3664612396811524,-0.2903450880722774,1.4062574328956765,0.104483984969629,0.0949380312400778,-11.56644632869747,17.343225531447885,61.37524387062437,6.362302395679828,0.7860545439010012,0.3156604280914217,5613.24560546875,11.883,0.1,178.87070153158643,-8.384644602459272,103.96054033776905,1553.0,1710.0,1200.0,1528.0,1471.0,988.0,161.0,292.25,1649322362.3872948,1649322363.5126636,9b041449-e434-4191-9def-cd364068baae
0.1975636030855469,0.2951926676298499,0.0442761052131029,-1.378229334601396,-0.2692677251951875,1.409544607123484,0.1350284056871164,0.1106770207022623,-11.099828559872345,17.19790788793346,61.5839684114278,6.396823781815217,0.8126847437317078,0.2098194318631126,5609.982150607639,11.890111111111109,0.0955555555555555,178.8866401574696,-8.377955475668369,103.84036847169202,1553.0,1710.0,1200.0,1528.0,1471.0,988.0,161.0,292.25,1649322363.6209424,1649322364.746712,9b041449-e434-4191-9def-cd364068baae
0.1844280560480705,0.2917477094364991,0.0208977230984074,-1.4432760042012105,-0.3070176374505232,1.4749330784985937,0.1176195322131688,0.1057857057943225,-11.331681313830511,18.200744175935583,61.716742099676,6.69587804958845,0.8067718629029424,0.3165163789417368,5605.90283203125,11.841,0.09,178.8913710500527,-8.33141429155906,103.63647996354102,1553.0,1814.0,1200.0,1528.0,1471.0,988.0,161.0,292.25,1649322366.675891,1649322367.812858,cc9d30f4-2122-44c0-8d8c-78d01731337f
0.177235719458008,0.2898411485821934,0.0197406377770737,-1.4532164294885213,-0.3098314589161214,1.4882395599598184,0.1195918365486228,0.094004474008454,-11.285478271218151,18.27140151005228,62.04339429001965,6.748688762736042,0.7975507010008467,0.3192641723263651,5593.304796006944,11.847555555555555,0.0877777777777777,178.90189576443578,-8.35813369751456,103.4104915435296,1553.0,1814.0,1200.0,1528.0,1471.0,988.0,161.0,292.25,1649322367.9218023,1649322369.2470293,cc9d30f4-2122-44c0-8d8c-78d01731337f
0.1689257437210331,0.2872508555906794,0.0108258216469302,-1.43396671669067,-0.3132369717380795,1.4635331576101296,0.1040895240374507,0.0851554014638239,-11.59441783261798,18.16293273279133,60.6000784856004,6.648199005790518,0.7998771541962344,0.3557746261056121,5587.63134765625,11.846900000000002,0.09,178.89018396317496,-8.349923506568242,103.23878468590895,1553.0,1814.0,1200.0,1528.0,1471.0,988.0,161.0,292.25,1649322369.358795,1649322370.4710596,cc9d30f4-2122-44c0-8d8c-78d01731337f
0.1291150326676043,0.3044225461076212,0.1258910734831305,0.2473142215794908,-0.0208686055245765,-0.1744049284773159,-0.2340292149169433,-0.2599346782584755,-12.081879795040862,20.694582508207468,49.3539088850976,-0.8045504421235967,0.7677418762579549,0.2816985220086825,5586.822428385417,11.958555555555554,0.11,178.8619877280253,-8.905413039773062,103.09240735715235,1553.0,1349.0,1200.0,1528.0,1471.0,988.0,161.0,292.25,1649322372.6211576,1649322373.756918,e3436194-cc7f-49f6-9d93-2bca807bfb3c
0.1253378168857808,0.3091828795552089,0.1244963002890874,0.2459113569073968,-0.0227822465634227,-0.1741237486408423,-0.2351074080725323,-0.2579992909547031,-12.032198293378858,20.61357510616106,49.86418635220711,-0.8012541831578998,0.7808047388249725,0.2890927091749251,5587.63134765625,11.957,0.12,178.78136265724265,-8.900893351817285,103.4357495830803,1553.0,1349.0,1200.0,1528.0,1471.0,988.0,161.0,292.25,1649322373.8652852,1649322374.982005,e3436194-cc7f-49f6-9d93-2bca807bfb3c
0.0932342641156966,0.3056236288574564,0.1191270808554611,0.2441155485255763,-0.0264694445370491,-0.1708396086116031,-0.2402369173997434,-0.2679756128765328,-12.227585858474969,20.60370909509519,49.56112869053306,-0.7903027948012931,0.7714048375117208,0.3077305298912155,5596.551106770833,11.95888888888889,0.11,178.747035644294,-8.901363306777675,103.66869849709292,1553.0,1349.0,1200.0,1528.0,1471.0,988.0,161.0,292.25,1649322375.0907595,1649322376.2089732,e3436194-cc7f-49f6-9d93-2bca807bfb3c
0.0984355848388822,0.3064348022252942,0.1562635495782393,0.6063433895451844,0.0401342658935759,-0.5206839958298588,-0.3088584551308201,-0.3411516582638667,-12.33949083397049,22.15673407433534,47.22042198614326,-2.381832221748717,0.7537674832431133,0.2633524131614798,5605.90283203125,11.941,0.11,178.71446778451158,-9.00804564410766,104.19294207773818,1553.0,1264.0,1200.0,1528.0,1471.0,988.0,161.0,292.25,1649322378.1496842,1649322379.188124,ab7858d5-8c54-4477-bca5-4dccb1929d31
0.0916114115840283,0.3090382439134176,0.1515037216692835,0.6062250512934589,0.0354533299961813,-0.5227220442904593,-0.3155774399975146,-0.3264514143541194,-12.470213689196363,22.182327896133884,47.23402657962343,-2.3862760236815705,0.7640498758356398,0.2860138346537256,5605.90283203125,11.9358,0.11,178.6955809454186,-9.015930129894308,104.35761338516772,1553.0,1264.0,1200.0,1528.0,1471.0,988.0,161.0,292.25,1649322379.2971342,1649322380.5101726,ab7858d5-8c54-4477-bca5-4dccb1929d31
0.0906910028674635,0.3146527368357601,0.1470594624930012,0.5965870578741055,0.0289315766466381,-0.5208023341323179,-0.3196140902899432,-0.3407309001915715,-12.424261446491526,22.1473349801702,46.99497917723348,-2.360689467853375,0.7878053777871281,0.307006232228518,5600.613226996527,11.943666666666664,0.1055555555555555,178.6877890656135,-9.0250437082221,104.50318520694822,1553.0,1264.0,1200.0,1528.0,1471.0,988.0,161.0,292.25,1649322380.6189363,1649322381.7348225,ab7858d5-8c54-4477-bca5-4dccb1929d31
0.0802377894369236,0.318610494147013,0.1853353160012041,0.9761241408422756,0.0955954664193463,-0.8869542241334686,-0.3967575048784497,-0.4111027354262034,-12.726640769402932,24.103795056607986,45.00770696235136,-4.025217826690957,0.7781332108013853,0.2738585927168909,5600.409912109375,11.928999999999998,0.1,178.6962106888601,-9.165473535922423,104.69665031518882,1553.0,1178.0,1200.0,1528.0,1471.0,988.0,161.0,292.25,1649322382.6495574,1649322383.786914,c4528af6-c2ab-4cbe-912a-8b2b9d942ed9
0.071086296941056,0.3266049009275991,0.1835602420880617,0.966538741958584,0.092439779378765,-0.8897417491950531,-0.3991242706301927,-0.433889431733829,-12.775690407522577,23.98503347563396,44.4562816724322,-4.010847718672637,0.8144171499288152,0.2840661258077409,5594.92578125,11.926,0.1,178.69838951920534,-9.183305452298034,104.78217111378656,1553.0,1178.0,1200.0,1528.0,1471.0,988.0,161.0,292.25,1649322383.8953168,1649322385.0162058,c4528af6-c2ab-4cbe-912a-8b2b9d942ed9
0.0831962460769571,0.3232125375217494,0.1838626620625832,0.9710355957443528,0.0933338906747647,-0.888058715190963,-0.3986640662242822,-0.4267759848729096,-12.762093734224832,24.04775798823765,44.81356888087576,-4.016714852214142,0.797897439820845,0.2818974889621108,5591.27587890625,11.915333333333333,0.1044444444444444,178.7076907190351,-9.186382926837815,104.8591845323181,1553.0,1178.0,1200.0,1528.0,1471.0,988.0,161.0,292.25,1649322385.1250126,1649322386.2457106,c4528af6-c2ab-4cbe-912a-8b2b9d942ed9
0.0696004942664108,0.3293398295584819,0.1977082386072302,1.17000165712053,0.1173434095733957,-1.078583441919695,-0.4505751302334683,-0.4744400199252005,-12.936593896995925,25.552191646731217,44.46452952895197,-4.883149028020115,0.801613375662281,0.3054870927493637,5602.23974609375,11.897,0.1,178.74831061293906,-9.262306455878033,105.01760621665709,1553.0,1088.0,1200.0,1528.0,1471.0,988.0,161.0,292.25,1649322388.179278,1649322389.3215454,5441f59f-daed-4fe7-b22b-b1925d219350
0.0650378966910166,0.3248955705234748,0.1898716160272643,1.1475042385228875,0.1097434633543379,-1.054442418772194,-0.4504567917720892,-0.4829603767820217,-13.00871274110816,25.376956355919592,44.3051806990398,-4.77976583250221,0.7891375881064226,0.3254139073272783,5619.13740234375,11.8931,0.091,178.74689342457728,-9.245019882675775,105.02466673498412,1553.0,1088.0,1200.0,1528.0,1471.0,988.0,161.0,292.25,1649322389.4311,1649322390.541648,5441f59f-daed-4fe7-b22b-b1925d219350
0.0743471735739352,0.3265128600593707,0.196117246441306,1.1741171989212569,0.1161600269420954,-1.0839744110462484,-0.453822858930639,-0.4855901167639477,-12.947529142692211,25.626061804110723,43.82406236774962,-4.904244034733438,0.7961580436146076,0.3126444082178214,5622.656521267361,11.898888888888887,0.0955555555555555,178.76106940630862,-9.268659100988575,105.00635461836436,1553.0,1088.0,1200.0,1528.0,1471.0,988.0,161.0,292.25,1649322390.6514587,1649322391.780566,5441f59f-daed-4fe7-b22b-b1925d219350
0.1241938803495566,0.3139032612010141,0.1039843344978243,-0.1853132902451745,-0.0849624335004158,0.2453065169436254,-0.1299178286034777,-0.1537958629085452,-11.466093233260963,19.073142362040176,54.0366700574378,1.103715787364844,0.8092881796996566,0.2556800729416872,5646.530924479167,11.954,0.11,178.8537808762826,-8.846819028749511,104.9492807987498,1553.0,1435.0,1200.0,1528.0,1471.0,988.0,161.0,292.25,1649322393.7236865,1649322394.847819,3754df46-5724-4acf-bc5b-6717c7534ca0
0.1451397529553233,0.3055801370226813,0.0975283247611749,-0.1857734946328582,-0.0884468381450261,0.2508158203869976,-0.1356901066226088,-0.1515605845691658,-11.74689313546946,19.089680491474127,53.55480138565366,1.116704043067722,0.7839772910678149,0.2755507789904683,5664.35498046875,11.956666666666669,0.11,178.83268014520667,-8.82576478090547,105.00094814418134,1553.0,1435.0,1200.0,1528.0,1471.0,988.0,161.0,292.25,1649322394.9561646,1649322396.086129,3754df46-5724-4acf-bc5b-6717c7534ca0
0.136382721459443,0.3144160603260882,0.0937809463747083,-0.1912170553897149,-0.0952052683555539,0.2402048230674976,-0.1429087413639279,-0.1685224044496205,-11.681981611729828,19.12495300569057,52.52216291466246,1.1050543522722205,0.8262434497935557,0.2997377824382667,5665.18603515625,11.956,0.1066666666666666,178.8312002708865,-8.8092282288787,105.05291981248588,1553.0,1435.0,1200.0,1528.0,1471.0,988.0,161.0,292.25,1649322396.1943028,1649322397.3080118,3754df46-5724-4acf-bc5b-6717c7534ca0
0.189319370878489,0.3232519836215012,0.2742467957159322,-0.1924530329449716,0.0716385420644673,0.2340512335306474,0.0474580896932611,0.0264201755088974,-10.37375040621918,19.156847040208625,54.13574685234121,1.104127646238942,0.847416330482346,-0.4403102261127464,5665.18603515625,11.9515,0.1,178.8267369699369,-8.789074873499807,105.12034060978306,1553.0,1435.0,1200.0,1446.0,1471.0,988.0,161.0,292.25,1649322398.654854,1649322399.7635,180d0fac-bc59-47c5-ba69-f8d702067d9e
0.1907657273945957,0.3433563387864611,0.2634517167312595,-0.2100985851138822,0.0567147719107691,0.2202976979148379,0.0314824237179848,0.0063158185108914,-10.502276607378931,19.03963468291804,52.57099126719933,1.1113969921709943,0.9390841586928168,-0.3824935002690655,5652.50244140625,11.9566,0.11,178.8252479886978,-8.782088699884625,105.15691627278848,1553.0,1435.0,1200.0,1446.0,1471.0,988.0,161.0,292.25,1649322399.8724225,1649322401.1970756,180d0fac-bc59-47c5-ba69-f8d702067d9e
0.1845463943050559,0.3332581407671992,0.2690399123241522,-0.2031692214659193,0.0637098782880485,0.2275163318157421,0.0391481136773301,0.0136790883623538,-10.462278730477353,19.158171941755203,53.146727838844654,1.1131632420019764,0.8953270617545372,-0.4109225013461823,5624.29541015625,11.956111111111111,0.11,178.84688086740104,-8.79138065998624,105.18655625814672,1553.0,1435.0,1200.0,1446.0,1471.0,988.0,161.0,292.25,1649322401.3089516,1649322402.4287312,180d0fac-bc59-47c5-ba69-f8d702067d9e
0.2560095551268844,0.3649464964376023,0.5083593143578531,-0.2201178926928571,0.2796772069454128,0.1997594352815286,0.2866591642280887,0.2589943086784537,-8.63863536840255,19.0818571690134,53.26153755680742,1.1013687247370323,1.0175098307341932,-1.378545242568587,5613.24560546875,11.958,0.11,178.82471766245428,-8.787695583201542,105.1800387398587,1553.0,1435.0,1200.0,1364.2222222222222,1471.0,988.0,161.0,292.25,1649322403.9745884,1649322405.0867927,f404f576-09b1-4952-8513-2e93131164d9
0.2548393212199256,0.3673264102895948,0.4927123672531092,-0.2199469596285908,0.264056556722233,0.1972217370052804,0.2680011653729582,0.2551680384331707,-8.786747035020406,19.16286725568209,53.12247955904313,1.0949417846169478,1.0277051154942989,-1.3094193126966618,5611.04130859375,11.9494,0.106,178.81629224465811,-8.808566269711637,105.17702025159149,1553.0,1435.0,1200.0,1354.0,1471.0,988.0,161.0,292.25,1649322405.1949563,1649322406.3161151,f404f576-09b1-4952-8513-2e93131164d9
0.2604801116012139,0.354204012403752,0.4992998634692832,-0.2102169233919969,0.2737602939739919,0.1999566657097438,0.275509070468015,0.2421639783244423,-8.891294875550843,19.266143477105608,53.01081291312694,1.0800811735641935,0.9794391955593348,-1.3440807861167428,5608.756456163194,11.950333333333331,0.1077777777777777,178.85212645268362,-8.81410726067581,105.17500413153049,1553.0,1435.0,1200.0,1354.0,1471.0,988.0,161.0,292.25,1649322406.4244757,1649322407.5456562,f404f576-09b1-4952-8513-2e93131164d9
0.337347385018867,0.3912964817090978,0.7549367914392419,-0.2214459111706543,0.5030735389493854,0.1612600540617076,0.5336311062099409,0.515354420102485,-7.103973920882103,19.45914844054769,53.17253044806222,1.0333885017394269,1.122066810779308,-2.366597240446988,5613.248046875,11.9365,0.105,178.78120556289173,-8.821089848441678,105.12489976105404,1553.0,1435.0,1200.0,1252.0,1471.0,988.0,161.0,292.25,1649322408.662645,1649322409.7965643,3e6d47ee-f1a4-4097-8d58-97c98385e66e
0.3362560432964449,0.3925324590606334,0.7458641918906365,-0.2233524722856474,0.4936459245995144,0.1596033183991794,0.5238879232016561,0.4999441495103964,-7.089802862779127,19.46055851924071,52.78729049047664,1.0334696468283755,1.12967615803661,-2.327918499495661,5610.30654296875,11.9428,0.108,178.78161127612844,-8.836819517968124,105.12339780245556,1553.0,1435.0,1200.0,1252.0,1471.0,988.0,161.0,292.25,1649322409.9059036,1649322411.0233052,3e6d47ee-f1a4-4097-8d58-97c98385e66e
0.3317328921169051,0.3937421390230741,0.7440759693738791,-0.222958011385429,0.4913580516535086,0.1604974297189673,0.521047805066871,0.4919102968281663,-7.136789311936063,19.5332706557516,53.11588647984754,1.035010731514593,1.131472716746356,-2.317770482053075,5607.7373046875,11.9435,0.1,178.78710001614547,-8.840204559720783,105.14806434762416,1553.0,1435.0,1200.0,1252.0,1471.0,988.0,161.0,292.25,1649322411.13104,1649322412.2581131,3e6d47ee-f1a4-4097-8d58-97c98385e66e
0.0460759595609845,0.2664683309601096,-0.1259317504948723,-0.1391815914571368,-0.2902778275135005,0.2527507015066372,-0.3771098088823042,-0.4108918512410555,-13.387843096065463,19.75716104673681,52.69248972013179,1.0082865803024228,0.6366498078144757,1.1918210521055763,5620.60791015625,11.954333333333333,0.1044444444444444,178.90114292580725,-8.835694642730068,105.24686379287829,1553.0,1435.0,1200.0,1604.0,1471.0,988.0,161.0,292.25,1649322413.169143,1649322414.3023708,3ca1fda7-87e2-4ac0-812b-85d736d1119f
0.0493884195885449,0.2727013183435857,-0.1261593240905667,-0.1423044070624789,-0.291478910486128,0.2479590134101129,-0.378095961268455,-0.4011567560255802,-13.345548017403576,19.664059458438903,52.46707207412679,1.003920168330435,0.6620942964142327,1.1956479171193932,5620.60791015625,11.955,0.1,178.9294548188269,-8.849781338710788,105.23210982536116,1553.0,1435.0,1200.0,1604.0,1471.0,988.0,161.0,292.25,1649322414.4103966,1649322415.5335171,3ca1fda7-87e2-4ac0-812b-85d736d1119f
0.0456567184340741,0.2696447523659168,-0.1246714984275419,-0.1388326452222678,-0.2897139505964005,0.2526960838492387,-0.3745099065511198,-0.4002419101442892,-13.202804218265172,19.66575815566565,53.18752304376087,1.0070055962836508,0.6429015721649867,1.1868859854625176,5623.888075086806,11.957222222222224,0.1044444444444444,178.913760561934,-8.852535043311162,105.2415483878842,1553.0,1435.0,1200.0,1604.0,1471.0,988.0,161.0,292.25,1649322415.6414928,1649322416.7667592,3ca1fda7-87e2-4ac0-812b-85d736d1119f
0.014323375036539,0.2465556430172677,-0.2869921701038825,-0.1049878988609885,-0.4352568955225359,0.249500950836033,-0.551491400006432,-0.5731473096298574,-14.573606947938408,20.024467892728754,52.64464543215717,0.916999129420825,0.556365895118693,1.853997049760559,5627.24970703125,11.9438,0.1,178.9649991232676,-8.861599273522202,105.25219604567232,1553.0,1435.0,1200.0,1676.0,1471.0,988.0,161.0,292.25,1649322417.491614,1649322418.6035843,87cfeb35-6c46-4ea6-9d4d-94824aa066f4
0.0105891452634042,0.245043543014625,-0.2844544713325977,-0.109156035868725,-0.4332319958227831,0.2511576864715512,-0.5491772287390433,-0.5846129764749992,-14.66011212069279,20.09432199247401,52.14251855369682,0.9305901767895844,0.5564324490923822,1.8434681324762925,5620.60791015625,11.939666666666666,0.0966666666666666,178.960313613497,-8.858466208831674,105.21096128296108,1553.0,1435.0,1200.0,1676.0,1471.0,988.0,161.0,292.25,1649322418.7126255,1649322419.833843,87cfeb35-6c46-4ea6-9d4d-94824aa066f4
-0.0006924362971598,0.2465950891056827,-0.2798655757849398,-0.1076176383463473,-0.4300368620459137,0.2487120290966095,-0.545942648657822,-0.5701231086784901,-14.605659199263949,20.193885792266386,52.24092025422977,0.9225558230512166,0.5610973444672255,1.82859295254738,5617.333604600694,11.941222222222224,0.1,178.97041925782898,-8.861138520344442,105.13439713909494,1553.0,1435.0,1200.0,1676.0,1471.0,988.0,161.0,292.25,1649322419.9432647,1649322421.060828,87cfeb35-6c46-4ea6-9d4d-94824aa066f4
-0.0536816836768389,0.2264907335416633,-0.4644601565843484,-0.0630567045385641,-0.5971173899151292,0.240415202179368,-0.7476042745946416,-0.7704172735985338,-15.867489732734146,20.56647782926376,52.609265617806805,0.7960951189133696,0.4741776804984019,2.59235084841548,5620.60791015625,11.942600000000002,0.094,179.01767081007108,-8.883594873215852,105.03657653583988,1553.0,1435.0,1200.0,1747.0,1471.0,988.0,161.0,292.25,1649322423.2009428,1649322424.3378117,63a268fc-cc0a-4f64-90cc-e6f0a2ae5070
-0.0362298230904511,0.230777208317254,-0.4550537794434142,-0.0673441911212341,-0.5907761763478877,0.2362263312082264,-0.738964566168045,-0.7680687123919296,-15.704704784352447,20.630087638392578,52.11773613190845,0.7972473268712464,0.4945841029475784,2.558466399504892,5620.60791015625,11.942666666666666,0.1,178.98801230731112,-8.882100276043472,105.00953596869776,1553.0,1435.0,1200.0,1747.0,1471.0,988.0,161.0,292.25,1649322424.4473238,1649322425.5660255,63a268fc-cc0a-4f64-90cc-e6f0a2ae5070
-0.0489087067572752,0.2206527126840154,-0.4572546693570257,-0.0565480996132643,-0.5894648462868288,0.2383245595978868,-0.7415558718554638,-0.7588201176214844,-15.89266201903252,20.72008195424645,52.40033485720671,0.7780464173933049,0.4539695100266663,2.562469641294209,5624.29541015625,11.944400000000002,0.096,178.99894789551823,-8.892700881417316,104.96129828892148,1553.0,1435.0,1200.0,1747.0,1471.0,988.0,161.0,292.25,1649322425.67404,1649322426.7983916,63a268fc-cc0a-4f64-90cc-e6f0a2ae5070
0.1084154451266414,0.2838716408756151,0.0377675005538361,-0.1478789489905578,-0.1167428341169518,0.2483175682277566,-0.16914039239186,-0.1967921031789482,-11.315971251036698,16.484345342268725,54.80588283851514,1.0057788993129058,0.679920637315784,0.4440183143405237,8003.94677734375,11.669,6.993,-179.457674328479,-8.941066560835916,93.66412851869887,1553.0,1435.0,1350.0,1528.0,1471.0,988.0,161.0,292.25,1649322430.5270174,1649322431.501911,5c0e574b-9138-4af6-bc14-70a835a62129
0.0956086152014082,0.2828723400179847,0.0342042038504483,-0.1527965618207875,-0.119990562282622,0.2521306899382045,-0.1689826080042075,-0.1984751368136582,-11.142632961915355,16.30850392712059,54.55324814327934,1.024144302931726,0.6775614878913696,0.4527473874597576,8004.861056857639,11.672555555555554,6.996666666666667,-179.0011247526977,-8.832661279828676,89.13857145725709,1553.0,1435.0,1350.0,1528.0,1471.0,988.0,161.0,292.25,1649322431.6117618,1649322432.731429,5c0e574b-9138-4af6-bc14-70a835a62129
0.1289001020655291,0.2793388809686771,0.0455323114327591,-0.1514199943012355,-0.1081304375536868,0.2543184305822552,-0.1563760416155211,-0.1796517644823293,-11.146563460839667,16.312466420361446,54.64434628103048,1.026558124239196,0.6640780106308946,0.4029115786889217,8009.848036024306,11.67388888888889,6.972222222222222,-178.71498384324883,-8.748062746496373,84.27780586271498,1553.0,1435.0,1350.0,1528.0,1471.0,988.0,161.0,292.25,1649322432.8417816,1649322433.9633255,5c0e574b-9138-4af6-bc14-70a835a62129
0.3318643790659398,0.6647630412892958,0.087180300904398,-0.3388506361375925,-0.1595944382431628,0.0448414992595245,-0.1978965937058274,-0.2279019221728982,-10.305698717211506,15.362985564417391,54.02349412316416,0.9747369679429354,2.134904992470971,0.520448051305859,7994.077473958333,11.649,7.042222222222222,-179.07306485849574,-8.558092987563516,75.38815225122312,1637.0,1435.0,1350.0,1528.0,1535.0,988.0,161.0,292.25,1649322436.1032195,1649322437.2367754,71ab249e-16b6-42aa-a6c1-903888220ab0
0.328721840877663,0.6646184056447789,0.0857339443169793,-0.336273491167849,-0.1619480550632714,0.0413833921368365,-0.1997900061674463,-0.2151871313082432,-10.144975053388816,15.410135955085272,53.83494067424107,0.9614441262799556,2.134487909382752,0.5281533258816534,7981.670627170139,11.649,7.059999999999999,-179.22365383367656,-8.521467710822877,72.39565209490414,1637.0,1435.0,1350.0,1528.0,1535.0,988.0,161.0,292.25,1649322437.3449514,1649322438.466128,71ab249e-16b6-42aa-a6c1-903888220ab0
0.3308256321319209,0.6670640629079765,0.0892577949086628,-0.3348665804947643,-0.1580954867386394,0.0385564224314858,-0.19741009189799,-0.2224978070460643,-10.22932653741262,15.38154118072186,53.98132782300294,0.9518846826940828,2.14300989209972,0.5151815751513235,7980.84423828125,11.649888888888889,7.0555555555555545,-179.3805053334164,-8.515722478229772,69.80544097378002,1637.0,1435.0,1350.0,1528.0,1535.0,988.0,161.0,292.25,1649322438.5749795,1649322439.9044273,71ab249e-16b6-42aa-a6c1-903888220ab0
0.5483839420413775,1.0473243263431644,0.1490054694095578,-0.5246154574919111,-0.1964633858483341,-0.165156337072175,-0.2232341340088217,-0.2393544378897332,-9.353610424246185,14.995025313800648,53.28035735538368,0.9228837390477636,3.596374933530444,0.5668954979723605,7988.28173828125,11.618199999999998,7.05,179.63922348869357,-8.516604796374931,65.25890513808451,1723.0,1435.0,1350.0,1528.0,1599.0,988.0,161.0,292.25,1649322442.042627,1649322443.1759918,7d7725be-27d0-41d5-93cb-074a5ee5d95a
0.5495410272024245,1.055016313204627,0.1477037485666046,-0.5291912049331601,-0.199132571383109,-0.1668130729369683,-0.2236285949083611,-0.2546463731126704,-9.1978564948269,14.83721755459947,53.5116660477422,0.9284869283064424,3.62255026379446,0.5742575830740899,7995.7333984375,11.624000000000002,7.04,179.45830270588263,-8.55342028439758,63.88552553374311,1723.0,1435.0,1350.0,1528.0,1599.0,988.0,161.0,292.25,1649322443.2841418,1649322444.6141217,7d7725be-27d0-41d5-93cb-074a5ee5d95a
0.5573250546391801,1.057567160138657,0.139472664942106,-0.5329122869357902,-0.2086259310222745,-0.1682594296392302,-0.231307434370812,-0.2503467494817789,-9.028061566937644,14.79316105304189,53.1128640512783,0.9329506112178112,3.634385886833252,0.6091911605451615,8003.19873046875,11.6094,7.028999999999999,179.2537699591109,-8.570915899333935,62.67922055272724,1723.0,1435.0,1350.0,1528.0,1599.0,988.0,161.0,292.25,1649322444.7238655,1649322445.794633,7d7725be-27d0-41d5-93cb-074a5ee5d95a
0.6889303426354703,1.2885503008871777,0.1908709169022562,-0.6300285876678022,-0.2211697885228372,-0.3214680566986688,-0.2480062805513329,-0.2813119328895859,-8.79008602788749,15.398707849484488,50.92005092154478,0.8140847266974797,4.533689356365753,0.6039130555082781,8010.67919921875,11.565222222222223,7.002222222222222,178.78188782289882,-8.56072631007977,61.40890804761539,1813.0,1435.0,1350.0,1528.0,1662.0,988.0,161.0,292.25,1649322446.473245,1649322447.685114,149ce5fe-af17-415a-a390-b7f0a097e783
0.6934271963130756,1.279464551727869,0.2011137508678173,-0.6339863467600589,-0.2122418228312214,-0.3109753955341671,-0.234002917439543,-0.2526872174851417,-8.614951505710449,15.548830610502415,50.718752671666834,0.8481521490138256,4.501295987039019,0.5564957985496194,8010.67919921875,11.56522222222222,7.02,178.6506814067627,-8.569617698559313,60.60639572999465,1813.0,1435.0,1350.0,1528.0,1662.0,988.0,161.0,292.25,1649322447.793357,1649322448.9105484,149ce5fe-af17-415a-a390-b7f0a097e783
0.6844203402616276,1.2859468589876462,0.1928037751758002,-0.6279642416378374,-0.2193289709106258,-0.3250313539146642,-0.2476381170273571,-0.2752372340686625,-8.83209886042152,15.504199952423592,50.329269840542985,0.8021011044211996,4.529328457482766,0.5970440728848836,8009.848036024306,11.559666666666669,7.013333333333333,178.55339978132412,-8.560838628746122,59.95290599750506,1813.0,1435.0,1350.0,1528.0,1662.0,988.0,161.0,292.25,1649322449.0196557,1649322450.1441088,149ce5fe-af17-415a-a390-b7f0a097e783
-0.1560574385771771,-0.1884821262512039,-0.0218618377994049,0.0523494047758277,-0.0647397376919021,0.5241245997320182,-0.11901755858991,-0.1489571421172736,-12.211352672945022,17.454829103822796,54.38749871844568,1.176834921692231,-1.1100638799483145,0.3260915396472874,8005.44287109375,11.6514,7.057,179.27160221699597,-8.579069181523542,58.92976908331906,1470.0,1435.0,1350.0,1528.0,1403.0,988.0,161.0,292.25,1649322451.0534103,1649322452.191302,1a98095e-af65-4f3b-a5d7-6eb26f6d4c5f
-0.1710075073531681,-0.1911907579172671,-0.0216120126362692,0.0525597838291278,-0.0628594741429016,0.525347428372728,-0.1191753429828044,-0.1450782763978706,-12.42050847901401,17.452989488594834,54.21318647459865,1.1789753918298365,-1.1172077129121931,0.3226974000683445,8015.67431640625,11.655333333333331,7.04,179.15646753954084,-8.570248447556414,58.49353969977354,1470.0,1435.0,1350.0,1528.0,1403.0,988.0,161.0,292.25,1649322452.2996397,1649322453.421857,1a98095e-af65-4f3b-a5d7-6eb26f6d4c5f
-0.1588055162911429,-0.1876274608998851,-0.0257144059180214,0.050784709835834,-0.0683950754424129,0.5222837824287815,-0.1236721973516128,-0.1389509835096592,-12.28086554882115,17.440965260761075,54.00804549011181,1.175848712541773,-1.103055105771756,0.3424605178857668,8018.171875,11.657666666666666,7.04,179.0368162856606,-8.590427387685573,58.041674874853015,1470.0,1435.0,1350.0,1528.0,1403.0,988.0,161.0,292.25,1649322453.5303848,1649322454.6518805,1a98095e-af65-4f3b-a5d7-6eb26f6d4c5f
-0.3848973784077755,-0.5882814630393506,-0.0758503865765566,0.2208893891019828,-0.0274237365510436,0.7502821533953556,-0.0893278008056871,-0.114836273265867,-13.3722666475542,18.852548003116848,52.80901712214184,1.3105976142576123,-2.6114975237797817,0.2560764423283856,8018.171875,11.592666666666666,7.027777777777778,178.90345760102596,-8.608350373250115,57.13767125853524,1385.0,1435.0,1350.0,1528.0,1331.0,988.0,161.0,292.25,1649322456.581361,1649322457.716997,46051971-2548-4f40-a4c4-43ce947d8574
-0.3779943116200041,-0.5756455620097407,-0.0719057775360111,0.2103835812650194,-0.0284493348747103,0.7494800830026052,-0.0857776526483647,-0.1197407374773402,-13.143996119387095,18.85466003259049,53.107221552391486,1.3328666407077907,-2.566820240571254,0.2490579421867579,8018.171875,11.595666666666668,7.023333333333333,178.8529749139605,-8.594701663149923,56.81301832745123,1385.0,1435.0,1350.0,1528.0,1331.0,988.0,161.0,292.25,1649322457.8253622,1649322458.9490488,46051971-2548-4f40-a4c4-43ce947d8574
-0.3835693598417144,-0.5877949611117067,-0.0743119890179391,0.2119351273767088,-0.0264770303476671,0.756711865248007,-0.0862378570110393,-0.1121144928485588,-13.4555341282179,18.82859461283945,52.63731689810788,1.3450931832172728,-2.606362143005112,0.2479803543783334,8018.171875,11.600666666666667,7.02,178.77253349937553,-8.602826173167651,56.55412911388079,1385.0,1435.0,1350.0,1528.0,1331.0,988.0,161.0,292.25,1649322459.0568163,1649322460.177881,46051971-2548-4f40-a4c4-43ce947d8574
-0.6296472751045448,-1.0216758456555175,-0.1296943007532486,0.3956881458454422,0.0141261444437676,1.000738498465122,-0.0515252974412217,-0.0638324778987978,-14.45858183387191,20.54269785425871,50.85275363387822,1.4867677708357516,-4.23686919593828,0.1639358686853085,8015.1748046875,11.5116,7.002,178.8406896803734,-8.597349158308706,56.1830631501118,1297.0,1435.0,1350.0,1528.0,1253.0,988.0,161.0,292.25,1649322460.9933271,1649322462.2285702,810d5a82-6107-441f-9f71-9073365def43
-0.6148944328505401,-1.0333913416757037,-0.1238562792124744,0.4036825525121681,0.0221468492561552,1.003999374916645,-0.0464630491845029,-0.0713403835423982,-14.665130578902811,20.759636043908493,50.7714764988933,1.4776738493655284,-4.279237674545336,0.1361503551764918,8010.67919921875,11.517777777777775,7.0,178.7974879749632,-8.597513329494506,55.95719866008827,1297.0,1435.0,1350.0,1528.0,1253.0,988.0,161.0,292.25,1649322462.3432543,1649322463.4516814,810d5a82-6107-441f-9f71-9073365def43
-0.6358797591994331,-1.033180962389943,-0.1375572216439968,0.4069565776426847,0.0071704840390043,1.0005018219477575,-0.0614920095777642,-0.0889859347050763,-14.469515580355552,20.86642991102,50.61930943039144,1.4625289275730304,-4.279754344405479,0.1965551487645795,8010.67919921875,11.520888888888887,7.011111111111111,178.7488023865593,-8.585525683454964,55.7501179491922,1297.0,1435.0,1350.0,1528.0,1253.0,988.0,161.0,292.25,1649322463.561211,1649322464.8886569,810d5a82-6107-441f-9f71-9073365def43
0.1152264696701064,0.2856598634591757,0.0397003589045888,-0.1465772279800111,-0.1113781657190516,0.2444124056457256,-0.1664186120180575,-0.1968184013358347,-11.499160849032302,16.1805280349892,54.69283984790517,0.9920390830091276,0.6888831380010941,0.4302664429626165,8012.34423828125,11.664555555555555,7.059999999999999,178.26741368949644,-8.637352779422066,55.57301152346872,1553.0,1435.0,1350.0,1528.0,1471.0,988.0,161.0,292.25,1649322465.494996,1649322466.7286482,ff7412a3-21ae-4cd9-a40d-6835880481d1
0.1086652703484712,0.2813996861277772,0.0384380840859659,-0.1485626812018058,-0.1114307604790739,0.2457930186777618,-0.1651563370893494,-0.1866807552947452,-11.4341829511911,16.06586863896803,54.03722819886422,0.998725456946864,0.6784181405065742,0.428896413898242,8018.171875,11.6649,7.058999999999999,178.240490905172,-8.625918302814306,55.58646593365977,1553.0,1435.0,1350.0,1528.0,1471.0,988.0,161.0,292.25,1649322466.837535,1649322467.9058545,ff7412a3-21ae-4cd9-a40d-6835880481d1
0.1153053618449046,0.2882238590670317,0.0304042306224455,-0.1493910491396124,-0.1200300083556187,0.2428214134799152,-0.1745971017817072,-0.2086390797998344,-11.437636025462918,16.003206542469538,54.39017280115635,0.9931555547545317,0.7005008626417617,0.4663411268737477,8018.171875,11.665,7.059999999999999,178.2202019041335,-8.6039832261858,55.59513905964983,1553.0,1435.0,1350.0,1528.0,1471.0,988.0,161.0,292.25,1649322468.015721,1649322469.189707,ff7412a3-21ae-4cd9-a40d-6835880481d1
0.125982102980618,0.2721167071255845,0.0064473057607796,-0.5793140497860019,-0.184051015368936,0.6725076226230254,-0.0732732418773411,-0.0980322383381513,-11.16804362241806,14.912374084862437,57.25875756021978,2.920687616942773,0.6641524290335422,0.4408959355499956,8018.171875,11.653222222222222,7.050000000000001,178.21387259550264,-8.45638928895604,55.628311011718864,1553.0,1522.0,1350.0,1528.0,1471.0,988.0,161.0,292.25,1649322470.0226471,1649322471.2384806,d143abdc-3473-44bd-85a0-0ffaa020311e
0.1382498363021566,0.2775076722724091,0.0078147701880689,-0.5860330355517769,-0.1858392382164275,0.676610015451741,-0.0731154575266651,-0.0934301943663562,-11.179368803474,15.067764302118135,57.71709131613076,2.946228178482865,0.6813063585758353,0.442411042873951,8018.171875,11.646,7.050000000000001,178.23239303289205,-8.451455236190615,55.66278259700496,1553.0,1522.0,1350.0,1528.0,1471.0,988.0,161.0,292.25,1649322471.346852,1649322472.463596,d143abdc-3473-44bd-85a0-0ffaa020311e
0.1400006357404176,0.2798572430015255,0.0029381209651814,-0.5890820169725571,-0.1900063638838752,0.6774282688538396,-0.0772942145216916,-0.0942863769509416,-11.230907402861426,14.941798050645088,57.72847789732172,2.9538426600078216,0.6904466409033232,0.4609731689773758,8018.171875,11.653,7.053333333333333,178.2409398762735,-8.442703487134104,55.693056272136175,1553.0,1522.0,1350.0,1528.0,1471.0,988.0,161.0,292.25,1649322472.5721714,1649322473.702585,d143abdc-3473-44bd-85a0-0ffaa020311e
0.1506885026082115,0.27574574708033,-0.0143539321075386,-1.070970341360021,-0.260339759303978,1.1457028670256528,0.0345197726134232,0.0093663161813368,-11.01336759326639,14.355983280907529,61.01107167877814,5.089028506403261,0.7026174003263889,0.4214411107194407,8018.171875,11.632444444444443,7.050000000000001,178.27507412610555,-8.291165305386139,55.71808512089474,1553.0,1613.0,1350.0,1528.0,1471.0,988.0,161.0,292.25,1649322475.4941318,1649322476.5588808,ded701f3-1921-4b67-9d83-f2ca167dc9cb
0.1549749774573755,0.2750883123012587,-0.0178777827659129,-1.0757038754634234,-0.2633771085109346,1.147596279213489,0.0337308508588652,0.0135081557022324,-10.91081813211931,14.195302003135112,60.55407617841169,5.102699082837669,0.7038328208753363,0.4308767992410593,8018.171875,11.6248,7.042,178.33793584802277,-8.284176447127157,55.74191011086659,1553.0,1613.0,1350.0,1528.0,1471.0,988.0,161.0,292.25,1649322476.6666574,1649322477.9952755,ded701f3-1921-4b67-9d83-f2ca167dc9cb
0.1682814576502761,0.2792170026785432,-0.0171677531951365,-1.0775183966794952,-0.263981948654057,1.1462288148431432,0.0357294526561014,0.0108389702314427,-10.686183911924054,14.097483729149886,60.70754958551175,5.103243768383284,0.7166345428435003,0.4287845431324593,8018.171875,11.631,7.05,178.35869689102392,-8.28924927131241,55.77525560665878,1553.0,1613.0,1350.0,1528.0,1471.0,988.0,161.0,292.25,1649322478.1033833,1649322479.2206948,ded701f3-1921-4b67-9d83-f2ca167dc9cb
0.1670323315361685,0.252012351676429,-0.0384686417229294,-1.497185716481519,-0.3291205993122251,1.577611257053026,0.1299924551799536,0.0973179455221394,-10.774183257281924,14.007999604219416,63.5869072773364,7.018045216074856,0.6400218737205777,0.4093955834618709,8025.68017578125,11.594333333333331,7.023333333333333,178.41902567523292,-8.14908276163415,55.86804913376649,1553.0,1710.0,1350.0,1528.0,1471.0,988.0,161.0,292.25,1649322481.159268,1649322482.297011,98fb6006-7cb0-4dc2-9a1e-d6e01171c488
0.1725284863656647,0.2735236175415155,-0.0301323679563984,-1.5106762941385776,-0.3270168074278501,1.5728382797253078,0.1343709709861867,0.1100064371708857,-10.769988170034583,14.044745762006784,64.18683984783767,7.038507566624487,0.7175453977793219,0.392251393681892,8025.68017578125,11.590444444444444,7.027777777777778,178.46578363247102,-8.151398670081477,55.88909408496416,1553.0,1710.0,1350.0,1528.0,1471.0,988.0,161.0,292.25,1649322482.40608,1649322483.729669,98fb6006-7cb0-4dc2-9a1e-d6e01171c488
0.1700828289504104,0.2693817784601732,-0.0358651997653706,-1.4978957470525496,-0.3283053799857665,1.5619380092492583,0.1284146117085875,0.1062722075827837,-10.765612109003737,13.817888011737049,63.6913993217066,6.983317322989706,0.7044302499795883,0.4093098331786167,8025.68017578125,11.589777777777776,7.018888888888888,178.48937207022462,-8.165468954635442,55.90878286415663,1553.0,1710.0,1350.0,1528.0,1471.0,988.0,161.0,292.25,1649322483.837823,1649322484.9592054,98fb6006-7cb0-4dc2-9a1e-d6e01171c488
0.1750135898741492,0.2737208479611626,-0.0392444148361601,-1.6139068355360433,-0.3570878809780074,1.669178792031862,0.1414844153762093,0.1105849798838723,-10.737520044553404,14.989178374936056,64.37715762056123,7.493714091317704,0.7285167997027018,0.4345242261321682,8025.68017578125,11.5386,7.006,178.54916081414325,-8.160821352414706,55.93879031369221,1553.0,1814.0,1350.0,1528.0,1471.0,988.0,161.0,292.25,1649322486.0743148,1649322487.207916,f7c77b78-9884-4a24-831a-5005906da321
0.1664011941356895,0.2657527384919232,-0.0394021991687847,-1.5769195077773364,-0.3517889554472971,1.6387790019226398,0.1327405326078747,0.1108348049973088,-10.842789898703332,15.10703485409421,63.75277518100583,7.3425882623174035,0.7003485689421243,0.4383289430597154,8018.171875,11.5422,7.016,178.60185435755204,-8.158782370192728,55.977662286296585,1553.0,1814.0,1350.0,1528.0,1471.0,988.0,161.0,292.25,1649322487.3162613,1649322488.4368415,f7c77b78-9884-4a24-831a-5005906da321
0.17830076381955,0.2714066775497538,-0.034602924810524,-1.5705160835082892,-0.3480415762510911,1.6313499867562893,0.1339370639758791,0.1205911375739042,-10.858830814759957,15.194529595225374,64.3442180111328,7.312354906847742,0.7159432024245085,0.4265066558968208,8010.67919921875,11.542799999999998,7.017,178.61687121146124,-8.190351419159162,56.00160585594151,1553.0,1814.0,1350.0,1528.0,1471.0,988.0,161.0,292.25,1649322488.544653,1649322489.6693313,f7c77b78-9884-4a24-831a-5005906da321
0.089125296574255,0.2849270765467445,0.0672150172791619,0.3332991039461337,-0.0383285574617506,-0.218592137926178,-0.2756119718186793,-0.284424128305268,-11.855301249250225,17.73180086535592,51.25994591224946,-1.1199502560745542,0.6617686115741305,0.4471242161000145,8012.34423828125,11.665666666666668,7.067777777777778,178.6142324817119,-8.803085517221396,56.13762152210874,1553.0,1349.0,1350.0,1528.0,1471.0,988.0,161.0,292.25,1649322491.6036365,1649322492.74133,9b8273d0-f97e-4961-aa3b-53c69acd3662
0.0896128097823864,0.2901304199040099,0.0665894427204032,0.3257502356028264,-0.040703920172724,-0.2167781233978309,-0.2752766800387831,-0.3020605781944271,-11.771044430886343,17.666285640944082,51.25363772300563,-1.0992695763190077,0.681632531126884,0.4513752191543193,8018.171875,11.663555555555556,7.061111111111111,178.65214762070457,-8.800280681065981,56.326266034615145,1553.0,1349.0,1350.0,1528.0,1471.0,988.0,161.0,292.25,1649322492.849763,1649322493.978422,9b8273d0-f97e-4961-aa3b-53c69acd3662
0.0999739822960125,0.2827014069767022,0.0637493242786237,0.3266574955833476,-0.0427419682030799,-0.2112951164919191,-0.2760524532554184,-0.2909367801631417,-11.712267503733749,17.718708917625552,51.10229322181714,-1.0887835210172303,0.6544037072789851,0.4580422182479545,8018.171875,11.664888888888887,7.06,178.65569172997388,-8.813850179944549,56.48602795385128,1553.0,1349.0,1350.0,1528.0,1471.0,988.0,161.0,292.25,1649322494.0907853,1649322495.217069,9b8273d0-f97e-4961-aa3b-53c69acd3662
0.0752018388081826,0.2976646223915282,0.0978701908072894,0.7241819938674259,0.0240665589240591,-0.6058612755461223,-0.362873308169956,-0.3900516689455394,-12.114297426808848,19.27388367654977,48.91552183998202,-2.86068676072292,0.6859973125963614,0.4454429028735295,8022.67685546875,11.6408,7.040000000000001,178.66457188658677,-8.94660797868691,56.737287238990895,1553.0,1264.0,1350.0,1528.0,1471.0,988.0,161.0,292.25,1649322496.3146875,1649322497.4479516,466e9eae-2d16-4ec1-8f27-6dc05296a17a
0.0827491904054203,0.2962445632838626,0.0924792254531436,0.7219467157255782,0.0195302586994418,-0.6016799888076302,-0.3675410961294868,-0.3936938580870333,-12.21180899210138,19.25218199022068,48.98153097477815,-2.846699471069684,0.6807094372252601,0.4654583106755114,8018.171875,11.6387,7.06,178.6798223329656,-8.94914633311458,56.88689467804248,1553.0,1264.0,1350.0,1528.0,1471.0,988.0,161.0,292.25,1649322497.556347,1649322498.6805618,466e9eae-2d16-4ec1-8f27-6dc05296a17a
0.0638676627260907,0.2892757547075985,0.0886003601159346,0.7248262799174313,0.0172292368411584,-0.6020613011200977,-0.36969748271311,-0.4008336020529615,-12.11878810022289,19.21135979571554,48.31075092804481,-2.8545757807966505,0.659257768006581,0.4752676926355727,8018.171875,11.6428,7.05,178.66833941893293,-8.939180830983437,56.99047210623949,1553.0,1264.0,1350.0,1528.0,1471.0,988.0,161.0,292.25,1649322498.7890646,1649322499.7409246,466e9eae-2d16-4ec1-8f27-6dc05296a17a
0.0471688184979791,0.3050278918230163,0.1297294812658287,1.1581283846626027,0.0880481148592841,-1.0356003241628946,-0.4667874762288822,-0.4941367712678792,-12.524589216759564,21.545659243296896,45.35557910987152,-4.789372274049132,0.6966998249017285,0.4612771725869886,8015.924072265625,11.6307,7.06,178.72493026828215,-9.119182611841577,57.238023433460704,1553.0,1178.0,1350.0,1528.0,1471.0,988.0,161.0,292.25,1649322501.641505,1649322502.9817295,461aae4b-c226-4259-8764-d20b387ec89c
0.0528359065809075,0.3028978031619587,0.1243516646115699,1.1474384950013967,0.0835775581508588,-1.0205713545247042,-0.4662352308722148,-0.4974633922235434,-12.491912928045158,21.34545033337102,45.779408809392365,-4.732997379635798,0.685694864579039,0.4742618330818953,8016.67333984375,11.6258,7.058,178.7404744127953,-9.123164782882425,57.36305414433129,1553.0,1178.0,1350.0,1528.0,1471.0,988.0,161.0,292.25,1649322503.0899107,1649322504.2178848,461aae4b-c226-4259-8764-d20b387ec89c
0.0645119488239339,0.3128382168869745,0.1300450499280962,1.1387077610017686,0.0872065982745642,-1.023214244121338,-0.4605549927518219,-0.4955831291567971,-12.452258564303063,21.2047607942406,45.69073090280588,-4.719885238731624,0.724916230474295,0.4545574292397621,8010.67919921875,11.6191,7.042,178.72867457798517,-9.103224984751586,57.47717704309736,1553.0,1178.0,1350.0,1528.0,1471.0,988.0,161.0,292.25,1649322504.347697,1649322505.4482229,461aae4b-c226-4259-8764-d20b387ec89c
0.0528885013648441,0.3120887412403782,0.1422996345145804,1.3762126610203342,0.1114527937675365,-1.2519359892640818,-0.5258119889043843,-0.5571584903978534,-12.502072325006466,23.09059952247433,43.93681920265069,-5.756799414277578,0.7095696069922606,0.4964501662725077,8013.67626953125,11.589,7.040000000000001,178.80995656118398,-9.227626891331706,57.62743300861062,1553.0,1088.0,1350.0,1528.0,1471.0,988.0,161.0,292.25,1649322507.5806751,1649322508.7168238,223bbb69-50db-41b4-aff0-567071464186
0.0425317116054086,0.3040127029619164,0.1409003941980097,1.3838767076616143,0.1148495403433564,-1.248588547351721,-0.5274780386788235,-0.5512141815915291,-12.888289260930948,23.065709903040084,44.28138616256965,-5.766939631786832,0.6779264788454223,0.495419196405692,8010.67919921875,11.5789,7.029999999999999,178.83425291009956,-9.245902086984447,57.6784531556728,1553.0,1088.0,1350.0,1528.0,1471.0,988.0,161.0,292.25,1649322508.8243845,1649322509.9503891,223bbb69-50db-41b4-aff0-567071464186
0.0509293456360919,0.3077233743752383,0.1428387310554891,1.3854956407401195,0.114608480830655,-1.258260517550346,-0.5275607660750786,-0.548559240071481,-12.683151138239587,23.11845832684629,43.641024811550864,-5.791878380716931,0.6959917914952747,0.492904970303505,8009.18310546875,11.5856,7.048,178.84171694082457,-9.246726832326727,57.719637830330136,1553.0,1088.0,1350.0,1528.0,1471.0,988.0,161.0,292.25,1649322510.059367,1649322511.1730566,223bbb69-50db-41b4-aff0-567071464186
0.1163967035979111,0.2858965399689389,0.0410546746145973,-0.1540456880951887,-0.11223283105986,0.2497639247272492,-0.16238196195577,-0.1905859180877918,-11.276841790740685,16.183900150025945,54.52853739066656,1.021087186196971,0.6906589485799947,0.423722625755353,8006.19091796875,11.6634,7.086,178.85852467033413,-8.762140107885227,57.7421501338345,1553.0,1435.0,1350.0,1528.0,1471.0,988.0,161.0,292.25,1649322512.0843804,1649322513.2213876,75ebe0cb-1b0d-4056-b84f-25b00ef240b9
0.1135302878958866,0.2871719634348981,0.040647065117214,-0.1511661232825621,-0.1113518682220404,0.2459771004182766,-0.1634338576872348,-0.1865887140720314,-11.342706795061376,16.091954992783766,54.54064455062822,1.0054210570276167,0.6954194972232703,0.4247643402903729,8010.67919921875,11.664,7.071111111111112,178.88390352834216,-8.749047432101715,57.720411614872106,1553.0,1435.0,1350.0,1528.0,1471.0,988.0,161.0,292.25,1649322513.3292606,1649322514.4570189,75ebe0cb-1b0d-4056-b84f-25b00ef240b9
0.0971409440206388,0.2799836727715957,0.0384901731066068,-0.1452375780407038,-0.1112153241903091,0.2482877307968881,-0.1646698353046176,-0.1856445362104773,-11.390502133474673,16.10451495006385,54.63092378421537,0.9972062011728752,0.6671307246208591,0.4285491621476574,8018.171875,11.6665,7.065,178.9092442890728,-8.757194282529856,57.73407275212204,1553.0,1435.0,1350.0,1528.0,1471.0,988.0,161.0,292.25,1649322514.5654736,1649322515.8812037,75ebe0cb-1b0d-4056-b84f-25b00ef240b9
0.177761667295993,0.310971102141748,0.2456483829502254,-0.1687064855588314,0.0751886899936812,0.2278450491889864,0.0508373047120654,0.0277350452076854,-9.871555626443142,15.936661526763974,54.5901245311891,1.0141693420282216,0.7889827017560349,-0.4099382490340841,8018.171875,11.660444444444444,7.059999999999999,178.9037717897278,-8.76867085017838,57.69585329025637,1553.0,1435.0,1350.0,1446.0,1471.0,988.0,161.0,292.25,1649322517.4940662,1649322518.5422928,f39b73b8-03dc-46db-8602-7cdb44943875
