raw_voltage_G-,raw_voltage_G0,raw_voltage_G1,raw_voltage_G2,raw_voltage_G3,raw_voltage_G4,raw_voltage_G5,raw_voltage_G6,load_x,load_y,load_z,load_l,load_m,load_n,rpm,voltage,current,roll,pitch,yaw,aileron1_pwm,elevator_pwm,throttle_pwm,rudder_pwm,aileron2_pwm,pbaro,pdiff,Tt,sample_start_time,sample_end_time,uid
0.3321010555844637,0.4699782734826024,0.5199959094673097,-0.299536028056797,0.1993255282281225,0.0661686845543768,0.2455300446721014,0.2259384882401271,-3.92429864206952,23.07062084198241,38.3264952246627,1.0073340923355314,1.52102825761982,-1.233798472443871,5561.52802734375,11.958000000000002,0.118,179.51712156293908,-4.407388053475143,102.57362944566292,1553.0,1435.0,1200.0,1528.0,1471.0,988.0,161.0,292.25,1649319025.527055,1649319026.6095743,f7bc7d73-c366-44f5-b00c-5e55c5877617
0.3127856220915564,0.4690052700474353,0.5302650402897674,-0.2986945113674616,0.2082403439290587,0.0676544872204029,0.2549708081029719,0.2350373854363966,-3.9325567934707415,23.23190998241016,38.58617442562985,1.0103924106129236,1.5156859568932683,-1.2731964365483115,5562.24951171875,11.95422222222222,0.11,179.47782338653053,-4.365374630225757,101.68205905036432,1553.0,1435.0,1200.0,1528.0,1471.0,988.0,161.0,292.25,1649319026.7180855,1649319027.8977032,f7bc7d73-c366-44f5-b00c-5e55c5877617
0.3119577600085131,0.4657595652374884,0.5175578379839342,-0.2961315266645676,0.1985881898643698,0.0687953894701237,0.2426489632244668,0.2212823325314073,-4.092369813626934,23.125183919864124,38.53757802202271,1.0057462785955933,1.503951479306978,-1.2256916144119931,5555.03955078125,11.956111111111111,0.11,179.4256589551094,-4.337250472544584,100.8679005012988,1553.0,1435.0,1200.0,1528.0,1471.0,988.0,161.0,292.25,1649319028.0059576,1649319029.1224167,f7bc7d73-c366-44f5-b00c-5e55c5877617
0.5459623907107057,0.8942795394914144,0.5573442298108695,-0.3961691004683716,0.1471597213008707,-0.2586693266235309,0.1614863211387741,0.1409003941401579,-3.3176182281192266,22.29094939107919,38.42567795898678,0.4923726027939937,3.1214950504433823,-1.0426189190115065,5561.848687065973,11.957555555555556,0.11,178.86090096903737,-4.294880247802055,99.48075282930144,1637.0,1435.0,1200.0,1528.0,1535.0,988.0,161.0,292.25,1649319031.0563326,1649319032.1949413,59994c85-e6ec-42cc-97bc-d5264cc1378a
0.5521181714189294,0.8938001599852116,0.5649644464156938,-0.4007810066071679,0.1517929929704402,-0.2515301315333991,0.1693202045030284,0.1480324658769618,-3.255068889884169,22.518083483145865,38.82626849722804,0.5207991351711994,3.116758710664895,-1.0700535000356093,5561.850423177083,11.936555555555554,0.1155555555555555,178.79258238131925,-4.257191216530056,99.0966283027493,1637.0,1435.0,1200.0,1528.0,1535.0,988.0,161.0,292.25,1649319032.3031404,1649319033.4292288,59994c85-e6ec-42cc-97bc-d5264cc1378a
0.5492517559110772,0.8860292811484228,0.5724329051765901,-0.3992952036628044,0.1591168165669087,-0.2490055815397339,0.1770384889377031,0.1442587896957992,-3.264037104639607,22.696884082805568,38.35389827053942,0.5245978859178128,3.092156829250412,-1.1028714772203836,5548.248318142361,11.933666666666666,0.1111111111111111,178.71508401935668,-4.226992104297275,98.76184202712166,1637.0,1435.0,1200.0,1528.0,1535.0,988.0,161.0,292.25,1649319033.5377152,1649319034.6506636,59994c85-e6ec-42cc-97bc-d5264cc1378a
0.8026008108564743,1.3422101311261578,0.6200837757899571,-0.5128210734951842,0.107744861564945,-0.594671731464619,0.0956480611603582,0.0626053873038682,-2.4861692669346325,21.933949326744184,37.77053207151243,0.0015401167514248,4.819762511584422,-0.927734930044585,5555.0419921875,11.920000000000002,0.1,178.47632640890987,-4.2230310451814255,98.25405047491222,1723.0,1435.0,1200.0,1528.0,1599.0,988.0,161.0,292.25,1649319035.5627291,1649319036.9033177,2bf024cf-2d36-4c26-9b00-c3eacdd26d87
0.8027848925774569,1.3444848556119866,0.6324041029763924,-0.510059846553027,0.1173697070514299,-0.5972225793459787,0.106995385869716,0.0794225701866782,-2.290001655795571,22.077848036859308,38.1743131443508,-0.0086901277173552,4.823770501175515,-0.9728473760392352,5557.841525607639,11.905333333333331,0.1022222222222222,178.43044423370537,-4.189047225522615,97.96774981492771,1723.0,1435.0,1200.0,1528.0,1599.0,988.0,161.0,292.25,1649319037.0120313,1649319038.133943,2bf024cf-2d36-4c26-9b00-c3eacdd26d87
0.793778036481894,1.3320724860709832,0.6304449474246006,-0.5003429574320893,0.1176589783393806,-0.5948032184499137,0.1062722075530486,0.0829990153964199,-2.2316543240557984,22.19240372397625,38.04937102481456,-0.0245011172629515,4.776592345265571,-0.9711403088182032,5549.051052517361,11.908666666666669,0.1,178.3882913417877,-4.179872384192517,97.78745634704654,1723.0,1435.0,1200.0,1528.0,1599.0,988.0,161.0,292.25,1649319038.2421312,1649319039.3639593,2bf024cf-2d36-4c26-9b00-c3eacdd26d87
1.020711366771928,1.7168296752491217,0.6806598135063606,-0.6209428352839983,0.0736634412608058,-0.8746207404894065,0.0485099853639059,0.0257232944017946,-1.170202145405728,22.11967056498539,36.04416790095056,-0.3790117986284525,6.247955649725814,-0.8539818735094209,5539.085557725694,11.887888888888888,0.1055555555555555,178.1467151399434,-4.180060688713386,97.4860605895414,1813.0,1435.0,1200.0,1528.0,1662.0,988.0,161.0,292.25,1649319040.0244324,1649319041.205798,f9c3b4b1-8e6c-4c2a-98bb-a5aa5123db48
1.0227625632639863,1.7176054485250618,0.6873656479377273,-0.6194307346959678,0.0801457485103667,-0.879512058094764,0.0558338092220981,0.0287606435803383,-1.0194881680216006,22.03591951175422,35.70924804696243,-0.3936129834966405,6.253004462745504,-0.882604842621728,5537.09716796875,11.866,0.11,178.12305536465846,-4.165375924293467,97.25005706314994,1813.0,1435.0,1200.0,1528.0,1662.0,988.0,161.0,292.25,1649319041.313749,1649319042.6346312,f9c3b4b1-8e6c-4c2a-98bb-a5aa5123db48
1.0157148625270644,1.7114518574691575,0.6900085356274492,-0.6196937086974654,0.0829595694450577,-0.8728456656317166,0.0619348042280501,0.0447100120508578,-0.8460429041676713,22.035009332055253,35.798066620020634,-0.3778124740090062,6.228109862501044,-0.8992263843998087,5532.09482421875,11.8594,0.102,178.0774215047758,-4.133402186618709,97.08621585137752,1813.0,1435.0,1200.0,1528.0,1662.0,988.0,161.0,292.25,1649319042.7436965,1649319043.865415,f9c3b4b1-8e6c-4c2a-98bb-a5aa5123db48
0.0392664520507009,-0.0119740179228569,0.4872688074933242,-0.183945825665653,0.2649243706373324,0.432188923727594,0.349049723813611,0.3274727147994879,-4.334297269536822,24.222698585786524,38.62006967698727,1.5749353507129809,-0.3025727464303734,-1.4835740570376137,5502.342393663194,11.882222222222222,0.1044444444444444,179.15675896094547,-4.004424034321932,96.76433499051365,1470.0,1435.0,1200.0,1528.0,1403.0,988.0,161.0,292.25,1649319044.5255573,1649319045.7180598,a2750d57-a72b-44f5-84cb-921154a1fb53
0.0470767776115726,-0.0304873827303367,0.4813518947099699,-0.1649985527253366,0.2648980732400565,0.432188923722791,0.3446317621888654,0.3296422494961489,-4.36520897490962,24.24923918788272,38.48177103680344,1.5320386573928284,-0.3732720631334142,-1.4714841552735924,5510.597547743056,11.952,0.12,179.16109385433867,-3.9686315663413416,96.52496949323076,1470.0,1435.0,1200.0,1528.0,1403.0,988.0,161.0,292.25,1649319045.831124,1649319046.9397776,a2750d57-a72b-44f5-84cb-921154a1fb53
0.0410946265522944,-0.0188204430882387,0.4841930242872495,-0.1693983091663185,0.2660005407927275,0.4248974665414997,0.3443364222633531,0.3258271050022377,-4.469496097040892,24.18919274751016,38.50543797108911,1.5252732434615566,-0.3282647885564327,-1.4750798099361782,5511.3837890625,11.955222222222222,0.12,179.17151975865178,-3.953826656996647,96.28162427239144,1470.0,1435.0,1200.0,1528.0,1403.0,988.0,161.0,292.25,1649319047.0488558,1649319048.1688569,a2750d57-a72b-44f5-84cb-921154a1fb53
-0.1883900853787539,-0.4577806172001193,0.4388158660211024,-0.0634906114939317,0.3112735220664148,0.7586052773295728,0.4211966145108588,0.4065489678551908,-5.027122682437747,25.27942120443652,38.776629093756576,2.0409877443205726,-1.9889868279492449,-1.6369622606130196,5512.1708984375,11.941333333333334,0.1177777777777777,179.31848266229318,-3.864604275323724,95.83770675202516,1385.0,1435.0,1200.0,1528.0,1331.0,988.0,161.0,292.25,1649319050.1068294,1649319051.2365787,8453df28-a9f6-4a1c-a8cc-4001d61192f6
-0.1989221920635978,-0.452455393966209,0.4434968015062789,-0.0601245451408433,0.3145475472458319,0.7505582759932616,0.4225509301422401,0.3962666884472521,-5.027688010643136,25.35687083117618,38.83733915869692,2.016067932095844,-1.969664448604155,-1.649003177859276,5515.71875,11.907555555555556,0.1122222222222222,179.33305373252256,-3.851082682633084,95.48712907903648,1385.0,1435.0,1200.0,1528.0,1331.0,988.0,161.0,292.25,1649319051.344836,1649319052.4664571,8453df28-a9f6-4a1c-a8cc-4001d61192f6
-0.2077581168149846,-0.4791209562896004,0.4300456863618996,-0.0495529929153303,0.3064348021644056,0.7655346395898067,0.413123315685727,0.3897186381289013,-5.13086413969949,25.56735182282812,38.54607711923069,2.026502152102016,-2.068515560164334,-1.6098982426744284,5514.141927083333,11.905,0.11,179.3288812458496,-3.855296055577336,95.26801433373276,1385.0,1435.0,1200.0,1528.0,1331.0,988.0,161.0,292.25,1649319052.5751245,1649319053.902254,8453df28-a9f6-4a1c-a8cc-4001d61192f6
-0.4660248516628189,-0.9482797778665204,0.3642496155514703,0.0486546211565826,0.3389515258182889,1.1392337087010067,0.4810494747134444,0.4591437486921731,-6.053950421882262,26.616814416751552,39.17720871532772,2.64803829834007,-3.843451494050084,-1.7173055580662857,5515.71875,11.911,0.11,179.45817976247756,-3.772170471512295,94.80560066109408,1297.0,1435.0,1200.0,1528.0,1253.0,988.0,161.0,292.25,1649319055.5241127,1649319056.5678122,6fe51799-e8fe-49f5-95c6-203bab375a5e
-0.4556899740484997,-0.9446901816697312,0.3760834412497257,0.0592393216117256,0.3487736011899935,1.1262559460175938,0.4887151639304449,0.4707540464189202,-5.893572445337379,26.7819149460179,39.29006350002574,2.596781478574728,-3.832673872594221,-1.75699797822096,5515.71875,11.847666666666669,0.09,179.47918335308526,-3.741961208859498,94.4633641669018,1297.0,1435.0,1200.0,1528.0,1253.0,988.0,161.0,292.25,1649319056.6761637,1649319057.7956457,6fe51799-e8fe-49f5-95c6-203bab375a5e
-0.4569653977922567,-0.952842378139664,0.358516784396308,0.0540192891996279,0.3356249058806365,1.1399174408806645,0.4751720080077667,0.4512676802580327,-6.176218141842321,26.6081480942334,39.29712679563335,2.637088021449744,-3.8617855525296414,-1.6970096925254874,5511.728149414063,11.853125,0.1,179.4698559708637,-3.714859581486335,94.17280497883355,1297.0,1435.0,1200.0,1528.0,1253.0,988.0,161.0,292.25,1649319057.9044724,1649319058.938462,6fe51799-e8fe-49f5-95c6-203bab375a5e
0.2998867519096336,0.4516358438056266,0.508990451728347,-0.2908710359702787,0.1934217638892154,0.0736502926725742,0.2353924004060255,0.2138679856332959,-4.2231403712931685,23.21084413026104,37.888206846668446,1.004761429308095,1.4564705061272978,-1.1993500012491507,5511.10830078125,11.883500000000002,0.106,178.68320327660473,-3.780462235787327,93.73778322965154,1553.0,1435.0,1200.0,1528.0,1471.0,988.0,161.0,292.25,1649319061.1623776,1649319062.2967122,09a5fce9-cb6d-4d8f-92cf-96ca7728b3de
0.3137323281640225,0.469938827399714,0.506255523156277,-0.3068467041788559,0.186242576019408,0.0715070552161592,0.2297779073872018,0.2058078350287812,-4.319675474024431,23.16804352457778,38.01046982046911,1.0355334665345928,1.526510301740695,-1.1756527526358225,5515.36396484375,11.9586,0.12,178.6425527227405,-3.768107490795831,94.07231086878258,1553.0,1435.0,1200.0,1528.0,1471.0,988.0,161.0,292.25,1649319062.4050362,1649319063.5316226,09a5fce9-cb6d-4d8f-92cf-96ca7728b3de
0.3095378943315823,0.4692287978597684,0.512093543750161,-0.3056238752965726,0.1902529281994291,0.070547200388821,0.2357737125709108,0.215879736022213,-4.120766517974849,23.26951914012138,37.97849046722819,1.0316765587856762,1.5229441267057515,-1.1976324525093494,5505.485894097223,11.96022222222222,0.11,178.6220204151855,-3.757316138159856,94.26392416095725,1553.0,1435.0,1200.0,1528.0,1471.0,988.0,161.0,292.25,1649319063.639851,1649319064.7567558,09a5fce9-cb6d-4d8f-92cf-96ca7728b3de
0.3145495701662136,0.4629907534725236,0.5014633295300144,-0.6528152860348323,0.1455635454785921,0.4142647236256694,0.3230456501910345,0.2988849224076433,-4.035550514947074,22.49425869062467,40.824982058056655,2.5820625215615745,1.51577579360523,-1.2459368998785612,5503.520290798611,11.956666666666669,0.1144444444444444,178.5924290000614,-3.6141839745735385,94.51027845958087,1553.0,1522.0,1200.0,1528.0,1471.0,988.0,161.0,292.25,1649319065.6678894,1649319066.8011625,0ddd5ace-c678-48f1-82fc-73e26b7f1928
0.3242644331560089,0.4673485344635826,0.504099137165846,-0.6486602964825176,0.1471252059723801,0.4098755880348148,0.3221080470761721,0.3046991743464165,-4.125815699749519,22.630548765581104,41.35699386160413,2.563901006949444,1.527701628818611,-1.249126868379928,5514.145236545139,11.951444444444444,0.1111111111111111,178.59755619539837,-3.623057528670247,94.58664528687096,1553.0,1522.0,1200.0,1528.0,1471.0,988.0,161.0,292.25,1649319066.9096096,1649319068.0342617,0ddd5ace-c678-48f1-82fc-73e26b7f1928
0.341226250146774,0.4707540464945801,0.5044673006336798,-0.6543405353257841,0.14723039554643,0.4074693768131907,0.3242775818148219,0.3063690585240204,-4.006496183705577,22.431277790313125,40.75760828770666,2.5699690138065794,1.5456615135622642,-1.2531788334637974,5512.567708333333,11.94888888888889,0.12,178.57873522968546,-3.6281563123175298,94.7280848442036,1553.0,1522.0,1200.0,1528.0,1471.0,988.0,161.0,292.25,1649319068.142719,1649319069.2627344,0ddd5ace-c678-48f1-82fc-73e26b7f1928
0.3612517130754653,0.4659284753945272,0.5073074187592193,-1.088852580756959,0.0973573917060923,0.8330663372813163,0.4435493962844585,0.4130049773480563,-3.491394583754783,22.23686262399262,44.17539953170427,4.506151651061032,1.5472996122121367,-1.3580722721854182,5517.691677517361,11.94422222222222,0.11,178.57641600100726,-3.4554170099424346,94.85642409870816,1553.0,1613.0,1200.0,1528.0,1471.0,988.0,161.0,292.25,1649319071.198025,1649319072.33091,d32d39bf-9b6f-483c-89ea-3152b11594ae
0.368378305911148,0.4757899967137098,0.5051247353843097,-1.0969784807206964,0.0949643290321975,0.8305549365172906,0.4423265676375422,0.4156741624691244,-3.49117830875408,21.945596599056667,44.1187026879588,4.516789788010695,1.5856444469120117,-1.348934826391735,5540.67626953125,11.937,0.1,178.5756100386852,-3.450495668917964,94.93344814197836,1553.0,1613.0,1200.0,1528.0,1471.0,988.0,161.0,292.25,1649319072.4386532,1649319073.5636082,d32d39bf-9b6f-483c-89ea-3152b11594ae
0.3609098469935138,0.4727920942312361,0.508503950006108,-1.0985431766958442,0.0980016778001227,0.8377341240219551,0.4478884656789943,0.4191717153003758,-3.4244843949867048,21.982213433999792,44.55024422324043,4.536965313665919,1.5705111977781072,-1.3653332066351007,5538.290201822917,11.935,0.11,178.5632200755308,-3.4690373557848244,94.91137069385115,1553.0,1613.0,1200.0,1528.0,1471.0,988.0,161.0,292.25,1649319073.672252,1649319074.7880375,d32d39bf-9b6f-483c-89ea-3152b11594ae
0.398133803225727,0.4806155678071732,0.5115938933425744,-1.4926362621289866,0.0503902490003905,1.2094082986178818,0.5481867115976956,0.5279903160021691,-3.215528087079469,22.01648062117524,47.28261221928532,6.262066016529692,1.6228758913764747,-1.4460229590955471,5563.854546440973,11.915666666666668,0.1,178.59125572534398,-3.3207268178746445,94.9698181403988,1553.0,1710.0,1200.0,1528.0,1471.0,988.0,161.0,292.25,1649319076.7300498,1649319077.8628335,26238147-6a7b-4300-8dea-9f1d58dd86c9
0.391401671266182,0.4885836770146025,0.5152097844796336,-1.4977774085029656,0.0514684421159047,1.205871299421281,0.5525126322558473,0.5243086814387712,-2.9700113359168063,21.905295337065013,47.24730205934642,6.265276018490751,1.6521967190682056,-1.45749295363464,5551.042697482639,11.900777777777778,0.1,178.59430806099306,-3.3096667731858203,94.90718075225033,1553.0,1710.0,1200.0,1528.0,1471.0,988.0,161.0,292.25,1649319077.9718418,1649319079.0945694,26238147-6a7b-4300-8dea-9f1d58dd86c9
0.3979891675747208,0.4917788099198976,0.5090693438868512,-1.498277059365719,0.0459328409389924,1.2035702776219492,0.5448074969710026,0.5285688586174778,-3.1116289536105763,21.86458046711116,47.24777574043532,6.260585537268687,1.6648501025758915,-1.4303121253319682,5553.441677517361,11.894666666666666,0.0922222222222222,178.60557331966413,-3.336817960933352,94.79079736443296,1553.0,1710.0,1200.0,1528.0,1471.0,988.0,161.0,292.25,1649319079.2029088,1649319080.5286782,26238147-6a7b-4300-8dea-9f1d58dd86c9
0.3884695122437017,0.4732391498666118,0.4744356810268431,-1.7297601532703402,-0.0221511093152261,1.4457035245625678,0.5596655222766693,0.5432296535311266,-3.499056056530975,23.19463086681232,48.69335198804921,7.333988371359528,1.6115726040905596,-1.3145754139112569,5550.244303385417,11.881999999999998,0.09,178.62064830607224,-3.2338654049248228,94.71262584938216,1553.0,1814.0,1200.0,1528.0,1471.0,988.0,161.0,292.25,1649319082.666013,1649319083.8030713,3367219b-4258-4ae5-8dc2-a9c688469e00
0.4010133674674285,0.4904507917129697,0.4732128524563439,-1.7367421199600204,-0.025911636342752,1.4348295517978795,0.5570620807227743,0.5310671105433369,-3.338781096080979,22.926022372936515,48.61865718017505,7.3235299535918434,1.676431910339228,-1.3019414766504154,5551.44189453125,11.8628,0.09,178.62323831380553,-3.2640533184932763,94.54435548760593,1553.0,1814.0,1200.0,1528.0,1471.0,988.0,161.0,292.25,1649319083.9113455,1649319085.031884,3367219b-4258-4ae5-8dc2-a9c688469e00
0.4002112970469532,0.485414841507258,0.4770522713826775,-1.731075025239374,-0.0200604664321296,1.436630923732327,0.5603361057257797,0.5313169358419032,-3.525627568355456,22.987740468105443,48.94257604442139,7.315352194531945,1.655542308639572,-1.3200648445822794,5544.26025390625,11.8633,0.097,178.6359602241536,-3.266991473775146,94.49281351409118,1553.0,1814.0,1200.0,1528.0,1471.0,988.0,161.0,292.25,1649319085.1405585,1649319086.260968,3367219b-4258-4ae5-8dc2-a9c688469e00
0.2903013529424254,0.4713325890720549,0.5382594468681727,0.1804177038212107,0.2615057098047132,-0.39464056420121,0.1248513150674259,0.0995137774643503,-4.315136616324504,24.814430002087068,35.42423430226401,-1.0990138988774645,1.4966914923730534,-1.172274787608965,5528.763997395833,11.891,0.0966666666666666,178.64649829535105,-3.88362820200511,94.3994252482615,1553.0,1349.0,1200.0,1528.0,1471.0,988.0,161.0,292.25,1649319088.1976793,1649319089.1437008,e2f57092-30f2-4883-bea8-d0cddb9b46ab
0.2804792774458126,0.4735021237653068,0.5451362143624179,0.180181027294327,0.2670150132384472,-0.3955083783051046,0.1300319012885072,0.1098486529485793,-4.366531912116495,24.93039072597937,35.61726455271838,-1.0993140749683137,1.5039485645222552,-1.1960793435859691,5525.199869791667,11.962,0.11,178.6233439540647,-3.9096078225825073,94.72988346068504,1553.0,1349.0,1200.0,1528.0,1471.0,988.0,161.0,292.25,1649319089.278896,1649319090.3540363,e2f57092-30f2-4883-bea8-d0cddb9b46ab
0.30064937624749,0.4752246028243179,0.5457673517230396,0.1766966229119335,0.2662655375903455,-0.3928260437540915,0.1303211725940264,0.1110714816330931,-4.378781468994781,25.008249077168088,35.78494937062221,-1.0848584258197531,1.5094797572232757,-1.195956848768183,5537.09716796875,11.96,0.11,178.59860045543144,-3.9106243824039777,95.0651615099329,1553.0,1349.0,1200.0,1528.0,1471.0,988.0,161.0,292.25,1649319090.4639742,1649319091.5861256,e2f57092-30f2-4883-bea8-d0cddb9b46ab
0.2713277853759643,0.4750273723975111,0.5614668935481286,0.5921033528906786,0.3204118653554295,-0.7945188433974734,0.0256049563930405,-0.0054654132945248,-4.722927936094696,26.494167569114964,32.67549899834177,-2.9146084224808293,1.4886097951317423,-1.1436303925221711,5538.687879774306,11.955333333333334,0.11,178.59243658916046,-4.062665341965846,95.64396995403756,1553.0,1264.0,1200.0,1528.0,1471.0,988.0,161.0,292.25,1649319093.7297325,1649319094.861945,27ec288d-7465-45ec-b04e-d9e6f5321096
0.2650558576289424,0.470569964765226,0.5599284962416577,0.5877905809358619,0.3197938766936775,-0.7859458894938498,0.0252104955514406,-0.0058730230852491,-4.917640411207737,26.546582390453064,32.70172903033093,-2.885438263298636,1.4734718146236412,-1.1408278821176856,5540.278591579861,11.949444444444444,0.1011111111111111,178.58262995533218,-4.053000102539716,95.90075850498329,1553.0,1264.0,1200.0,1528.0,1471.0,988.0,161.0,292.25,1649319094.9704888,1649319096.0916798,27ec288d-7465-45ec-b04e-d9e6f5321096
0.2542870759921209,0.4527140368108022,0.557653772013159,0.5985725108201614,0.3232256862040014,-0.778056668209167,0.0270776104777735,0.0040016481691909,-4.994153169026661,26.486587897985128,32.74703286915171,-2.8925737916159555,1.4051685309930395,-1.1470908244842488,5537.09716796875,11.9506,0.106,178.586745979108,-4.060316942688092,96.04801753527074,1553.0,1264.0,1200.0,1528.0,1471.0,988.0,161.0,292.25,1649319096.200484,1649319097.3185444,27ec288d-7465-45ec-b04e-d9e6f5321096
0.2512760247187974,0.4655340145375825,0.5764432571567742,0.9831981388964984,0.3722440222903201,-1.1611967612157863,-0.0751272082134485,-0.0958232573745812,-5.506209845760639,28.29118889176149,30.07713146863651,-4.60894676650633,1.4344048326710266,-1.0938905658426032,5533.52294921875,11.934333333333331,0.1,178.58159328439814,-4.204040629115655,96.29702938460944,1553.0,1178.0,1200.0,1528.0,1471.0,988.0,161.0,292.25,1649319098.2314606,1649319099.281975,ba2812a3-a070-48be-8b51-f6596111f24b
0.2454380038971396,0.4544365158716414,0.5820446012182696,0.9898250813446212,0.3779900021034206,-1.1573310415500468,-0.0699597703811531,-0.0944426443759498,-5.519480647078117,28.591296433307885,29.98637722906861,-4.612961525054894,1.393225011970345,-1.1182545210176114,5530.349338107639,11.924444444444443,0.1,178.58736858879632,-4.203371697463818,96.4339549458106,1553.0,1178.0,1200.0,1528.0,1471.0,988.0,161.0,292.25,1649319099.3904524,1649319100.5980997,ba2812a3-a070-48be-8b51-f6596111f24b
0.2282526587589455,0.4560538053749672,0.5871199974840741,0.9872742344276942,0.3836702384566363,-1.1550431665787424,-0.0624124183933277,-0.0793216426388999,-5.468636021833484,28.412579601516057,30.253288280950898,-4.602930152395384,1.397198125227237,-1.1429966669537324,5529.95263671875,11.921444444444443,0.1,178.59717825826428,-4.189584818328538,96.53702098256628,1553.0,1178.0,1200.0,1528.0,1471.0,988.0,161.0,292.25,1649319100.7067573,1649319102.0362988,ba2812a3-a070-48be-8b51-f6596111f24b
0.2332228657029393,0.4779858287798549,0.5864757114289807,1.2335230073472034,0.3941497485345384,-1.4141253119479231,-0.1507059188361162,-0.1666947348408592,-5.641252159118194,30.14187698946349,28.351598850612028,-5.729557617353619,1.46720289638791,-1.0293804803246378,5528.882861328125,11.9192,0.097,178.61423885655512,-4.322501139121071,96.72324252341012,1553.0,1088.0,1200.0,1528.0,1471.0,988.0,161.0,292.25,1649319104.170153,1649319105.2053444,40b90fd9-0115-4cbb-9fa4-25e73f1d352f
0.2277267109349533,0.4626413016125136,0.5856473436420486,1.234088401250237,0.3960957554220745,-1.3996222850741062,-0.1505086884208512,-0.1732296375535489,-6.026515159568777,30.39439202903787,28.346584378182925,-5.696804795012509,1.4123049863647297,-1.0334145346168362,5516.42900390625,11.8872,0.092,178.61791076625295,-4.313308942470021,96.7524449972065,1553.0,1088.0,1200.0,1528.0,1471.0,988.0,161.0,292.25,1649319105.3140728,1649319106.5446272,40b90fd9-0115-4cbb-9fa4-25e73f1d352f
0.2255999094092958,0.4720557672990992,0.5766563755785822,1.2203945821726243,0.3860687795848572,-1.3932928250510008,-0.1567395273682111,-0.1846805096400141,-5.997001280313632,30.137329507453984,28.709233073453635,-5.65377087624596,1.4453035816041828,-0.9969736551967224,5512.1708984375,11.886599999999998,0.09,178.63708447329097,-4.307324672228715,96.75399818222375,1553.0,1088.0,1200.0,1528.0,1471.0,988.0,161.0,292.25,1649319106.6565638,1649319107.974619,40b90fd9-0115-4cbb-9fa4-25e73f1d352f
0.3169011637416284,0.4706751543250304,0.5162879774645643,-0.2548830495286969,0.1965905995244423,0.0264333244095722,0.2238215482488798,0.2025469584020446,-4.144551001902642,23.699483423301817,38.51579338084736,0.8212207345850111,1.5178009963282837,-1.1937800999330952,5526.391764322917,11.912,0.0966666666666666,178.6568118809978,-3.878354299896606,96.69677758943308,1553.0,1435.0,1200.0,1528.0,1471.0,988.0,161.0,292.25,1649319110.1090584,1649319111.253051,5849d736-fb17-443d-9b11-462528396483
0.32066877070196,0.4643056229878573,0.5144603088619871,-0.2484042816087086,0.1982215435291492,0.0281482178302584,0.2229006338513192,0.2114713828378355,-4.289017658501054,23.62893412068264,38.71138911457144,0.8098595886675162,1.4922855846834973,-1.1927091164916908,5543.46435546875,11.960888888888888,0.1088888888888889,178.6637999234286,-3.878567838171907,96.74738777336302,1553.0,1435.0,1200.0,1528.0,1471.0,988.0,161.0,292.25,1649319111.3655367,1649319112.482767,5849d736-fb17-443d-9b11-462528396483
0.2972044180547267,0.4710433177853154,0.5161696392257956,-0.2553169565463821,0.1967089378266644,0.0259731200469691,0.2247288082793089,0.1937636297934656,-4.074391541270589,23.61741794814436,38.44854369950231,0.8206400639521024,1.5193258234110243,-1.1950430789790742,5555.840115017361,11.960777777777778,0.1077777777777777,178.66877381896415,-3.874908706619681,96.72228986380289,1553.0,1435.0,1200.0,1528.0,1471.0,988.0,161.0,292.25,1649319112.5959053,1649319113.7040994,5849d736-fb17-443d-9b11-462528396483
0.3807643768286204,0.5008514095130292,0.7500060308085473,-0.2713978141083767,0.4086922054470084,-0.0006529902158033,0.4665859101318442,0.4499396621148214,-2.3822688459221752,23.518511830083657,38.533916088579765,0.8089353247051789,1.6351934094688465,-2.142059545475344,5551.44189453125,11.957666666666666,0.1077777777777777,178.65866058553308,-3.878715683308316,96.75716405079504,1553.0,1435.0,1200.0,1446.0,1471.0,988.0,161.0,292.25,1649319115.6390977,1649319116.783039,9fd2666d-17fb-418a-91d3-d793e19fe83f
0.3781477864810351,0.5037441224200405,0.7558440513903019,-0.2701092417049671,0.4144250365408395,-0.0024675103335475,0.472752648127075,0.4600510086535576,-2.323521599578186,23.438836470526525,38.8942213634945,0.8018006755577249,1.6426437637850904,-2.165662574982875,5545.057779947917,11.946444444444444,0.1,178.66385001148248,-3.892627497987162,96.7109373304924,1553.0,1435.0,1200.0,1446.0,1471.0,988.0,161.0,292.25,1649319116.8963518,1649319118.0052097,9fd2666d-17fb-418a-91d3-d793e19fe83f
0.3876016983534743,0.5161827879336518,0.7572641104537939,-0.2746586912118847,0.4125973679036789,-0.01151381352177,0.4700703143291456,0.4541735418294518,-2.3359208440394275,23.47725293895465,38.74009126770241,0.7920294340568765,1.691400942362022,-2.1600664842700272,5544.26025390625,11.945,0.1022222222222222,178.6534499101063,-3.885089245873192,96.7558222980781,1553.0,1435.0,1200.0,1446.0,1471.0,988.0,161.0,292.25,1649319118.113017,1649319119.2402098,9fd2666d-17fb-418a-91d3-d793e19fe83f
0.4931857202855773,0.5598496040802382,1.055213543712872,-0.2671507846996362,0.6818563447455703,-0.0781119622952156,0.7649429483315187,0.7505188299099957,-0.2478715110332979,23.74430494423584,38.60595754481578,0.6430744055479214,1.859556726374522,-3.3462696655030664,5551.44189453125,11.943,0.1,178.57687134695192,-3.8995887888437446,96.6432038623132,1553.0,1435.0,1200.0,1354.0,1471.0,988.0,161.0,292.25,1649319120.1450164,1649319121.287902,f7986b73-871f-4946-9ce5-2c7f51a7c222
0.481194110394574,0.5543403008760308,1.0527547376675983,-0.2666379854958571,0.6805283265553298,-0.0743251376032595,0.7636806736165029,0.7418669886427145,-0.2827054235769236,23.76743226083625,38.42970930386348,0.6504124090459841,1.84048349978724,-3.340256587845395,5548.248318142361,11.93211111111111,0.1,178.5809193724,-3.902883264185284,96.68799700180006,1553.0,1435.0,1200.0,1354.0,1471.0,988.0,161.0,292.25,1649319121.3999703,1649319122.4416306,f7986b73-871f-4946-9ce5-2c7f51a7c222
0.4841262693892018,0.5517763053518152,1.0491519950880843,-0.2663618628472308,0.6814618838972335,-0.071353532132045,0.76403568837838,0.7493222986706627,-0.3845731445703245,23.38958670095363,38.5236840609732,0.6537466643782861,1.8304862571711475,-3.337214100618601,5555.03955078125,11.939,0.0911111111111111,178.57626573684553,-3.903069671431382,96.71147008524764,1553.0,1435.0,1200.0,1354.0,1471.0,988.0,161.0,292.25,1649319122.5499294,1649319123.532035,f7986b73-871f-4946-9ce5-2c7f51a7c222
0.5724723512779698,0.5962320431105111,1.354043958117587,-0.2129650011610227,0.9560329344137648,-0.1791859971587073,1.0461014977052512,1.0186864678395984,1.5664559934610032,24.511598403692965,38.61246773819607,0.3145982661470435,1.995399767189617,-4.521516250233545,5559.72431640625,11.929,0.093,178.52991197502433,-3.9428443910869966,96.6007867938566,1553.0,1435.0,1200.0,1252.0,1471.0,988.0,161.0,292.25,1649319125.6731136,1649319126.8165462,7696006b-2827-42ea-ab92-63140b1510eb
0.5593762510664224,0.5919981633305577,1.3453526696747602,-0.2147663727068125,0.9505630771885752,-0.1755043618917743,1.041709833421632,1.021736965130153,1.6025358350438892,24.216569507999967,38.26349397168419,0.3245088279434195,1.982023527830919,-4.496840104279123,5551.44189453125,11.919,0.1,178.53798935673677,-3.9558876191468286,96.6011481108637,1553.0,1435.0,1200.0,1252.0,1471.0,988.0,161.0,292.25,1649319126.9288185,1649319128.0473616,7696006b-2827-42ea-ab92-63140b1510eb
0.5574959876781308,0.5876064992067735,1.3344786976687886,-0.2004342923361516,0.9394524297292702,-0.1840773125876792,1.0239722433059564,0.9977537447028396,1.47422168502096,24.639212870873635,38.19468657746364,0.2750993454501723,1.9646233615231687,-4.442395998442856,5547.84912109375,11.9243,0.093,178.50454192037122,-3.9480952270774905,96.66111512271966,1553.0,1435.0,1200.0,1252.0,1471.0,988.0,161.0,292.25,1649319128.1606262,1649319129.3963346,7696006b-2827-42ea-ab92-63140b1510eb
0.2273716961432629,0.4332408193237226,0.2754433270006046,-0.2044840911895401,-0.0196265594339349,0.0255392130595289,-0.0352209136358463,-0.0634117194107152,-5.88779482958291,24.16204232121648,37.85144543115068,0.6956143425192924,1.374160218192883,-0.2085990670989821,5546.41357421875,11.9362,0.1,178.63878655643217,-3.9120860428863606,96.78255930125708,1553.0,1435.0,1200.0,1604.0,1471.0,988.0,161.0,292.25,1649319130.0226583,1649319131.317763,3d88154e-b5de-4897-a8ae-874b23bc0111
0.2372377693354175,0.4316108868521437,0.2740288308328765,-0.2001207464444903,-0.0177837189781541,0.0240139642862128,-0.034346019515248,-0.0564080155294379,-5.879751426288373,23.89251382285096,37.97981459030389,0.6805116103367237,1.3662208549115478,-0.2102882972116968,5549.646484375,11.9645,0.11,178.64508330782795,-3.9117554190418495,96.82373202308338,1553.0,1435.0,1200.0,1604.0,1471.0,988.0,161.0,292.25,1649319131.4255805,1649319132.546641,3d88154e-b5de-4897-a8ae-874b23bc0111
0.2308561004619754,0.4335432393221918,0.2722744913880346,-0.2047339164003674,-0.0206521577475316,0.0264596218112324,-0.0369959876878608,-0.0627805825131683,-5.97195684571884,23.97274538477649,37.97532785196753,0.6968108917863044,1.3746188495456315,-0.2001274040882735,5556.640679253473,11.964333333333334,0.1,178.63504786266245,-3.912739748908174,96.85855669120409,1553.0,1435.0,1200.0,1604.0,1471.0,988.0,161.0,292.25,1649319132.6552432,1649319133.7735798,3d88154e-b5de-4897-a8ae-874b23bc0111
0.1660593280338343,0.4058389386005387,0.0926896045793834,-0.1565570890374661,-0.1816579523821764,0.016939965623413,-0.2332928878319823,-0.2592352687452073,-7.234784131941689,24.413683587613185,37.62413965248161,0.5600330817961271,1.2654525861951,0.538958018801818,5537.497016059027,11.954444444444444,0.0988888888888889,178.6916337032063,-3.927876539041915,96.8769761935758,1553.0,1435.0,1200.0,1676.0,1471.0,988.0,161.0,292.25,1649319135.709515,1649319136.8439138,9b67a794-dd12-48c0-915e-9b41e08a733b
0.1641396184583547,0.3947151424570305,0.094477827257763,-0.1485495324357324,-0.177318882216531,0.0220153624371984,-0.2300320107707454,-0.252213864075716,-7.282345154772842,24.49937056841101,37.86296002321016,0.5540462895233487,1.2210804691192,0.5249603473970677,5530.66708984375,11.9514,0.101,178.70155189679105,-3.929710236133837,96.83422899930932,1553.0,1435.0,1200.0,1676.0,1471.0,988.0,161.0,292.25,1649319136.9525688,1649319138.0823653,9b67a794-dd12-48c0-915e-9b41e08a733b
0.1575389731488181,0.396700595434715,0.0991193169731996,-0.151100379706769,-0.174873224493745,0.0216997937158083,-0.2271918920446521,-0.241931582632017,-7.302442284798307,24.665335536318985,37.78769536613879,0.5604004539725445,1.2299475604857302,0.5112882381262667,5526.38671875,11.946111111111112,0.0888888888888888,178.70742358274754,-3.922072870385912,96.78636310949686,1553.0,1435.0,1200.0,1676.0,1471.0,988.0,161.0,292.25,1649319138.2154894,1649319139.1572287,9b67a794-dd12-48c0-915e-9b41e08a733b
0.1030639258523374,0.3668399085604085,-0.0881838641934091,-0.1015955350424044,-0.3402049519161951,0.013928914145713,-0.4289981147317903,-0.4451052712353368,-8.653561737986607,24.86627087154717,37.51097764272911,0.4225487963370471,1.1120015419415945,1.274523236157391,5514.143229166667,11.953888888888889,0.1,178.74837739701096,-3.932979638989299,96.79256492126322,1553.0,1435.0,1200.0,1747.0,1471.0,988.0,161.0,292.25,1649319141.0242052,1649319142.1720352,ff573c67-65ea-4d27-b5ce-0d4bad8a4071
0.0933733368622207,0.3678786554827466,-0.0823326940493727,-0.0965990301804731,-0.3362208962719121,0.0084196103443496,-0.4263683748730358,-0.457465048438849,-8.613886432232116,25.08123128274344,37.55636603637949,0.4006413187206197,1.1149737880855977,1.257549866912455,5501.55712890625,11.9494,0.1,178.77500921527673,-3.923376516339121,96.75949033733536,1553.0,1435.0,1200.0,1747.0,1471.0,988.0,161.0,292.25,1649319142.2802432,1649319143.4006045,ff573c67-65ea-4d27-b5ce-0d4bad8a4071
0.1013414466577014,0.3709423014782521,-0.0844101881654626,-0.1010695871700501,-0.3392187995193014,0.0098396695565618,-0.4283143823382576,-0.4532311681449163,-8.611464659279385,25.063292955934006,37.584451612722106,0.4137001980449921,1.1266166757634917,1.2676158439413965,5506.270182291667,11.950333333333331,0.1,178.76048049222018,-3.940193978868256,96.72426682411265,1553.0,1435.0,1200.0,1747.0,1471.0,988.0,161.0,292.25,1649319143.5090077,1649319144.829814,ff573c67-65ea-4d27-b5ce-0d4bad8a4071
0.3086832291427128,0.4423528650686729,0.4734758263517202,-0.254633224387759,0.1841256359741595,0.0613562617324819,0.2258595961402746,0.2030860552823592,-3.3271559475348726,20.5638273448021,39.44388642931014,0.876774690381617,1.3947662056948007,-1.1216037008722215,7929.16455078125,11.671333333333331,7.082222222222224,179.50099138819522,-4.15198016835191,84.5614810738735,1553.0,1435.0,1350.0,1528.0,1471.0,988.0,161.0,292.25,1649319148.0234118,1649319149.1346636,a054d264-a761-4c81-b6e0-8e078aa09ff3
0.308775270012939,0.4399335051599976,0.4728709864017036,-0.2522796073649816,0.1835865395050271,0.0622503730917864,0.2229931805070578,0.1992729335276354,-3.504303280198061,20.74721046147997,39.52742237976226,0.8745843911292035,1.3858805491277462,-1.1163172366502974,7943.861328125,11.673000000000002,7.059999999999999,179.74109985827783,-4.162071251100042,79.24176926606135,1553.0,1435.0,1350.0,1528.0,1471.0,988.0,161.0,292.25,1649319149.2425165,1649319150.3684168,a054d264-a761-4c81-b6e0-8e078aa09ff3
0.3009517962412452,0.4361598296508699,0.4709512769054143,-0.2554484436575366,0.1832709707541445,0.0696136429420489,0.2256492170070478,0.2116195587267743,-3.411355127639069,20.55685092665201,39.638281264971646,0.8969857141572636,1.3703517917706618,-1.117237190423097,7943.861328125,11.667555555555555,7.096666666666667,179.86246776636952,-4.144483798578475,74.76253120836698,1553.0,1435.0,1350.0,1528.0,1471.0,988.0,161.0,292.25,1649319150.4774148,1649319151.5900338,a054d264-a761-4c81-b6e0-8e078aa09ff3
0.5219287676618829,0.8548668737151699,0.5137108332571282,-0.3588761038861578,0.133555751792203,-0.2495315294791476,0.1489265773514257,0.123615337636728,-2.587376495206418,19.98068243103357,38.92398526511733,0.4117419171327083,2.9566917631453533,-0.949010576802414,7951.23046875,11.663,7.096666666666667,179.562572373752,-4.085182957839562,66.09088205698377,1637.0,1435.0,1350.0,1528.0,1535.0,988.0,161.0,292.25,1649319153.6822789,1649319154.6206446,49a6c9a9-ac9f-4b0b-a94c-6337d3219015
0.5187993782441264,0.8545644537360789,0.5027711189709372,-0.3608221113179774,0.1255613446310125,-0.2490976224342818,0.1374609145153686,0.1238388652455811,-2.903053592888075,19.84536422492593,38.60604566425667,0.4154553294961438,2.9601534606170703,-0.9075525144855672,7954.51171875,11.64711111111111,7.084444444444444,179.4564767686445,-4.056550330520176,63.918666370505925,1637.0,1435.0,1350.0,1528.0,1535.0,988.0,161.0,292.25,1649319154.7286594,1649319155.676123,49a6c9a9-ac9f-4b0b-a94c-6337d3219015
0.5237169901878435,0.8568391779798877,0.5063081179393398,-0.3627023750688621,0.1273101212158612,-0.2513723471534422,0.140051207602139,0.1124126484691732,-2.834054491824595,19.91757322272788,38.37587843394076,0.4152379771888123,2.970693619436227,-0.9184910140107304,7951.23046875,11.645,7.093333333333333,179.37527492633194,-4.033195257563226,62.01884394049752,1637.0,1435.0,1350.0,1528.0,1535.0,988.0,161.0,292.25,1649319155.7839544,1649319156.9169216,49a6c9a9-ac9f-4b0b-a94c-6337d3219015
0.7647325691953892,1.299529462319447,0.564609431666599,-0.4747818856113167,0.0850239147567677,-0.5845209347551459,0.0720198543302988,0.0527438653481518,-1.8842694490941367,19.505481847312254,37.969409965666046,-0.0799829488785828,4.645419904181497,-0.7906617329461925,7929.16455078125,11.641,7.12,178.82112801859046,-3.981377885129316,57.88120185703329,1723.0,1435.0,1350.0,1528.0,1599.0,988.0,161.0,292.25,1649319159.0570197,1649319159.9911337,666c353e-4b6c-47ea-b203-ad04d6e974db
0.7659685465266978,1.3042235469243155,0.5648987029483556,-0.476096755515198,0.0841035060062867,-0.5885444370212842,0.0722959769329853,0.0511265758058447,-1.7322801814948212,19.431750385742227,37.88145903265413,-0.0864701546886421,4.662908316105055,-0.7896265920133746,7929.16455078125,11.6174,7.103999999999999,178.68379203891124,-3.956047872460231,56.79063989565461,1723.0,1435.0,1350.0,1528.0,1599.0,988.0,161.0,292.25,1649319160.0994222,1649319161.2183402,666c353e-4b6c-47ea-b203-ad04d6e974db
0.7648903535407652,1.2888001260894162,0.5646094316632336,-0.4544539963296021,0.0891263079441724,-0.5926599803244774,0.0708496203560243,0.038411786275605,-1.8639108295798232,19.53960846829987,37.97388159884216,-0.1438900185663074,4.6024924251579575,-0.7956966529755278,7929.16455078125,11.616,7.1,178.56435388693302,-3.9204645505638505,55.63760424299457,1723.0,1435.0,1350.0,1528.0,1599.0,988.0,161.0,292.25,1649319161.3259304,1649319162.6518848,666c353e-4b6c-47ea-b203-ad04d6e974db
0.9761898842908836,1.6682846797245017,0.6182166611045841,-0.5751985063635455,0.0494172454302321,-0.8700318431011936,0.0185309578194787,-0.0044135175218053,-0.7581675441330069,19.43602450090012,35.59736819045274,-0.4926512129317786,6.057289914569521,-0.6978705071649448,7929.16455078125,11.60211111111111,7.127777777777778,178.09131623449537,-3.8872027625344887,53.68274073355962,1813.0,1435.0,1350.0,1528.0,1662.0,988.0,161.0,292.25,1649319164.5844772,1649319165.731213,a2b8ffd3-2df5-4489-9051-298a385b23dc
0.9728238183074084,1.671677043953113,0.6227135147816618,-0.5826406707938537,0.0526912707782102,-0.8663633549499988,0.0238561798101024,-0.0087131417897337,-0.7915908662262368,19.406288175921627,35.655497615139346,-0.4676007012999907,6.070935567368784,-0.7156254961991771,7929.16455078125,11.5672,7.118,177.97707236549,-3.858018009284445,53.00719662380404,1813.0,1435.0,1350.0,1528.0,1662.0,988.0,161.0,292.25,1649319165.843339,1649319166.952276,a2b8ffd3-2df5-4489-9051-298a385b23dc
0.9725871417705976,1.666246631483967,0.6269473945656353,-0.5776836107841039,0.0592130241729949,-0.8644962392581149,0.0305488663190529,0.0084064615038669,-0.7465135192141765,19.296444221901712,35.856452373889724,-0.4750495816912152,6.04812433794113,-0.7400621457118338,7921.83544921875,11.577444444444446,7.117777777777778,177.89536569630675,-3.84417494235687,52.51277865788044,1813.0,1435.0,1350.0,1528.0,1662.0,988.0,161.0,292.25,1649319167.0598905,1649319168.181882,a2b8ffd3-2df5-4489-9051-298a385b23dc
0.0259994174335419,-0.0687237927492023,0.4328858045412219,-0.104251571919686,0.2533403698671998,0.4220775771447166,0.3241592435887359,0.2960078864710034,-3.800956223376241,21.58152874994188,39.43358259503335,1.3526246981457857,-0.539708360201914,-1.3617910799109922,7921.83544921875,11.584111111111111,7.124444444444445,178.86859783332204,-3.708669301593171,51.82943340961882,1470.0,1435.0,1350.0,1528.0,1403.0,988.0,161.0,292.25,1649319169.091758,1649319170.2353475,2981c941-01e3-4700-853d-bd46a47d4f44
0.0268672313901126,-0.0628726226741801,0.4360283426864071,-0.1098397680956418,0.2558386220266505,0.4192243103016215,0.3283931234850186,0.3048832559876948,-3.718214895680677,21.39132085954787,39.14187920459991,1.3577093450347737,-0.5148791570075182,-1.3751220576344485,7929.16455078125,11.662,7.142222222222222,178.8283376627144,-3.682706139874399,51.38827832131687,1470.0,1435.0,1350.0,1528.0,1403.0,988.0,161.0,292.25,1649319170.3493917,1649319171.4551408,2981c941-01e3-4700-853d-bd46a47d4f44
0.0072888224620092,-0.0619522138987623,0.4338588079867401,-0.1052640215694384,0.2532220316218872,0.4160949208493527,0.3239094183783855,0.2955871284561531,-3.737928491782938,21.50552557743533,39.39716354707033,1.3410352450013845,-0.5142490876258372,-1.3617661233248406,7929.16455078125,11.662666666666668,7.143333333333333,178.78630771420174,-3.660306771650688,51.03699713884367,1470.0,1435.0,1350.0,1528.0,1403.0,988.0,161.0,292.25,1649319171.5636363,1649319172.6933758,2981c941-01e3-4700-853d-bd46a47d4f44
-0.2030065062405206,-0.4778143042332591,0.4052987463542603,-0.0003385173332045,0.310176153886721,0.7265925879321213,0.4095583757537529,0.3864933728790892,-4.274275421256289,22.60252865385701,39.55606452349715,1.8076841424853367,-2.0863074985966583,-1.5723556089430846,7936.505859375,11.65388888888889,7.138888888888889,178.90137970569847,-3.600012565274362,50.44020973956876,1385.0,1435.0,1350.0,1528.0,1331.0,988.0,161.0,292.25,1649319174.6196015,1649319175.5500546,9a03ec38-a485-4a3a-a71f-be92cb70637a
-0.203379600596618,-0.4802385957276825,0.4034064299692307,-0.0060045098893018,0.3077102256357162,0.7333334855623961,0.4100596697591679,0.3973843274505796,-4.205720968360708,22.60464470017694,39.42928085132169,1.8355470318698124,-2.0941839186579885,-1.5676059891896106,7936.505859375,11.601777777777777,7.115555555555555,178.88681926020786,-3.5940653677820498,50.23253821730948,1385.0,1435.0,1350.0,1528.0,1331.0,988.0,161.0,292.25,1649319175.657982,1649319176.7789326,9a03ec38-a485-4a3a-a71f-be92cb70637a
-0.2234050670288397,-0.5053263145519602,0.3848141749419526,0.0124825574386462,0.2979012988590505,0.7430109250672022,0.3923746747136674,0.3678523579139538,-4.664722945222881,22.734398676132244,39.5917034098114,1.8153204618552865,-2.189921564306724,-1.506741603481182,7943.044053819444,11.59688888888889,7.1033333333333335,178.86811972008016,-3.5779171879005864,50.08511427589906,1385.0,1435.0,1350.0,1528.0,1331.0,988.0,161.0,292.25,1649319176.8868685,1649319178.0147712,9a03ec38-a485-4a3a-a71f-be92cb70637a
-0.4976474739548965,-0.9927618442046966,0.3329031259585019,0.1303869160522041,0.3451314126074439,1.1144747146811518,0.4733180420324781,0.460945119834421,-5.399977511885384,24.193998181279003,40.03545904975054,2.390877516062131,-4.034612882802102,-1.6739896627429878,7936.505859375,11.5896,7.1240000000000006,179.01137064358068,-3.5447860889005307,49.79809234793824,1297.0,1435.0,1350.0,1528.0,1253.0,988.0,161.0,292.25,1649319179.1272025,1649319180.2674625,b078e7c6-2466-477d-b68e-93c05aaa579c
-0.5012633663719126,-0.9958517896908766,0.3298526286414157,0.1347917291951806,0.3432248517896232,1.1140276590252476,0.4710301690821156,0.4521880889030378,-5.332801759717968,24.161973938322102,40.097555152712886,2.3796162691106013,-4.047964121852432,-1.66416481062464,7936.505859375,11.5394,7.110000000000001,179.03244041113234,-3.547308285661946,49.68915287973328,1297.0,1435.0,1350.0,1528.0,1253.0,988.0,161.0,292.25,1649319180.3801658,1649319181.4891365,b078e7c6-2466-477d-b68e-93c05aaa579c
-0.4962011170058488,-1.0005064311023717,0.3246194478922679,0.1306498900115768,0.3384387266946387,1.122390229496255,0.4673353857638013,0.45105730122371,-5.41904829496783,24.2202715819941,40.06123651489272,2.4078277369395424,-4.06431035220782,-1.6459869426930105,7932.10107421875,11.541800000000002,7.104000000000001,179.05245013332478,-3.549170771526902,49.63413912106342,1297.0,1435.0,1350.0,1528.0,1253.0,988.0,161.0,292.25,1649319181.5968487,1649319182.7200725,b078e7c6-2466-477d-b68e-93c05aaa579c
0.2940881772243897,0.4420898911618067,0.4554226679957538,-0.2438512921403422,0.1714371445768525,0.0458145027583366,0.2020736057051734,0.1803914063267465,-3.807897785785797,20.44057937795389,38.45284206920569,0.8154129614147257,1.403492016553133,-1.047467567229915,7931.611653645833,11.588333333333331,7.13,178.2581610599008,-3.629810830780228,49.559121787371325,1553.0,1435.0,1350.0,1528.0,1471.0,988.0,161.0,292.25,1649319184.6552942,1649319185.8010762,46c343cd-49c5-479c-9a25-d249fb8a7529
0.2838376734096524,0.4340478205012244,0.4620846735106489,-0.2375081410990596,0.1795794744209063,0.0495032599529726,0.2107939302426313,0.1768949486576027,-3.736256359454799,20.473846755250342,38.745661315790606,0.8100284931049354,1.369868974195923,-1.0805226770425012,7943.861328125,11.664,7.15,178.2691531110051,-3.6202222412547824,49.59925256383974,1553.0,1435.0,1350.0,1528.0,1471.0,988.0,161.0,292.25,1649319185.914923,1649319186.9632027,46c343cd-49c5-479c-9a25-d249fb8a7529
0.2840031278070217,0.4385134460880754,0.4599326704044843,-0.2405509690390435,0.1772357193939494,0.0490753794245202,0.208805737886731,0.1860453455670654,-3.74548586112852,20.372566375320545,38.89376942498802,0.8151712708919229,1.3856069250104923,-1.0708085508410796,7949.0197265625,11.6629,7.143000000000001,178.27348208490102,-3.617706213007962,49.64672784272266,1553.0,1435.0,1350.0,1528.0,1471.0,988.0,161.0,292.25,1649319187.072135,1649319188.2506478,46c343cd-49c5-479c-9a25-d249fb8a7529
0.3287744356707618,0.4337010236622555,0.4485721978302278,-0.7189006586840905,0.1169226513834661,0.5168007766031414,0.3313121338532837,0.3145738446338024,-3.448669140638691,19.332055545529048,42.53272040028368,2.9385185256814736,1.3913619341259555,-1.1466068850845652,7951.23046875,11.663555555555554,7.148888888888889,178.3125415082526,-3.459770117173456,49.68074772483166,1553.0,1522.0,1350.0,1528.0,1471.0,988.0,161.0,292.25,1649319189.0244262,1649319190.101024,79e897d7-a239-4a11-90bc-ceec6808383b
0.3018196101438153,0.4373300635252887,0.4535555532997058,-0.7272500841218875,0.1188292123379309,0.5188782704157143,0.3388068901955628,0.3132326777300324,-3.142808828200475,19.287451051546537,42.2876552855519,2.962088536583973,1.406323396559994,-1.1664150232860044,7945.498914930556,11.653666666666668,7.139999999999999,178.33178291005444,-3.4741049292621504,49.67622538069119,1553.0,1522.0,1350.0,1528.0,1471.0,988.0,161.0,292.25,1649319190.215186,1649319191.5245905,79e897d7-a239-4a11-90bc-ceec6808383b
0.3154416585708546,0.4359625992255139,0.4511756394719555,-0.7251199946122259,0.1184084540287191,0.5180104565382527,0.3358484337410534,0.3172430296159955,-3.3164006896526126,19.23487687882699,42.23369245264063,2.954770474797955,1.4024874606918007,-1.1587083549750947,7939.774956597223,11.653444444444444,7.1511111111111125,178.35454110036892,-3.47280494030606,49.7234580360766,1553.0,1522.0,1350.0,1528.0,1471.0,988.0,161.0,292.25,1649319191.6341443,1649319192.7572968,79e897d7-a239-4a11-90bc-ceec6808383b
0.3394248788769093,0.4325833845752662,0.4524642115880822,-1.2200372246863456,0.0629867000024834,0.9990686141694628,0.4723450385928667,0.453345174124273,-2.7463549983626536,18.60815764879289,45.89497371597157,5.148964543249651,1.414334828538144,-1.2782490572011984,7936.505859375,11.65,7.15,178.37716572253964,-3.308730183495883,49.82342620258872,1553.0,1613.0,1350.0,1528.0,1471.0,988.0,161.0,292.25,1649319194.520913,1649319195.6211736,943c9ed3-4077-49b1-a786-1370ab20d86a
0.344145260506234,0.4297695638134957,0.4620233129428765,-1.2109646165482493,0.072992857844419,0.9943219351232712,0.4808785417073948,0.4501105950259477,-2.6846469481991027,18.679208158885807,46.08426629142448,5.118840758924005,1.4011570089349867,-1.317037752636674,7939.774956597223,11.639888888888889,7.15,178.37955628874914,-3.324608333745785,49.84618553126807,1553.0,1613.0,1350.0,1528.0,1471.0,988.0,161.0,292.25,1649319195.729962,1649319196.8531165,943c9ed3-4077-49b1-a786-1370ab20d86a
0.3489182368991136,0.4351605288308533,0.4674668727068067,-1.220155563012748,0.0754779613828496,0.993388377757254,0.4861117223461058,0.4659942188369686,-2.606333443148016,18.70139600469622,45.540072005288486,5.137846266453271,1.4271223731062932,-1.335443816442777,7944.680121527777,11.640444444444446,7.139999999999999,178.42787152911802,-3.3353570356449427,49.94033437660734,1553.0,1613.0,1350.0,1528.0,1471.0,988.0,161.0,292.25,1649319196.9614005,1649319198.0880463,943c9ed3-4077-49b1-a786-1370ab20d86a
0.3722834684112177,0.4359100044460979,0.4739228819942607,-1.6775597549807464,0.0238561798317923,1.4353949453690162,0.6075793668751248,0.577297922329668,-2.4239288658570093,18.863682827417065,49.09025495091553,7.1649408566020405,1.4539054408386043,-1.4457290810853285,7951.23046875,11.6196,7.114,178.41282750623412,-3.1860966555805605,50.04029427100147,1553.0,1710.0,1350.0,1528.0,1471.0,988.0,161.0,292.25,1649319199.1975048,1649319200.3411582,b636366a-28dd-47bc-843b-f7a2cbc3f879
0.3800937933866628,0.4233398518762131,0.4638378328629167,-1.6728525153956364,0.0153489732855493,1.441719468662216,0.6000583133516647,0.5855684514806433,-2.29364470387043,18.967939786686525,48.78508822519683,7.168740425933212,1.4073251596780478,-1.4115483535907432,7952.05078125,11.59777777777778,7.110000000000001,178.43254034287065,-3.1816126790791293,50.06267141265126,1553.0,1710.0,1350.0,1528.0,1471.0,988.0,161.0,292.25,1649319200.4530754,1649319201.5600746,b636366a-28dd-47bc-843b-f7a2cbc3f879
0.3668925033506949,0.4188955929184288,0.4702280986796717,-1.6590332171990383,0.0258284842960673,1.4346454696808069,0.6060541182602271,0.5767193796536065,-2.3814349744009884,18.82861402816479,49.01912701558909,7.121058955740252,1.3879048590667542,-1.443159918592743,7956.15234375,11.600666666666667,7.110000000000001,178.4628754897044,-3.1827563800260865,50.1102486131348,1553.0,1710.0,1350.0,1528.0,1471.0,988.0,161.0,292.25,1649319201.6686523,1649319202.7888956,b636366a-28dd-47bc-843b-f7a2cbc3f879
0.3854847584095289,0.4316498272220193,0.4592226408628103,-1.9677387789953844,-0.0344056944416822,1.7213002332109668,0.6538101783829808,0.6401881303981481,-2.735242289182626,20.126155760260456,51.2612880350928,8.469807476712083,1.4557055171608402,-1.412892679535604,7958.61328125,11.571333333333332,7.097777777777777,178.4997888676188,-3.1245930978070664,50.22379633408177,1553.0,1814.0,1350.0,1528.0,1471.0,988.0,161.0,292.25,1649319204.727712,1649319205.864339,a64a8862-32ac-4c6b-91d2-72c60e81c725
0.3737166761805251,0.4131101670435858,0.45141231597722,-1.9494226138559216,-0.0353392518819564,1.7207611365680078,0.650772829847182,0.6289196988064779,-2.556645970301571,19.914402413366787,50.95994801549172,8.425528498445432,1.3848233915073969,-1.3989461831340944,7957.13671875,11.547,7.078,178.51417931729011,-3.100098341382482,50.23800297577341,1553.0,1814.0,1350.0,1528.0,1471.0,988.0,161.0,292.25,1649319205.9740283,1649319207.0927804,a64a8862-32ac-4c6b-91d2-72c60e81c725
0.3740295055629377,0.4145850123429717,0.449524930340803,-1.9601667603552968,-0.0385108271640576,1.7323582891111118,0.6476867215644752,0.6274021202647095,-2.925323671727815,20.108346935732367,51.38777395817903,8.476899328290182,1.390379031069501,-1.387309470023063,7948.2828125,11.5578,7.110000000000001,178.53453874516808,-3.106769429833516,50.24915189355562,1553.0,1814.0,1350.0,1528.0,1471.0,988.0,161.0,292.25,1649319207.200858,1649319208.3274643,a64a8862-32ac-4c6b-91d2-72c60e81c725
0.2724454245104787,0.4460344996944097,0.478945683513059,0.2534192620397238,0.2412567186568817,-0.4320223153811063,0.0848266843824149,0.0572012733591978,-4.022311611429006,21.98253659663468,35.79243776542316,-1.3692096134742795,1.383676096982282,-1.00739182244754,7947.955295138889,11.616555555555555,7.117777777777778,178.5666260631969,-3.8419717794627175,50.407433179561686,1553.0,1349.0,1350.0,1528.0,1471.0,988.0,161.0,292.25,1649319210.6812894,1649319211.8044474,eda00f71-eb3e-40f3-81c9-a2cb65355cf4
0.2602697324787945,0.4540552037210706,0.4859013431928726,0.2427819672997922,0.2459639516265735,-0.4304839176163418,0.0941491098915112,0.0709285125094918,-3.858820784226698,21.80170940467368,35.799835307623006,-1.3425264010646096,1.4142834652011635,-1.0354815025887192,7952.87109375,11.669555555555556,7.155555555555556,178.56837610944424,-3.853061777376964,50.55434751296903,1553.0,1349.0,1350.0,1528.0,1471.0,988.0,161.0,292.25,1649319211.9138277,1649319213.0390835,eda00f71-eb3e-40f3-81c9-a2cb65355cf4
0.2845098583304183,0.4557336852256841,0.4860262558288934,0.2419409565482916,0.2451775585667869,-0.429831034113013,0.0918688225994026,0.0721837073189285,-4.018196965654043,21.9526988360178,36.00696162591397,-1.338202232230993,1.4199850873525544,-1.031019601924587,7951.23046875,11.669,7.150999999999999,178.56720207581694,-3.858548160030085,50.691547344210846,1553.0,1349.0,1350.0,1528.0,1471.0,988.0,161.0,292.25,1649319213.1699078,1649319214.1219175,eda00f71-eb3e-40f3-81c9-a2cb65355cf4
0.2540898455691585,0.4707146004148502,0.5073468648633263,0.6459472587956089,0.3001234284113493,-0.8354507544638597,-0.0089629664119078,-0.0228348413634348,-4.246093298077256,23.41637243222921,32.99724525023046,-3.150853129160524,1.456095274881818,-0.9910071914908968,7954.51171875,11.656111111111109,7.128888888888889,178.60990669523756,-4.020472654709869,50.91885953077445,1553.0,1264.0,1350.0,1528.0,1471.0,988.0,161.0,292.25,1649319216.196082,1649319217.3331566,832d6c39-dcf7-461b-b3b2-c72c1b965def
0.2536953846974498,0.4673353857775721,0.4998258112855634,0.6430676945986736,0.2934044450420944,-0.8318874559412143,-0.0126708988579421,-0.0433073624129389,-4.045418238025153,23.25852975442386,32.61398336319704,-3.1377312661540206,1.4452727415250584,-0.9670939358300322,7951.23046875,11.639111111111111,7.134444444444444,178.63749610602494,-4.021398240206144,51.02988729137264,1553.0,1264.0,1350.0,1528.0,1471.0,988.0,161.0,292.25,1649319217.4411733,1649319218.558148,832d6c39-dcf7-461b-b3b2-c72c1b965def
0.2454905986768927,0.4531610924495395,0.50170607466767,0.659766537203536,0.29820371883563,-0.8289947414519715,-0.0138937276713494,-0.0395205375462378,-4.344456119620332,23.63906993684605,33.23600005637186,-3.1663345517182764,1.3867837894405437,-0.975509357893332,7943.861328125,11.646333333333336,7.133333333333332,178.63977738920775,-4.029178110262005,51.16100833014414,1553.0,1264.0,1350.0,1528.0,1471.0,988.0,161.0,292.25,1649319218.6661484,1649319219.9953372,832d6c39-dcf7-461b-b3b2-c72c1b965def
0.2195613709512864,0.4628122346646161,0.5141447401899181,1.092897705158219,0.3478926386312413,-1.256827308053845,-0.1369655301938143,-0.1646961327674722,-5.171734604156898,25.584591843368525,30.01645705455043,-5.092182433594739,1.4048652650812783,-0.8858670815817447,7951.23046875,11.6338,7.135999999999998,178.6506246403016,-4.205399893678731,51.36928037781346,1553.0,1178.0,1350.0,1528.0,1471.0,988.0,161.0,292.25,1649319222.135147,1649319223.2728508,a2050dbe-34a9-43bc-bec8-1cc5540b8c95
0.2240319274759198,0.4651001076101838,0.5135267515293042,1.0930817868772449,0.3466172151952244,-1.2592203729042388,-0.1378070467805197,-0.1596338846062844,-5.084319079396856,25.562410520931863,30.01322170542772,-5.098109540459094,1.4127939310988469,-0.8817452627303921,7951.23046875,11.628777777777778,7.136666666666666,178.6428069575596,-4.2194159541197855,51.44710028990397,1553.0,1178.0,1350.0,1528.0,1471.0,988.0,161.0,292.25,1649319223.381152,1649319224.5018072,a2050dbe-34a9-43bc-bec8-1cc5540b8c95
0.2360761326414868,0.4742121533076082,0.5193647721246236,1.0871780225317835,0.3509431359573332,-1.2632044313579964,-0.1312721443119844,-0.1554788959269183,-4.959038116462877,25.36603185566061,29.992585873179888,-5.094696155505997,1.447359478220949,-0.9037095984728472,7951.23046875,11.622,7.124,178.6579657276215,-4.229524804846133,51.4965233869562,1553.0,1178.0,1350.0,1528.0,1471.0,988.0,161.0,292.25,1649319224.6101797,1649319225.7376497,a2050dbe-34a9-43bc-bec8-1cc5540b8c95
0.2049268726555052,0.477643962724486,0.5078202178659117,1.3842596631982087,0.358017133990582,-1.5491888706599186,-0.2447191061482262,-0.256921098401408,-5.682246737285056,27.70124775445313,28.200664262841464,-6.393228872673956,1.4439619307748577,-0.7370552717952726,7951.23046875,11.6116,7.126,178.68012559336475,-4.327657462368926,51.64325770693343,1553.0,1088.0,1350.0,1528.0,1471.0,988.0,161.0,292.25,1649319226.640768,1649319227.775727,f3c0ef01-21a5-483b-a759-37988a9ff182
0.2130790639884021,0.4863221014734132,0.5101738342700304,1.376948987772263,0.360686319120701,-1.551660828287571,-0.240090764561359,-0.2627854171436103,-5.62236204007418,27.338527893331708,28.131999563308263,-6.384560719407488,1.4777381075424,-0.7494089536540649,7944.5982421875,11.5873,7.12,178.6874612165333,-4.323964549839429,51.685083053334914,1553.0,1088.0,1350.0,1528.0,1471.0,988.0,161.0,292.25,1649319227.8840954,1649319229.0069287,f3c0ef01-21a5-483b-a759-37988a9ff182
0.2134209300765591,0.4858618971470288,0.5096084403744371,1.377001582652446,0.3579382417862337,-1.549622778116892,-0.2411689577673801,-0.2590643358969189,-5.487739823789621,27.51860930551843,28.355158771240337,-6.378830622852319,1.4730421196834194,-0.7430804028986739,7943.861328125,11.583222222222222,7.125555555555555,178.6682213325513,-4.335143027162549,51.73534717434695,1553.0,1088.0,1350.0,1528.0,1471.0,988.0,161.0,292.25,1649319229.1174653,1649319230.2366009,f3c0ef01-21a5-483b-a759-37988a9ff182
0.2794010844135121,0.4491507404387091,0.4644558215330185,-0.293513924318777,0.1732253672051467,0.0886792523537113,0.2232035596374916,0.1934875072330845,-3.7004071929005335,20.342323569816312,39.14515724215436,1.0237254161150793,1.4297632508091391,-1.0907900627186151,7943.861328125,11.601666666666668,7.126666666666667,178.6758908760793,-3.8015126795954544,51.78356072078816,1553.0,1435.0,1350.0,1528.0,1471.0,988.0,161.0,292.25,1649319232.1709378,1649319233.306945,2db0b73e-fad8-405c-abed-65abe63ab658
0.2767091418766955,0.4381852344231277,0.4591725746849255,-0.2765854813199482,0.1721770115310317,0.0861794829383922,0.2171860084808905,0.1846177002330692,-3.781891595386369,20.399512401435008,39.43448733376397,0.9800428255212332,1.3842301240844606,-1.0744435846702656,7951.23046875,11.663000000000002,7.15,178.69358106602965,-3.800545638645467,51.71339077235003,1553.0,1435.0,1350.0,1528.0,1471.0,988.0,161.0,292.25,1649319233.416001,1649319234.534829,2db0b73e-fad8-405c-abed-65abe63ab658
0.297743514536163,0.4453902136341428,0.4720426186011182,-0.2822323413536706,0.1804045550918972,0.0834197738955535,0.2285419300497353,0.2038223822023864,-3.606065829101885,20.546795500709464,39.39713697500152,0.988279075639698,1.4118533997701237,-1.11852937254687,7958.61328125,11.665888888888889,7.134444444444445,178.69804800974686,-3.823970199290849,51.7069631848861,1553.0,1435.0,1350.0,1528.0,1471.0,988.0,161.0,292.25,1649319234.642806,1649319235.7648346,2db0b73e-fad8-405c-abed-65abe63ab658
0.3720073458073584,0.474356788951472,0.7100339980665457,-0.2993125002282189,0.3979102753540915,0.0577140728693561,0.4764474314528624,0.4587361391573632,-1.9295628598357728,20.29485903416952,39.40657990472066,0.9800692655937449,1.5257321452773267,-2.0875087513478854,7966.009765625,11.655,7.13,178.743209220539,-3.816769187767147,51.6691152094203,1553.0,1435.0,1350.0,1446.0,1471.0,988.0,161.0,292.25,1649319236.8802054,1649319238.0185215,996a30a7-4f2e-4084-979b-eb989667ea51
