raw_voltage_G-,raw_voltage_G0,raw_voltage_G1,raw_voltage_G2,raw_voltage_G3,raw_voltage_G4,raw_voltage_G5,raw_voltage_G6,load_x,load_y,load_z,load_l,load_m,load_n,rpm,voltage,current,roll,pitch,yaw,aileron1_pwm,elevator_pwm,throttle_pwm,rudder_pwm,aileron2_pwm,pbaro,pdiff,Tt,sample_start_time,sample_end_time,uid
-0.3096473769097805,-0.2050231877835098,-0.5523986602007301,-0.036654121643462,-0.5499267046599913,0.6297480665936539,-0.7259483627152696,-0.7482617106768729,-24.043293866631693,20.02494968755685,51.1025700327782,1.5990960180656344,-1.0818764852246132,2.557509812129424,5206.376573350694,11.952222222222222,0.1322222222222222,-179.62860208918832,-9.267643964123184,109.5316645787402,1553.0,1435.0,1200.0,1528.0,1471.0,988.0,161.0,292.25,1649325534.0028808,1649325534.987137,d9eb750c-714f-49cd-bb75-d22517bb3de0
-0.3057401906486394,-0.2053296535972253,-0.5576642088705905,-0.0375320499587189,-0.5541115313308564,0.6321284861053067,-0.7303673379941013,-0.7535039961636865,-24.098388959691103,19.9484004907453,51.247194575942686,1.605651207210647,-1.084144786673653,2.5768309869273,5215.52587890625,11.952888888888888,0.13,-179.58168324304972,-9.260317637600956,109.09002151136752,1553.0,1435.0,1200.0,1528.0,1471.0,988.0,161.0,292.25,1649325535.106219,1649325536.209655,d9eb750c-714f-49cd-bb75-d22517bb3de0
-0.3050190351198135,-0.2078238603847279,-0.5526484855214033,-0.0306451672055144,-0.5495848384949571,0.6300636352761436,-0.7239366114678567,-0.7492215655065251,-23.78595608759652,19.95490506316697,51.54990844275558,1.5859744857228473,-1.0989236892648375,2.5550738592345343,5216.93603515625,11.949,0.13,-179.57904679003008,-9.248424475844937,108.7056571692845,1553.0,1435.0,1200.0,1528.0,1471.0,988.0,161.0,292.25,1649325536.3176353,1649325537.434798,d9eb750c-714f-49cd-bb75-d22517bb3de0
-0.0908924956891654,0.1790633881368738,-0.5171732932771405,-0.3016661173602319,-0.6146051617796321,0.5046250849653762,-0.7491426729148416,-0.7713639798646681,-23.10796983459987,18.79010829155661,52.17895356473924,1.9099405810334773,0.3773625508105152,2.677441817810062,5223.650065104167,11.929222222222222,0.13,-179.77084609102317,-9.109618525619782,107.85760722155736,1637.0,1435.0,1200.0,1528.0,1535.0,988.0,161.0,292.25,1649325539.5788448,1649325540.7107022,93bfcbd5-24fb-42cf-b6d8-48bcc7e091c5
-0.0700781085622728,0.194552551732775,-0.5024073034640241,-0.3143414623654936,-0.6061636960517156,0.5013642085986948,-0.7360860120162573,-0.7667487854072064,-22.92838133910641,18.84808442833884,52.318995102549735,1.9324377315251848,0.435441738315132,2.629289027811116,5213.76318359375,11.936,0.13,-179.80192952302593,-9.091673341940435,107.54860263331685,1637.0,1435.0,1200.0,1528.0,1535.0,988.0,161.0,292.25,1649325540.8200903,1649325541.9450362,93bfcbd5-24fb-42cf-b6d8-48bcc7e091c5
-0.0703805285599334,0.1861899812492091,-0.5149117166666138,-0.3171289863846326,-0.6139871725965156,0.5134610080565334,-0.7417399534288939,-0.7577419243987725,-22.9362814891966,18.507029700667363,52.44308876049448,1.963041101559448,0.4025777976490927,2.664312945627166,5219.761990017361,11.928999999999998,0.13,-179.8389658443454,-9.091663855566589,107.32298327119352,1637.0,1435.0,1200.0,1528.0,1535.0,988.0,161.0,292.25,1649325542.0531788,1649325543.1729896,93bfcbd5-24fb-42cf-b6d8-48bcc7e091c5
0.1167670585569797,0.5180762000126863,-0.4792661399821278,-0.5684581540833049,-0.6727574828192625,0.4217894015714634,-0.759607395961693,-0.7897261419655125,-22.33522860738601,18.14067866663247,52.808900095219066,2.3236869815578274,1.6730541483685537,2.7602520408092377,5231.441786024306,11.903444444444444,0.12,179.93325736474733,-9.000050053910513,106.94629302609796,1723.0,1435.0,1200.0,1528.0,1599.0,988.0,161.0,292.25,1649325544.0859578,1649325545.2286818,66695915-cd58-4568-b7fa-39b15f4a18b9
0.1152790644464665,0.5227176893471561,-0.4768330826413791,-0.5751985064312367,-0.67094734484483,0.4226166736477983,-0.7544415995520914,-0.7793189440950148,-22.183535781517225,17.922089175931138,52.72180164348729,2.3394851240499888,1.6911412795951444,2.747690520661481,5220.11328125,11.904,0.12,179.83505594050052,-8.980060366939611,106.71540151684532,1723.0,1435.0,1200.0,1528.0,1599.0,988.0,161.0,292.25,1649325545.338095,1649325546.445502,66695915-cd58-4568-b7fa-39b15f4a18b9
0.1127282174181269,0.5117253803012936,-0.4879568824643329,-0.5784330867292348,-0.6797569746966594,0.4373695095977163,-0.7631328916363139,-0.789732716218636,-22.420409638631828,18.02594618131486,52.78817823441938,2.3799590711525105,1.6506964961060282,2.785753976948982,5226.4794921875,11.901444444444444,0.1255555555555555,179.79089193732722,-8.972585199211725,106.52229992645051,1723.0,1435.0,1200.0,1528.0,1599.0,988.0,161.0,292.25,1649325546.5539434,1649325547.6791258,66695915-cd58-4568-b7fa-39b15f4a18b9
0.2721167070885923,0.7734896000806315,-0.4533626542005514,-0.8068391778185844,-0.7266846899372683,0.380369915968941,-0.7684581157410026,-0.7904033001827799,-21.90172034777222,18.0482392946322,51.35742796094993,2.7690049257095173,2.6717961661636864,2.838103911844692,5226.4794921875,11.8629,0.1169999999999999,179.50387372802496,-8.92065693106754,106.2279746289922,1813.0,1435.0,1200.0,1528.0,1662.0,988.0,161.0,292.25,1649325548.4654598,1649325549.5180511,d558cc0d-4ab9-4d4a-9423-a0fdcc78e45e
0.2747332975070372,0.7709650506377028,-0.4423966391940317,-0.7998966628998789,-0.7153899554534752,0.3765041995677292,-0.7563744587843452,-0.7782670482403151,-21.69596244466244,18.00710205624967,51.45313228496456,2.745049691788757,2.659862759005881,2.790618796119724,5214.82080078125,11.864,0.11,179.4531299759512,-8.889162217326575,106.03738685177592,1813.0,1435.0,1200.0,1528.0,1662.0,988.0,161.0,292.25,1649325549.6276996,1649325550.7504508,d558cc0d-4ab9-4d4a-9423-a0fdcc78e45e
0.2711568523286394,0.7821019953126496,-0.4451710146675476,-0.8002648266038528,-0.71916363273561,0.367365856371689,-0.7629751071517448,-0.7862877563565134,-21.798370363947143,17.947986975309764,51.62217606985849,2.7247904721999423,2.700728105687826,2.8104737873417616,5216.93603515625,11.858666666666666,0.12,179.38361534621845,-8.880076073591948,105.8877905307545,1813.0,1435.0,1200.0,1528.0,1662.0,988.0,161.0,292.25,1649325550.8591664,1649325551.974778,d558cc0d-4ab9-4d4a-9423-a0fdcc78e45e
-0.5575266531632994,-0.6545903606256033,-0.5936592816962356,0.2586918889014827,-0.4751106031778626,0.7940015643044532,-0.6919063746820017,-0.7165075953543725,-24.999078124664216,21.28968713505901,50.45699472054386,1.3077128872673711,-2.794497863951732,2.4094757540543377,5221.3857421875,11.9404,0.124,179.88729322727278,-8.955470490644462,105.47204071052536,1470.0,1435.0,1200.0,1528.0,1403.0,988.0,161.0,292.25,1649325554.1207297,1649325555.2619605,836a300e-3d8f-4c7f-b313-c37f5526b0f0
-0.5527142289676867,-0.6364451533931944,-0.5870454853756024,0.2435840377140914,-0.4770697593195801,0.7884528150168586,-0.6895790545566104,-0.7072509097263093,-24.801011149716555,21.518934196773763,50.24868468243507,1.3312392429883846,-2.723714660233743,2.401628982869147,5220.820638020833,11.939,0.13,179.81900044249156,-8.954245097789116,105.38428795788884,1470.0,1435.0,1200.0,1528.0,1403.0,988.0,161.0,292.25,1649325555.3954394,1649325556.437834,836a300e-3d8f-4c7f-b313-c37f5526b0f0
-0.5439177485781997,-0.6369973988722849,-0.5821015740876135,0.2481729323882094,-0.4712843316756167,0.7832590804895428,-0.6859894591184886,-0.716494446633845,-24.85956119927684,21.516568172605115,50.0674456763222,1.3093889318934029,-2.7240168106148963,2.381576924977055,5223.29443359375,11.942777777777778,0.13,179.76793794825653,-8.949238853718713,105.32046591137434,1470.0,1435.0,1200.0,1528.0,1403.0,988.0,161.0,292.25,1649325556.547119,1649325557.4884446,836a300e-3d8f-4c7f-b313-c37f5526b0f0
-0.7742490233593343,-1.0349631599387643,-0.6232444057651575,0.5327726060103789,-0.4109339937288878,0.8975941063935468,-0.6740175665942839,-0.6990959760004524,-25.839060422464154,23.16739312068366,48.01818427810256,0.932403025599101,-4.229155719602004,2.288503046647302,5213.76318359375,11.874,0.11,179.81119125954052,-8.916137480271107,105.13788736576085,1385.0,1435.0,1200.0,1528.0,1331.0,988.0,161.0,292.25,1649325559.443077,1649325560.5805025,ad59f808-8bfc-4a1e-aef1-30fbb55e4aa4
-0.772968120536849,-1.0293546894027958,-0.6150259201616035,0.5260048630898554,-0.4049622930990239,0.8971267798543063,-0.6661086230218679,-0.6840566004664206,-25.817510289661527,23.1688802607332,47.90904919409829,0.9470317855592124,-4.205951522822509,2.258385843573091,5209.53955078125,11.881999999999998,0.12,179.78530484258616,-8.927441443347478,104.90538544968388,1385.0,1435.0,1200.0,1528.0,1331.0,988.0,161.0,292.25,1649325560.6902344,1649325561.805977,ad59f808-8bfc-4a1e-aef1-30fbb55e4aa4
-0.7843154505677984,-1.045014797047472,-0.6192598016138092,0.5417832971352685,-0.4041470736148196,0.8980734859134318,-0.6689224448702983,-0.6883562256534755,-25.861005297711657,23.18976999403429,47.90065904612032,0.9134713088307208,-4.26651495329456,2.265245662338438,5208.131184895833,11.874666666666668,0.12,179.78795040252467,-8.931271946243255,104.69386966928674,1385.0,1435.0,1200.0,1528.0,1331.0,988.0,161.0,292.25,1649325561.914491,1649325563.03543,ad59f808-8bfc-4a1e-aef1-30fbb55e4aa4
-1.0141942327098006,-1.4458268520492925,-0.6517239438848347,0.8140533242579393,-0.3413488887302577,1.0241957710787537,-0.648528809623637,-0.662400690285994,-26.72911900802336,25.3356908188915,45.576031431422486,0.5945119745184198,-5.778600368000822,2.144050760723402,5199.356011284723,11.829,0.1,179.8954621335201,-8.93858518156957,104.2247866963785,1297.0,1435.0,1200.0,1528.0,1253.0,988.0,161.0,292.25,1649325564.9752038,1649325566.3152192,8b8b2df0-55ac-4cc2-916e-8b8652ae5c40
-1.0108676105307612,-1.437227595557527,-0.6468983706857279,0.8164069406588125,-0.3390478664957231,1.0131903130233677,-0.6473717240123698,-0.6708553042256546,-26.62622819479649,25.392315818011475,45.5392334073171,0.5651336409202804,-5.746732928399276,2.133749415786592,5192.011935763889,11.829666666666668,0.11,179.87733177582328,-8.935914957059047,103.92886343821834,1297.0,1435.0,1200.0,1528.0,1253.0,988.0,161.0,292.25,1649325566.4229949,1649325567.5414913,8b8b2df0-55ac-4cc2-916e-8b8652ae5c40
-1.005016436869851,-1.4263799096044747,-0.644702537568648,0.8125938191123676,-0.3386665542136917,1.006208355775901,-0.6477398875692209,-0.662216608011868,-26.66120492874704,25.327321056068108,45.56650012648012,0.5577109385032322,-5.705434039536577,2.132080888486462,5182.24072265625,11.832666666666666,0.1033333333333333,179.8682142321912,-8.934994778795865,103.72000611922816,1297.0,1435.0,1200.0,1528.0,1253.0,988.0,161.0,292.25,1649325567.6511357,1649325568.772663,8b8b2df0-55ac-4cc2-916e-8b8652ae5c40
-0.2860717611564881,-0.1778448301059881,-0.5551204411500954,-0.0647923326896556,-0.5581051961837165,0.6342317715763053,-0.7291040512186399,-0.7442382070772565,-24.16619574986652,19.76378623557823,51.82294610395613,1.6708305678921953,-0.9821684847690166,2.5809314589603773,5187.25947265625,11.9478,0.1299999999999999,179.42905310378097,-8.832240900658006,103.3973803123988,1553.0,1435.0,1200.0,1528.0,1471.0,988.0,161.0,292.25,1649325570.0979202,1649325571.230613,071cf4d1-9356-468d-a003-4558f77716a1
-0.2910890852206543,-0.1847763851171656,-0.5618975006830135,-0.0640823031498629,-0.562609722072345,0.6425505125919694,-0.7342550555125231,-0.7698387308568786,-24.320272198058245,19.78055122403458,52.08750815715542,1.6876605363832942,-1.0099370869372934,2.603064614935552,5215.177408854167,11.955888888888888,0.13,179.36900784831352,-8.825036227394001,103.53349642029237,1553.0,1435.0,1200.0,1528.0,1471.0,988.0,161.0,292.25,1649325571.3391554,1649325572.4596608,071cf4d1-9356-468d-a003-4558f77716a1
-0.2894904226005625,-0.184945126664625,-0.5653369811260636,-0.0620574036967648,-0.565941821405716,0.6392677217490143,-0.7376507073347237,-0.7507862613898091,-24.21533594246104,19.7450767953707,51.83610069481109,1.6753223089690217,-1.009552420165326,2.616856822324442,5240.330186631944,11.955222222222224,0.13,179.2709718664266,-8.797814223865698,103.70513224394558,1553.0,1435.0,1200.0,1528.0,1471.0,988.0,161.0,292.25,1649325572.5684006,1649325573.6201065,071cf4d1-9356-468d-a003-4558f77716a1
-0.2856510027810324,-0.2051941208618793,-0.6061636958713038,-0.4195310514707432,-0.6369973990654674,1.0064318836039237,-0.67365597738897,-0.6991776074984571,-24.275120441037103,18.871696710004663,54.51431566988847,3.299336362083628,-1.0674026220348176,2.6766830702266216,5251.743706597223,11.942555555555556,0.1255555555555555,179.15583916213726,-8.692068191634437,104.02250988519866,1553.0,1522.0,1200.0,1528.0,1471.0,988.0,161.0,292.25,1649325575.62102,1649325576.7664578,c5075eac-56ce-43ff-abf7-ede2711770ef
-0.2859797202264646,-0.1990273816994017,-0.6032841303494403,-0.4190314009153638,-0.6325531380639398,1.0017903940977453,-0.6687909579096747,-0.6949042791513262,-24.18246226116592,18.512728528113723,54.81232590265041,3.285637112195809,-1.0474557262666382,2.661160909675381,5248.8828125,11.93511111111111,0.12,179.14409427240446,-8.674364246442028,104.05870381652046,1553.0,1522.0,1200.0,1528.0,1471.0,988.0,161.0,292.25,1649325576.8791492,1649325577.9853325,c5075eac-56ce-43ff-abf7-ede2711770ef
-0.2834946163237499,-0.1937153079496073,-0.5920945866604747,-0.41623072802306,-0.6242826057080993,0.9971357560596628,-0.661256752798595,-0.6828469199773197,-24.16959717762068,18.73036840681661,55.32626275593228,3.270948213234853,-1.0318100595993658,2.6252283171873434,5261.77197265625,11.944333333333333,0.12,179.12751360873926,-8.655935542287686,104.0991021087314,1553.0,1522.0,1200.0,1528.0,1471.0,988.0,161.0,292.25,1649325578.093825,1649325579.2141087,c5075eac-56ce-43ff-abf7-ede2711770ef
-0.2874918205233701,-0.2224189147527442,-0.6467142889176902,-0.8418936189092004,-0.7139698957329143,1.4338828452314676,-0.590293214541499,-0.6231123722641326,-24.214565490384803,17.677328519682472,57.76825282567234,5.203234638146374,-1.1118633024722218,2.717440916962114,5266.801866319444,11.91288888888889,0.1144444444444444,179.08261346295544,-8.491472460764072,104.198136057147,1553.0,1613.0,1200.0,1528.0,1471.0,988.0,161.0,292.25,1649325580.538126,1649325581.640705,b3c2b04e-2ded-4ced-bb96-0da23251895b
-0.2761707914773856,-0.2136355847370596,-0.6474243188056199,-0.8357926208397215,-0.7158501600968903,1.4183805314757398,-0.5947506240625746,-0.6137504966124949,-24.075558530543567,17.62271209220758,57.56669713180264,5.1542769421182655,-1.0789150505690823,2.728267783227297,5264.285698784723,11.908666666666669,0.1122222222222222,179.08073288420394,-8.485982032172505,104.15120279172022,1553.0,1613.0,1200.0,1528.0,1471.0,988.0,161.0,292.25,1649325581.7511775,1649325582.9119875,b3c2b04e-2ded-4ced-bb96-0da23251895b
-0.281469716772144,-0.2150950901453923,-0.6429274629701908,-0.8261020270580652,-0.7117872112165121,1.4068228268678424,-0.5935277946982545,-0.6210217286651237,-23.98050216762345,17.75828377898855,57.00914716159299,5.107527238044431,-1.081026061095584,2.7139959687227173,5259.62255859375,11.913777777777778,0.12,179.07168060682395,-8.474637182824852,104.12344186729368,1553.0,1613.0,1200.0,1528.0,1471.0,988.0,161.0,292.25,1649325583.0264847,1649325584.1377926,b3c2b04e-2ded-4ced-bb96-0da23251895b
-0.2618913054848738,-0.2193289707777309,-0.6741556279291276,-1.213791588823036,-0.7838946922251344,1.7829676317143757,-0.5203552786575628,-0.5351475668324963,-23.82566225792303,17.165090540097175,59.30737073685443,6.822264493887911,-1.0726275801889684,2.7502759034157007,5223.29443359375,11.869777777777776,0.11,179.0804733370155,-8.350724744676128,104.00719660107949,1553.0,1710.0,1200.0,1528.0,1471.0,988.0,161.0,292.25,1649325586.0752745,1649325587.2016437,6d42990e-73ae-44aa-85a4-f5d974a0c823
-0.2677030299594389,-0.2202625283132845,-0.6780870895462681,-1.2093999206358932,-0.7878656002424552,1.7790230218460537,-0.5243393345644368,-0.542694919939184,-23.657203392406657,17.15995489916157,59.16024374638541,6.80332544103941,-1.076807345331532,2.766553836799236,5223.29443359375,11.878,0.11,179.0941306797159,-8.339086007466689,103.8512436506705,1553.0,1710.0,1200.0,1528.0,1471.0,988.0,161.0,292.25,1649325587.309533,1649325588.4307282,6d42990e-73ae-44aa-85a4-f5d974a0c823
-0.2704379591588716,-0.226876323276334,-0.676298866140707,-1.1994200520545368,-0.7821327660312395,1.7774846240698126,-0.5228798288547917,-0.556579948247044,-23.860992853359104,17.11193436559187,59.34078694778275,6.777053222262194,-1.102887061727791,2.753649007325257,5215.52587890625,11.867555555555557,0.11,179.1206394027946,-8.337684964913189,103.7087719758633,1553.0,1710.0,1200.0,1528.0,1471.0,988.0,161.0,292.25,1649325588.5430748,1649325589.6627252,6d42990e-73ae-44aa-85a4-f5d974a0c823
-0.2485453771496569,-0.2097304214872703,-0.6391669346014524,-1.343911204588206,-0.7768601366064917,1.8988997185960208,-0.461304468806951,-0.4806856518138621,-23.47964827727841,18.021510409571803,60.44096047887385,7.38407173580276,-1.0308700329780975,2.6104352109939786,5220.11328125,11.84722222222222,0.1,179.0827106034236,-8.258218559832244,103.41058564835814,1553.0,1814.0,1200.0,1528.0,1471.0,988.0,161.0,292.25,1649325591.6005008,1649325592.734832,990be4b1-bb14-4dbc-9d0f-2c22f064dc8a
-0.233187698115655,-0.2124390532184559,-0.6310804836095929,-1.3517609849808057,-0.7683923724443547,1.906815236694604,-0.4505751301668584,-0.4761493515443256,-23.59412459374507,17.970005686293074,60.23515334784741,7.419536932156035,-1.0369165097988695,2.5718570324775776,5219.161279296875,11.853599999999998,0.1,179.09802661961845,-8.263186422034064,103.25328859261148,1553.0,1814.0,1200.0,1528.0,1471.0,988.0,161.0,292.25,1649325592.8427436,1649325593.963303,990be4b1-bb14-4dbc-9d0f-2c22f064dc8a
-0.2476249682803525,-0.2151608336614357,-0.6427959761991464,-1.3581249593409197,-0.7808047474265767,1.9156511630404551,-0.4586747290303113,-0.4713369270421888,-23.397447029199284,17.93770120775631,60.20212693331934,7.453044239689879,-1.048183870626544,2.6159838281279555,5209.186360677083,11.848666666666666,0.1,179.13610295107551,-8.281252044715776,103.11239856194308,1553.0,1814.0,1200.0,1528.0,1471.0,988.0,161.0,292.25,1649325594.071378,1649325595.192932,990be4b1-bb14-4dbc-9d0f-2c22f064dc8a
-0.2866503038025236,-0.14885195248857,-0.4875229755334692,0.3864972078807166,-0.4602788703451635,0.1632849531674132,-0.7994496073309303,-0.8292577161949052,-23.79867411722524,21.456021524543267,47.95792582476916,-0.3912956227600648,-0.8930226004862593,2.4572790749158098,5197.9541015625,11.951,0.12,179.11714841721883,-8.860450947967994,102.8537969752277,1553.0,1349.0,1200.0,1528.0,1471.0,988.0,161.0,292.25,1649325596.9386642,1649325598.0226529,fc593a56-0f43-4b37-ba82-7d89c9f403da
-0.2989574852494859,-0.1596996277327925,-0.4898371465957178,0.3953199823526886,-0.4592532717447284,0.1668613983727803,-0.8013298715370903,-0.8198563943978854,-23.95464125422276,21.53344283692018,48.09398683085069,-0.402819706474025,-0.9350416516636166,2.4605295824635363,5180.157335069444,11.951444444444444,0.13,179.0719659569493,-8.86297233127285,103.14216300852618,1553.0,1349.0,1200.0,1528.0,1471.0,988.0,161.0,292.25,1649325598.1313136,1649325599.284175,fc593a56-0f43-4b37-ba82-7d89c9f403da
-0.2901215601263359,-0.153703821773615,-0.4890745218938847,0.3966742979699679,-0.456281665502496,0.1629299383385098,-0.8006198415622342,-0.821473684448746,-24.09385013877405,21.262572447023867,48.55693455047085,-0.4164631629173093,-0.9157945342780216,2.455835807483827,5182.24072265625,11.947333333333331,0.13,179.0231786746178,-8.864261339751215,103.40858136729172,1553.0,1349.0,1200.0,1528.0,1471.0,988.0,161.0,292.25,1649325599.3920376,1649325600.7223651,fc593a56-0f43-4b37-ba82-7d89c9f403da
-0.2928285483461555,-0.1410980561624827,-0.4486817173736597,0.7684218738854017,-0.3915259663346324,-0.2127036708134094,-0.8751242264986087,-0.8988603754391025,-23.96449580225037,23.10486321570291,45.42472842886596,-2.085343608700805,-0.8848482743603014,2.418356200758144,5175.982421875,11.932111111111112,0.12,178.9305597916526,-8.993235042938657,103.8595658567192,1553.0,1264.0,1200.0,1528.0,1471.0,988.0,161.0,292.25,1649325602.4520447,1649325603.586424,039bea87-b8fb-4b42-ba8b-1214dfc836d7
-0.3033885965582942,-0.1497679783858871,-0.4541329488851529,0.7642170307904061,-0.3929093189734875,-0.1998426009237036,-0.8769184765583081,-0.9066400255466884,-24.27932190483896,22.978461862077136,45.47024313526544,-2.048218556505281,-0.9153709044094488,2.429035611983115,5175.982421875,11.936666666666666,0.12,178.9111180376351,-8.991673680667141,104.0092942280646,1553.0,1264.0,1200.0,1528.0,1471.0,988.0,161.0,292.25,1649325603.6990776,1649325604.821561,039bea87-b8fb-4b42-ba8b-1214dfc836d7
-0.2981685633978715,-0.1496803204311438,-0.4434748325038914,0.7570537313457854,-0.3851472038274353,-0.1944910811718658,-0.8642727113346365,-0.8897943449147061,-24.09816336215863,23.06368746053516,45.39327974783865,-2.018859732531596,-0.9140831362528804,2.3858612279271223,5169.73828125,11.939,0.13,178.9109723269328,-9.02297700681574,104.13762665237996,1553.0,1264.0,1200.0,1528.0,1471.0,988.0,161.0,292.25,1649325604.930334,1649325605.878145,039bea87-b8fb-4b42-ba8b-1214dfc836d7
-0.3190486961834666,-0.1273538326253754,-0.4208853673981456,1.1306081644773427,-0.3381932011389819,-0.575080168254378,-0.9644395354294992,-0.989500966084022,-24.48164347321964,25.087975555898165,42.97990464402352,-3.7027751932423065,-0.850767536007184,2.435206498416136,5175.982421875,11.921666666666663,0.12,178.91344637323218,-9.141961748069516,104.4087578416728,1553.0,1178.0,1200.0,1528.0,1471.0,988.0,161.0,292.25,1649325607.9822266,1649325609.1190283,72cb9432-8ec3-4d8d-8776-a774c0f5297b
-0.3192985214091678,-0.1300098694042256,-0.4139560032697668,1.118918973913333,-0.3328811271488749,-0.5619709139062307,-0.9528423787021996,-0.9685813774410964,-24.371039152731413,25.08059704545997,43.01416548197686,-3.646591738493493,-0.8599374227631208,2.401718721186721,5170.431640625,11.916,0.1122222222222222,178.8960764432629,-9.135258201990364,104.50667695143392,1553.0,1178.0,1200.0,1528.0,1471.0,988.0,161.0,292.25,1649325609.2278328,1649325610.348806,72cb9432-8ec3-4d8d-8776-a774c0f5297b
-0.3027311616434961,-0.1243822270102349,-0.4078681554420181,1.129582566337706,-0.3267538336060635,-0.5758164955376283,-0.9523558763937844,-0.975615934913153,-24.494448011972928,25.159593451418846,43.25057341012086,-3.700956686214477,-0.8409778017956557,2.385371196377013,5178.80048828125,11.9104,0.11,178.89980086952636,-9.1473397251855,104.58486880527025,1553.0,1178.0,1200.0,1528.0,1471.0,988.0,161.0,292.25,1649325610.457803,1649325611.5736265,72cb9432-8ec3-4d8d-8776-a774c0f5297b
-0.3298963722851378,-0.127840334415341,-0.3705389995203017,1.394726025998866,-0.2727389814165503,-0.8254445920977176,-0.9979029879372128,-1.020229489384255,-24.7584457721586,27.011417459444825,41.93910422974204,-4.8462102722409055,-0.8707027374186265,2.3248786650898983,5204.26611328125,11.91211111111111,0.1177777777777777,178.95048724801106,-9.237603653788604,104.6636726440562,1553.0,1088.0,1200.0,1528.0,1471.0,988.0,161.0,292.25,1649325612.4872568,1649325613.6213362,f24a3de8-59ef-44f4-9241-4b7db0d758b0
-0.3162348747554541,-0.123317182602806,-0.3647404237235442,1.3870340385563733,-0.2696490377030729,-0.8236300712475009,-0.9902898883642872,-1.0164426619995086,-24.54054001070861,26.967129518223228,41.87121131565063,-4.82468755655305,-0.8533648223113994,2.3024811854350165,5195.856553819444,11.887,0.11,178.94631779697772,-9.25554940665038,104.68566812991337,1553.0,1088.0,1200.0,1528.0,1471.0,988.0,161.0,292.25,1649325613.73055,1649325614.8531835,f24a3de8-59ef-44f4-9241-4b7db0d758b0
-0.311448748559329,-0.1259206246585581,-0.3739182153514306,1.3729517842649737,-0.27926073587348,-0.8102709895479498,-0.996311994928862,-1.011340965042753,-24.642301909471072,26.96165428142193,41.50655072578607,-4.763504442841644,-0.8580251785761679,2.335635472374405,5202.055712890625,11.8808,0.1,178.9906533137902,-9.238033026041675,104.67122971713589,1553.0,1088.0,1200.0,1528.0,1471.0,988.0,161.0,292.25,1649325614.9617822,1649325616.083563,f24a3de8-59ef-44f4-9241-4b7db0d758b0
-0.2894509765344348,-0.1788704284432296,-0.53982850295347,-0.002296577428188,-0.5364492871391802,0.5788889144296749,-0.7263691211424177,-0.7459869843669351,-23.924592645152806,19.74090786223975,52.06190501728,1.4062621472717285,-0.9965685220857992,2.5276360253819097,5212.708821614583,11.955666666666666,0.12,179.03059777787627,-8.849997153715812,104.64743348984952,1553.0,1435.0,1200.0,1528.0,1471.0,988.0,161.0,292.25,1649325616.9944725,1649325618.1308362,36af2887-9481-4875-aee5-c1f95e751dbc
-0.2806939435786348,-0.180816435707797,-0.5376195213879807,-0.0018626704914975,-0.5331095173552799,0.579335970056813,-0.7250016562115245,-0.7492478628526681,-24.11921662731551,19.76793552016156,51.92576460239764,1.4064574450354137,-1.0011960499344,2.517558199999704,5238.19140625,11.956666666666669,0.12,179.0369619963629,-8.812986825060714,104.70297734708998,1553.0,1435.0,1200.0,1528.0,1471.0,988.0,161.0,292.25,1649325618.2393048,1649325619.3605194,36af2887-9481-4875-aee5-c1f95e751dbc
-0.2864530733300823,-0.172164592813279,-0.5388292018790076,-0.0067671342664722,-0.5388423506444489,0.5744972503055661,-0.7283151292310645,-0.7558879570155359,-23.8854455324866,19.88776210968861,51.780981630601055,1.4074761704531964,-0.9685885559652376,2.5326471035840017,5252.099609375,11.947111111111113,0.12,179.0469826427852,-8.811666511548655,104.75060197944276,1553.0,1435.0,1200.0,1528.0,1471.0,988.0,161.0,292.25,1649325619.4680822,1649325620.5850613,36af2887-9481-4875-aee5-c1f95e751dbc
-0.1993955451826074,-0.1398582436201351,-0.286479370804183,-0.0280417253441796,-0.3099892432002337,0.5481604142162572,-0.4656303907567008,-0.4807250983563089,-22.02772210829567,19.69443990654489,51.72737782875575,1.408494414869623,-0.841479812388733,1.5079786280057952,5262.490180121527,11.956111111111111,0.12,179.04287997582372,-8.81250586590666,104.81400283095844,1553.0,1435.0,1200.0,1446.0,1471.0,988.0,161.0,292.25,1649325622.428362,1649325623.660874,44ebfd4b-ef02-4a45-80b4-e561fa7f8dbd
-0.1935695764662855,-0.1277986968163668,-0.2824876452533402,-0.0332513485007316,-0.3107299532211744,0.5394428294285404,-0.4644190669130636,-0.485237841530229,-21.80771407014267,19.75273697996854,51.5042039299895,1.4013168621957892,-0.794932898995003,1.503050365004567,5258.5439453125,11.954,0.12,179.04570919195996,-8.822542828891992,104.8240174061015,1553.0,1435.0,1200.0,1446.0,1471.0,988.0,161.0,292.25,1649325623.7704804,1649325624.8899724,44ebfd4b-ef02-4a45-80b4-e561fa7f8dbd
-0.2065402187043889,-0.1429060019974215,-0.2928559415176993,-0.0296902432561137,-0.3160031289949743,0.5532215660646512,-0.473239652702822,-0.4980852163828999,-22.25174206544347,19.8473971463794,51.75203304279864,1.4241737769853091,-0.8517423983659423,1.535127794881502,5259.978624131944,11.95722222222222,0.1244444444444444,179.03453803811743,-8.816127573714056,104.86472153900525,1553.0,1435.0,1200.0,1446.0,1471.0,988.0,161.0,292.25,1649325624.998513,1649325626.3218596,44ebfd4b-ef02-4a45-80b4-e561fa7f8dbd
-0.139779351343705,-0.1115885447826549,-0.0766787544398668,-0.0309738846123346,-0.1177947298816114,0.5110153507785364,-0.2518457004517387,-0.2802468884335707,-20.56220547513326,19.53494288128965,51.6257721037939,1.341749582729417,-0.7312647444532147,0.6601795239652758,5245.6708984375,11.953555555555557,0.12,179.03831740945816,-8.816855747770571,104.8688917489485,1553.0,1435.0,1200.0,1354.0,1471.0,988.0,161.0,292.25,1649325626.9286938,1649325628.1625662,297b5bd8-42ac-40d4-9954-d76b931d61e9
-0.1386485634008037,-0.1062238763979356,-0.0851070692712176,-0.0371537722169953,-0.1297074495999275,0.5143156731914172,-0.263929354081801,-0.2825873565376753,-20.68713146250971,19.829560983545218,51.95115822547624,1.3646285292682632,-0.712912107127664,0.7059439353741257,5252.099609375,11.9544,0.12,179.0433905704097,-8.804830583122463,104.89513629548831,1553.0,1435.0,1200.0,1354.0,1471.0,988.0,161.0,292.25,1649325628.2710006,1649325629.3953369,297b5bd8-42ac-40d4-9954-d76b931d61e9
-0.1420277785726736,-0.1187940307588738,-0.0792296016274522,-0.0283441452745731,-0.118425867353577,0.5173004270087167,-0.2529107449857906,-0.269464955801,-20.64794515485858,19.56983129498657,51.84582261196409,1.350037123061692,-0.7601180511135106,0.6654199144301772,5249.955078125,11.955666666666666,0.12,179.0531085635608,-8.809585960036479,104.89852566302746,1553.0,1435.0,1200.0,1354.0,1471.0,988.0,161.0,292.25,1649325629.5034723,1649325630.6199386,297b5bd8-42ac-40d4-9954-d76b931d61e9
-0.0754559255368691,-0.083818496770964,0.147375031189644,-0.0283572939356771,0.082407324238496,0.4649817693472602,-0.0308949924027596,-0.054339119393059,-18.960505259504963,20.031931265674647,50.99151432764566,1.2475597207176918,-0.6189351245196681,-0.2290949231010344,5252.099609375,11.94811111111111,0.12,179.02355661175187,-8.83260938936373,104.88015321307005,1553.0,1435.0,1200.0,1252.0,1471.0,988.0,161.0,292.25,1649325631.5336978,1649325632.6869202,96446ebc-926e-48d7-ae5d-926e37bd4388
-0.0687106440684897,-0.0709985173616282,0.1488871311948871,-0.0309212898521875,0.0799485180158543,0.451648992493321,-0.0342084639830916,-0.0562851258628789,-18.86082387317713,20.10032693963732,50.53819225919912,1.2238895480939138,-0.5671274437447018,-0.222158415968957,5229.66796875,11.949333333333334,0.12,179.03087857454213,-8.824870879897844,104.8825194941625,1553.0,1435.0,1200.0,1252.0,1471.0,988.0,161.0,292.25,1649325632.806692,1649325633.9017346,96446ebc-926e-48d7-ae5d-926e37bd4388
-0.0747064498401038,-0.0806365121821498,0.1482822912307741,-0.0192189498794488,0.0829727181762324,0.4525036576888023,-0.0331828655956819,-0.0600719508729831,-18.848488331193515,20.056883711853803,50.850994211710855,1.1991504474556394,-0.607615336844571,-0.2275092111772995,5204.26611328125,11.941666666666668,0.12,179.05847253878898,-8.823182589944249,104.8721907303176,1553.0,1435.0,1200.0,1252.0,1471.0,988.0,161.0,292.25,1649325634.010825,1649325635.129775,96446ebc-926e-48d7-ae5d-926e37bd4388
-0.3680013005470971,-0.2184611567084329,-0.8068654750918621,0.0543743039267438,-0.7798448919242447,0.5683305123531993,-1.018375520900702,-1.0501559413405592,-25.76409430703702,20.566755990593947,50.31339987494071,1.2456736926333338,-1.1404334392513988,3.630520270187239,5187.469889322917,11.925,0.11,179.09737729630135,-8.812161795127219,104.92684818078575,1553.0,1435.0,1200.0,1604.0,1471.0,988.0,161.0,292.25,1649325636.0400157,1649325637.0789444,6cd31efa-3bd8-4ca0-ba05-f40e060c203b
-0.3645431928321387,-0.2149241571429681,-0.7939797470683011,0.0512580628224048,-0.7699570681954794,0.5690010957657111,-1.0074752454027025,-1.0294598799467547,-25.797040356191268,20.769097129276343,50.58262343293843,1.2562193582192729,-1.128116483969978,3.5846426467310875,5193.055935329861,11.93011111111111,0.1155555555555555,179.11750814051513,-8.817882552875798,104.85004042683926,1553.0,1435.0,1200.0,1604.0,1471.0,988.0,161.0,292.25,1649325637.1876574,1649325638.1353328,6cd31efa-3bd8-4ca0-ba05-f40e060c203b
-0.3697632261974343,-0.2152791719102732,-0.8088509291494678,0.050153572316684,-0.7836317180458261,0.5725117973511018,-1.02239902475896,-1.045987802236395,-25.916116161629105,20.744435792462383,50.77376766225834,1.265666394620075,-1.1311065078619034,3.644931154157552,5188.51513671875,11.933555555555555,0.1177777777777777,179.12489688737728,-8.808661038586372,104.79543610006463,1553.0,1435.0,1200.0,1604.0,1471.0,988.0,161.0,292.25,1649325638.2437484,1649325639.437154,6cd31efa-3bd8-4ca0-ba05-f40e060c203b
-0.4437904011445969,-0.2419315822270558,-1.036218313640413,0.1106901693921197,-0.9875549576305312,0.5586004780558522,-1.273526167580273,-1.300559912930056,-27.73149054392596,21.26414883549345,51.16922161550393,1.0891231584308552,-1.2435837924884323,4.586541058657467,5199.540576171875,11.8909,0.103,179.11994196458937,-8.818555506750148,104.704968802579,1553.0,1435.0,1200.0,1676.0,1471.0,988.0,161.0,292.25,1649325640.5453284,1649325641.6829915,af34d563-9a2c-42fa-944c-2186c3e9970c
-0.4524208786177648,-0.2534098475237566,-1.0435783010341022,0.112260890735353,-0.9930379671432636,0.5634665909198007,-1.280556343213166,-1.2991015019210308,-27.88151650712841,21.42029934977752,50.4117609366678,1.096987200777776,-1.279516389466541,4.611438626584481,5216.93603515625,11.8827,0.092,179.16017177880073,-8.824096668469048,104.54194174935564,1553.0,1435.0,1200.0,1676.0,1471.0,988.0,161.0,292.25,1649325641.7916803,1649325642.9111063,af34d563-9a2c-42fa-944c-2186c3e9970c
-0.44696964703716,-0.2520675846295053,-1.0212802890650627,0.1105077312340811,-0.9734381798296872,0.5668359440079794,-1.2538343341134988,-1.2906507181412186,-27.43088488480038,21.345750924216727,51.035055462268495,1.1094555802004424,-1.2815676287984694,4.517673793323417,5214.117024739583,11.889444444444443,0.0988888888888888,179.18444095874162,-8.846732418156286,104.41355263447014,1553.0,1435.0,1200.0,1676.0,1471.0,988.0,161.0,292.25,1649325643.0200045,1649325644.1399071,af34d563-9a2c-42fa-944c-2186c3e9970c
-0.5336749113142475,-0.2826136535728001,-1.2460585167312983,0.2185752186932219,-1.1733987611776375,0.5068735118227775,-1.5192755515813543,-1.545941139230507,-29.27421446503085,22.440545948848,50.51229220620377,0.7259920705246696,-1.4059906828258022,5.469132284364123,5219.05419921875,11.847333333333331,0.0966666666666666,179.19066857344487,-8.85670715052918,104.22021046963458,1553.0,1435.0,1200.0,1747.0,1471.0,988.0,161.0,292.25,1649325645.0516312,1649325646.2052734,44f3441f-bccf-464e-9753-5d2a6753f353
-0.5203421296710722,-0.2678213683097949,-1.2423242842718945,0.203256988195557,-1.1751212421492474,0.5050063971252874,-1.5178160452110874,-1.5404318298195714,-29.24099436312813,22.49510793628792,50.32133197331654,0.7568845093538363,-1.3469296096377124,5.465697231892079,5220.11328125,11.850666666666667,0.0988888888888888,179.21278624379715,-8.872943933142377,104.03892738323368,1553.0,1435.0,1200.0,1747.0,1471.0,988.0,161.0,292.25,1649325646.314063,1649325647.4178915,44f3441f-bccf-464e-9753-5d2a6753f353
-0.5159110178185895,-0.2853880288281731,-1.239655096379969,0.2172340515780023,-1.1673503563598333,0.5076229874168613,-1.5145946105390364,-1.5335682013070278,-29.46420634522955,22.608677011097985,50.0987449332821,0.7319734364879669,-1.41081238149504,5.444368307742746,5218.349012586806,11.849444444444446,0.09,179.2412878642937,-8.879883689930328,103.8877684667121,1553.0,1435.0,1200.0,1747.0,1471.0,988.0,161.0,292.25,1649325647.5256336,1649325648.6450138,44f3441f-bccf-464e-9753-5d2a6753f353
-0.2849935678425919,-0.1722303362310355,-0.5944745012690916,0.0092479778738925,-0.5611030999324808,0.58301760465428,-0.7546782761170507,-0.7784511295689908,-24.007556010677312,16.644233947014992,54.80163877383695,1.3666439134979875,-1.000297300322707,2.681991868041864,7892.65771484375,11.664444444444444,7.078888888888889,-179.33533653352515,-8.939754851464935,92.16024942280043,1553.0,1435.0,1350.0,1528.0,1471.0,988.0,161.0,292.25,1649325653.6066658,1649325654.7903526,451055ad-ec41-4631-a046-774327dc3bc8
-0.2865692201683026,-0.173860226851141,-0.5897563093605195,0.0088244801670051,-0.5543643913543975,0.5808612186712129,-0.7508689876817823,-0.7740983614173581,-24.27988076159245,16.586321019579472,54.247943216528746,1.3623792123847702,-0.9992252760421648,2.6598099296663325,7893.466037326389,11.66511111111111,7.068888888888889,-178.96796190754762,-8.906215302409327,87.3086878876199,1553.0,1435.0,1350.0,1528.0,1471.0,988.0,161.0,292.25,1649325654.898406,1649325656.0242252,451055ad-ec41-4631-a046-774327dc3bc8
-0.2877153483372626,-0.1750441574608503,-0.5986031931578865,0.009405762165189,-0.5662705391675332,0.5817684786255679,-0.7587938197402176,-0.7712982354950928,-23.855828903633565,16.73824623693817,54.21945162463373,1.3638822469213423,-1.0070443871599226,2.6994249350051147,7899.9326171875,11.664222222222222,7.097777777777777,-178.78928415886006,-8.848928323974443,83.14028642668345,1553.0,1435.0,1350.0,1528.0,1471.0,988.0,161.0,292.25,1649325656.1324766,1649325657.2552,451055ad-ec41-4631-a046-774327dc3bc8
-0.0673694769935168,0.2129081309604385,-0.5616421967339715,-0.2546858198368523,-0.6289372458549392,0.4519251150829478,-0.7858669974597974,-0.7976219382632513,-23.37430611104917,15.664807216991314,55.27597804348567,1.6629680349027944,0.470080752099781,2.819837909205769,7907.22021484375,11.630888888888888,7.112222222222223,-178.92782619816478,-8.714272946898674,76.72652402453758,1637.0,1435.0,1350.0,1528.0,1535.0,988.0,161.0,292.25,1649325658.5763166,1649325659.7059848,e79aa3e7-ba26-4973-be9e-d456a86d5cdb
-0.0668303804031575,0.2265433283409154,-0.5639432191949142,-0.2648103169149506,-0.6315669857732256,0.4437597754259829,-0.7855119825246157,-0.8133346369954506,-23.15400681734182,15.143419307560212,54.687073007913575,1.6639039105155502,0.5259730859777106,2.827149328312478,7907.22021484375,11.624777777777778,7.139999999999999,-179.0376283192619,-8.650208238941154,74.34142500200876,1637.0,1435.0,1350.0,1528.0,1535.0,988.0,161.0,292.25,1649325659.8141043,1649325660.9375222,e79aa3e7-ba26-4973-be9e-d456a86d5cdb
-0.0666572559254455,0.2195597273514798,-0.5591581880771225,-0.2489036797231778,-0.6283121345878859,0.4404304162221359,-0.7866033247755788,-0.7988206622350328,-23.20899487481689,15.706418783151086,55.33063824236542,1.6245862820657362,0.4928200718471553,2.8176800445852925,7911.275933159723,11.622333333333334,7.111111111111111,-179.24711325674585,-8.602332407408902,71.86494108402479,1637.0,1435.0,1350.0,1528.0,1535.0,988.0,161.0,292.25,1649325661.0508337,1649325662.1633084,e79aa3e7-ba26-4973-be9e-d456a86d5cdb
0.1515168704420045,0.5772190301693889,-0.5340562238704624,-0.5350029307697931,-0.7010841683599419,0.3559396401342797,-0.8075229101988604,-0.840513005278557,-22.327685483068777,14.571506322250425,55.71102241531074,2.0743247449993745,1.861447910665416,2.954753353161012,7899.9326171875,11.595,7.140000000000001,-179.69569959086476,-8.514766963224009,68.69758504931386,1723.0,1435.0,1350.0,1528.0,1599.0,988.0,161.0,292.25,1649325663.074288,1649325664.2124405,f1677075-ceba-40f1-a652-0aedc6af578d
0.1325170048689101,0.5831359429139557,-0.5335039786029925,-0.522064610099797,-0.70285924320205,0.3410027222892868,-0.8143733841890178,-0.8462063935342079,-22.29615420967721,14.867300987317474,56.07727768006207,2.0136364266139144,1.8786176908209435,2.9674185266622275,7899.9326171875,11.601000000000004,7.15,-179.8956670391952,-8.4931933838437,67.049911195075,1723.0,1435.0,1350.0,1528.0,1599.0,988.0,161.0,292.25,1649325664.3201916,1649325665.4462535,f1677075-ceba-40f1-a652-0aedc6af578d
0.1437196937820163,0.5796909848283999,-0.5256673535152876,-0.526771844811188,-0.6911963451466941,0.3479846794984349,-0.8003568673654468,-0.8259047968950677,-22.34735542424701,14.454371251391066,56.06315929222332,2.037569011499313,1.867253882579735,2.920550163131125,7899.9326171875,11.602,7.15,179.88330895025695,-8.479270896994276,65.5735430386795,1723.0,1435.0,1350.0,1528.0,1599.0,988.0,161.0,292.25,1649325665.5627892,1649325666.869728,f1677075-ceba-40f1-a652-0aedc6af578d
0.3029503979265015,0.8503831686897763,-0.47617564783035,-0.7484063458323564,-0.7299850143704778,0.2805318721426017,-0.7985686439028599,-0.8227885543957388,-21.67343593327027,15.009272017952714,55.35348182040425,2.392315648433448,2.9144690404876736,2.933426120139353,7899.9326171875,11.535,7.12,179.48414814170195,-8.50469115353777,63.92522259319922,1813.0,1435.0,1350.0,1528.0,1662.0,988.0,161.0,292.25,1649325667.4285903,1649325668.5084248,f82856dc-8e4d-4f40-acc9-f9b1935c04f2
0.3058825570130983,0.8584696161716129,-0.4791735512451251,-0.7473018549592222,-0.7348631826358608,0.2708412835324681,-0.8061554451524858,-0.8330050961536251,-21.718340372640903,15.096617943963112,55.20535763917997,2.368431676629261,2.946104222299668,2.955670800477088,7899.9326171875,11.53411111111111,7.151111111111111,179.33263177861383,-8.470813604981986,62.86771275201514,1813.0,1435.0,1350.0,1528.0,1662.0,988.0,161.0,292.25,1649325668.6165762,1649325669.740782,f82856dc-8e4d-4f40-acc9-f9b1935c04f2
0.319241631524737,0.8607706378141597,-0.474492614306324,-0.7569792998564755,-0.7277365864076647,0.2707492427214355,-0.7948607097445095,-0.8136896519454367,-21.55832932013106,14.522467742326024,54.314060230409424,2.3864202292185945,2.962979989853719,2.9227862060307603,7892.65771484375,11.534666666666668,7.135555555555555,179.20153919896384,-8.466571393461237,62.07012196514634,1813.0,1435.0,1350.0,1528.0,1662.0,988.0,161.0,292.25,1649325669.8490384,1649325670.976159,f82856dc-8e4d-4f40-acc9-f9b1935c04f2
-0.543128826598142,-0.6309226989746712,-0.61434218778547,0.3132984209911942,-0.4667348817717349,0.7291127544775743,-0.7025831201024932,-0.7192162274869699,-24.72567234328473,18.19232525741955,51.59185489809283,1.0174759818056769,-2.725810027056071,2.447867825891285,7896.699327256944,11.64311111111111,7.184444444444444,179.5175052677885,-8.66006315841236,60.58190950182015,1470.0,1435.0,1350.0,1528.0,1403.0,988.0,161.0,292.25,1649325672.0853584,1649325673.2228642,319523f8-d715-493b-a773-fddc4766f009
-0.5328465432157328,-0.6259393414093086,-0.6093851275253744,0.3145343984010991,-0.4613965096904442,0.7263252311384625,-0.6996904057127286,-0.7178487635844222,-24.91352671842068,18.162537387946053,52.08280138680163,1.0084570421679795,-2.7099794948548555,2.430908257499536,7899.9326171875,11.6494,7.188,179.36305981602032,-8.708645212532042,60.07249183335129,1470.0,1435.0,1350.0,1528.0,1403.0,988.0,161.0,292.25,1649325673.331056,1649325674.4505827,319523f8-d715-493b-a773-fddc4766f009
-0.549795217505894,-0.6186549611934218,-0.6115415146766887,0.3227260356273417,-0.4661957851879056,0.7117564771048923,-0.7063699461482762,-0.7270265564015133,-24.670344554954603,18.27841971882769,52.06200315764031,0.95802070062098,-2.685338793604829,2.4509410842361814,7905.033935546875,11.6429,7.183,179.23251167833817,-8.749277751772354,59.59498716130545,1470.0,1435.0,1350.0,1528.0,1403.0,988.0,161.0,292.25,1649325674.5600188,1649325675.676438,319523f8-d715-493b-a773-fddc4766f009
-0.7592803217135077,-1.0195983503339188,-0.6229151405143045,0.5988749307741734,-0.380190144498416,0.8320407390735888,-0.6644781838527466,-0.6858842698345272,-25.65046111670607,20.24392551742548,49.56376853851821,0.6169628933084982,-4.194728993150385,2.238548321966171,7899.9326171875,11.576,7.15,179.0978918372188,-8.83643960766829,58.62211876980895,1385.0,1435.0,1350.0,1528.0,1331.0,988.0,161.0,292.25,1649325677.4911191,1649325678.4508631,bc92368d-8984-4f37-8ab0-ae03cb836dc4
-0.7725342133260152,-1.0295650685167488,-0.6329081531140639,0.59044661728054,-0.388513270858203,0.8452814750176834,-0.6675944259635627,-0.6910648579779648,-25.49864243649561,20.08591844177393,48.90548960758007,0.6641552600821575,-4.226948949409021,2.2659058628374726,7899.9326171875,11.587444444444444,7.15,179.01479423795664,-8.883219573293708,58.282867827193854,1385.0,1435.0,1350.0,1528.0,1331.0,988.0,161.0,292.25,1649325678.5596874,1649325679.7766387,bc92368d-8984-4f37-8ab0-ae03cb836dc4
-0.7754774997205534,-1.0227869112195551,-0.6266569574069376,0.6031002133229908,-0.3802958398996907,0.8357436138892663,-0.6652686231099547,-0.6900615110735847,-25.69531352444445,20.00741441656632,50.18439845734973,0.6140747214806583,-4.212632653127825,2.2455104857498145,7899.9326171875,11.583222222222222,7.142222222222222,178.94273270657337,-8.920677184475705,57.95326111168683,1385.0,1435.0,1350.0,1528.0,1331.0,988.0,161.0,292.25,1649325679.8852165,1649325681.0053575,bc92368d-8984-4f37-8ab0-ae03cb836dc4
-1.015167236847872,-1.4356760475300014,-0.6620588231014202,0.8819137396555206,-0.3200085514383584,0.9590439856241548,-0.6475163595805218,-0.6805721941791812,-26.378576749903683,22.33591489120905,46.60906263712725,0.274971382300854,-5.76122658094331,2.132387075346706,7892.65771484375,11.523222222222223,7.111111111111111,178.9262765041331,-8.990152256029518,57.544817317139874,1297.0,1435.0,1350.0,1528.0,1253.0,988.0,161.0,292.25,1649325682.1208217,1649325683.2581966,efed6390-261a-41ee-be0a-b6e225a2091a
-1.008987345736471,-1.4306532402909056,-0.6596394622780718,0.8885538308009377,-0.3169974996942055,0.9455139782221962,-0.6492914343196418,-0.6727355685203869,-26.48586862000949,22.305178831020804,46.25814644290693,0.2293959992149526,-5.739183137130905,2.127624014755812,7892.65771484375,11.520888888888887,7.14777777777778,178.92992382514987,-9.02219817552288,57.32283199510997,1297.0,1435.0,1350.0,1528.0,1253.0,988.0,161.0,292.25,1649325683.3664863,1649325684.4867918,efed6390-261a-41ee-be0a-b6e225a2091a
-0.9940241197917,-1.4287466772557904,-0.6595079752183611,0.8794812310877059,-0.31782586761896,0.948196312049421,-0.6479765642177396,-0.666779206645709,-26.4999690264106,22.24962263938865,45.72401468459968,0.2554351406240454,-5.726074146464498,2.126111695327884,7890.2373046875,11.529,7.136666666666666,178.9100252073679,-9.029041645616282,57.15869192461586,1297.0,1435.0,1350.0,1528.0,1253.0,988.0,161.0,292.25,1649325684.5948093,1649325685.543852,efed6390-261a-41ee-be0a-b6e225a2091a
-0.2800496573773638,-0.1572276725696957,-0.579550726479075,0.0106417397417345,-0.5457322696861897,0.5630841830506852,-0.7420029275604226,-0.7630408507986117,-23.992744161787336,16.235518855830332,54.35148693151173,1.3166762500305658,-0.9393757859688612,2.62403724574562,7894.840185546875,11.6483,7.197,178.48537640956016,-9.020528469375654,56.96340065146416,1553.0,1435.0,1350.0,1528.0,1471.0,988.0,161.0,292.25,1649325686.56806,1649325687.5149949,cfbd6217-4ae2-41f0-884e-68a9369ee781
-0.2887803928997009,-0.1643148204227589,-0.5827458604157962,0.0134950067635655,-0.5463108122375775,0.5634654952009371,-0.7475253822190259,-0.7705487600479575,-24.38437114157443,16.36497397533395,53.75935800874724,1.3115043914668916,-0.9584886933966464,2.6350486811360496,7899.9326171875,11.647333333333334,7.190000000000001,178.5170404076424,-9.007200787652826,56.98153692865829,1553.0,1435.0,1350.0,1528.0,1471.0,988.0,161.0,292.25,1649325687.6493995,1649325688.7876365,cfbd6217-4ae2-41f0-884e-68a9369ee781
-0.280654497539414,-0.1602518729670304,-0.5832849570476226,0.0107863754948371,-0.549847812479555,0.5655955837910646,-0.747998735462578,-0.7806601122338604,-24.176617191467816,16.462889664244507,54.26702978974962,1.3232087488503472,-0.9489191085408736,2.642564000274876,7907.22021484375,11.650333333333334,7.188888888888889,178.48770550406712,-8.991484522372627,56.99898806198766,1553.0,1435.0,1350.0,1528.0,1471.0,988.0,161.0,292.25,1649325688.8953197,1649325690.018842,cfbd6217-4ae2-41f0-884e-68a9369ee781
-0.2844999859236528,-0.1693224512158249,-0.651854419736802,-0.4615775572852776,-0.6623733806006273,1.034086624333955,-0.685939898573872,-0.7088489820783326,-24.24505216720432,15.41894897218024,57.75436073631591,3.431694715293586,-0.9595695843650852,2.800996952097991,7907.22021484375,11.629,7.17,178.5066964655994,-8.840904748974449,57.03504501007112,1553.0,1522.0,1350.0,1528.0,1471.0,988.0,161.0,292.25,1649325691.951152,1649325693.085143,06913085-cc5c-4026-beaf-533fd85dba27
-0.2785507058003467,-0.1648802143950314,-0.6427959760051966,-0.464959807639771,-0.6506063043910422,1.029849710096303,-0.6744448991825813,-0.7011893584297194,-24.33085916755156,14.994331347890382,57.41296376762752,3.4273419262014504,-0.9382918986499402,2.756396292075616,7907.22021484375,11.627333333333333,7.173333333333334,178.51021325411205,-8.827692791526182,57.08003432776913,1553.0,1522.0,1350.0,1528.0,1471.0,988.0,161.0,292.25,1649325693.1929843,1649325694.3240044,06913085-cc5c-4026-beaf-533fd85dba27
-0.2649918696408621,-0.1701948167346459,-0.6492373225495431,-0.4619694899574579,-0.6582644115483846,1.028650144546849,-0.68042755835419,-0.7011241201834987,-24.054805184061703,15.133897459143649,56.84296838710667,3.4185534807284985,-0.955901028415735,2.782840201563493,7908.842502170139,11.626555555555557,7.17,178.54322431728062,-8.813007031037008,57.12802475469745,1553.0,1522.0,1350.0,1528.0,1471.0,988.0,161.0,292.25,1649325694.4351256,1649325695.5457938,06913085-cc5c-4026-beaf-533fd85dba27
-0.2586435770796987,-0.180961071298334,-0.7075401808783807,-0.9553011865907108,-0.7663674727305189,1.5172981807757822,-0.6040073089933579,-0.6271227247765756,-23.963949712342355,14.36952244670975,60.30542509735564,5.622073746684882,-0.9705811105376896,2.900379985326828,7907.22021484375,11.605777777777778,7.16,178.5628679413336,-8.65849562999784,57.12018028243569,1553.0,1613.0,1350.0,1528.0,1471.0,988.0,161.0,292.25,1649325696.4565868,1649325697.5911252,c97b7140-8eee-4387-9019-ff42a5f5a113
-0.2602214208474208,-0.1784891161751502,-0.7152584684463984,-0.9572471945928932,-0.7704435700077163,1.5166538945623105,-0.6106605513228408,-0.6289240973666503,-24.20558676558693,14.047255069649324,60.25327978550678,5.622365052042062,-0.9593925341264924,2.9260972317752563,7907.22021484375,11.617,7.173333333333334,178.62817062107814,-8.647530899650247,57.14092318749007,1553.0,1613.0,1350.0,1528.0,1471.0,988.0,161.0,292.25,1649325697.6995351,1649325698.8237922,c97b7140-8eee-4387-9019-ff42a5f5a113
-0.2607605174497904,-0.1775029638752153,-0.7151927249899355,-0.9550119149633584,-0.7711010052505839,1.5139058168266462,-0.6118044883317578,-0.6451758919997224,-24.15977585511064,14.111034006911584,60.28740471005689,5.611602082865022,-0.956590511466798,2.9287247038133155,7907.22021484375,11.608333333333333,7.177777777777777,178.66321859843922,-8.616096282087604,57.191520849406565,1553.0,1613.0,1350.0,1528.0,1471.0,988.0,161.0,292.25,1649325698.9320602,1649325700.0520134,c97b7140-8eee-4387-9019-ff42a5f5a113
-0.2498208008168156,-0.188692505408781,-0.7623834155900117,-1.398715024484951,-0.862418744412042,1.956898636020856,-0.5384610382375125,-0.554463006175175,-24.2855010553151,13.49187897867198,63.72762991051938,7.601982474269559,-0.976531661323591,3.0127773846332646,7907.22021484375,11.561,7.143333333333333,178.71868884141864,-8.450546536439788,57.2793870590743,1553.0,1710.0,1350.0,1528.0,1471.0,988.0,161.0,292.25,1649325701.9867058,1649325703.129824,c2a68d1b-3bea-400d-8246-b4b74fd08c14
-0.236935076957352,-0.1814081270356239,-0.7729155262033837,-1.4128761851884064,-0.8783023780420255,1.9585816697135288,-0.5469813959402063,-0.5634961634842524,-23.82540558958509,13.49509817448307,63.05232123715996,7.637329448618333,-0.9454060954955716,3.061024283280809,7910.464789496527,11.559666666666669,7.145555555555556,178.7718064636839,-8.448834245960361,57.27121815282696,1553.0,1710.0,1350.0,1528.0,1471.0,988.0,161.0,292.25,1649325703.238802,1649325704.3496552,c2a68d1b-3bea-400d-8246-b4b74fd08c14
-0.2419447308339044,-0.1835513647009942,-0.7508914501164229,-1.383331034190762,-0.8515579158597625,1.940988708150232,-0.5329254355722949,-0.5602878818426072,-24.28379771507953,13.634575633446868,64.25936569793272,7.533132024711084,-0.963137223683574,2.9758877699646784,7914.5205078125,11.563,7.15,178.80550054576946,-8.388393522539964,57.3061955515666,1553.0,1710.0,1350.0,1528.0,1471.0,988.0,161.0,292.25,1649325704.466545,1649325705.580147,c2a68d1b-3bea-400d-8246-b4b74fd08c14
-0.2137276255472905,-0.1551764758208372,-0.7467759066462601,-1.6269766560129777,-0.8891500582717715,2.139547251804687,-0.4796206070732103,-0.4995671845076035,-23.65739886969013,14.00169196321322,64.75700643814145,8.531957638718346,-0.8352930923706868,2.94787128990262,7907.22021484375,11.526000000000002,7.117777777777778,178.88565053894985,-8.341889894984716,57.294296603122525,1553.0,1814.0,1350.0,1528.0,1471.0,988.0,161.0,292.25,1649325707.528166,1649325708.6511595,4f5bbe5a-2eed-4b6b-bdf0-52caf0fa0165
-0.2227081860576556,-0.1576878769804958,-0.755296265772006,-1.6485931426405491,-0.8963161018972627,2.1610716792282325,-0.4845250719628454,-0.5067989691853322,-24.169632421760003,13.93345268610076,64.58933038299504,8.62792620162059,-0.8374806522791007,2.975168682718811,7907.22021484375,11.517,7.127777777777778,178.92505465918157,-8.33340860244659,57.32321600352331,1553.0,1814.0,1350.0,1528.0,1471.0,988.0,161.0,292.25,1649325708.761159,1649325709.8830464,4f5bbe5a-2eed-4b6b-bdf0-52caf0fa0165
-0.2150819413863765,-0.158897557147856,-0.7584519539434811,-1.6449509476884523,-0.9019831929312616,2.159099372780953,-0.4903762432735911,-0.5099283604488146,-24.05280986174417,14.23058756344134,64.57836510337088,8.617147934589035,-0.8433907914966714,2.995349682421961,7901.552083333333,11.52422222222222,7.122222222222222,178.90804141686897,-8.354891349797311,57.34711369706432,1553.0,1814.0,1350.0,1528.0,1471.0,988.0,161.0,292.25,1649325709.9913776,1649325711.1131122,4f5bbe5a-2eed-4b6b-bdf0-52caf0fa0165
-0.2895693147722391,-0.1556103828009117,-0.5309136846325747,0.4748038445187045,-0.4564000040506595,0.1062590589422076,-0.8263255548280306,-0.856607018172249,-24.04983099451632,17.81682343423578,50.24284917485554,-0.7446860057470184,-0.9505293096968236,2.553905001689358,7907.22021484375,11.653777777777776,7.190000000000001,178.9499924387512,-9.04556339889985,57.44422456777366,1553.0,1349.0,1350.0,1528.0,1471.0,988.0,161.0,292.25,1649325713.045828,1649325714.1845295,dcb1f2a4-5264-42f5-adcd-e79c1c3d48bf
-0.3028889460259765,-0.1594760998271623,-0.5267849929264373,0.4838238493337274,-0.4496021265838855,0.1093358538359331,-0.8238930449721414,-0.8437081407908515,-24.366323340587936,17.910986992364432,51.34769764299985,-0.7572723498144153,-0.9734275096230156,2.5364644600856856,7907.22021484375,11.639,7.164444444444445,178.91106187830195,-9.005859319527087,57.615518881968406,1553.0,1349.0,1350.0,1528.0,1471.0,988.0,161.0,292.25,1649325714.2932262,1649325715.4131465,dcb1f2a4-5264-42f5-adcd-e79c1c3d48bf
-0.295183808891678,-0.1475502313941577,-0.526916479981534,0.476881338243828,-0.4546906732322014,0.0999213874152019,-0.8269040977469437,-0.8538720884397099,-24.13093823141305,17.972207213676274,50.74797155334765,-0.7623451326795079,-0.924201418479352,2.548537355988568,7914.5205078125,11.657000000000002,7.190000000000001,178.8817330460059,-9.02647453798948,57.7810029819092,1553.0,1349.0,1350.0,1528.0,1471.0,988.0,161.0,292.25,1649325715.5218298,1649325716.6376927,dcb1f2a4-5264-42f5-adcd-e79c1c3d48bf
-0.3069255964144112,-0.1421461168275991,-0.4709819116054535,0.8895925776220756,-0.3723140741004084,-0.3026259721190668,-0.8981437708785347,-0.9129492114130224,-24.18752149824521,20.36444752202032,48.21540392320244,-2.579686810160902,-0.9283132007378738,2.461201827384909,7914.5205078125,11.648,7.193333333333334,178.91685994999736,-9.174559964248264,58.2143784847465,1553.0,1264.0,1350.0,1528.0,1471.0,988.0,161.0,292.25,1649325718.5758483,1649325719.7105014,a89f3c5d-f85c-449d-a545-ff7484c1b59a
-0.2981685633826559,-0.1412125593115737,-0.4747950344327482,0.8759047860167383,-0.3743521223468644,-0.2939478313229021,-0.8963818445337385,-0.9174066214638396,-24.230723916232773,19.99047231145173,47.78440242581912,-2.532069010775695,-0.9192488748727164,2.46617515021401,7907.22021484375,11.630000000000004,7.21,178.91440108189616,-9.22135728993782,58.425643065964174,1553.0,1264.0,1350.0,1528.0,1471.0,988.0,161.0,292.25,1649325719.81906,1649325720.946537,a89f3c5d-f85c-449d-a545-ff7484c1b59a
-0.3092397672521804,-0.1498512533907496,-0.4748607779474615,0.8820189292267664,-0.3721299922225579,-0.2898585861861122,-0.8963686958415216,-0.9224557239090564,-24.390436330642245,20.09779267066456,47.96205974808,-2.5360158495742966,-0.9528485267107232,2.4623225828584765,7903.171549479167,11.635333333333334,7.190000000000001,178.87623246699428,-9.256995604343397,58.53578973215943,1553.0,1264.0,1350.0,1528.0,1471.0,988.0,161.0,292.25,1649325721.054651,1649325722.1778772,a89f3c5d-f85c-449d-a545-ff7484c1b59a
-0.3093975516243006,-0.1341780063342904,-0.4221870887011888,1.305367483820371,-0.2935270731683559,-0.7174017066768492,-0.9760761384407444,-0.9992573053470324,-24.248684381864106,22.35769172797718,44.65485371224239,-4.434584837480227,-0.914501633758826,2.39706447139552,7903.171549479167,11.611222222222224,7.175555555555556,178.92606400935892,-9.435000958852632,58.85445752025573,1553.0,1178.0,1350.0,1528.0,1471.0,988.0,161.0,292.25,1649325724.106618,1649325725.2474968,fb6ee493-5eec-44fe-9f0a-b56bebb27f54
-0.3307378889649544,-0.1412783028152021,-0.4174667056993962,1.3168068496402512,-0.2839679695678715,-0.7151401299379058,-0.9753135135813374,-1.002412993811496,-24.92094023470477,22.51535256471293,45.50711073239934,-4.45422952468908,-0.9450340431517652,2.376432776370697,7907.22021484375,11.612444444444444,7.17,178.91640005059327,-9.451096489359246,58.99997394161294,1553.0,1178.0,1350.0,1528.0,1471.0,988.0,161.0,292.25,1649325725.3558156,1649325726.4783697,fb6ee493-5eec-44fe-9f0a-b56bebb27f54
-0.3154328041066296,-0.1493516029054955,-0.4372554979563992,1.2977412399670365,-0.3003380988587805,-0.7029118376269463,-0.984793729501445,-1.0084219515414334,-24.75342269477997,21.979574269025616,43.51921416693247,-4.388513221735098,-0.9577970036040618,2.4355908442612524,7903.981282552083,11.60288888888889,7.15888888888889,178.95625344549038,-9.49998565534586,59.08445503363701,1553.0,1178.0,1350.0,1528.0,1471.0,988.0,161.0,292.25,1649325726.5908144,1649325727.6971834,fb6ee493-5eec-44fe-9f0a-b56bebb27f54
-0.3324735171722376,-0.144512882351185,-0.3668573642435835,1.608694779874488,-0.2137670719844557,-1.0000856730222365,-1.0125506451858397,-1.0352190123247231,-24.90302740146253,24.178972297889167,42.79183252822099,-5.739843334861128,-0.9659280989179584,2.262516256029657,7907.22021484375,11.585,7.17,179.02668939185116,-9.580955650681592,59.27556448552387,1553.0,1088.0,1350.0,1528.0,1471.0,988.0,161.0,292.25,1649325729.431394,1649325730.5737069,ae3b7e94-e8c9-4ef6-a772-52aee00389fd
-0.324479108587015,-0.1433294995809791,-0.3726953863454147,1.610561895158073,-0.220683286966409,-1.000151416885461,-1.0225042145911778,-1.0463165197763638,-25.10689574660368,24.44174046734718,43.12865768229864,-5.742800527570768,-0.9636275618013818,2.294450227308181,7899.9326171875,11.5758,7.159999999999999,179.05014152938534,-9.60226652391095,59.34831556244935,1553.0,1088.0,1350.0,1528.0,1471.0,988.0,161.0,292.25,1649325730.7025497,1649325731.7924268,ae3b7e94-e8c9-4ef6-a772-52aee00389fd
-0.3262673315597116,-0.1407392062605477,-0.3768372265200996,1.600463694805153,-0.2247988294049775,-1.0023209525979753,-1.0236350029753642,-1.045698530256071,-24.964955722943664,24.15872017659689,41.842264336765886,-5.727112719310636,-0.9425397976082108,2.305937488940046,7899.9326171875,11.581,7.156666666666666,179.07993451098096,-9.625544169084558,59.4009166706314,1553.0,1088.0,1350.0,1528.0,1471.0,988.0,161.0,292.25,1649325731.899869,1649325733.0313928,ae3b7e94-e8c9-4ef6-a772-52aee00389fd
-0.2564452159184356,-0.1501809822625863,-0.572115136287404,-0.0201858850199904,-0.5450970861723149,0.5771062548175099,-0.7301018352712562,-0.7534787099726752,-23.77987824427286,16.266767535666215,53.364416431849605,1.4182524867594368,-0.9014371974984464,2.595418167367823,7899.9326171875,11.647,7.191111111111111,179.1334088209029,-9.15306441029285,59.48076689439821,1553.0,1435.0,1350.0,1528.0,1471.0,988.0,161.0,292.25,1649325733.9441693,1649325734.8995483,4fc79d0c-ae3a-4897-b93d-02cb62b4406d
-0.2816012037579948,-0.1575300926052393,-0.5797085106133963,-0.0031380941725245,-0.5489668496933653,0.5728668121229831,-0.7398465403326836,-0.7559799976304005,-23.901187864611547,16.3394127003874,53.9024213897747,1.3703984247016536,-0.9354896495729532,2.624818306326824,7907.22021484375,11.65311111111111,7.188888888888887,179.14855514484236,-9.065829708532137,59.484059804488055,1553.0,1435.0,1350.0,1528.0,1471.0,988.0,161.0,292.25,1649325735.010844,1649325736.3039713,4fc79d0c-ae3a-4897-b93d-02cb62b4406d
-0.2933561398264056,-0.1550844349124798,-0.5844946378484308,-0.0032827298219654,-0.5539502071403872,0.5754834024260045,-0.7461447686237439,-0.7710484100721446,-24.043573267938623,16.41375597933232,54.55290955190549,1.3768910468590283,-0.931358783952594,2.648179200147037,7914.5205078125,11.655,7.182,179.14706464578347,-9.03376204626992,59.48417348919223,1553.0,1435.0,1350.0,1528.0,1471.0,988.0,161.0,292.25,1649325736.4120932,1649325737.5311167,4fc79d0c-ae3a-4897-b93d-02cb62b4406d
