raw_voltage_G-,raw_voltage_G0,raw_voltage_G1,raw_voltage_G2,raw_voltage_G3,raw_voltage_G4,raw_voltage_G5,raw_voltage_G6,load_x,load_y,load_z,load_l,load_m,load_n,rpm,voltage,current,roll,pitch,yaw,aileron1_pwm,elevator_pwm,throttle_pwm,rudder_pwm,aileron2_pwm,pbaro,pdiff,Tt,sample_start_time,sample_end_time,uid
-0.0698151346197077,0.0801063024704706,-0.1398976896689794,-0.0402042695527804,-0.2864793707961326,0.2346955196131293,-0.4452893529301598,-0.4685231047635701,-17.58527744109196,25.39699718810093,36.77192133577736,0.7764866196329336,0.0955149531937862,1.2533710722344615,5555.840115017361,11.962444444444444,0.11,179.5800121234328,-4.375594632794472,99.99445818696728,1553.0,1435.0,1200.0,1528.0,1471.0,988.0,161.0,292.25,1649318390.614859,1649318391.673828,46cc894c-4818-40b7-8215-4d17af7acfc7
-0.0711694503680455,0.0755831510037661,-0.1316929026525101,-0.0385343850868661,-0.2796157504174425,0.2354975900446941,-0.4377025535142266,-0.4577280226579385,-17.53311522975806,25.60796116686647,36.53263453530699,0.776317291504698,0.0806201057442289,1.2211163011966495,5557.441243489583,11.962,0.1133333333333333,179.67211950112014,-4.408532935475645,100.01812555135128,1553.0,1435.0,1200.0,1528.0,1471.0,988.0,161.0,292.25,1649318391.7825,1649318392.838689,46cc894c-4818-40b7-8215-4d17af7acfc7
-0.0793610885101204,0.0685354498582892,-0.1381226156017485,-0.0383503033497928,-0.284664850503153,0.2420061943491634,-0.4414499328123185,-0.4644207107047739,-17.485857581127412,25.596096803625013,36.461057953579726,0.7901413226211085,0.054056369771347,1.2411790409978976,5559.042914496527,11.964444444444446,0.11,179.72311369346346,-4.4195685764677455,100.0852359544962,1553.0,1435.0,1200.0,1528.0,1471.0,988.0,161.0,292.25,1649318392.9479084,1649318394.1309955,46cc894c-4818-40b7-8215-4d17af7acfc7
0.1628510462541156,0.4844286893814166,-0.1106286899735535,-0.2769202673283192,-0.3585210890288777,0.0664053610777183,-0.4915859236400759,-0.5102570776461224,-16.817041023804226,24.395421821079648,38.12051724862975,0.927708979463826,1.6255630884370984,1.4272119700700856,5576.72509765625,11.945666666666668,0.1133333333333333,179.61216865404523,-4.437512858941577,100.1492993343614,1637.0,1435.0,1200.0,1528.0,1535.0,988.0,161.0,292.25,1649318395.2461393,1649318396.3830488,15019257-642c-4b22-907c-d140d32f5c56
0.1513985321824,0.4829954816173042,-0.1013194124457641,-0.2797472374354207,-0.3486464163669421,0.0702447803505383,-0.4791341050876533,-0.5088633149064159,-16.751678460081493,24.25846081462855,38.18167088700523,0.9423118780712838,1.6201189609411182,1.3833339697870155,5579.952094184027,11.936444444444444,0.11,179.62885101163803,-4.438595301629416,100.18549023004356,1637.0,1435.0,1200.0,1528.0,1535.0,988.0,161.0,292.25,1649318396.490496,1649318397.6115942,15019257-642c-4b22-907c-d140d32f5c56
0.1623645445050837,0.4909635908307234,-0.0968883015683899,-0.2776697431052932,-0.347055423846525,0.0669970524013194,-0.4776351533325742,-0.4982523147038232,-16.68485027907351,24.394588369812467,39.1220810622326,0.9316340736788546,1.641223823384707,1.375292289273678,5576.72509765625,11.935333333333332,0.11,179.61233713204476,-4.429814239677719,100.16412767504949,1637.0,1435.0,1200.0,1528.0,1535.0,988.0,161.0,292.25,1649318397.719824,1649318398.8409398,15019257-642c-4b22-907c-d140d32f5c56
0.4148063487157929,0.9341403568127224,-0.0675930049232702,-0.5441149792468137,-0.4321143564153304,-0.1236196025519782,-0.5375011831724777,-0.5557910254155871,-16.10569882648844,23.712382477063567,38.76316786773526,1.1014987738883206,3.33713879939468,1.5879163937716316,5583.9912109375,11.916333333333334,0.11,179.26570503166658,-4.408361326972747,100.1274495592065,1723.0,1435.0,1200.0,1528.0,1599.0,988.0,161.0,292.25,1649318399.7518835,1649318400.8879075,ec418614-b429-47b9-b73f-f57b801cf196
0.4195530276667598,0.9374143819235036,-0.0704068260039845,-0.5462713659491297,-0.4344548247887618,-0.1262493419729203,-0.5387634583149518,-0.5618394278353237,-15.994739219375896,23.50073057981105,38.54947733779197,1.0989322935949273,3.35061049973272,1.596977275933972,5590.466471354167,11.903777777777778,0.1,179.2684629102715,-4.395996597572779,100.12158090888964,1723.0,1435.0,1200.0,1528.0,1599.0,988.0,161.0,292.25,1649318400.9961364,1649318402.117545,ec418614-b429-47b9-b73f-f57b801cf196
0.4250097361673768,0.9342849924643468,-0.058494106718838,-0.5455481875640906,-0.4233573227617612,-0.1238036843679478,-0.5249967695319401,-0.5558436198413859,-15.836233073919097,23.540785954069417,38.65339939116636,1.1037517590621364,3.3374973039935503,1.5458915628009,5587.63134765625,11.915,0.11,179.25775620929255,-4.38585125276624,100.12141698434958,1723.0,1435.0,1200.0,1528.0,1599.0,988.0,161.0,292.25,1649318402.2255929,1649318403.3543634,ec418614-b429-47b9-b73f-f57b801cf196
0.5838328237473575,1.2335098585245514,-0.0212832951161955,-0.7427524035034572,-0.4721652942927801,-0.2484401875602604,-0.5499661506633607,-0.5678220855843782,-15.252148583223608,23.64536945987891,36.84322486848518,1.2710728981607926,4.498322804234102,1.6294880150911502,5587.63134765625,11.909,0.11,178.8978583637264,-4.335430559153859,100.01900209229476,1813.0,1435.0,1200.0,1528.0,1662.0,988.0,161.0,292.25,1649318405.0405662,1649318406.0050704,41c3dcc2-6375-4936-9184-ffebb43c2afb
0.5818342221107758,1.2347195385551395,-0.0283572938862008,-0.7393074436242183,-0.4776614506727394,-0.2520560794379833,-0.5603404750870417,-0.5832323624940381,-15.543297476912777,23.68308363556884,36.882554254072254,1.2549340071523625,4.503699982282282,1.6614004070206738,5586.41796875,11.875333333333334,0.0933333333333333,178.88149778393452,-4.304329008176991,99.98176162421016,1813.0,1435.0,1200.0,1528.0,1662.0,988.0,161.0,292.25,1649318406.1140158,1649318407.2378988,41c3dcc2-6375-4936-9184-ffebb43c2afb
0.587987811354107,1.224489853003426,-0.0245310232142205,-0.735020966813715,-0.4723625248422697,-0.2479010909350166,-0.5530166491973085,-0.5721348596667846,-15.36752751531389,23.67626416321384,36.651658498292754,1.2547985672412083,4.465849501006749,1.637139734925029,5587.63134765625,11.8755,0.1,178.86598357841723,-4.28904188866269,99.90124621590915,1813.0,1435.0,1200.0,1528.0,1662.0,988.0,161.0,292.25,1649318407.3473158,1649318408.4662075,41c3dcc2-6375-4936-9184-ffebb43c2afb
-0.3413933918598515,-0.4243819097900452,-0.1762508034402413,0.2605261319936075,-0.1995265265634537,0.4481984714825222,-0.3892091402835148,-0.4122193632978953,-18.37437936313476,26.98197333327587,36.28134526363623,0.5861035948639428,-1.8259935989377003,1.0443446276766035,5582.779296875,11.905,0.1133333333333333,179.8333711605053,-4.308680550156328,99.64887641790148,1470.0,1435.0,1200.0,1528.0,1403.0,988.0,161.0,292.25,1649318410.6062024,1649318411.7053769,39924121-eeba-41b4-a775-1e561bd6e772
-0.3777050401509105,-0.4399378322557118,-0.1832094986631134,0.2660288610483944,-0.2017754595225968,0.4586835443978081,-0.3944301851384237,-0.4247642336819106,-18.690601921173755,27.067270622282344,36.27920100043642,0.597311574403674,-1.883197817337645,1.0622336849546403,5583.183268229167,11.951333333333332,0.1122222222222222,179.84566246537165,-4.283279503519873,99.5233109791099,1470.0,1435.0,1200.0,1528.0,1403.0,988.0,161.0,292.25,1649318411.814456,1649318412.9720974,39924121-eeba-41b4-a775-1e561bd6e772
-0.3635833378554876,-0.4304181741222661,-0.1822627924546795,0.2617686837083658,-0.2046024295116709,0.4503078256085894,-0.3952454045022475,-0.4204251639157724,-18.439483592014344,27.07341656287777,35.856188053341285,0.5882469899625022,-1.8449368727856408,1.066645348373544,5579.952094184027,11.95711111111111,0.12,179.81676621172306,-4.264669514761311,99.3916788145155,1470.0,1435.0,1200.0,1528.0,1403.0,988.0,161.0,292.25,1649318413.080577,1649318414.2006416,39924121-eeba-41b4-a775-1e561bd6e772
-0.6017588810097695,-0.8622083648199719,-0.2161338373198352,0.5269121230698238,-0.1343752369086311,0.6263162572127846,-0.3560622823516293,-0.3803873749247284,-19.25515458483004,28.78790830123816,35.44610537302754,0.3948658615366271,-3.489767942399169,0.909600600541952,5581.163411458333,11.942666666666668,0.1077777777777777,179.9330767441893,-4.228809646094537,99.12702416237568,1385.0,1435.0,1200.0,1528.0,1331.0,988.0,161.0,292.25,1649318415.111913,1649318416.2495277,3944bb00-f345-4d1c-ba18-03c66c98e6d8
-0.6120937596889452,-0.8799854114317565,-0.2019726899608169,0.5367604956406423,-0.1200826030773354,0.6358359123670312,-0.3382326471719523,-0.3560885798950585,-18.96933790223872,29.07833551057929,35.73040969322283,0.3968618823445691,-3.561295276553364,0.8438617073384475,5577.531846788194,11.90688888888889,0.1022222222222222,179.9378897508244,-4.212422836478946,98.88192054728005,1385.0,1435.0,1200.0,1528.0,1331.0,988.0,161.0,292.25,1649318416.357941,1649318417.4779804,3944bb00-f345-4d1c-ba18-03c66c98e6d8
-0.6124750720418859,-0.8804719134592415,-0.21626532434788,0.5364975217409276,-0.1322057019052259,0.6362303732172266,-0.3526436208115012,-0.3747334346517503,-19.123290659874787,28.97353028349256,35.57596046751724,0.3968329329521393,-3.5615369121031306,0.9000307375900776,5583.9912109375,11.902444444444445,0.1011111111111111,179.92104802215098,-4.177784101285656,98.6754492410399,1385.0,1435.0,1200.0,1528.0,1331.0,988.0,161.0,292.25,1649318417.5861218,1649318418.706746,3944bb00-f345-4d1c-ba18-03c66c98e6d8
-0.904183071341064,-1.370216207556776,-0.2512363088326151,0.8384239248164292,-0.0523243336618255,0.8307117094228986,-0.3100893755793543,-0.3236679352178356,-20.130843758403746,31.32599248632893,34.53705861998188,0.1659671211087035,-5.421387483357413,0.7185633786251238,5592.492513020833,11.858666666666666,0.0933333333333333,-60.0218537215367,-4.142774543738679,98.09236054505536,1297.0,1435.0,1200.0,1528.0,1253.0,988.0,161.0,292.25,1649318420.6415834,1649318421.800661,5e84c8ba-127f-4b0b-9eeb-3e1a98afc87a
-0.8900967643072358,-1.37091865195976,-0.2560138376072123,0.8427832229496636,-0.0551017429717335,0.8291480261461812,-0.3161691313237965,-0.3394686249722119,-20.30949720225779,31.298522105977373,34.74693435909121,0.152143339750768,-5.425457793809469,0.7376504606933956,5601.427083333333,11.844222222222225,0.09,-179.95727686332856,-4.136072705206819,97.81125044938514,1297.0,1435.0,1200.0,1528.0,1253.0,988.0,161.0,292.25,1649318421.9091556,1649318423.0138104,5e84c8ba-127f-4b0b-9eeb-3e1a98afc87a
-0.8748639914883548,-1.3622005521004028,-0.2539292632657058,0.8340115261724574,-0.0538667769281822,0.8290049076605268,-0.3109996700821574,-0.3334915301618636,-20.128171855679323,30.97655730805236,34.82346502278299,0.1696814605869704,-5.393514610138173,0.7271115418516422,5605.088812934027,11.843333333333332,0.0977777777777777,-179.9752144579088,-4.142957630753931,97.53673072735408,1297.0,1435.0,1200.0,1528.0,1253.0,988.0,161.0,292.25,1649318423.128275,1649318424.2442725,5e84c8ba-127f-4b0b-9eeb-3e1a98afc87a
-0.08702677880624,0.0515604830466743,-0.1503246066586072,-0.0233081944271683,-0.2867160474614887,0.25320888296292,-0.4520740818297641,-0.4718760232136307,-18.150338050576053,25.467023819930336,37.57479675879082,0.7797637831186858,-0.0174058217130208,1.2749690619034155,5616.92919921875,11.92366666666667,0.1099999999999999,179.4945345826998,-4.044159703319604,97.09622754266292,1553.0,1435.0,1200.0,1528.0,1471.0,988.0,161.0,292.25,1649318426.1726353,1649318427.5124004,7108ef95-9a8d-4982-bbd5-300eb585da66
-0.0895513285935652,0.0526255274354836,-0.1423827934511657,-0.0275157772940314,-0.2810752558793111,0.2534587081824616,-0.443106668867028,-0.4702587334563917,-17.96028747971469,25.50525097197437,37.27167910181287,0.7905126594233965,-0.0110477043616195,1.2434745239641825,5617.742892795139,11.963333333333331,0.1177777777777777,179.45531867212523,-4.0382037783633535,97.2553223800901,1553.0,1435.0,1200.0,1528.0,1471.0,988.0,161.0,292.25,1649318427.6209743,1649318428.738539,7108ef95-9a8d-4982-bbd5-300eb585da66
-0.0846863107560454,0.0531120292120385,-0.148891398600919,-0.0221511091095803,-0.2856510028532454,0.2523279203630667,-0.4525868810522855,-0.4697722312647165,-18.26505718293525,25.557417352786192,37.82006414654384,0.7758259857337643,-0.0129984963180612,1.272721414801113,5614.881673177083,11.963888888888889,0.1122222222222222,179.38452148464833,-4.019858269707653,97.37863765100516,1553.0,1435.0,1200.0,1528.0,1471.0,988.0,161.0,292.25,1649318428.8476017,1649318429.898022,7108ef95-9a8d-4982-bbd5-300eb585da66
-0.0760476169075418,0.0461695175914571,-0.1857077511704575,-0.3811237018904579,-0.3565750815529823,0.600281841169463,-0.3871984007894238,-0.4113394120187007,-17.928970686258232,24.556958543185782,39.44548882867123,2.359442034472448,-0.0139756894151592,1.32535866035352,5613.24560546875,11.961999999999998,0.11,179.36806224656843,-3.862593638386801,97.49115591066224,1553.0,1522.0,1200.0,1528.0,1471.0,988.0,161.0,292.25,1649318430.5373392,1649318431.6052537,7dda50e9-75cc-4743-a740-6824d19dcdd5
-0.0792164528309824,0.04624840977319,-0.1955166795575569,-0.382846181477936,-0.3668968100390905,0.5986777003801285,-0.398111820880727,-0.4115366432645866,-17.930899860589083,24.61312481314173,38.92282184387262,2.359522434475706,-0.0094425643532896,1.3675591282789497,5626.347005208333,11.94988888888889,0.1044444444444444,179.35881568825204,-3.870272668288665,97.48413371728552,1553.0,1522.0,1200.0,1528.0,1471.0,988.0,161.0,292.25,1649318431.7140496,1649318432.8385518,7dda50e9-75cc-4743-a740-6824d19dcdd5
-0.0777569474982693,0.0514289960957088,-0.1867202009331758,-0.3857257464968282,-0.3606117320897171,0.5982569421426134,-0.3859361257656398,-0.4045415346913178,-17.48159730001126,24.4585538904785,39.287648778195205,2.364770187295514,0.0044838436451516,1.3311662669808262,5624.29541015625,11.946000000000002,0.1,179.3188029222743,-3.862404100637333,97.49934530747709,1553.0,1522.0,1200.0,1528.0,1471.0,988.0,161.0,292.25,1649318432.94656,1649318434.0661323,7dda50e9-75cc-4743-a740-6824d19dcdd5
-0.0557723264396647,0.0493646507694927,-0.221919264247588,-0.8246030748190971,-0.4397011557954673,1.0290213422666827,-0.3040197341209767,-0.3253206253202352,-17.722353625802654,23.71985513004576,42.973354319271145,4.316571768604377,0.0175702244886482,1.3714728998817622,5639.095703125,11.93588888888889,0.1,179.2891174023216,-3.6811074961536616,97.51447189975892,1553.0,1613.0,1200.0,1528.0,1471.0,988.0,161.0,292.25,1649318435.1829288,1649318436.3203764,d25c721a-4412-43e1-9be8-7aa041d46ec1
-0.0592474174349336,0.048640376758968,-0.2102382900625534,-0.8220089453337277,-0.4322458434212974,1.029190631720425,-0.2962937782659932,-0.3195231453609505,-17.690344063402588,24.19430248162058,43.30475798529943,4.314896207861849,0.0121191433780648,1.3346261133977269,5631.68603515625,11.931,0.11,179.29848993968267,-3.684964750623688,97.43163081204554,1553.0,1613.0,1200.0,1528.0,1471.0,988.0,161.0,292.25,1649318436.4283743,1649318437.548987,d25c721a-4412-43e1-9be8-7aa041d46ec1
-0.0568368230122043,0.0450518784093715,-0.2140870234163581,-0.8162426913438589,-0.4328895818164102,1.0320943019709845,-0.3002794773585828,-0.3170303715656146,-17.930870202379012,24.151430675692307,43.943777452541326,4.307918831417157,-0.0062558012906436,1.34679096251667,5639.095703125,11.931666666666665,0.1,179.27968718780753,-3.665805880274325,97.41140662191316,1553.0,1613.0,1200.0,1528.0,1471.0,988.0,161.0,292.25,1649318437.6570542,1649318438.7773392,d25c721a-4412-43e1-9be8-7aa041d46ec1
-0.0496713311331762,0.0284582236383611,-0.2627985657765158,-1.234211531281323,-0.5234320743100245,1.4431658253784456,-0.2318333823466374,-0.2606158821656481,-17.559496532513027,23.428832369049715,45.43719222992499,6.167696029554309,-0.0359960810229386,1.4360496338516038,5637.448350694444,11.914444444444444,0.0955555555555555,179.25839824707452,-3.5018176154777008,97.2562072690426,1553.0,1710.0,1200.0,1528.0,1471.0,988.0,161.0,292.25,1649318440.7124736,1649318441.8498695,a56a7f58-2493-4b23-a143-6cc29ac64648
-0.0600982476761781,0.0170583038851656,-0.2751188957605047,-1.2380246562869168,-0.5340430750635865,1.450726326164216,-0.2410111734012078,-0.2642317742367109,-17.555320046013083,23.448384234831504,44.34255917542385,6.192630713105317,-0.0693918005243354,1.4774015729058496,5631.68603515625,11.904222222222224,0.09,179.24026485373804,-3.493814127874326,97.1120386716816,1553.0,1710.0,1200.0,1528.0,1471.0,988.0,161.0,292.25,1649318441.9583514,1649318443.282635,a56a7f58-2493-4b23-a143-6cc29ac64648
-0.0483038666874357,0.0195302588143153,-0.2543571017001705,-1.2169472784638802,-0.5127158838973795,1.4396419745634157,-0.2254957100241973,-0.2432727495107145,-17.629230757152392,23.62243919338446,46.007246013008825,6.122593080690877,-0.0756273596587824,1.4006705292252146,5629.220865885417,11.902333333333337,0.09,179.22847139377114,-3.477384131541795,97.00315255484315,1553.0,1710.0,1200.0,1528.0,1471.0,988.0,161.0,292.25,1649318443.3911357,1649318444.5121045,a56a7f58-2493-4b23-a143-6cc29ac64648
-0.0503419147228558,0.0197932327082785,-0.2633771085760771,-1.449929251007681,-0.5547259803947671,1.655977498568471,-0.1786600494122616,-0.1928869401434245,-17.238443071201296,23.93345248425969,46.43873317665972,7.136156240550181,-0.0531126848888759,1.4022442887001765,5624.29541015625,11.901222222222222,0.0877777777777777,179.21962402206626,-3.383699359611131,96.71768403957256,1553.0,1814.0,1200.0,1528.0,1471.0,988.0,161.0,292.25,1649318446.6518848,1649318447.7890215,37b0ac1f-4f39-4a09-a479-ebd157c1b78a
-0.0581785379628762,-0.0014024659243394,-0.2575127892963817,-1.4182277107230126,-0.5423399049034685,1.651191372405861,-0.17457080456036,-0.2024460432369991,-17.373717757770923,24.15530955916908,46.99192345322341,7.055673077247624,-0.1400825211504089,1.3698659314006283,5616.92431640625,11.861444444444444,0.0811111111111111,179.23909613248006,-3.365347257925607,96.54544791818226,1553.0,1814.0,1200.0,1528.0,1471.0,988.0,161.0,292.25,1649318447.897866,1649318449.0167816,37b0ac1f-4f39-4a09-a479-ebd157c1b78a
-0.0588491214700516,0.0068812128500113,-0.2705168515007109,-1.4427500557311774,-0.5563564190849913,1.6669435135710686,-0.1861811043338408,-0.215121387803194,-17.80424923986867,24.051481758397845,47.08368121699796,7.144848749656465,-0.1045866635717653,1.4238717515438544,5602.648274739583,11.866222222222222,0.0844444444444444,179.23319333121734,-3.318261593902962,96.38011104676356,1553.0,1814.0,1200.0,1528.0,1471.0,988.0,161.0,292.25,1649318449.1250284,1649318450.2470791,37b0ac1f-4f39-4a09-a479-ebd157c1b78a
-0.0842392550257883,0.0675624463415695,-0.1098266194969065,0.4503341229919286,-0.2085075927557468,-0.2265344570591483,-0.552214578532347,-0.5740677182255003,-18.02973414619661,27.124532348177866,33.35876086722505,-1.3543115812490214,0.0234042443067625,1.255368736302431,5596.955946180556,11.901222222222223,0.0933333333333333,179.2072962895243,-3.95336443343094,96.2424994310058,1553.0,1349.0,1200.0,1528.0,1471.0,988.0,161.0,292.25,1649318451.1570942,1649318452.2953713,1fa3f651-566b-4f87-832e-b41653302b86
-0.1032522708139305,0.0689825055100135,-0.1118120727316572,0.4467708266092771,-0.2103089643211945,-0.222182238111484,-0.55331906933249,-0.5811943138603588,-18.09746661047169,27.07511745297432,33.69766597971017,-1.3369001515181418,0.0265180287083603,1.2626927139892612,5601.427083333333,11.96377777777778,0.1088888888888889,179.1736416707539,-3.949126206187208,96.51487219690776,1553.0,1349.0,1200.0,1528.0,1471.0,988.0,161.0,292.25,1649318452.4035404,1649318453.5239222,1fa3f651-566b-4f87-832e-b41653302b86
-0.1121933847819628,0.0647091792635074,-0.1098266194458447,0.4492559299910539,-0.2092702172049916,-0.2178694652875433,-0.5485855373053714,-0.5767763510302578,-17.789365818078366,27.122990675385854,34.06426750845715,-1.3321848113185015,0.0048813249874385,1.2520495605331532,5603.867784288194,11.961666666666666,0.1055555555555555,179.14826220561795,-3.947024547493222,96.77592809826488,1553.0,1349.0,1200.0,1528.0,1471.0,988.0,161.0,292.25,1649318453.6318338,1649318454.7511446,1fa3f651-566b-4f87-832e-b41653302b86
-0.1151781390355215,0.0698634681674939,-0.0903271018017248,0.8189051927018819,-0.1571750778681125,-0.583245510795234,-0.6412707267233386,-0.6587979454080484,-18.298688365488943,28.61162364551297,30.934885488820907,-2.976987691452615,0.0113032113132152,1.2849619967246972,5600.613226996527,11.957,0.1055555555555555,179.12216632952905,-4.06718906163051,97.09239884217816,1553.0,1264.0,1200.0,1528.0,1471.0,988.0,161.0,292.25,1649318455.6624117,1649318456.8062942,13f03a09-4a20-4d90-8379-05cee0591bae
-0.1089456566587877,0.0780551058725516,-0.0694601198700869,0.8097537009552365,-0.1393454444456509,-0.5786829117951252,-0.6184840283043331,-0.6414416599803738,-18.19903959181337,28.541224976674467,31.694462492712137,-2.945347802311874,0.037037837817433,1.2018708387500514,5602.23974609375,11.947111111111113,0.1,179.1190365850694,-4.068027087896175,97.25246204864769,1553.0,1264.0,1200.0,1528.0,1471.0,988.0,161.0,292.25,1649318456.93444,1649318458.0295436,13f03a09-4a20-4d90-8379-05cee0591bae
-0.1159802095485214,0.0765956006114542,-0.0900115331491295,0.804152356878475,-0.1582401224395404,-0.5725819148794451,-0.639627139181896,-0.6719860932445891,-18.50518351675589,28.54908010663888,31.46637948417932,-2.920164501097959,0.0351390396583085,1.284958474570039,5603.867784288194,11.939888888888888,0.0955555555555555,179.10188218551392,-4.065235627527887,97.39291350528038,1553.0,1264.0,1200.0,1528.0,1471.0,988.0,161.0,292.25,1649318458.137561,1649318459.2582684,13f03a09-4a20-4d90-8379-05cee0591bae
-0.1127982248880073,0.1097040173409021,-0.0340375308830536,1.186753095540437,-0.0809389322223101,-0.9764574508401448,-0.7092758091893921,-0.736625108591099,-18.490908074994017,30.469256339962936,28.67406084856574,-4.675701999435567,0.1404376217959094,1.2051819871087022,5605.90283203125,11.939555555555554,0.0977777777777777,179.0702614452964,-4.21065139845858,97.59482224515494,1553.0,1178.0,1200.0,1528.0,1471.0,988.0,161.0,292.25,1649318460.168372,1649318461.116268,fde697e1-62e4-44ac-b7fb-403bfaf0a8a1
-0.1221863946005568,0.1012099596911892,-0.0547204307822252,1.181585658031661,-0.0981374277998756,-0.96666166611217,-0.729104051181477,-0.7478935470312033,-18.88702101833581,30.47639741995264,28.05346109509589,-4.64331394181173,0.1162088489636234,1.2828028870353487,5609.57177734375,11.921666666666669,0.0944444444444444,179.07790366806773,-4.208428978225519,97.68543381141406,1553.0,1178.0,1200.0,1528.0,1471.0,988.0,161.0,292.25,1649318461.226764,1649318462.3302472,fde697e1-62e4-44ac-b7fb-403bfaf0a8a1
-0.1088536157445864,0.1008549449161306,-0.039507388670423,1.1820853084913128,-0.0857382065604651,-0.9623751885729354,-0.7129574455755247,-0.7336140561226445,-18.675602216037284,30.645150680810165,28.79590481116692,-4.632707777115237,0.1077064675037688,1.2232754888235085,5605.90283203125,11.923,0.09,179.07926818808193,-4.209968521837188,97.78103596922674,1553.0,1178.0,1200.0,1528.0,1471.0,988.0,161.0,292.25,1649318462.4381409,1649318463.5585144,fde697e1-62e4-44ac-b7fb-403bfaf0a8a1
-0.1285766614204614,0.0982515030907875,-0.0139331739330182,1.4005114525554851,-0.0472782685672375,-1.16787630474739,-0.7556512806035579,-0.7708906263017741,-18.78417746142577,32.21324160029098,27.729126322538097,-5.575768305774626,0.0829202066259138,1.196194181485421,5604.274793836806,11.909444444444444,0.09,179.08478394529166,-4.300828868250445,97.88798155343098,1553.0,1088.0,1200.0,1528.0,1471.0,988.0,161.0,292.25,1649318464.6738884,1649318465.8120964,2135b3fe-da84-4f87-9130-4896e96a75f6
-0.1226334502849926,0.1124389461189179,-0.021730350921063,1.393923955765524,-0.055864367468986,-1.1750817964110325,-0.7647896282833533,-0.7861299719895718,-18.804640700835733,31.945796154240803,27.756749856150176,-5.579267301678566,0.1363439776811516,1.2333215660503436,5591.681423611111,11.893,0.0988888888888889,179.09391059584263,-4.2896210021411445,97.9352001689831,1553.0,1088.0,1200.0,1528.0,1471.0,988.0,161.0,292.25,1649318465.9209263,1649318467.0403044,2135b3fe-da84-4f87-9130-4896e96a75f6
-0.1270514125312427,0.092978875969808,-0.0142224451843895,1.3997356794614708,-0.0469889971826286,-1.163366298133886,-0.7525613352911421,-0.7663937703419818,-18.61546920084124,32.14911787729954,27.5450478547584,-5.564267672108553,0.0636581449338279,1.1910349506019735,5592.898057725694,11.89,0.09,179.09723765687835,-4.299660431583679,97.97590733752644,1553.0,1088.0,1200.0,1528.0,1471.0,988.0,161.0,292.25,1649318467.1479244,1649318468.2000802,2135b3fe-da84-4f87-9130-4896e96a75f6
-0.0852780020905566,0.0493515020634926,-0.1396478644960117,0.0121275426812264,-0.2749085165983347,0.2193772892090519,-0.4491945166672887,-0.4688123761312264,-17.802449204578483,25.62889448697509,37.14503322529592,0.6255166358538623,-0.0280274357867859,1.2398474416129068,5597.361979166667,11.915333333333333,0.0933333333333333,179.11762653046074,-3.889521943780792,98.02422257789532,1553.0,1435.0,1200.0,1528.0,1471.0,988.0,161.0,292.25,1649318469.1802442,1649318470.1251109,a39d0958-dd75-459b-8c66-c64990af5497
-0.094284859480833,0.0543348579604723,-0.1502325657101865,0.0083144207444818,-0.2865056681999485,0.2168395909480862,-0.4592006767848061,-0.4787527932138478,-17.62815353161784,25.51018234235841,36.90062315467618,0.6271503289118595,-0.00860779292431,1.284713378928168,5611.20458984375,11.963111111111113,0.1,179.13640955067825,-3.896909220254985,98.06804127706056,1553.0,1435.0,1200.0,1528.0,1471.0,988.0,161.0,292.25,1649318470.2328937,1649318471.347889,a39d0958-dd75-459b-8c66-c64990af5497
-0.0967305171130809,0.0594102546986489,-0.1477606106538037,0.008248677214714,-0.2847437427171665,0.2116721535495982,-0.4583197139350218,-0.4831707565280051,-17.637735970329356,25.478920488519133,36.87772704871129,0.6155940833308471,0.0108630534386503,1.2782771058497715,5609.57177734375,11.966444444444445,0.1,179.141884326753,-3.89743917652996,98.11861351549516,1553.0,1435.0,1200.0,1528.0,1471.0,988.0,161.0,292.25,1649318471.4602003,1649318472.774973,a39d0958-dd75-459b-8c66-c64990af5497
-0.0267005580667538,0.0763983701723308,0.0396083179929562,-0.0021124955813075,-0.1144286634474255,0.1922252326252404,-0.2636795285758754,-0.2931983556507203,-16.226083251337673,25.4922398779234,36.58639675010817,0.6053486906001185,0.0803236363084351,0.5163067411690961,5616.92431640625,11.963,0.1,179.13672373938005,-3.9268247373416014,98.16169607204988,1553.0,1435.0,1200.0,1446.0,1471.0,988.0,161.0,292.25,1649318474.536712,1649318475.6423786,f9b68443-635d-49ad-8737-f41da99c9dfe
-0.0246230640278458,0.0919138315939947,0.030049215792258,-0.0084501673151703,-0.1249607697840084,0.1859796021612252,-0.2773015796361564,-0.2994439872671703,-16.479545834052704,25.36719287033046,36.94344034162247,0.6042345567231239,0.1373177136889631,0.5652763082749825,5613.24560546875,11.964555555555556,0.1044444444444444,179.14876308615712,-3.920455585940564,98.1802726687725,1553.0,1435.0,1200.0,1446.0,1471.0,988.0,161.0,292.25,1649318475.750119,1649318476.8678846,f9b68443-635d-49ad-8737-f41da99c9dfe
-0.0211781055017789,0.0918480881155612,0.0399370354509731,-0.0092390890880056,-0.1168743210350962,0.1849803012728913,-0.2645210452102106,-0.2839548210313962,-16.093939597116652,25.30081551270672,36.77506788685336,0.6039881971283119,0.136557032820949,0.5226318876970829,5616.92431640625,11.964444444444446,0.1,179.15903265502916,-3.9301852852769854,98.20438551327236,1553.0,1435.0,1200.0,1446.0,1471.0,988.0,161.0,292.25,1649318476.975577,1649318478.0996368,f9b68443-635d-49ad-8737-f41da99c9dfe
0.0477868072212035,0.1286512882422175,0.2436892273246892,-0.0226507595931044,0.0648275174483591,0.1498995808618376,-0.0595328538113009,-0.0809389325707493,-14.65293830790769,25.347743197883645,36.72419908132027,0.5665844198059174,0.2794120675611166,-0.2891964409255294,5609.57177734375,11.959111111111111,0.1,179.12405601519944,-3.923820545039789,98.20856634795432,1553.0,1435.0,1200.0,1354.0,1471.0,988.0,161.0,292.25,1649318479.215049,1649318480.3564758,a936525f-e9c8-4405-b604-5a4439631f84
0.0379121363042833,0.1234181072743237,0.2376145299876128,-0.0209414290182738,0.061343112983108,0.1571313635799915,-0.0660546073860826,-0.0851991102433121,-14.995202630143396,25.41784154850568,37.19928379722653,0.5790450253613749,0.2574018862905847,-0.2671007735406807,5609.57177734375,11.955222222222224,0.0911111111111111,179.13730658218927,-3.92938890419251,98.21731809701085,1553.0,1435.0,1200.0,1354.0,1471.0,988.0,161.0,292.25,1649318480.4645374,1649318481.5812962,a936525f-e9c8-4405-b604-5a4439631f84
0.0305488663651418,0.1184741975631408,0.2514075116418157,-0.0160764112875626,0.0733215752279571,0.156868389659469,-0.0497765207972864,-0.0770600673347608,-14.56917726314092,25.50070173646812,37.22260787754764,0.5689340566950861,0.2359140143773724,-0.3256524889894554,5612.02099609375,11.956666666666663,0.1,179.13533038078938,-3.9132104627784736,98.21735983705577,1553.0,1435.0,1200.0,1354.0,1471.0,988.0,161.0,292.25,1649318481.689413,1649318483.015041,a936525f-e9c8-4405-b604-5a4439631f84
0.1069822372604574,0.1517798443448534,0.4704910725659501,-0.0212307003801303,0.2700523618554693,0.1154237001053116,0.1678344018787703,0.137894821055183,-13.164485363425682,25.741664601809795,36.96641615606369,0.5006016371734597,0.3676864156986834,-1.1975666320771012,5610.38818359375,11.959111111111111,0.0977777777777778,179.12199785152953,-3.912896700963476,98.17852793489452,1553.0,1435.0,1200.0,1252.0,1471.0,988.0,161.0,292.25,1649318485.158302,1649318486.2913282,67398eea-bf02-49ea-b466-18f21562bf18
0.122326765503422,0.165086324550883,0.4625229633526288,-0.0256486624132467,0.2596780411331247,0.108507486028609,0.1553825869803048,0.1328194246669259,-13.27683777914801,25.76062493064965,37.179972196255605,0.4947322390073057,0.4165353993337703,-1.1530600930555608,5610.031005859375,11.960875,0.1,179.12372076674765,-3.930209683044725,98.18225494145162,1553.0,1435.0,1200.0,1252.0,1471.0,988.0,161.0,292.25,1649318486.3996496,1649318487.516997,67398eea-bf02-49ea-b466-18f21562bf18
0.1086860891092268,0.1531999035058692,0.4693301523647794,-0.0183631887650815,0.2683468664927774,0.1137538157290912,0.165910309411751,0.1452832925065308,-13.096097091240509,25.778780380999432,37.28931547473658,0.490654916196432,0.3692405983009425,-1.1902367425199714,5598.580078125,11.954666666666666,0.0933333333333333,179.11575961208757,-3.932686462605549,98.19162368426316,1553.0,1435.0,1200.0,1252.0,1471.0,988.0,161.0,292.25,1649318487.6253307,1649318488.7484772,67398eea-bf02-49ea-b466-18f21562bf18
-0.148284535591849,0.0323204003330178,-0.3837979450501143,0.0421819225093098,-0.5015673037300515,0.2177802283919007,-0.7144877521858646,-0.73137877659554,-19.49180280265405,26.15793358813117,36.52161338451175,0.5445327752424954,-0.0935914168006857,2.255014322021989,5592.492513020833,11.954,0.0933333333333333,179.18508147870378,-3.924859634999146,98.3062456421846,1553.0,1435.0,1200.0,1604.0,1471.0,988.0,161.0,292.25,1649318489.6598551,1649318490.798093,effe5244-daec-4b47-8247-49b79ae85b9b
-0.1589107059140234,0.0304831228613816,-0.3803742261942356,0.0410809720558511,-0.4985152882920917,0.2182070552911987,-0.7076322215257264,-0.7305241114116632,-19.18798696017398,26.03067682392127,36.2219225347692,0.547407425343584,-0.0996260678875568,2.2360396887981544,5601.833116319444,11.949777777777776,0.0911111111111111,179.2000608424635,-3.919871604766529,98.243617360955,1553.0,1435.0,1200.0,1604.0,1471.0,988.0,161.0,292.25,1649318490.906688,1649318492.0247087,effe5244-daec-4b47-8247-49b79ae85b9b
-0.1477474618334899,0.0314166803290976,-0.3763507243601817,0.0444207409626248,-0.4937291615808281,0.2186935570486066,-0.7051471169225125,-0.728144196013521,-19.37154348741264,26.075336914438903,36.8834119740628,0.5414764075719212,-0.1008436270897424,2.2214265975177225,5597.361979166667,11.953666666666669,0.1,179.18809586885746,-3.928920893938757,98.21113525799215,1553.0,1435.0,1200.0,1604.0,1471.0,988.0,161.0,292.25,1649318492.1327753,1649318493.2540958,effe5244-daec-4b47-8247-49b79ae85b9b
-0.22791507035283,-0.0022834286046933,-0.5828904960375401,0.0902702445273653,-0.6788891603465913,0.2187067057372518,-0.9283726403440734,-0.9552880374419546,-20.952664470069,26.566309798758,36.54120808143612,0.4302006791216074,-0.2317460438431555,3.067517662974195,5602.23974609375,11.951,0.09,179.1993838948258,-3.9414503067887146,98.14416297645046,1553.0,1435.0,1200.0,1676.0,1471.0,988.0,161.0,292.25,1649318495.035405,1649318496.1218195,fb05c049-c751-4544-8e67-f640ae9f3598
-0.2241939888512764,-0.0106591482742602,-0.5779728821720976,0.0972916482284586,-0.6751943753209347,0.2169184831299144,-0.9227975900862092,-0.9438881116072684,-20.63182758474522,26.767672554884417,36.07602167261333,0.4120108077506252,-0.2618572738015767,3.046378022411238,5603.867784288194,11.932555555555556,0.09,179.20658139639116,-3.934909499452912,98.0516063240977,1553.0,1435.0,1200.0,1676.0,1471.0,988.0,161.0,292.25,1649318496.2305577,1649318497.3516388,fb05c049-c751-4544-8e67-f640ae9f3598
-0.2296244010684625,-0.0037823799916412,-0.5897541176882213,0.0920979133040327,-0.6854503623062612,0.2160243718147419,-0.936104078296998,-0.956616056864362,-20.942721586027687,26.59881975564083,36.13396347169798,0.4198641814138384,-0.2344885882981798,3.0960719292482164,5602.23974609375,11.935222222222222,0.09,179.20139955954085,-3.9266485753792577,98.00274466859524,1553.0,1435.0,1200.0,1676.0,1471.0,988.0,161.0,292.25,1649318497.4599545,1649318498.580468,fb05c049-c751-4544-8e67-f640ae9f3598
-0.2998778941325801,-0.0403620539024493,-0.7940454903813842,0.1672427106418154,-0.8675204410194266,0.1936978865470515,-1.166035485563727,-1.1932664574643332,-22.51298378595761,27.446434518938304,36.028148597813335,0.1948246324374604,-0.3818213829596723,3.9445404097743153,5607.942437065973,11.929222222222222,0.0922222222222222,179.23611361654244,-3.966370536566721,97.83993344934966,1553.0,1435.0,1200.0,1747.0,1471.0,988.0,161.0,292.25,1649318500.5339966,1649318501.6525776,0faa2585-9404-488a-b0a9-e8b9c37eb69f
-0.2888855824818122,-0.0376665710729673,-0.7681031009449133,0.1660593280134269,-0.8460091629402529,0.1939214143773575,-1.1398695597859776,-1.1712555221997198,-22.23370871489034,27.63289508335652,36.4770848671167,0.2007363209980349,-0.3758737635004838,3.843691975475017,5605.90283203125,11.924666666666669,0.09,179.2314220354926,-3.959110756957036,97.7606341941759,1553.0,1435.0,1200.0,1747.0,1471.0,988.0,161.0,292.25,1649318501.76073,1649318502.881384,0faa2585-9404-488a-b0a9-e8b9c37eb69f
-0.3053103293199575,-0.0224110486678134,-0.777550949175257,0.1585352396724522,-0.8562788057071439,0.1842257684127539,-1.1510879349132603,-1.181304674573037,-22.25738431552839,27.3362344262158,36.16309293961178,0.1934224008894471,-0.3153834046374657,3.8879729212256753,5605.90283203125,11.9255,0.09,179.22206183041754,-3.9590422060480224,97.72166028099817,1553.0,1435.0,1200.0,1747.0,1471.0,988.0,161.0,292.25,1649318502.9903033,1649318504.106671,0faa2585-9404-488a-b0a9-e8b9c37eb69f
-0.0831610618820316,0.0538483562111231,-0.2000924263178974,0.0538220586525166,-0.3061629720457087,0.1839021082094477,-0.4964114962258421,-0.5098626167162673,-17.74220273625124,22.986287374083712,37.802909786868966,0.4313538530068962,-0.0264288188656824,1.4350009342608328,8003.19873046875,11.667222222222222,6.99,19.9680883949286,-4.061953294744872,86.06237416284878,1553.0,1435.0,1350.0,1528.0,1471.0,988.0,161.0,292.25,1649318508.2522194,1649318509.2294576,9714b177-781d-49eb-a8a9-4eb7c72dc0d1
-0.1051325345212939,0.0516656726222791,-0.1948329472695135,0.0554130509194416,-0.299799002096329,0.1859796021330803,-0.4891139679601355,-0.5167656837544008,-17.695777773407354,22.890739688316327,38.05158248958308,0.432124869286558,-0.0370118564504218,1.4089458594789095,8007.354546440973,11.671444444444443,7.006666666666667,-179.83119460688977,-4.047440802874018,81.6763901957124,1553.0,1435.0,1350.0,1528.0,1471.0,988.0,161.0,292.25,1649318509.3378973,1649318510.4586828,9714b177-781d-49eb-a8a9-4eb7c72dc0d1
-0.0940840890264169,0.0566834174043703,-0.1959485636744131,0.0537881754725867,-0.3031357371003148,0.1825442525207651,-0.4936148689358796,-0.5104047470030832,-17.760308991251414,23.051694096604088,38.02623639476498,0.4290454132083675,-0.017378822362768,1.4218656103499336,8010.67919921875,11.676333333333332,7.006666666666667,-179.67276609236157,-4.001108736389799,76.710555801168,1553.0,1435.0,1350.0,1528.0,1471.0,988.0,161.0,292.25,1649318510.5676515,1649318511.6878777,9714b177-781d-49eb-a8a9-4eb7c72dc0d1
0.1431542998569643,0.4727394994599291,-0.1698504221482891,-0.1965291294223318,-0.3795853042984625,0.0081960824437603,-0.5418534027139664,-0.5614712634729796,-16.905270437870428,21.69928197754393,38.35223873991617,0.5947328886205221,1.5665943070765855,1.608860263636917,7969.303168402777,11.651666666666666,7.074444444444444,-179.9453877807133,-3.907045553006368,68.45179234402197,1637.0,1435.0,1350.0,1528.0,1535.0,988.0,161.0,292.25,1649318513.6225588,1649318514.9639502,774374c7-8db0-41a3-a867-2a820a90a908
0.1241716287036844,0.4617264558800654,-0.1773633854852474,-0.1964542828009628,-0.3836335862567806,0.0152523810111922,-0.546841817194781,-0.5702313327621179,-17.073871389438555,21.661066408359268,37.784709723476354,0.6096177301606603,1.5310258640738792,1.6294830102627778,7958.61328125,11.649888888888889,7.08,179.97644540977925,-3.871025364621574,65.94835953521277,1637.0,1435.0,1350.0,1528.0,1535.0,988.0,161.0,292.25,1649318515.0724535,1649318516.031209,774374c7-8db0-41a3-a867-2a820a90a908
0.1400117615424974,0.467519467510028,-0.1742683844506746,-0.1961346683973113,-0.3818074343483231,0.0127060853486346,-0.5451142803201953,-0.575172209654149,-17.050821777436582,21.66784441730567,38.289539138771886,0.6034660099757008,1.5482727200877815,1.621746365951075,7955.33203125,11.646777777777778,7.0888888888888895,179.84900015114604,-3.81789365509113,64.057633399359,1637.0,1435.0,1350.0,1528.0,1535.0,988.0,161.0,292.25,1649318516.1394787,1649318517.2172067,774374c7-8db0-41a3-a867-2a820a90a908
0.391191292130964,0.9207944311668428,-0.1393191470446097,-0.4616857810780206,-0.4633293684102385,-0.183893230864479,-0.5990108026241987,-0.6273988481550866,-16.16496094604214,20.83162712043976,38.648300239664806,0.7573993074698271,3.273776266299968,1.815866337617221,7956.97265625,11.641444444444444,7.082222222222223,179.3364824874859,-3.7862513333731,61.50821975705728,1723.0,1435.0,1350.0,1528.0,1599.0,988.0,161.0,292.25,1649318518.1351707,1649318519.2646773,7ab07249-72de-4ab4-97f7-f913e26769b2
0.3858660705845784,0.9124844558078884,-0.1342831960202031,-0.4540595353467413,-0.4566761265147255,-0.1799091755021037,-0.5942641218062963,-0.6231123708495839,-16.29191028269274,20.9964696297639,39.0915719253632,0.750499344557318,3.2389617106925046,1.7927116861917325,7958.61328125,11.612,7.08,179.20573293511424,-3.776880124104365,60.03166339100466,1723.0,1435.0,1350.0,1528.0,1599.0,988.0,161.0,292.25,1649318519.3726375,1649318520.4940784,7ab07249-72de-4ab4-97f7-f913e26769b2
0.3910598051849789,0.9057128777882468,-0.1383198460352413,-0.4569391005920004,-0.4609494537973487,-0.172506458883144,-0.5956578840023168,-0.6094114248134662,-16.17624765995845,21.06790364247649,38.80155490363703,0.773914368630748,3.215415803473692,1.804816845575803,7958.61328125,11.61,7.080000000000001,179.09127566064282,-3.76066430637737,58.87835711107151,1723.0,1435.0,1350.0,1528.0,1599.0,988.0,161.0,292.25,1649318520.602294,1649318521.7225857,7ab07249-72de-4ab4-97f7-f913e26769b2
0.5783498179378048,1.2506031634855892,-0.1047906684305933,-0.6658193515397649,-0.5199871148875612,-0.3221649376722492,-0.6348673092515803,-0.6662138127991816,-15.747662871477726,20.893446752718383,38.20105250979934,0.9094275027625832,4.539093128320747,1.9347748243964933,7966.009765625,11.602222222222222,7.07,178.54934416677693,-3.719337630189908,57.37036138426932,1813.0,1435.0,1350.0,1528.0,1662.0,988.0,161.0,292.25,1649318522.6333437,1649318523.770858,bbc6e3fc-8009-42fc-acb1-ef17fc311ca9
0.5970078161148611,1.2619504882826833,-0.1043436127309683,-0.6689224448570831,-0.5209206725317737,-0.3295676548239728,-0.6373787111094963,-0.6695141363381771,-15.83149138773333,20.81401632002532,38.316442365397855,0.8992643302818175,4.581632166742407,1.94049522156514,7966.009765625,11.565111111111111,7.050000000000001,178.41308341065502,-3.69947672074398,56.54462983856513,1813.0,1435.0,1350.0,1528.0,1662.0,988.0,161.0,292.25,1649318523.878887,1649318524.9996445,bbc6e3fc-8009-42fc-acb1-ef17fc311ca9
0.5886998637670915,1.257399522242151,-0.1061960618804369,-0.6671397843806305,-0.5221500759790101,-0.3257666695426592,-0.6397803719134043,-0.6690994465415497,-15.957211793488096,20.94640280404765,38.43886277041376,0.9045260029116976,4.564033412420601,1.947609632051241,7973.419921875,11.574,7.053333333333333,178.3111860951573,-3.711516684135289,55.888113952818266,1813.0,1435.0,1350.0,1528.0,1662.0,988.0,161.0,292.25,1649318525.1074498,1649318526.2286456,bbc6e3fc-8009-42fc-acb1-ef17fc311ca9
-0.3611771259924983,-0.4298527800435016,-0.2366458057085416,0.3265128599964926,-0.2265870519558478,0.395490915486144,-0.4398326427153529,-0.4547695650648197,-18.280207599402107,24.390209166852564,36.2677534279069,0.298669638731325,-1.859055803459178,1.2366311551992306,7975.069769965277,11.593888888888888,7.064444444444444,179.22246538076098,-3.7448156587501327,55.016235372351744,1470.0,1435.0,1350.0,1528.0,1403.0,988.0,161.0,292.25,1649318527.1384933,1649318528.2759316,0de327ec-f187-4911-856d-d09fb83fa98c
-0.3801820526983824,-0.4438773848052459,-0.232587915349016,0.3459673661657804,-0.217757701536329,0.3988529357055159,-0.4362030960344742,-0.4595041083547736,-18.4853562201433,24.54182070507231,37.3670974506433,0.2636190297881047,-1.9220835113050825,1.2137246469508765,7980.84423828125,11.659777777777778,7.07888888888889,179.16287577480213,-3.7687071387162754,54.52647096609167,1470.0,1435.0,1350.0,1528.0,1403.0,988.0,161.0,292.25,1649318528.3843806,1649318529.5052383,0de327ec-f187-4911-856d-d09fb83fa98c
-0.3680275979251695,-0.4499308436683242,-0.2416817569523754,0.3412262500671548,-0.2242728811705477,0.4027095491454178,-0.4423571929880224,-0.4606864798643436,-18.56247227984464,24.37750959539365,36.39579379029524,0.2812444509918141,-1.935628768969292,1.2416261164040467,7980.84423828125,11.660666666666666,7.08,179.10057534265275,-3.75513683349593,54.208707419150485,1470.0,1435.0,1350.0,1528.0,1403.0,988.0,161.0,292.25,1649318529.614153,1649318530.7350624,0de327ec-f187-4911-856d-d09fb83fa98c
-0.6147366484720544,-0.8586056201040887,-0.2598138112853972,0.5944175231936257,-0.1476685697586546,0.5630184395767671,-0.3929312333590591,-0.4173615161097195,-19.04017849918696,26.234043605930857,35.50585487578305,0.0813644590779196,-3.4894303144292094,1.0420513325235954,7980.84423828125,11.642666666666663,7.09,179.16814260956212,-3.718885462180479,53.37569830688564,1385.0,1435.0,1350.0,1528.0,1331.0,988.0,161.0,292.25,1649318532.668393,1649318533.719716,e47d1b8e-fe6a-41af-8105-b505dc81bd8c
-0.6134217784036466,-0.8654560944026106,-0.2567370160371432,0.6005185176645257,-0.1442499085401241,0.5641755247367471,-0.3912481999715589,-0.4138113675001914,-19.11535934458979,26.46005299114569,35.53078297775372,0.0718198120983878,-3.5153648613203825,1.029919111477865,7980.84423828125,11.609777777777778,7.059999999999999,179.1311654832155,-3.7095897170157,53.15792189920428,1385.0,1435.0,1350.0,1528.0,1331.0,988.0,161.0,292.25,1649318533.8278954,1649318534.7723925,e47d1b8e-fe6a-41af-8105-b505dc81bd8c
-0.6182605002323712,-0.8699792482652383,-0.2639687998297408,0.6041475574809312,-0.1472215140468105,0.5658585576966173,-0.3952848504515179,-0.4166120404490392,-19.15445652551237,26.17376786898044,35.57531079810645,0.0651450914269544,-3.5333574912882115,1.0492090685163395,7980.84423828125,11.607,7.0633333333333335,179.10612449189844,-3.720972084971918,52.97498932211877,1385.0,1435.0,1350.0,1528.0,1331.0,988.0,161.0,292.25,1649318534.880686,1649318535.8535943,e47d1b8e-fe6a-41af-8105-b505dc81bd8c
-0.91080799502485,-1.3628074154147425,-0.3110375989853315,0.8903486275377959,-0.0805181739453693,0.7738941753037228,-0.3573488318564312,-0.3776534569586355,-19.825970805461782,28.32849232964821,33.91178706939469,-0.1016335744918687,-5.400451019006306,0.907680835103574,7988.28173828125,11.601111111111113,7.065555555555556,179.22310286508352,-3.7026889017923934,52.63535437109036,1297.0,1435.0,1350.0,1528.0,1253.0,988.0,161.0,292.25,1649318537.537759,1649318538.5161505,b0bbad4e-92c0-4a97-8d00-d3c7b94ab977
-0.9091886816699492,-1.3656986142693368,-0.3150777893947731,0.8970873338081194,-0.0827797498192331,0.7719117566731452,-0.363701676157254,-0.3775209585050506,-20.02540822930157,28.41422272422401,34.069308237289874,-0.120997343505125,-5.412363661197488,0.9250702673611588,7980.84423828125,11.542666666666667,7.036666666666666,179.23659021196454,-3.7159938731362328,52.50288550832264,1297.0,1435.0,1350.0,1528.0,1253.0,988.0,161.0,292.25,1649318538.6239593,1649318539.7450056,b0bbad4e-92c0-4a97-8d00-d3c7b94ab977
-0.9088104035268258,-1.3877899632180677,-0.3124788986257996,0.9219181389671468,-0.0746644752731173,0.7768779176328668,-0.3630002436495617,-0.3876414109443097,-20.34615650280282,28.797086831637667,34.95793069002416,-0.1632022747121819,-5.503711266782849,0.90789225084694,7985.802571614583,11.547333333333333,7.043333333333333,179.24782359641952,-3.729093606781886,52.39384267658825,1297.0,1435.0,1350.0,1528.0,1253.0,988.0,161.0,292.25,1649318539.85314,1649318540.8134377,b0bbad4e-92c0-4a97-8d00-d3c7b94ab977
-0.1040674900248831,0.0635257966220639,-0.2073636560390518,0.0589106041290556,-0.3102916632667579,0.1753686046684747,-0.5053657606665961,-0.5273766842457683,-17.934974683963702,22.64257301991847,38.54613754485803,0.3980802748809712,0.0035513548740805,1.465554914160074,8034.045518663194,11.615999999999998,7.013333333333333,178.78486123191752,-3.653150962698368,52.35099841774457,1553.0,1435.0,1350.0,1528.0,1471.0,988.0,161.0,292.25,1649318542.70374,1649318543.8411362,c55e6aa0-1b1f-4e00-b557-9c9f300bec60
-0.1057242258517047,0.058003344214968,-0.213188529096668,0.0584766970863961,-0.3159324548708147,0.1784191020885383,-0.5098757646873271,-0.533648614398244,-17.85414814224285,22.69780519891096,38.11314164944396,0.4059617028439728,-0.0142105439172859,1.4863502354223863,8040.73779296875,11.667,7.04,178.79088394094566,-3.6613920602506815,52.39745129319974,1553.0,1435.0,1350.0,1528.0,1471.0,988.0,161.0,292.25,1649318543.9489937,1649318545.0699804,c55e6aa0-1b1f-4e00-b557-9c9f300bec60
-0.0912080644204553,0.0539403970798503,-0.2206701380265356,0.0521127281619529,-0.3207185809491137,0.1863609142980909,-0.5137677797940845,-0.5357392576356007,-17.99375576642526,22.496139983645406,37.80270152710263,0.43633441187357,-0.0254037079417526,1.507608639776868,8037.38818359375,11.67411111111111,7.04,178.7719111932512,-3.6313892685246696,52.4096909921924,1553.0,1435.0,1350.0,1528.0,1471.0,988.0,161.0,292.25,1649318545.1789787,1649318546.2997854,c55e6aa0-1b1f-4e00-b557-9c9f300bec60
-0.0764552264925275,0.0496933681832764,-0.2606421793039261,-0.4149684529446482,-0.4084335494988175,0.645421310997694,-0.4278015830230561,-0.4565446394952839,-18.02668547480484,21.74240603984129,41.51113503993711,2.5151127626413032,-0.0190064390826925,1.5600757770551572,8025.68017578125,11.671666666666669,7.050000000000001,178.82560406922656,-3.470151459245379,52.47649821082915,1553.0,1522.0,1350.0,1528.0,1471.0,988.0,161.0,292.25,1649318547.2098954,1649318548.347752,abc95195-357c-4926-9430-c9c3f7f5ed29
-0.0788745866989117,0.0466560193466461,-0.2636663798726262,-0.4160729437956915,-0.4096695272539989,0.6501942872693498,-0.4282223413931437,-0.4473405500942651,-18.04391961882621,21.612019224023744,41.6103339777789,2.52732194108187,-0.0312135055620081,1.5662847804471598,8033.201171875,11.659666666666668,7.031111111111112,178.82063624497025,-3.4897993521665662,52.507408611373,1553.0,1522.0,1350.0,1528.0,1471.0,988.0,161.0,292.25,1649318548.4556243,1649318549.5750945,abc95195-357c-4926-9430-c9c3f7f5ed29
-0.0880392284571234,0.0457356106122328,-0.2630615397436245,-0.411523493856633,-0.4085650365143803,0.64693341091838,-0.4275123116387698,-0.4463412489230041,-17.946512728448102,21.578640394104244,41.61905435315586,2.509591139010899,-0.0359546655192968,1.5629676674168218,8025.68017578125,11.659222222222224,7.0344444444444445,178.80211580758078,-3.477720138903465,52.48829584480053,1553.0,1522.0,1350.0,1528.0,1471.0,988.0,161.0,292.25,1649318549.683653,1649318550.8040702,abc95195-357c-4926-9430-c9c3f7f5ed29
-0.0651867933123264,0.0511660221706016,-0.3069781913244153,-0.930765704748699,-0.5092972220860096,1.137839946974785,-0.3334596696168631,-0.357390301203387,-17.49365032643209,20.63730030349172,44.39068633868257,4.776249645474073,0.0177723103287169,1.6268373535857097,8033.201171875,11.652,7.0375,178.81917116939326,-3.303953319945105,52.51277476846717,1553.0,1613.0,1350.0,1528.0,1471.0,988.0,161.0,292.25,1649318551.5347471,1649318552.643499,c7e31c10-0288-4c0b-8ee7-b5666210fe2f
-0.0578498205326978,0.0508504534638046,-0.2992336080623181,-0.9239678247913627,-0.5016709762186936,1.1323963869296194,-0.3270431047916332,-0.3443862380921895,-17.427962036716035,20.689802798809765,44.51622428366623,4.749469638735627,0.0146660617741114,1.5969804606231173,8033.201171875,11.634888888888888,7.025555555555556,178.86090855813643,-3.333981535153028,52.55066268156688,1553.0,1613.0,1350.0,1528.0,1471.0,988.0,161.0,292.25,1649318552.7521431,1649318553.8774214,c7e31c10-0288-4c0b-8ee7-b5666210fe2f
-0.0636878419141102,0.0486414724782329,-0.3025207825658242,-0.919378927273478,-0.5023810059341618,1.1291618078225971,-0.331474216109914,-0.3623342114912368,-17.621614009100128,20.6322476243461,44.32155095146069,4.731175948004842,0.0087026889777025,1.608123861436549,8040.73779296875,11.635444444444444,7.012222222222222,178.86065356440744,-3.3324574780466647,52.58695565063165,1553.0,1613.0,1350.0,1528.0,1471.0,988.0,161.0,292.25,1649318553.985674,1649318555.105992,c7e31c10-0288-4c0b-8ee7-b5666210fe2f
-0.0513412156434669,0.0366498614802118,-0.3569169477355007,-1.383041762279227,-0.6060979523228195,1.586420884668494,-0.2634691492445521,-0.28584823383635,-17.641552223056326,20.28926945762,47.01356129337555,6.800044781700512,-0.0063586693567317,1.7251205669512024,8021.508897569444,11.627,7.024444444444445,178.9196314889806,-3.2002049520345306,52.64240122903904,1553.0,1710.0,1350.0,1528.0,1471.0,988.0,161.0,292.25,1649318556.2212555,1649318557.358371,f5fe2352-5671-4864-b787-2ba751b59b59
-0.0470810379017863,0.0435529270323141,-0.344754401595636,-1.3796625440774737,-0.5941983783607441,1.5810430672257083,-0.2522664586371674,-0.2710822454644034,-17.625555996147547,20.18146434359026,47.743675906057085,6.780352816554718,0.0133009769159864,1.6783338783934862,8011.51171875,11.604888888888889,7.038888888888889,178.93901404802526,-3.218129431702956,52.68169075387468,1553.0,1710.0,1350.0,1528.0,1471.0,988.0,161.0,292.25,1649318557.466673,1649318558.5865872,f5fe2352-5671-4864-b787-2ba751b59b59
-0.0440699863388468,0.0286028593241874,-0.3537218140273315,-1.376151838543621,-0.5997865761059922,1.5894319365394511,-0.2583937518643517,-0.274369420262171,-17.70398742233232,20.23559120100347,47.255339533587886,6.791079406629148,-0.0388874464211514,1.704348739398076,8010.67919921875,11.604,7.043333333333333,178.93515119659466,-3.226391328129929,52.70396513912295,1553.0,1710.0,1350.0,1528.0,1471.0,988.0,161.0,292.25,1649318558.6951988,1649318559.8156054,f5fe2352-5671-4864-b787-2ba751b59b59
-0.0431627262709381,0.0323765351648403,-0.3479100894714089,-1.6548256307171516,-0.6349724992870637,1.855890320419889,-0.187364487095158,-0.2008024560181091,-17.457035270346775,20.80763809603384,49.46672051799886,8.023025142395559,-0.0113923057130327,1.644290736002668,8014.00927734375,11.576444444444444,7.032222222222221,178.97769568602476,-3.13634837511922,52.76866676222057,1553.0,1814.0,1350.0,1528.0,1471.0,988.0,161.0,292.25,1649318561.7500389,1649318562.8842297,8c437bc6-89c1-4d64-999b-441c1cc5df06
-0.0567716273779217,0.0306014611619441,-0.35894184748686,-1.650815273597477,-0.6441371437582617,1.8553775215765365,-0.2013021063984506,-0.2287828847603606,-17.75715985990963,20.90206639792968,49.57581241331581,8.012769415333945,-0.0180840971000117,1.6913806178369242,8010.67919921875,11.569444444444445,7.02,178.99591407727092,-3.1431939084989304,52.80634663914181,1553.0,1814.0,1350.0,1528.0,1471.0,988.0,161.0,292.25,1649318562.9929676,1649318564.1168067,8c437bc6-89c1-4d64-999b-441c1cc5df06
-0.0351946160975844,0.0386616120084254,-0.3449121862902063,-1.644609080190805,-0.6331185326304211,1.8367326646660385,-0.1902572005651498,-0.2147795215580416,-17.394709266122188,20.889631992585777,48.95554531328174,7.957572009076244,0.0152035241455784,1.641936743296457,8010.67919921875,11.566444444444446,7.014444444444444,179.01437987314702,-3.1453130695526657,52.82270190656436,1553.0,1814.0,1350.0,1528.0,1471.0,988.0,161.0,292.25,1649318564.2251155,1649318565.344972,8c437bc6-89c1-4d64-999b-441c1cc5df06
-0.1012536688716812,0.0621977783223397,-0.1661293407304018,0.5059531031702621,-0.2296375497738571,-0.2597217703339373,-0.5907928648029916,-0.6103186851715453,-17.933771879662483,24.18840199466515,34.84309359064024,-1.5763332442771507,-0.0210182973408255,1.4190267865182895,8010.67919921875,11.555,7.02,179.06696018719757,-3.863347947403265,52.85654245826214,1553.0,1349.0,1350.0,1528.0,1471.0,988.0,161.0,292.25,1649318567.0463536,1649318568.006941,761ef423-181c-4a79-848b-45ee817ff3ff
-0.0996363791354472,0.0613957078188342,-0.1708628717740364,0.5019296024788832,-0.2340818096075609,-0.2574338969008779,-0.5967492261053908,-0.6138951318514589,-18.15810083387917,24.260032530463185,34.48930902166333,-1.5620462229503196,-0.0191067072499782,1.4391953541785698,8010.67919921875,11.677333333333332,7.0633333333333335,179.06167362077997,-3.888926721253748,53.02111700467846,1553.0,1349.0,1350.0,1528.0,1471.0,988.0,161.0,292.25,1649318568.1152525,1649318569.2371242,761ef423-181c-4a79-848b-45ee817ff3ff
-0.1278408400400276,0.0582005746575911,-0.1676915071004051,0.5071905976605622,-0.2297053161490224,-0.252487963602259,-0.5923186197831077,-0.6211825466134593,-18.160963890738177,24.269083841111808,35.46463838261882,-1.5624276196453262,-0.0401609947347019,1.4236326698628916,8004.861056857639,11.67388888888889,7.07,179.06078114272844,-3.898663867393639,53.14527428613618,1553.0,1349.0,1350.0,1528.0,1471.0,988.0,161.0,292.25,1649318569.3451478,1649318570.4619744,761ef423-181c-4a79-848b-45ee817ff3ff
-0.1264334237266882,0.0656032906221516,-0.1192147891794806,0.9294199753112996,-0.1469585401548601,-0.6727355680371481,-0.6705923298380787,-0.6933658805933465,-18.42489214697264,26.003633531630577,31.89404924499578,-3.44601579932668,-0.02776513981636,1.3549599640969527,8003.19873046875,11.674,7.07,179.09059264172578,-4.0472921988277015,53.314359793044346,1553.0,1264.0,1350.0,1528.0,1471.0,988.0,161.0,292.25,1649318571.0332024,1649318572.1039188,b532f4d9-d07b-4407-bc40-00abc17ded81
-0.1244216730686317,0.0694427099050774,-0.122909572990738,0.9175072574044512,-0.1515342867458092,-0.6651882136022512,-0.6718940512000015,-0.6989409298938467,-18.45295316754897,25.88602163076471,31.92463600813068,-3.403156601770073,-0.0122069775214862,1.3685139718731087,8007.354546440973,11.659666666666666,7.0744444444444445,179.08628355126947,-4.041993062964765,53.485204832573686,1553.0,1264.0,1350.0,1528.0,1471.0,988.0,161.0,292.25,1649318572.211981,1649318573.3319538,b532f4d9-d07b-4407-bc40-00abc17ded81
-0.1182953916719725,0.0695033962036346,-0.1197114052976703,0.930957866890874,-0.1466788774320772,-0.6721337621050589,-0.6733854173582934,-0.6877984168865605,-18.69287632828264,26.02427865441346,32.71218682619708,-3.448024917364648,-0.0187122592817436,1.360676184846627,8010.67919921875,11.651125,7.06,179.08666357540577,-4.047599984227174,53.60591324795551,1553.0,1264.0,1350.0,1528.0,1471.0,988.0,161.0,292.25,1649318573.4397,1649318574.5678072,b532f4d9-d07b-4407-bc40-00abc17ded81
-0.1282347952742263,0.1011705136426162,-0.065489213435847,1.3346496307228546,-0.0690919563761407,-1.1001078726271551,-0.7505758810624106,-0.7645529513032089,-18.596586067868508,27.980525497131744,29.01811312374297,-5.305241888725346,0.0858851255612697,1.292417574928232,8010.67919921875,11.628666666666666,7.054444444444444,179.08981703580008,-4.199795381955277,53.86887818718567,1553.0,1178.0,1350.0,1528.0,1471.0,988.0,161.0,292.25,1649318576.7011902,1649318577.838776,5df46fa8-32b8-4440-8015-c37a6383d27b
-0.1267621411515846,0.0926633072794197,-0.0691576998551483,1.3437485287739586,-0.0698940268646058,-1.0961238147728325,-0.7555329416411639,-0.7794109850551897,-18.860690507313148,28.1377100758512,29.55658360585063,-5.3160018422354485,0.0497245795290667,1.3051290390089778,8004.861056857639,11.619,7.057777777777777,179.0881777903993,-4.203206444831398,53.95194391223173,1553.0,1178.0,1350.0,1528.0,1471.0,988.0,161.0,292.25,1649318577.9475648,1649318579.063814,5df46fa8-32b8-4440-8015-c37a6383d27b
-0.1342700472390555,0.0862467435875828,-0.0697888372941678,1.3467464315951532,-0.0697362425366821,-1.0925342181290745,-0.7550727370696131,-0.7787798470652361,-18.832005136956298,28.21172556531851,29.56384362185202,-5.3142232455957,0.0249833296100568,1.3043690112749462,8010.67919921875,11.615666666666666,7.044444444444444,179.092911870404,-4.219298323084079,54.060593249178936,1553.0,1178.0,1350.0,1528.0,1471.0,988.0,161.0,292.25,1649318579.1725223,1649318580.295344,5df46fa8-32b8-4440-8015-c37a6383d27b
-0.1472346626857394,0.082604554734876,-0.0408880019299407,1.5509851446065386,-0.0298956915323239,-1.288660330666362,-0.7929015532665618,-0.8101263533572695,-19.04709640387218,29.87111865627457,27.8593000360579,-6.203597905069737,0.0046667408715607,1.262684400819206,8010.67919921875,11.625999999999998,7.059999999999999,179.1282679651876,-4.320874572258916,54.17386396800958,1553.0,1088.0,1350.0,1528.0,1471.0,988.0,161.0,292.25,1649318581.033865,1649318582.0603027,c45151ed-ae2c-4713-bd56-ed9a11c1ebd8
-0.1430928230322572,0.0903622854509713,-0.0398887010359992,1.555718675570614,-0.0271739113600593,-1.301651254331883,-0.7949527509803386,-0.8257733094737425,-19.199837521773947,29.66312443580356,27.712111017047608,-6.244897340329577,0.0356255682881882,1.2612866914775074,8003.19873046875,11.578888888888889,7.044444444444444,179.1311427159183,-4.307491101171491,54.2673893688596,1553.0,1088.0,1350.0,1528.0,1471.0,988.0,161.0,292.25,1649318582.167978,1649318583.3682375,c45151ed-ae2c-4713-bd56-ed9a11c1ebd8
-0.1384776303259048,0.0967919978414733,-0.0380873295607019,1.5486578251991905,-0.0289358366725494,-1.2990741079933217,-0.7936773268103084,-0.8165166237695618,-19.093911371163813,29.765678457437065,28.05960455130244,-6.222300347602633,0.0568966317097252,1.2606532788679523,8003.19873046875,11.58388888888889,7.059999999999999,179.163839590385,-4.333854113547925,54.30257091436444,1553.0,1088.0,1350.0,1528.0,1471.0,988.0,161.0,292.25,1649318583.476875,1649318584.5959694,c45151ed-ae2c-4713-bd56-ed9a11c1ebd8
-0.0898931946945009,0.0432505070162583,-0.2266659441552092,-0.025504026876638,-0.3326838964632992,0.2722744914436466,-0.4950703288217735,-0.5189878135816115,-18.000653863276167,22.362008015006182,38.41678132635212,0.8033847616454395,-0.0617171388890935,1.5043998924539903,8006.523383246527,11.616777777777775,7.0488888888888885,179.2301470668475,-3.8179833013239866,54.42927054401322,1553.0,1435.0,1350.0,1528.0,1471.0,988.0,161.0,292.25,1649318586.7366912,1649318587.8748195,8e6a8bd2-8f5b-4f6b-9364-d49ba8bf4cec
-0.1007277209922741,0.0414096895286494,-0.2225109557306847,-0.0266348147361279,-0.3304354691261558,0.2742073497013523,-0.4906129197220327,-0.5191061519500625,-17.862285423672034,22.504084876923727,38.31788908382798,0.8114815551164952,-0.0683191441956701,1.4889936663903989,8010.67919921875,11.669222222222222,7.08,179.2094364154642,-3.808255546694204,54.40301036392928,1553.0,1435.0,1350.0,1528.0,1471.0,988.0,161.0,292.25,1649318587.9828994,1649318589.1036727,8e6a8bd2-8f5b-4f6b-9364-d49ba8bf4cec
