raw_voltage_G-,raw_voltage_G0,raw_voltage_G1,raw_voltage_G2,raw_voltage_G3,raw_voltage_G4,raw_voltage_G5,raw_voltage_G6,load_x,load_y,load_z,load_l,load_m,load_n,rpm,voltage,current,roll,pitch,yaw,aileron1_pwm,elevator_pwm,throttle_pwm,rudder_pwm,aileron2_pwm,pbaro,pdiff,Tt,sample_start_time,sample_end_time,uid
0.5203266497475478,0.6287654545056726,1.0037561241062507,-0.4539032682720281,0.5885607910224858,0.0199302825756711,0.7766503440843101,0.7438923933717915,4.644349212194023,21.6742587178343,37.54232069587256,1.2706645158638965,2.112530112214495,-3.1562524296796,5152.130208333333,11.950333333333331,0.1266666666666666,178.90371866603425,-4.2274116866125375,100.6459497096697,1553.0,1435.0,1200.0,1528.0,1471.0,988.0,161.0,292.25,1649320320.7584343,1649320321.7345324,fcd02da4-99a3-48e6-8717-73a494382dcb
0.5505403280220642,0.6408587138397738,1.007510076629448,-0.4573861562550465,0.5895788034476626,0.0124299626632194,0.7742785217810261,0.7572904078549301,4.38009524484791,21.822647433299863,37.70947951821651,1.2627310734015296,2.158945302758164,-3.1579562708426945,5162.830295138889,11.947222222222225,0.1344444444444444,178.873157364048,-4.211324314387436,99.77349321930836,1553.0,1435.0,1200.0,1528.0,1471.0,988.0,161.0,292.25,1649320321.843071,1649320322.8789625,fcd02da4-99a3-48e6-8717-73a494382dcb
0.5218367267988494,0.6361120349580572,1.00210596282463,-0.4580961860624232,0.5859366149393407,0.0158617723310808,0.7699657498234577,0.7424586798973404,4.273318524721869,21.791797842544824,37.40694028062721,1.2714688915971584,2.1443238126803403,-3.1405578975546007,5158.228564453125,11.947,0.1299999999999999,178.8172156862339,-4.177703220462235,98.97510808143912,1553.0,1435.0,1200.0,1528.0,1471.0,988.0,161.0,292.25,1649320322.9877975,1649320323.963101,fcd02da4-99a3-48e6-8717-73a494382dcb
0.755633672259246,1.038054496054459,1.0582508923696752,-0.5132286833449874,0.5569437424757376,-0.3271745919519735,0.7008036141995386,0.6815539247651035,5.095417276438001,21.378915879074462,37.36153715818249,0.6254509687096363,3.656776492032764,-3.0302961286926,5166.62255859375,11.928,0.1222222222222222,178.43646390709387,-4.141455558318959,97.30862745310262,1637.0,1435.0,1200.0,1528.0,1535.0,988.0,161.0,292.25,1649320326.1290925,1649320327.4627354,3820e54b-00b4-427f-94af-87e5681266a3
0.7609325963447989,1.046693189001371,1.0609726723127293,-0.5239974685688925,0.5570094859567438,-0.323913714742967,0.704800817464631,0.6897718591655425,5.1898532888150575,21.28553525901988,37.64501180168799,0.6566795555336757,3.687492849987629,-3.038331881583876,5167.664984809027,11.927333333333332,0.1244444444444444,178.37890210840865,-4.098349949875793,96.70733630297998,1637.0,1435.0,1200.0,1528.0,1535.0,988.0,161.0,292.25,1649320327.5707848,1649320328.9083989,3820e54b-00b4-427f-94af-87e5681266a3
0.7596703216251413,1.0482578837507943,1.0681650087868448,-0.5201448993295346,0.562847506534317,-0.3313427292136039,0.7111121910592011,0.6888777478767583,5.395890247374415,21.31020067354824,37.36194914438678,0.6318753480451168,3.6943939452278336,-3.065115637752765,5163.51025390625,11.931555555555557,0.13,178.31800565958864,-4.0647522967803695,96.33275506851814,1637.0,1435.0,1200.0,1528.0,1535.0,988.0,161.0,292.25,1649320329.016885,1649320330.1395023,3820e54b-00b4-427f-94af-87e5681266a3
0.941858640917116,1.4091369975681298,1.0866126286520883,-0.5570007053678647,0.5102264290702732,-0.6631896111570416,0.6036479070745723,0.5828466715985466,5.206217215980929,21.127336115284653,35.291263481691,-0.0314104546837641,5.073309046632264,-2.825218578411703,5133.876025390625,11.8978,0.123,178.056402280624,-4.028333728125862,95.49424765397144,1723.0,1435.0,1200.0,1528.0,1599.0,988.0,161.0,292.25,1649320332.038848,1649320333.2079804,6808eb64-bcab-43f1-bd96-012a4b0b309d
0.9492396104278252,1.410341620540882,1.083191944953863,-0.5582078571702526,0.5063435182776106,-0.6634227480290448,0.6013428397018951,0.5814680814874194,5.350892867987762,21.061431201871457,35.24589436260776,-0.0297529305577497,5.077135897257516,-2.8117858106280207,5079.66708984375,11.9086,0.1299999999999999,178.01801525145072,-4.0363383683236576,95.25603387836458,1723.0,1435.0,1200.0,1528.0,1599.0,988.0,161.0,292.25,1649320333.319131,1649320334.4295628,6808eb64-bcab-43f1-bd96-012a4b0b309d
0.9632778655004186,1.414435922408101,1.0903205608019046,-0.5634961636763007,0.5112125812024992,-0.661151562990596,0.6090520207076636,0.5885532052389829,5.442982667473838,21.08295012072169,35.50301319906868,-0.0121351998088606,5.090664776752246,-2.8382437147045447,5041.367078993056,11.903444444444444,0.1244444444444444,177.97040822580777,-3.990675480136997,95.02778595588468,1723.0,1435.0,1200.0,1528.0,1599.0,988.0,161.0,292.25,1649320334.5390007,1649320335.8635285,6808eb64-bcab-43f1-bd96-012a4b0b309d
1.1346316652200477,1.759010701788033,1.1317915470829412,-0.6056245994381743,0.4771180148725368,-0.9720131898196576,0.5353667339610044,0.5159855574839671,6.109432973796958,21.10811434800385,33.66578458225616,-0.6133769484668423,6.402412416900713,-2.704234368439693,5065.8544921875,11.856000000000002,0.12,177.71239707100065,-3.996731723496682,94.79644820760626,1813.0,1435.0,1200.0,1528.0,1662.0,988.0,161.0,292.25,1649320336.569352,1649320337.7065651,37879d1b-c3ab-4e20-b7b4-b3b56cc683b5
1.1427970052777647,1.7662819323373722,1.142718113117709,-0.5992080334537561,0.4869269414334071,-0.981901014850488,0.5422566501552529,0.5206138981221732,6.066930989822233,21.165144814691192,34.18074597082748,-0.6490875870473285,6.425324317740775,-2.74068910658058,5061.5341796875,11.864666666666668,0.12,177.70293346445064,-3.9661168234981767,94.64165031807693,1813.0,1435.0,1200.0,1528.0,1662.0,988.0,161.0,292.25,1649320337.81462,1649320338.931899,37879d1b-c3ab-4e20-b7b4-b3b56cc683b5
1.1523035123564676,1.7634155159345797,1.1443091053648131,-0.6021401937320383,0.4870584283732514,-0.9794948017585392,0.5459382847486081,0.5241508970687881,6.298636035924935,21.203024541757028,33.758573138771474,-0.6366866020349784,6.417137783796732,-2.749100250640277,5071.85009765625,11.865666666666666,0.12,177.66860341586232,-3.943756254543501,94.45220743234752,1813.0,1435.0,1200.0,1528.0,1662.0,988.0,161.0,292.25,1649320339.0397713,1649320340.008288,37879d1b-c3ab-4e20-b7b4-b3b56cc683b5
0.2740495653512209,0.1753949020204018,0.9238843745604792,-0.3930495717212072,0.6022935914963657,0.4136361148377979,0.836366659751607,0.8251376742485326,3.743187974608168,22.435535117797144,38.24441969780305,2.0188308696122155,0.3997274805504767,-3.2053830329781605,5077.85888671875,11.949777777777776,0.1355555555555555,178.44695963111846,-3.734779170083491,94.2589540599712,1470.0,1435.0,1200.0,1528.0,1403.0,988.0,161.0,292.25,1649320341.1326606,1649320342.2271538,65093653-b424-448d-8b2c-86f6ad4cc5fd
0.2675804071368936,0.1658095027829804,0.9282497414221944,-0.3904987242139225,0.6080790172795669,0.4192506076644356,0.8425728438466618,0.8178269997616044,3.7136272442924936,22.517418928332905,38.08130501016555,2.026412599893121,0.3653953762304244,-3.2294715576608315,5076.189561631944,11.951777777777778,0.13,178.43953445658076,-3.703596320882752,94.10245545333852,1470.0,1435.0,1200.0,1528.0,1403.0,988.0,161.0,292.25,1649320342.340051,1649320343.6490765,65093653-b424-448d-8b2c-86f6ad4cc5fd
0.2621368472233099,0.1659146923323475,0.9295777595824388,-0.3880136201383394,0.6084603294413122,0.4175018312143439,0.8425333977394667,0.820693415237617,3.7487324871877727,22.63165677310205,38.17600812526925,2.0177332699914583,0.3644822405622985,-3.231599238120663,5091.264594184027,11.95388888888889,0.13,178.4285424054765,-3.687022677134239,93.97565906267648,1470.0,1435.0,1200.0,1528.0,1403.0,988.0,161.0,292.25,1649320343.7578156,1649320344.8793972,65093653-b424-448d-8b2c-86f6ad4cc5fd
0.0474186437218021,-0.2317807875170986,0.8857926046520492,-0.3049006971692856,0.6445271997393452,0.7335307159903889,0.9150353026972912,0.891183569715119,3.5145857276518173,23.550679541805263,38.6873503961338,2.544285731484706,-1.1429855252259424,-3.371479075379081,5090.258192274306,11.896777777777778,0.1244444444444444,178.81770229926676,-3.61963992019617,93.71956187865676,1385.0,1435.0,1200.0,1528.0,1331.0,988.0,161.0,292.25,1649320347.1544657,1649320348.2000692,7262da9c-0f09-41e5-9a06-3252ec0c5a66
0.04272455911112,-0.2498602470321196,0.8713421887114885,-0.3020474294697031,0.6341134333252922,0.7492039604150615,0.9017156744872944,0.87845563279181,3.1161463494633903,23.79933613596133,38.66287721881176,2.573793706522165,-1.2090206900908451,-3.321211136478898,5086.89990234375,11.8952,0.13,178.82864669082883,-3.615029419183552,93.48930299670324,1385.0,1435.0,1200.0,1528.0,1331.0,988.0,161.0,292.25,1649320348.307583,1649320349.3799913,7262da9c-0f09-41e5-9a06-3252ec0c5a66
0.0417252582265825,-0.2527398118642185,0.8680024201463746,-0.2976557642108761,0.6321674264706412,0.7500849229794403,0.897231969438695,0.8760494215791705,2.964818624478428,23.86682896193906,38.93162089147075,2.5661146108659585,-1.2218829038022538,-3.3076887012544613,5088.10888671875,11.9012,0.1299999999999999,178.85440743230245,-3.6255647298462015,93.28781241618783,1385.0,1435.0,1200.0,1528.0,1331.0,988.0,161.0,292.25,1649320349.4877808,1649320350.620615,7262da9c-0f09-41e5-9a06-3252ec0c5a66
-0.2278361781617896,-0.7213463171057094,0.7924500182953821,-0.1784102241677821,0.6519562123944271,1.102180684276136,0.94682884774968,0.9256725971463992,2.352981084379349,25.36584268068191,39.20757744929867,3.094243219559656,-2.997003444556772,-3.358580652547126,5097.18544921875,11.848400000000002,0.114,179.23363865955122,-3.5735325195037744,92.9456431614134,1297.0,1435.0,1200.0,1528.0,1253.0,988.0,161.0,292.25,1649320351.7250755,1649320352.862341,9cc0fd45-6d83-4913-a2de-80181043bc81
-0.2313074344346573,-0.7209913023840681,0.7926735461228388,-0.1884689777520833,0.651430264596092,1.1076768390356824,0.9481305685678676,0.9245023632520442,2.244967798115985,25.361973606583447,38.72839526169789,3.1291386229254683,-2.9894078996584104,-3.360817390597368,5096.647189670139,11.846,0.1188888888888888,179.2210431835938,-3.578097239276207,92.60246546715344,1297.0,1435.0,1200.0,1528.0,1253.0,988.0,161.0,292.25,1649320352.9708242,1649320354.101936,9cc0fd45-6d83-4913-a2de-80181043bc81
-0.2228528217544896,-0.7242258827929688,0.7999053283718925,-0.1784365214442448,0.6609236223596697,1.1036927842634334,0.9531139240726714,0.9301168562252464,2.0381292430961246,25.41891542609399,39.07202381498358,3.0982433842216888,-3.003896949530536,-3.39068741716951,5099.00390625,11.8515,0.11,179.2319502367884,-3.5823131972573323,92.35311537166886,1297.0,1435.0,1200.0,1528.0,1253.0,988.0,161.0,292.25,1649320354.2106583,1649320355.3189976,9cc0fd45-6d83-4913-a2de-80181043bc81
0.5285820073450483,0.6247121164227528,0.9848680232224536,-0.4414236353207851,0.5702370731192058,0.0096818851606064,0.7469818309718421,0.734267042916846,4.120808302877035,22.225150537053867,36.96405012072765,1.221839714346307,2.103433749323377,-3.06509551408329,5109.47509765625,11.953555555555557,0.13,178.36766568831408,-3.688964205837684,91.9309379639758,1553.0,1435.0,1200.0,1528.0,1471.0,988.0,161.0,292.25,1649320357.050824,1649320358.184128,e6ecb230-1b20-4ac6-9ba5-2d7df938fcbd
0.5292262934020626,0.6374794992370787,0.9936776490987468,-0.4467225611595423,0.5755096998144608,0.0066576849140589,0.7536745167208408,0.7323867795285303,4.16043764802358,22.2367956898507,37.67775295976106,1.2276465854834493,2.145924272349637,-3.091286528078152,5125.089409722223,11.950444444444445,0.1344444444444444,178.27142073380952,-3.6708555245050807,92.25883713219032,1553.0,1435.0,1200.0,1528.0,1471.0,988.0,161.0,292.25,1649320358.2917185,1649320359.4222205,e6ecb230-1b20-4ac6-9ba5-2d7df938fcbd
0.5285294125614944,0.6372954175049993,0.9841053988900368,-0.4461308697040468,0.5675678880378825,0.0058819118069727,0.7442994971906678,0.718041553312454,4.096677362942876,22.130695471006167,37.548031677836434,1.223335849821176,2.1461533711125225,-3.0542745223039507,5121.687662760417,11.952333333333334,0.1322222222222222,178.23126073930962,-3.6633025210797774,92.6099976479882,1553.0,1435.0,1200.0,1528.0,1471.0,988.0,161.0,292.25,1649320359.5362346,1649320360.6436014,e6ecb230-1b20-4ac6-9ba5-2d7df938fcbd
0.5481791258317704,0.6336962151193908,0.97955746751662,-0.816491336910787,0.5229311027750618,0.3652352619633583,0.8399790108893284,0.8085106435736423,4.2518100239094405,21.594229713373792,40.00467933477959,2.862980225186836,2.155084864815613,-3.1233948274253103,5130.548990885417,11.946666666666664,0.13,178.24135879454258,-3.5477366452446115,93.15685902061496,1553.0,1522.0,1200.0,1528.0,1471.0,988.0,161.0,292.25,1649320362.5821002,1649320363.7171276,83d7e4c3-28a2-4d3c-81a5-5ee79a708e83
0.5614921795217319,0.6332031390568571,0.9810619816326808,-0.8131030173878485,0.5249666219222838,0.364350253673572,0.8419766010955306,0.827904968756054,4.3145300119483085,21.553301201423057,40.26721784089517,2.8532252911990006,2.150142250375443,-3.1306612455844327,5149.723524305556,11.93911111111111,0.13,178.23781013181377,-3.547110070252001,93.2647585545733,1553.0,1522.0,1200.0,1528.0,1471.0,988.0,161.0,292.25,1649320363.8248556,1649320364.946564,83d7e4c3-28a2-4d3c-81a5-5ee79a708e83
0.5320340455125153,0.6355420896060056,0.984260654663084,-0.8129007294916283,0.5285698700708547,0.3638318916481087,0.8473245799705003,0.8283221869613236,4.462387103902061,21.368265091972667,40.57995565874304,2.8506610761289246,2.1552711882189715,-3.146638307345042,5146.973958333333,11.937,0.1233333333333333,178.23333104553808,-3.537148286779407,93.41949573131004,1553.0,1522.0,1200.0,1528.0,1471.0,988.0,161.0,292.25,1649320365.05465,1649320366.1778047,83d7e4c3-28a2-4d3c-81a5-5ee79a708e83
0.5729588529899288,0.6423182189844207,0.9828957189157664,-1.2479387820821295,0.4730682168150523,0.77868333461071,0.957163722221674,0.9389790769135996,4.820432201698283,21.1841917538391,43.965556907344414,4.763658628167833,2.201617984005971,-3.223463539523534,5145.600694444444,11.931111111111116,0.12,178.25639128199586,-3.46980826595552,93.5908993285315,1553.0,1592.7777777777778,1200.0,1528.0,1471.0,988.0,161.0,292.25,1649320368.108873,1649320369.2461853,4b2b71f9-2651-4ad7-9351-1a598c80c060
0.5828992664019281,0.652429565412132,0.996215347331487,-1.2560120883587518,0.4830480763641727,0.774817618269757,0.969142183659626,0.9471970113085226,4.854131803600717,21.17229549269127,43.86501385237095,4.773768551574035,2.2420324622858483,-3.2712280367940325,5144.914388020833,11.926111111111112,0.1277777777777777,178.25118060656905,-3.415634644269499,93.62090434955536,1553.0,1613.0,1200.0,1528.0,1471.0,988.0,161.0,292.25,1649320369.35514,1649320370.682721,4b2b71f9-2651-4ad7-9351-1a598c80c060
0.5841089463417982,0.6538627731633323,0.9945323143692144,-1.2526723166517386,0.4809179877477817,0.7707678202185293,0.9657892663783524,0.9492087616179562,4.882558267294522,21.22626613168476,43.9059115300027,4.757429210458326,2.2463272147388467,-3.261000667068489,5141.8271484375,11.929333333333334,0.1266666666666666,178.2634886074534,-3.424623623819993,93.66378655389444,1553.0,1613.0,1200.0,1528.0,1471.0,988.0,161.0,292.25,1649320370.7950966,1649320371.9140503,4b2b71f9-2651-4ad7-9351-1a598c80c060
0.6118658414389122,0.6610288119193584,0.9917710882861728,-1.6281074433198577,0.4248125057070323,1.1285043730384945,1.0497962811749055,1.0275092425603238,5.008974039200943,21.8946633401666,46.91516922407567,6.413037396830768,2.291698890671716,-3.2987935898113743,5135.666015625,11.8863,0.1129999999999999,178.28256487045928,-3.3033568523314925,93.69452695861894,1553.0,1710.0,1200.0,1528.0,1471.0,988.0,161.0,292.25,1649320373.5407474,1649320374.776473,f56d91b4-0274-4800-a6b9-1e98348f968d
0.6101565110928583,0.6573340286340036,0.9956499534331226,-1.6293302738315685,0.4319653958697559,1.132422684381868,1.0536619976745716,1.0247480164642495,4.586634633276599,21.826028216824707,46.83041759395066,6.424112817902832,2.281976864962825,-3.3201718703064915,5126.144775390625,11.8825,0.11,178.2987428565274,-3.321930996826472,93.58615371309618,1553.0,1710.0,1200.0,1528.0,1471.0,988.0,161.0,292.25,1649320374.8846624,1649320376.2073095,f56d91b4-0274-4800-a6b9-1e98348f968d
0.5937823400973744,0.6550122725341596,0.9973714211440904,-1.6311422673952385,0.4331659728548545,1.13731652777585,1.0603587294967536,1.0403322548329794,4.966143635372163,21.68233260746221,46.99753328331911,6.438548167400729,2.2694314444931654,-3.333425112165421,5134.8970947265625,11.87725,0.1124999999999999,178.30950928371607,-3.323193322506796,93.5227750217498,1553.0,1710.0,1200.0,1528.0,1471.0,988.0,161.0,292.25,1649320376.3189926,1649320377.4372566,f56d91b4-0274-4800-a6b9-1e98348f968d
0.6089994259361455,0.658872425945339,0.977412713054304,-1.932289832497693,0.3658537563254869,1.424297445302228,1.102417360976977,1.0906361296459983,4.919112387329771,22.904814806261115,48.97959669664133,7.770150182520822,2.3025084321704465,-3.2743325581929863,5163.51025390625,11.845,0.1,178.2937691127738,-3.201421935219459,93.44800494090566,1553.0,1814.0,1200.0,1528.0,1471.0,988.0,161.0,292.25,1649320379.041648,1649320380.1017003,0ea4cfaf-b551-436b-800a-9e0721c2fab7
0.6193080027929482,0.6528766210412174,0.9790168539755132,-1.9314877617183432,0.3690751866298189,1.4292545042007216,1.1061515907766482,1.0855081384637646,4.886067975110595,22.87670041868526,48.97519213925215,7.779356246582047,2.2802959011670625,-3.2869598736570755,5138.74462890625,11.85077777777778,0.1,178.31398799053684,-3.22594542112724,93.29285036371964,1553.0,1814.0,1200.0,1528.0,1471.0,988.0,161.0,292.25,1649320380.2113063,1649320381.330137,0ea4cfaf-b551-436b-800a-9e0721c2fab7
0.6090803409823524,0.6571110065387473,0.9789253187157076,-1.930920344225457,0.3673087100371155,1.4255005511917926,1.103445993551732,1.0859228280847042,4.879594763147873,22.98757965520534,49.09348252134991,7.770386729820531,2.2951010487520125,-3.279942761447096,5133.957953559027,11.845222222222224,0.1,178.31575473280216,-3.2178515046651666,93.15183655484527,1553.0,1814.0,1200.0,1528.0,1471.0,988.0,161.0,292.25,1649320381.438763,1649320382.5550125,0ea4cfaf-b551-436b-800a-9e0721c2fab7
0.5006673277788704,0.6483929160570079,1.0069841287994616,0.0208319797043053,0.6312207204336534,-0.4494837880248893,0.6329826455572263,0.6122997483754226,4.072930981107846,23.61802294515676,35.13082051483883,-0.8426838500733612,2.1533499824740674,-3.0122658543938083,5144.9140625,11.951,0.1266666666666666,178.32532458673924,-3.855951990897003,93.00472111031236,1553.0,1349.0,1200.0,1528.0,1471.0,988.0,161.0,292.25,1649320384.6983964,1649320385.8406172,59c8a4f1-bb23-4fd3-9d39-077dc1b1d53d
0.5056243858060231,0.6423445163734791,1.0017903941228323,0.0178077792537281,0.6272366658581081,-0.4412395539989147,0.6300504865760042,0.6039371782970793,4.002606946048053,23.625537200931213,35.03349816407861,-0.8175958136221345,2.132068324194901,-2.9965329276660726,5138.74462890625,11.954555555555556,0.12,178.29544326803034,-3.873582748715183,93.4069858603902,1553.0,1349.0,1200.0,1528.0,1471.0,988.0,161.0,292.25,1649320385.9487526,1649320387.0691595,59c8a4f1-bb23-4fd3-9d39-077dc1b1d53d
0.5093586152112662,0.6470911952565899,0.9998443872197796,0.013153140741949,0.6251065772712588,-0.4433170482903651,0.6276968701811277,0.5994666220754322,3.937824216306372,23.52250794748107,34.775203903046936,-0.8126181716927033,2.153066999576538,-2.9874617840876216,5138.748697916667,11.955,0.1266666666666666,178.2888969111658,-3.859190496632843,93.71225357624483,1553.0,1349.0,1200.0,1528.0,1471.0,988.0,161.0,292.25,1649320387.1769865,1649320388.391981,59c8a4f1-bb23-4fd3-9d39-077dc1b1d53d
0.4797083078449318,0.652337524546628,1.0173847468811723,0.3985677101428815,0.6747034546850567,-0.817055719629111,0.530501716785525,0.502284617252456,3.688947003764049,25.1477895122553,32.505122053379786,-2.5106992720157693,2.1483118401366097,-2.9405674608322143,5132.59033203125,11.94288888888889,0.12,178.29386473542218,-3.990988151019001,94.04346614511672,1553.0,1264.0,1200.0,1528.0,1471.0,988.0,161.0,292.25,1649320389.0593328,1649320390.1362202,ba49ff23-cd20-44f0-ab7c-13b7167d6254
0.4672696422899139,0.6322068725524995,1.0122567556618314,0.4096652088917039,0.6770439223875477,-0.8073782744470688,0.528108654311198,0.513158588019765,3.308490285997802,25.13010954926835,32.50285422636432,-2.514550414877124,2.0738308078731027,-2.93595854685979,5125.777180989583,11.93911111111111,0.12,178.27225249906846,-4.00155450109688,94.25189468000902,1553.0,1264.0,1200.0,1528.0,1471.0,988.0,161.0,292.25,1649320390.2441833,1649320391.361586,ba49ff23-cd20-44f0-ab7c-13b7167d6254
0.484402391991273,0.63290375338802,1.0030132228142323,0.4047344481612581,0.6679318767763683,-0.804012206828987,0.519838125133051,0.5063870101034779,3.286160297524776,25.072307702897163,32.36644177552339,-2.496740250257689,2.077831712194978,-2.8993153886339145,5120.32666015625,11.928875,0.12,178.2929307070532,-4.011598910885684,94.44695084287127,1553.0,1264.0,1200.0,1528.0,1471.0,988.0,161.0,292.25,1649320391.473629,1649320392.596073,ba49ff23-cd20-44f0-ab7c-13b7167d6254
0.4393023677909076,0.637466350539426,1.0195937276891909,0.8147502050784287,0.7186726906604808,-1.201589588673019,0.4095863167181527,0.385090297529671,2.595231507684098,27.0716346785779,29.77676104496632,-4.301726033348362,2.073390031886192,-2.834861310412054,5135.666015625,11.917,0.1133333333333333,178.28699356511711,-4.151512774712456,94.69454178518966,1553.0,1178.0,1200.0,1528.0,1471.0,988.0,161.0,292.25,1649320393.709562,1649320394.8475697,63b989be-5c52-404f-be02-847e21572e01
0.4555673036510227,0.6388995582922834,1.0167536094844525,0.8061246611272703,0.7138865656901706,-1.195343952896435,0.4100859671162407,0.3894030695060811,2.836600963723171,27.007019496126595,29.725642646886005,-4.268690552052016,2.0783909846411377,-2.824961431688765,5117.26953125,11.922111111111112,0.12,178.28325213927175,-4.170213785228082,94.84801917147948,1553.0,1178.0,1200.0,1528.0,1471.0,988.0,161.0,292.25,1649320394.955683,1649320396.2792947,63b989be-5c52-404f-be02-847e21572e01
0.454568002826601,0.6390441939372906,1.0114020904514534,0.8058353898549031,0.7113094214750739,-1.196316957263849,0.404261095142457,0.3845249035881181,2.5654293724932504,26.862581419089643,29.529875778684435,-4.271616172291314,2.082281727061557,-2.806254686096192,5114.52119140625,11.9152,0.11,178.2940313920379,-4.177987185576979,95.00662132459458,1553.0,1178.0,1200.0,1528.0,1471.0,988.0,161.0,292.25,1649320396.3887265,1649320397.486148,63b989be-5c52-404f-be02-847e21572e01
0.418724659867785,0.6306290291585498,0.9966361055533756,1.1066380921359618,0.7195536532289932,-1.4743332567502174,0.2949559910675037,0.2812944963857487,2.051882481140672,28.894338945593617,27.713719451908613,-5.562707611439526,2.032514170671925,-2.643864091399104,5126.112467447917,11.896222222222224,0.11,178.3096728288012,-4.26087292565204,95.19472564502858,1553.0,1088.0,1200.0,1528.0,1471.0,988.0,161.0,292.25,1649320398.627257,1649320399.964219,1efdb7d5-de18-437e-874b-a02ccc07298f
0.4232609597002284,0.6394912495666235,1.006076868813247,1.1068090251973235,0.7263778259168177,-1.4842473849770852,0.30283205964958,0.2913795459076526,2.2708621816814643,28.843120207216472,27.627312968389187,-5.585144557541612,2.065545399276232,-2.6761153858122184,5125.433539496527,11.881333333333332,0.11,178.3204523851313,-4.3156185993969824,95.27179977635274,1553.0,1088.0,1200.0,1528.0,1471.0,988.0,161.0,292.25,1649320400.0727315,1649320401.3982666,1efdb7d5-de18-437e-874b-a02ccc07298f
0.4176464668793939,0.6333508090167533,0.9995682646230446,1.097789019907415,0.7216968905086637,-1.4710066328865818,0.2996237779406897,0.2685271130358198,2.048278221027062,28.79402553435304,27.43800967791253,-5.535835656329398,2.0464653110028106,-2.657524515792588,5124.409776475694,11.874666666666668,0.11,178.33539987467492,-4.325635830724715,95.32194398959936,1553.0,1088.0,1200.0,1528.0,1471.0,988.0,161.0,292.25,1649320401.5077925,1649320402.6260824,1efdb7d5-de18-437e-874b-a02ccc07298f
0.5186941886861653,0.6301819735320596,0.9942298943023782,-0.422160791243399,0.5782972231503715,-0.0072273385189571,0.7488752430427492,0.7259702163809537,4.14896502335439,22.484469285976942,37.88327291218941,1.1427360909662845,2.1138289265486705,-3.089490310133532,5130.885036892361,11.953333333333337,0.12,178.3316493419107,-3.8636297401383968,95.4428694532148,1553.0,1435.0,1200.0,1528.0,1471.0,988.0,161.0,292.25,1649320404.562832,1649320405.6029725,621f89bb-cdbc-4620-90d1-b86a1985fe3d
0.5070894538770866,0.6265782196667372,0.9890523426925084,-0.4249129152059129,0.5732122182117658,-0.0016639227742637,0.7448785454937501,0.7282783180891358,4.13558209636208,22.53513424611049,37.77612800542711,1.1615001868654855,2.101368477609559,-3.07045778784088,5138.75576171875,11.955,0.12,178.33071497203224,-3.841320928839432,95.47723775086244,1553.0,1435.0,1200.0,1528.0,1471.0,988.0,161.0,292.25,1649320405.7108,1649320406.7260847,621f89bb-cdbc-4620-90d1-b86a1985fe3d
0.5062170885348751,0.6236829781814351,0.9895201327971482,-0.4158226125694202,0.5742489422444156,-0.0062280375611255,0.7431085288629471,0.715989345441144,4.122088806479782,22.66520829883689,37.90740261842388,1.1316382191067895,2.088354230899329,-3.070135655933505,5148.00390625,11.9562,0.12,178.3405559085884,-3.84616831409339,95.4744073204704,1553.0,1435.0,1200.0,1528.0,1471.0,988.0,161.0,292.25,1649320406.8340578,1649320407.9556932,621f89bb-cdbc-4620-90d1-b86a1985fe3d
0.6005974098489433,0.6731124625921585,1.249590713954982,-0.4150867911404585,0.8095170244517809,-0.0665279604366631,1.002487275009155,0.9890098623359884,6.0176564459773205,22.514918070257707,38.30802954553676,1.0074479374416576,2.2731716860676245,-4.106444415504416,5169.046278211806,11.93311111111111,0.11,178.32406631411217,-3.8393584257634106,95.48287159445384,1553.0,1435.0,1200.0,1446.0,1471.0,988.0,161.0,292.25,1649320409.074466,1649320410.208418,774f6966-b357-47c6-99b8-b19bc1cba48c
0.6039634757623527,0.6719027826551467,1.2504716766284911,-0.4193075235448044,0.8100692696528435,-0.0655549569092295,1.002723951539335,0.9819884590855265,5.8943643006096655,22.582683114273365,37.72983408568913,1.0194942034024363,2.275208474179517,-4.109847325562682,5154.1953125,11.93311111111111,0.1088888888888889,178.33761892724527,-3.8583267148621823,95.4484914578116,1553.0,1435.0,1200.0,1446.0,1471.0,988.0,161.0,292.25,1649320410.3169396,1649320411.4397285,774f6966-b357-47c6-99b8-b19bc1cba48c
0.6015178184947978,0.6665381151092967,1.2506952044279205,-0.4130355941588118,0.8115156260903049,-0.0638850724531714,1.0038941853920424,0.9878790746462718,5.954188208991812,22.61335905278973,38.04548962482635,1.0093936365231917,2.251109125158391,-4.1139078538088105,5152.64990234375,11.93,0.115,178.34418273903765,-3.849007538354,95.39741606210818,1553.0,1435.0,1200.0,1446.0,1471.0,988.0,161.0,292.25,1649320411.5482416,1649320412.876238,774f6966-b357-47c6-99b8-b19bc1cba48c
0.6866030236264506,0.7093502659242286,1.5212033440276016,-0.3955609732209295,1.0558446810850748,-0.1358084448613007,1.2664999372972974,1.245751294922722,7.783396491357904,22.99015642194934,38.11003561835435,0.8252521523470748,2.4131656282019422,-5.182770772021871,5163.51025390625,11.883,0.1,178.33462730438882,-3.854894734531728,95.33665469925174,1553.0,1435.0,1200.0,1354.0,1471.0,988.0,161.0,292.25,1649320413.5330093,1649320414.5046031,2c820f91-1461-42ec-afe4-08d849010413
0.6794106874799113,0.7083246677161696,1.5236490018124462,-0.3905381702186188,1.0585927584371322,-0.1404499349468991,1.2702341670381467,1.252102115166638,8.02938497476847,22.892927852319428,37.988587606534736,0.8030735937199178,2.408189334185701,-5.195203619705703,5144.9140625,11.8782,0.1,178.34206128228143,-3.869926358724998,95.19513454568693,1553.0,1435.0,1200.0,1354.0,1471.0,988.0,161.0,292.25,1649320414.612054,1649320415.9468908,2c820f91-1461-42ec-afe4-08d849010413
0.6865241314562636,0.7156090447339306,1.5123674193765169,-0.3990059323365698,1.0465748507805483,-0.1420014812230811,1.2566384152195342,1.2352060405731191,7.813686280774046,22.86065859120912,37.58019905686909,0.8177389177537677,2.4409831999352822,-5.144005733793912,5143.199761284723,11.882555555555555,0.1,178.3591780399055,-3.8596486410577953,95.09650069457464,1553.0,1435.0,1200.0,1354.0,1471.0,988.0,161.0,292.25,1649320416.0550992,1649320417.1710732,2c820f91-1461-42ec-afe4-08d849010413
0.7603672024574516,0.7445493223853318,1.7685435086348062,-0.3510394796398863,1.2800825404896772,-0.2278624756866361,1.4962602649576917,1.4681089043169029,9.407228694233138,23.73602235974588,37.57434547183165,0.5359572001101441,2.5486493620185984,-6.147749082568897,5169.046278211806,11.893666666666668,0.1,178.32810067918192,-3.907135151807355,94.84416163241823,1553.0,1435.0,1200.0,1252.0,1471.0,988.0,161.0,292.25,1649320419.1065214,1649320420.242898,c87f2c23-95f3-402e-9de9-048329141dd6
0.7558966461616456,0.7404600782477913,1.753514545602664,-0.3548263046584808,1.2674466434088214,-0.2213144241907005,1.484150314772223,1.4721718519155709,9.347514476342612,23.58031813407053,37.33774626742947,0.5573653975524856,2.5353426680518,-6.093649974429891,5154.884331597223,11.880444444444445,0.1,178.33333715754557,-3.88745856260528,94.80786980171835,1553.0,1435.0,1200.0,1252.0,1471.0,988.0,161.0,292.25,1649320420.3511777,1649320421.4684544,c87f2c23-95f3-402e-9de9-048329141dd6
0.7532274610767768,0.7411569590812911,1.75844530763226,-0.3497640557672812,1.2717068209576283,-0.2260479553411362,1.4874900837517715,1.4761690554698188,9.412912864751902,23.65792104153528,37.45506695544139,0.5361209073442532,2.536144339787191,-6.110620716680074,5141.8310546875,11.884,0.0933333333333333,178.36116941950343,-3.8990820741846943,94.73254495773162,1553.0,1435.0,1200.0,1252.0,1471.0,988.0,161.0,292.25,1649320421.5768943,1649320422.7060516,c87f2c23-95f3-402e-9de9-048329141dd6
0.4178553288286825,0.580342856654559,0.6703102734083526,-0.3709400349471733,0.2850787922233831,0.0115479884970115,0.4072352288450599,0.3885236240217373,2.010060813452857,23.02922884408902,37.757747059278174,1.0557708435750313,1.9163211976150885,-1.7696333614125168,5142.856119791667,11.964000000000002,0.12,178.43225347492557,-3.876243344556249,94.78587962823052,1553.0,1435.0,1200.0,1604.0,1471.0,988.0,161.0,292.25,1649320423.610278,1649320424.751093,4aa294d3-0831-4756-b890-1b566694d949
0.4206241406044813,0.5895216571939277,0.6744192405842452,-0.3777419584665006,0.2857109410409149,0.0070597313319286,0.4117614143120501,0.3943899651076091,2.30130464033258,22.94415815031542,37.54066217403656,1.0607812587863412,1.951706452190873,-1.7815562639918523,5160.40087890625,11.963,0.1166666666666666,178.4106108821755,-3.870700788340391,94.86119612420826,1553.0,1435.0,1200.0,1604.0,1471.0,988.0,161.0,292.25,1649320424.8597782,1649320425.9731145,4aa294d3-0831-4756-b890-1b566694d949
0.4195398789852397,0.5901967921153064,0.6752162537895111,-0.3781915422923216,0.2883290485643792,0.0077753241025391,0.4129655313530551,0.3847089851494619,2.136661426314108,22.81616105826265,37.68761177117856,1.0625351674155348,1.954205221279557,-1.7877006416428765,5164.13271484375,11.960400000000002,0.12,178.40413950560986,-3.867009611817308,94.94103648214626,1553.0,1435.0,1200.0,1604.0,1471.0,988.0,161.0,292.25,1649320426.081933,1649320427.2074,4aa294d3-0831-4756-b890-1b566694d949
0.3480635717010916,0.5508558966957762,0.4596828451969686,-0.3218756666751187,0.0966473621215726,0.0078673649479987,0.1782876150630589,0.155606114688328,0.3394471555060097,23.45355836147096,37.8613770196745,0.9283234637972534,1.7972465595442195,-0.904235968617776,5166.311328125,11.964000000000002,0.12,178.3884655875025,-3.866864043410623,95.0438089725496,1553.0,1435.0,1200.0,1676.0,1471.0,988.0,161.0,292.25,1649320429.1427748,1649320430.27477,c4159e57-94ac-4f89-bef6-7770b8e837d0
0.3512061098740981,0.554511233901011,0.4671776014035487,-0.3299884133127723,0.1019199892428926,0.0097739259593425,0.1881622855688198,0.1630219791914608,0.5443556112282821,23.36826600170309,37.64650047373144,0.950784798336294,1.81288298405086,-0.935446680438118,5169.73828125,11.960111111111113,0.1188888888888888,178.40544574134313,-3.873911973319551,95.10455955888534,1553.0,1435.0,1200.0,1676.0,1471.0,988.0,161.0,292.25,1649320430.3831837,1649320431.7153835,c4159e57-94ac-4f89-bef6-7770b8e837d0
0.353125819384085,0.553761758282914,0.4643637806677857,-0.3278188781148728,0.1003421457596932,0.0094583572748749,0.1858481151412464,0.1670323313142077,0.5313535060471796,23.29287496190352,37.76241146759333,0.9445537796552224,1.8086899282630968,-0.9260535000783048,5158.852783203125,11.9625,0.11,178.4038444414377,-3.8640064203279367,95.16395678118256,1553.0,1435.0,1200.0,1676.0,1471.0,988.0,161.0,292.25,1649320431.823754,1649320432.9435432,c4159e57-94ac-4f89-bef6-7770b8e837d0
0.2985981797372606,0.5397846954871459,0.2998736031816988,-0.2895561662828732,-0.0505259964891678,-0.0027962278883385,0.0015033958890383,-0.0237683992623066,-0.7719936678473323,23.84480101493704,37.73950898732537,0.8255133363285799,1.7505658011676712,-0.236405836139753,5153.2671875,11.964200000000002,0.1109999999999999,178.40682650202933,-3.874783007423017,95.25199450448945,1553.0,1435.0,1200.0,1747.0,1471.0,988.0,161.0,292.25,1649320435.085542,1649320436.227802,ca67e517-0a28-44dd-afeb-0540f0ebc091
0.3049535511013949,0.5347649283024088,0.3094923795811684,-0.2879768052252366,-0.0410088686797871,-0.0035856553897572,0.0135202930546366,-0.0071130461335368,-0.5477952111280098,23.81720141865282,37.21757806324844,0.8205023825007622,1.735192519193021,-0.2807510275490537,5147.317274305556,11.961666666666666,0.1177777777777777,178.42778197774885,-3.8722238730934353,95.2510466260146,1553.0,1435.0,1200.0,1747.0,1471.0,988.0,161.0,292.25,1649320436.335862,1649320437.44511,ca67e517-0a28-44dd-afeb-0540f0ebc091
0.3001102797271868,0.5298311333603603,0.3021220300983085,-0.2840074156370659,-0.0470021457568328,-0.0017311834185432,0.0066708336235304,-0.0243337928336076,-0.5461373866925355,23.84353386520345,37.25849153615545,0.8155305813507638,1.715357928592369,-0.253303327902578,5140.47265625,11.964777777777776,0.12,178.41684912161742,-3.853217828226752,95.28960759733876,1553.0,1435.0,1200.0,1747.0,1471.0,988.0,161.0,292.25,1649320437.5540836,1649320438.680607,ca67e517-0a28-44dd-afeb-0540f0ebc091
0.5062555231790491,0.5999005290133992,0.9400572697966496,-0.436571765873017,0.5551160738255461,0.0426719642467873,0.7458641919119748,0.7335701621199767,5.019607478191849,19.11917076168253,38.687690734865456,1.2629341975469992,1.985246341150575,-2.9804522132503943,7795.75048828125,11.6495,7.264999999999999,179.15039094790927,-4.110364726944537,83.16954012689862,1553.0,1435.0,1350.0,1528.0,1471.0,988.0,161.0,292.25,1649320443.7393742,1649320444.865054,198ee091-bfc1-4e45-b598-aa2ab5198d88
0.5066395746414366,0.6007075301666794,0.9369991024303258,-0.4251921144917714,0.5539474835613946,0.0296843394286222,0.7409191868690205,0.7153066247677344,5.108737550606652,18.99894821826381,38.413778069265824,1.2071315214210523,1.9884729373766856,-2.9677285310068693,7799.2958984375,11.6491,7.25,179.40500537375118,-4.121306689994898,77.54315335658985,1553.0,1435.0,1350.0,1528.0,1471.0,988.0,161.0,292.25,1649320444.9748948,1649320446.1501248,198ee091-bfc1-4e45-b598-aa2ab5198d88
0.4924636377876417,0.5809433980222011,0.9271923671659432,-0.4256304044670584,0.5470718118288771,0.0506400741393653,0.7372485095003163,0.7152381419712374,5.098809861103772,19.12129742413966,38.529103509691815,1.255546674094098,1.912827907736772,-2.9420595011214643,7799.2958984375,11.651,7.254,179.4932404895251,-4.091724201548563,73.27967755968162,1553.0,1435.0,1350.0,1528.0,1471.0,988.0,161.0,292.25,1649320446.2588537,1649320447.3788905,198ee091-bfc1-4e45-b598-aa2ab5198d88
0.7174235646355075,0.9956105073001842,0.9821593920724792,-0.482776295220389,0.5163405722188008,-0.3152355743172201,0.6585437085766253,0.6296297282285994,5.555535749646796,18.6700418585637,36.70797715694887,0.5619675375271871,3.491502531953105,-2.8154599132969995,7788.66650390625,11.625,7.284999999999999,179.387610247973,-4.017344380638134,65.69402985236826,1637.0,1435.0,1350.0,1528.0,1535.0,988.0,161.0,292.25,1649320448.7083323,1649320449.8429346,511330fa-240d-46b4-90fb-889b2ab6d379
0.7185937984897423,0.9928887273410876,0.9809102659653222,-0.4683784691850129,0.5161827878910055,-0.319719280045998,0.6544413157419713,0.626552933706463,5.54026852824528,18.825371057120577,37.55330863675531,0.520508647511122,3.472060874131763,-2.8067866310401315,7792.205078125,11.629,7.279999999999999,179.2949655620709,-3.975966667759374,62.86383168674676,1637.0,1435.0,1350.0,1528.0,1535.0,988.0,161.0,292.25,1649320449.951976,1649320451.0739229,511330fa-240d-46b4-90fb-889b2ab6d379
0.7120605406730977,0.9877174550401936,0.9802117415923536,-0.4705962168018786,0.5181309861744685,-0.3155237496380161,0.6566305734537924,0.6351132819963089,5.445571201328534,18.66144751055831,37.147579232306505,0.5337054651252375,3.457157662215586,-2.8128213807342584,7799.2958984375,11.629,7.284999999999999,179.2245189909714,-3.943004601711715,60.3667828280818,1637.0,1435.0,1350.0,1528.0,1535.0,988.0,161.0,292.25,1649320451.2083037,1649320452.2969449,511330fa-240d-46b4-90fb-889b2ab6d379
0.9398458791038784,1.41072090978111,1.0449342981716312,-0.520291558110423,0.49090644453745,-0.6873559125806581,0.5841483924175883,0.5577625015742165,6.358733926288752,18.55316545990695,36.670310779903424,-0.1868620183571831,5.051664467172044,-2.7100077372807974,7799.2958984375,11.600444444444443,7.272222222222222,178.7191457051831,-3.838242259016544,57.979735683819705,1723.0,1435.0,1350.0,1528.0,1599.0,988.0,161.0,292.25,1649320453.0480487,1649320454.1409562,b5f7a8ce-2e51-48d6-87db-4f17e4688dac
0.9308663317030788,1.4061259459363853,1.0391326892400634,-0.514609296902186,0.4887414612667148,-0.6906046534483187,0.5774557066458195,0.5521576174646319,6.122590875398056,18.47253717032733,36.26664981195839,-0.2079867523444934,5.038610792026921,-2.690829307568552,7795.04140625,11.5936,7.264,178.61918664558988,-3.806751377770611,56.625351366797055,1723.0,1435.0,1350.0,1528.0,1599.0,988.0,161.0,292.25,1649320454.249964,1649320455.3661442,b5f7a8ce-2e51-48d6-87db-4f17e4688dac
0.9454876808121634,1.4097155401782353,1.033741724027545,-0.5243261862091438,0.4815885712046915,-0.6830967448863717,0.5746944807237037,0.5451625116214364,6.251401797675401,18.40439681711907,36.53055175646514,-0.1698097947850104,5.049676747560438,-2.66896753659897,7799.2958984375,11.5999,7.279999999999999,178.49047036464316,-3.800848216025699,55.13385798415754,1723.0,1435.0,1350.0,1528.0,1599.0,988.0,161.0,292.25,1649320455.473917,1649320456.5927565,b5f7a8ce-2e51-48d6-87db-4f17e4688dac
1.1426129235261488,1.7677019917519845,1.0838908487240146,-0.5638906247129893,0.4512150855252214,-1.0175997474296712,0.5047565719219967,0.4827456563781521,7.33179642326515,18.451162395137125,33.58230484892156,-0.8293540433453661,6.418878274715397,-2.556832244986461,7792.205078125,11.563111111111112,7.260000000000001,177.99096709520953,-3.700144608894696,52.75496957675003,1813.0,1435.0,1350.0,1528.0,1662.0,988.0,161.0,292.25,1649320458.7377388,1649320459.876299,6f39f2db-d608-4ee0-b6ed-2f9960f22dcd
1.1442433618147507,1.7643490735274798,1.0829967374720504,-0.5607086399503118,0.4553832218504962,-1.0136945827008927,0.5055060475379997,0.4817726529541948,6.992825755338711,18.2075809458408,34.09084203409505,-0.8295052118683561,6.403742208334077,-2.5621553555110057,7792.205078125,11.556666666666665,7.26111111111111,177.87238286865957,-3.647764030445476,52.19517486147485,1813.0,1435.0,1350.0,1528.0,1662.0,988.0,161.0,292.25,1649320459.9871862,1649320461.0349636,6f39f2db-d608-4ee0-b6ed-2f9960f22dcd
1.1444011461611934,1.7629553113721608,1.087927498345745,-0.5665335133552304,0.456474563535269,-1.007896003637844,0.5109364585606698,0.4857041127647029,7.180046751622476,18.461486458755257,33.994409435443,-0.8013279835136575,6.399078384962513,-2.5784237278612854,7792.205078125,11.562777777777775,7.27,177.7902217642236,-3.628894162475368,51.8160166413592,1813.0,1435.0,1350.0,1528.0,1662.0,988.0,161.0,292.25,1649320461.1428578,1649320462.33255,6f39f2db-d608-4ee0-b6ed-2f9960f22dcd
0.2544701463044787,0.1365238171089687,0.8796905987121808,-0.3833554408581542,0.5880930009027571,0.4536981660500663,0.8376274173383526,0.8227592776353382,4.756581987886173,19.58728298159792,39.656931954686726,2.0666413805395742,0.2302021552869559,-3.128343900118492,7792.205078125,11.642,7.313333333333333,178.50141597046104,-3.4232521076050944,50.66514114986066,1470.0,1435.0,1350.0,1528.0,1403.0,988.0,161.0,292.25,1649320463.2485988,1649320464.384471,ea5ffdd0-c04d-48d1-9213-6c58fb802edf
0.2434919969506735,0.1378422267207665,0.8856216716363065,-0.3728005758555914,0.5929317206616855,0.4458372692667616,0.8381154361975356,0.8146713129580087,4.660286591999775,19.87051309783988,40.126303299559005,2.027366948725725,0.2307497936663004,-3.142983455437722,7792.205078125,11.638333333333334,7.318888888888889,178.42704431731852,-3.411498087237476,50.20981569576066,1470.0,1435.0,1350.0,1528.0,1403.0,988.0,161.0,292.25,1649320464.4927127,1649320465.606762,ea5ffdd0-c04d-48d1-9213-6c58fb802edf
0.2418352613142446,0.1299924552501169,0.8770487224125892,-0.3737735795923636,0.5884085695845983,0.4499265134448308,0.8316988730116119,0.818274055349397,4.434324413992264,19.72062764789959,39.4325742576638,2.037106072022441,0.2086299621339356,-3.1180343711060003,7792.205078125,11.632555555555555,7.304444444444446,178.3426171078979,-3.3848326729787264,49.88235441856292,1470.0,1435.0,1350.0,1528.0,1403.0,988.0,161.0,292.25,1649320465.7153738,1649320466.8390987,ea5ffdd0-c04d-48d1-9213-6c58fb802edf
0.0211869945436804,-0.2924751770610411,0.841455204773642,-0.2954336346398518,0.6373085661991196,0.80075999355394,0.9237397389179376,0.9082374273645354,4.093427004243886,20.63177000996529,40.9231874838712,2.653093790008025,-1.398565307407512,-3.316108337453319,7792.205078125,11.58411111111111,7.29,178.67418636442648,-3.334552259119612,49.22894816616319,1385.0,1435.0,1350.0,1528.0,1331.0,988.0,161.0,292.25,1649320468.1158493,1649320469.05457,fef60eff-0035-442a-8129-08a671c248ed
0.0212132919262206,-0.2962882995099509,0.8488447714312052,-0.2984183889788112,0.6419106094388767,0.8046388585920957,0.9326019595080488,0.9203868218751676,4.341469961499907,20.81223449856285,40.61201310689401,2.6701825196785607,-1.4110254845463073,-3.345894239717791,7792.205078125,11.581444444444443,7.282222222222221,178.63744298233144,-3.311107041895178,48.76899449999059,1385.0,1435.0,1350.0,1528.0,1331.0,988.0,161.0,292.25,1649320469.162875,1649320470.1150446,fef60eff-0035-442a-8129-08a671c248ed
0.0105102530498739,-0.3025996746448399,0.8216138239092675,-0.2903976830893154,0.6188215010719486,0.803863085584373,0.9048056178472116,0.8851220212300985,4.205077908606716,20.751716408250644,40.46225398752472,2.6484968768711563,-1.435119161653239,-3.2387263098555543,7790.08193359375,11.5799,7.283999999999999,178.63827975639572,-3.3015831375814044,48.43823651815346,1385.0,1435.0,1350.0,1528.0,1331.0,988.0,161.0,292.25,1649320470.2229052,1649320471.34484,fef60eff-0035-442a-8129-08a671c248ed
-0.2693334685583443,-0.7961887286020054,0.7564883374610452,-0.1762801353411935,0.656860675615074,1.182637553741289,0.973231427881049,0.9591886215719702,3.031001409013044,22.13268515922111,40.49690994469145,3.247558771268348,-3.2965310445959712,-3.359250296796682,7805.610134548611,11.514333333333331,7.24888888888889,178.97230135440026,-3.170521353072544,48.15071173648774,1297.0,1435.0,1350.0,1528.0,1253.0,988.0,161.0,292.25,1649320473.0715995,1649320474.2179673,5fc99891-d831-46d8-bdc8-703b830b9e3c
-0.2688206693163655,-0.8086142523761071,0.748244105692237,-0.1555051936316679,0.6519167663071902,1.18428114075686,0.9609111003651633,0.941661410784276,2.754804449946256,22.51213494541348,41.63639199204021,3.206536472429642,-3.3543527049654576,-3.3238002754151257,7800.874457465277,11.50511111111111,7.25,178.94325331877013,-3.198326555149039,48.12070481818911,1297.0,1435.0,1350.0,1528.0,1253.0,988.0,161.0,292.25,1649320474.3263445,1649320475.4425704,5fc99891-d831-46d8-bdc8-703b830b9e3c
-0.2717396802933609,-0.8008565179575403,0.7551471705609575,-0.1692981769421505,0.6567686347514038,1.1845572633155514,0.9714958000843076,0.9494717355176424,2.982901502132305,22.226118147411416,41.02057778211669,3.236734888269788,-3.3192819749740026,-3.3546625928002016,7800.874457465277,11.522,7.252222222222222,178.95707003255114,-3.185034888444521,47.821036719089015,1297.0,1435.0,1350.0,1528.0,1253.0,988.0,161.0,292.25,1649320475.550532,1649320476.666891,5fc99891-d831-46d8-bdc8-703b830b9e3c
0.5022188737966294,0.5903414277618686,0.9133259723565098,-0.422095047977689,0.536931428662084,0.0357820473725718,0.7180415533036519,0.6905081860276278,4.6326517292896,18.86279324707961,38.06730647934459,1.2114714314444168,1.954149763698784,-2.8817029607972247,7804.03564453125,11.648333333333332,7.293333333333333,178.0258344520125,-3.340778427150836,47.43802816955625,1553.0,1435.0,1350.0,1528.0,1471.0,988.0,161.0,292.25,1649320477.5792754,1649320478.7211893,2ed9e28a-aef4-4053-bff6-9867f0c154b5
0.4854805849904676,0.5881718930932148,0.9179674617482114,-0.4166120404705316,0.5400476693744884,0.0311274089416512,0.7205003592666205,0.6957545153311622,4.738747859085914,19.075466968361127,37.84551493800031,1.190302522013754,1.946850277037563,-2.8963154155280875,7807.980685763889,11.647444444444444,7.302222222222222,177.98381057477914,-3.321970434054148,47.41863081176835,1553.0,1435.0,1350.0,1528.0,1471.0,988.0,161.0,292.25,1649320478.8290265,1649320479.9435833,2ed9e28a-aef4-4053-bff6-9867f0c154b5
0.4883864465953541,0.5868438749006731,0.9140754480356602,-0.4178480181633239,0.5365895625609043,0.0325474681201781,0.7166214942588115,0.7059579026711724,4.674243974450426,19.085677560101264,37.67102066172953,1.1960952533941578,1.943778097951804,-2.8812443646648784,7813.51513671875,11.648999999999996,7.305,177.99934697841124,-3.3078049063067576,47.422459322525626,1553.0,1435.0,1350.0,1528.0,1471.0,988.0,161.0,292.25,1649320480.051925,1649320481.3769748,2ed9e28a-aef4-4053-bff6-9867f0c154b5
0.5344741398771353,0.5779406912389875,0.9274936914627212,-0.8651288946768185,0.5041309974334143,0.478250825520329,0.8575906765132685,0.8340368121310783,4.9119617301406455,18.17920529698741,41.84148505293256,3.202049763727356,1.9276456390000347,-3.0546139867369013,7806.3994140625,11.638555555555556,7.300000000000001,178.00320072292294,-3.1769107578817444,47.52439097869665,1553.0,1522.0,1350.0,1528.0,1471.0,988.0,161.0,292.25,1649320482.0454571,1649320483.2243805,28c1ce56-4c87-4010-ad69-de859227444b
0.5019821972917354,0.586554603610808,0.9230034119959832,-0.8719384056867409,0.4948950506233731,0.4772100557354046,0.8523949190576512,0.8298449069953031,5.212826296622725,18.272295330758915,41.96187341246703,3.215635760855974,1.9573119187032983,-3.0271913255913,7811.933865017361,11.63211111111111,7.297777777777778,177.99683043315702,-3.16201639203167,47.60486237022297,1553.0,1522.0,1350.0,1528.0,1471.0,988.0,161.0,292.25,1649320483.3320992,1649320484.4496038,28c1ce56-4c87-4010-ad69-de859227444b
0.5285162638690456,0.5901178999499422,0.924673296359336,-0.8772241843002021,0.4961310279095203,0.4777623009545038,0.853617747764333,0.8348545598593904,5.094616111366524,18.236371291265865,41.85704128295817,3.2285689405796107,1.973198278591645,-3.032723021849936,7813.51513671875,11.630111111111113,7.279999999999999,177.99609125490684,-3.135874435881812,47.68744770529741,1553.0,1522.0,1350.0,1528.0,1471.0,988.0,161.0,292.25,1649320484.5574694,1649320485.6842368,28c1ce56-4c87-4010-ad69-de859227444b
0.5493306480808826,0.5826362925049937,0.9268033849808006,-1.3414260979265251,0.444180533599005,0.9334829220856088,0.982461812028186,0.9639747464187856,5.630301272048169,17.837066376665305,45.33708343279603,5.298043224879549,1.9677841838759915,-3.1478432588568603,7807.82255859375,11.6142,7.297999999999999,178.03750314719056,-3.0184543154689694,47.74278938893843,1553.0,1613.0,1350.0,1528.0,1471.0,988.0,161.0,292.25,1649320487.820077,1649320489.160174,8afd8677-e6d9-4ae6-8f5c-7b7f318d2149
0.557482838981839,0.5945621588539296,0.9329701230381688,-1.3490392009256973,0.4480199525723734,0.9325362160299826,0.9873005318800716,0.9693920088846628,5.562587470066791,17.768917398020662,45.910271784263024,5.313001723817551,2.00923965977458,-3.1662026091448725,7809.957275390625,11.6165,7.285000000000001,178.03842249065286,-2.991843663674847,47.78051662183792,1553.0,1613.0,1350.0,1528.0,1471.0,988.0,161.0,292.25,1649320489.2693682,1649320490.395547,8afd8677-e6d9-4ae6-8f5c-7b7f318d2149
0.5576932181043904,0.5948645788378385,0.9405174740869264,-1.3464226074118637,0.4537396349557651,0.9254490693098802,0.993322634376572,0.9707857705800124,5.727375901673733,17.8762130038456,45.337844504919325,5.292252350257575,2.014439117917161,-3.1935317028156898,7800.874457465277,11.610555555555557,7.282222222222221,178.0726607111423,-3.007675081675584,47.69395573721157,1553.0,1613.0,1350.0,1528.0,1471.0,988.0,161.0,292.25,1649320490.508475,1649320491.6138215,8afd8677-e6d9-4ae6-8f5c-7b7f318d2149
0.584016905477884,0.5919061224679122,0.9339168290766968,-1.7724934761409152,0.3900736529786641,1.3411845328217775,1.0887164200236807,1.0576329038273868,5.7232495075627,18.5766535074882,48.5826327090588,7.192406736127499,2.026665714277188,-3.2334470274660863,7813.51513671875,11.5948,7.279999999999999,178.10833494095928,-2.9128709674344084,47.63271201121776,1553.0,1710.0,1350.0,1528.0,1471.0,988.0,161.0,292.25,1649320493.5541136,1649320494.6956584,5ec3f7e0-48e1-421a-86b4-7d070bdc72db
0.5784155614106932,0.5891054504378551,0.9398863367670642,-1.76681323119352,0.3972396918219427,1.3380551430713792,1.0951987270034689,1.0662190021733835,5.782167252722643,18.526659083500416,48.539484936693135,7.172549940821902,2.015805131022105,-3.260862163031313,7813.51513671875,11.590888888888887,7.279999999999999,178.08341446453557,-2.956785358024262,47.75891766640757,1553.0,1710.0,1350.0,1528.0,1471.0,988.0,161.0,292.25,1649320494.828704,1649320495.9180596,5ec3f7e0-48e1-421a-86b4-7d070bdc72db
0.5869490644590623,0.5986645516861377,0.936756947311806,-1.7683910775745526,0.393150447578376,1.3328482593213935,1.0893212600939144,1.0738583940964463,5.689160761664761,18.47792132839024,48.89041845182493,7.163938825225824,2.0492005882741986,-3.241065762172436,7813.51513671875,11.582,7.27,178.0981251741879,-2.9404013468889554,47.7835253201673,1553.0,1710.0,1350.0,1528.0,1471.0,988.0,161.0,292.25,1649320496.026744,1649320497.146435,5ec3f7e0-48e1-421a-86b4-7d070bdc72db
0.5794674570116543,0.573011447773941,0.9302614918999954,-2.121762889558512,0.3391750534530264,1.70215572749361,1.169672939838548,1.1578785595489107,5.5267981015500265,19.668621551174287,51.82823807186598,8.798898689730393,1.9712132433388336,-3.27576009387255,7813.51513671875,11.541,7.260000000000001,178.1586269898559,-2.8670920727535623,48.20954129417392,1553.0,1814.0,1350.0,1528.0,1471.0,988.0,161.0,292.25,1649320499.081683,1649320500.218757,bc776c31-74c3-413e-873a-cc4835fac0a1
0.5926950441638529,0.583648742020178,0.9228982226234388,-2.1350036528285625,0.3295107623356552,1.7021688763271745,1.1622176293168711,1.1420738271877169,5.524628191292519,19.53897258595232,51.52319911963494,8.827520337291038,2.0149897054050543,-3.2411527800138464,7813.51513671875,11.5388,7.256,178.1720933908235,-2.8774911638309533,48.19974885196088,1553.0,1814.0,1350.0,1528.0,1471.0,988.0,161.0,292.25,1649320500.3269012,1649320501.3710282,bc776c31-74c3-413e-873a-cc4835fac0a1
0.5814003151718545,0.5773242197307459,0.9174941088834164,-2.1222230955042494,0.3283799745227586,1.695068579131429,1.1519353492052025,1.1407195116308264,5.060193986022647,19.65556705241451,51.246778429787085,8.782961197989287,1.995091787485808,-3.219022144514048,7820.64404296875,11.5437,7.258,178.18397928601718,-2.914408912592084,48.34999525520932,1553.0,1814.0,1350.0,1528.0,1471.0,988.0,161.0,292.25,1649320501.4793384,1649320502.6731217,bc776c31-74c3-413e-873a-cc4835fac0a1
0.4895566804548027,0.6146665134699106,0.9383742367362242,0.0119040147416015,0.5954431213996152,-0.4057117687117027,0.6140616734951209,0.5892106399496376,4.918532459741167,20.24316475673724,35.18596126408025,-0.7495371897962808,2.017074283721576,-2.845178157593635,7820.64404296875,11.650999999999998,7.296666666666667,178.22589069280218,-3.660243450105258,48.24739989437845,1553.0,1349.0,1350.0,1528.0,1471.0,988.0,161.0,292.25,1649320503.5887158,1649320504.724295,2b06e57c-690f-414b-8431-8579b0ab7324
0.4952682713047288,0.6120261543747866,0.9375069285622276,0.0128502149642404,0.5973982312049274,-0.4013716868476848,0.6141248883777786,0.5994969652335095,4.682143300764548,20.14256483479159,35.558177484493655,-0.7426885762902928,2.005372306853099,-2.84665908957728,7820.64404296875,11.651777777777776,7.301111111111112,178.22345610981804,-3.6725091891941313,48.46012044425418,1553.0,1349.0,1350.0,1528.0,1471.0,988.0,161.0,292.25,1649320504.8322337,1649320505.9497588,2b06e57c-690f-414b-8431-8579b0ab7324
0.4662045979956367,0.6050416687472202,0.9332330969006694,0.0113517693616631,0.5940362110343514,-0.3937464528015094,0.6128125474698867,0.5891054504270992,4.738688755807003,20.14655551479738,35.45134949961417,-0.7223484501328252,1.979636458390404,-2.8353567274308755,7813.51513671875,11.649777777777778,7.309999999999999,178.22449126293225,-3.6983339921503418,48.72771814901639,1553.0,1349.0,1350.0,1528.0,1471.0,988.0,161.0,292.25,1649320506.0578213,1649320507.182789,2b06e57c-690f-414b-8431-8579b0ab7324
0.4450089014795281,0.5967579909148001,0.9265930058562718,0.4028804821083856,0.6285252379557088,-0.766235985164958,0.4892411117357234,0.4749879262325194,3.653014392966583,21.678341185486467,32.08622419994849,-2.433834177024336,1.937476253877759,-2.701044948675094,7789.37421875,11.6408,7.345999999999999,178.29761587531434,-3.9265614335490975,48.57870960371853,1553.0,1264.0,1350.0,1528.0,1471.0,988.0,161.0,292.25,1649320509.117448,1649320510.2543166,f1d2af2b-3bf1-4a2f-a89a-e50c4358bcf6
0.4477175326727852,0.5904334686289189,0.9307874395930514,0.4017891403979791,0.6323515081957666,-0.7594775524562718,0.4991552278298413,0.4794190365128342,4.058854354987712,21.58737412357725,32.076437680871166,-2.416376724183297,1.911368481730818,-2.726557022491148,7791.49736328125,11.6261,7.339,178.30368927952432,-3.938749009660656,48.76737718708612,1553.0,1264.0,1350.0,1528.0,1471.0,988.0,161.0,292.25,1649320510.362962,1649320511.48275,f1d2af2b-3bf1-4a2f-a89a-e50c4358bcf6
0.432202072397064,0.5915774050914024,0.9095785942737414,0.4026175081879719,0.6115371240491355,-0.7596221881820803,0.4724502281068647,0.4437466267126527,3.653000652918172,21.833314174328333,32.13834885082827,-2.4181904547627493,1.9165404080444293,-2.631426620287537,7787.486979166667,11.631,7.313333333333333,178.30598604446922,-3.931636036429445,48.87968075113028,1553.0,1264.0,1350.0,1528.0,1471.0,988.0,161.0,292.25,1649320511.5908127,1649320512.7126863,f1d2af2b-3bf1-4a2f-a89a-e50c4358bcf6
0.4145696722074506,0.5998742316244676,0.9235556572164204,0.8367085258529563,0.6608315814948251,-1.183983469980774,0.3537306593366706,0.3248561243179959,3.220031323106477,23.805875728956504,29.36925960251268,-4.337876940841126,1.92273899966783,-2.548796209224622,7789.059678819444,11.622000000000002,7.34111111111111,178.30786358758107,-4.095608909584502,49.19697718902322,1553.0,1178.0,1350.0,1528.0,1471.0,988.0,161.0,292.25,1649320513.6248791,1649320514.7672956,8640e764-c708-4b8d-9641-6b78dd0e93a6
0.4087316515424226,0.5918929737729041,0.9173626218020342,0.8420994909216735,0.6572156903792328,-1.1779087683478489,0.3473272446613695,0.3216872885781132,2.99158934367698,23.91858096224074,29.7779395961142,-4.33599805269447,1.889744728657712,-2.5268604164527244,7785.1279296875,11.618666666666666,7.321111111111112,178.29790972523062,-4.13154746772234,49.17590529652383,1553.0,1178.0,1350.0,1528.0,1471.0,988.0,161.0,292.25,1649320514.897946,1649320515.9957345,8640e764-c708-4b8d-9641-6b78dd0e93a6
0.4163710434403462,0.5896839930149125,0.9241604972270838,0.8248615516670685,0.6637637404726283,-1.1678894534695032,0.3589769887076102,0.3341391032542248,2.937856948245583,23.75640888696866,28.7119543477735,-4.275532287923589,1.8938383708169173,-2.563525030061084,7789.846028645833,11.615,7.33,178.31543447282107,-4.135459268841988,49.272369955446685,1553.0,1178.0,1350.0,1528.0,1471.0,988.0,161.0,292.25,1649320516.1045372,1649320517.2176058,8640e764-c708-4b8d-9641-6b78dd0e93a6
0.4177516564395068,0.6141668630589152,0.934955576046603,1.1554591996979964,0.6934271963273673,-1.4937933499666298,0.2605984496985477,0.2382982621534284,2.6691507462386648,25.761457767278674,28.709265324271044,-5.739935610199716,1.947604396311133,-2.473726006022823,7792.205078125,11.576999999999998,7.29125,178.32746755859134,-4.20450885281282,49.45530547330807,1553.0,1088.0,1350.0,1528.0,1471.0,988.0,161.0,292.25,1649320518.1286955,1649320519.0639734,8bf36572-7816-4595-b52e-8ba2e9e756b5
0.3944258711776017,0.6152187586579703,0.9246075528646672,1.1379188393132198,0.6817511551880332,-1.486311732604777,0.2546946854175059,0.2395999828191448,2.8084918126272767,25.582999516971867,27.562762116807853,-5.685367563678496,1.9622254093137288,-2.436784489406731,7795.75048828125,11.5795,7.269999999999999,178.34539168252076,-4.274638033559337,49.33562092225559,1553.0,1088.0,1350.0,1528.0,1471.0,988.0,161.0,292.25,1649320519.1717412,1649320520.2895887,8bf36572-7816-4595-b52e-8ba2e9e756b5
0.407140659426698,0.6108796893175712,0.9333645838911316,1.1447298637779877,0.6920334346603926,-1.4904141304311471,0.2631887427776362,0.2318554009658462,2.789354396640435,25.579689071326456,27.33347971167193,-5.7095822877298215,1.9478353452869608,-2.475620566167562,7800.00625,11.5683,7.281000000000001,178.34058732745856,-4.265952722322068,49.36368992615921,1553.0,1088.0,1350.0,1528.0,1471.0,988.0,161.0,292.25,1649320520.3978386,1649320521.5181,8bf36572-7816-4595-b52e-8ba2e9e756b5
0.507517797904213,0.5879220678883655,0.9248836754730372,-0.4528893017385427,0.5431639100750273,0.0715202037312262,0.7381853540178822,0.7128609674681965,4.700115342070531,19.02635098252514,38.8988847274742,1.3630703907566974,1.941754847652076,-2.934036557584414,7806.3994140625,11.650444444444446,7.297777777777777,178.37804302239303,-3.7906464178083934,49.54688891856784,1553.0,1435.0,1350.0,1528.0,1471.0,988.0,161.0,292.25,1649320523.6589706,1649320524.802765,d0078f3a-0516-4807-a40e-96a202144333
0.5141063055581847,0.5848943280076989,0.9240295159947768,-0.4531067606637992,0.5410990592456633,0.0716021302933246,0.7384685566918266,0.7240302782319006,4.923625397063445,19.0887182345675,38.45645560996307,1.364157916857184,1.9327119535310828,-2.9313246245032287,7813.51513671875,11.649,7.300000000000001,178.35076021120838,-3.791344946946636,49.50358551922996,1553.0,1435.0,1350.0,1528.0,1471.0,988.0,161.0,292.25,1649320524.9154844,1649320526.0238292,d0078f3a-0516-4807-a40e-96a202144333
0.4956971210496415,0.5939178727988633,0.9234110215754918,-0.4561764761105064,0.5380227703375512,0.0682330297570879,0.736094711524752,0.7104810536992427,4.9942638057205615,19.09502182373884,38.82036659012073,1.3636161815176615,1.9631692829721987,-2.92128667143012,7820.64404296875,11.65522222222222,7.293333333333333,178.38241282564206,-3.755729969020728,49.53802636866479,1553.0,1435.0,1350.0,1528.0,1471.0,988.0,161.0,292.25,1649320526.1451194,1649320527.258073,d0078f3a-0516-4807-a40e-96a202144333
0.5750100494129942,0.6274864910642297,1.1955495731659278,-0.4380970148112672,0.7901358479878805,0.0014376524105631,1.004788296666462,0.9920735085034252,6.560724899886521,19.13181263081263,38.4410219314489,1.1872578353506404,2.0963738949355526,-4.013425352436571,7820.64404296875,11.630666666666665,7.291111111111111,178.36869932360844,-3.759237081432053,49.56445844184283,1553.0,1435.0,1350.0,1446.0,1471.0,988.0,161.0,292.25,1649320528.1639369,1649320529.3020074,0e625897-ef3f-46e4-b5fe-93f12e3dfeb0
