raw_voltage_G-,raw_voltage_G0,raw_voltage_G1,raw_voltage_G2,raw_voltage_G3,raw_voltage_G4,raw_voltage_G5,raw_voltage_G6,load_x,load_y,load_z,load_l,load_m,load_n,rpm,voltage,current,roll,pitch,yaw,aileron1_pwm,elevator_pwm,throttle_pwm,rudder_pwm,aileron2_pwm,pbaro,pdiff,Tt,sample_start_time,sample_end_time,uid
0.0727824787259616,0.2418878560534866,0.0139289140518637,-0.1590158958263434,-0.1282610927655157,0.3179530593034535,-0.1827492943325722,-0.2084024031566763,-12.775637711027418,16.806237171520426,57.25758384663932,1.1879842829073066,0.5109231308371249,0.5087047189606232,5531.02373046875,11.946699999999998,0.1,179.12556594235195,-10.796990577679612,110.03929805001584,1553.0,1435.0,1200.0,1528.0,1471.0,990.0,160.0,294.53,1649327619.519467,1649327620.4924536,9173e323-7b34-42d6-89c2-825d54bd301b
0.0638150679390836,0.2358657534902644,0.0176368463852796,-0.1586477322921611,-0.1243427810712936,0.3221080470018014,-0.1790939565986912,-0.2067325186689917,-12.876338621582624,16.96182106325867,57.084743150796285,1.1976283809270287,0.4907735767611225,0.4920055941894283,5541.472710503473,11.943,0.1,179.1825300235938,-10.822599138743977,109.55310833709436,1553.0,1435.0,1200.0,1528.0,1471.0,990.0,160.0,294.53,1649327620.6016853,1649327621.8468297,9173e323-7b34-42d6-89c2-825d54bd301b
0.1010916214539123,0.2387584665151581,0.0064473055621334,-0.169797827707878,-0.1360714190849661,0.3292346398564556,-0.1880087736434819,-0.2039449951496956,-12.885328204968538,16.845714679137224,56.965283169741,1.2374442546825788,0.5034068953107045,0.536050930290984,5532.332845052083,11.945333333333332,0.1,179.20537169399816,-10.834255236017556,109.12530171516036,1553.0,1435.0,1200.0,1528.0,1471.0,990.0,160.0,294.53,1649327621.9609382,1649327623.1581447,9173e323-7b34-42d6-89c2-825d54bd301b
0.2953504519612152,0.5966265039634577,0.0770032100104928,-0.3520256321512706,-0.1567280223451816,0.1432857867459799,-0.1932682524950917,-0.2196445399130661,-11.98388613047182,16.22365450870792,56.77830086030482,1.230467092093829,1.867805113279086,0.517825145728199,5519.27001953125,11.9204,0.1,179.00347494490012,-10.812751409944148,108.29766947959212,1637.0,1435.0,1200.0,1528.0,1535.0,990.0,160.0,294.53,1649327625.0925462,1649327626.2313893,b14784f3-1986-4a2a-ace6-52000d7c8dec
0.2957054667583272,0.6061987539064418,0.0784364179430999,-0.3565093381583537,-0.1576089849747114,0.1384207693093468,-0.1919402338757818,-0.2252195884650393,-11.789783994403589,16.100366817028824,56.84411852278061,1.229011163534273,1.902390530000105,0.5165787124875874,5519.27001953125,11.9116,0.1,178.97538374288172,-10.844373819763472,108.0219579654419,1637.0,1435.0,1200.0,1528.0,1535.0,990.0,160.0,294.53,1649327626.340647,1649327627.45919,b14784f3-1986-4a2a-ace6-52000d7c8dec
0.2962445632650771,0.6088679389842021,0.0752281360249906,-0.3659895500585483,-0.1617639733932602,0.1405245605847651,-0.1951748136167944,-0.215949755793547,-11.895471934536602,16.084744746007228,56.25027965219797,1.254712525231112,1.9193763731721665,0.5305513430704868,5519.27001953125,11.9194,0.094,178.94288570281077,-10.84315087439258,107.85521938742356,1637.0,1435.0,1200.0,1528.0,1535.0,990.0,160.0,294.53,1649327627.5670958,1649327628.6882088,b14784f3-1986-4a2a-ace6-52000d7c8dec
0.4796820104513803,0.9289071761297588,0.1401958430958909,-0.5390395822056617,-0.185812940901304,-0.0191926529801321,-0.2012363633880599,-0.2274943127750726,-10.967766479038266,16.142641940113823,55.69187183686663,1.290161831017632,3.143526928926329,0.5204240068879765,5526.38671875,11.898444444444443,0.0944444444444444,178.6087167245022,-10.824008908761416,107.41426874945074,1723.0,1435.0,1200.0,1528.0,1599.0,990.0,160.0,294.53,1649327630.41696,1649327631.7664092,a2f0efcb-2b81-44eb-9d5a-097650632fd8
0.4980901835324807,0.9402282027503222,0.14817710137759,-0.5546339395432518,-0.1838669338738561,-0.0165234670641896,-0.1906253646081149,-0.2085864854800991,-10.53393227091147,16.08550158010726,55.67680964677722,1.3315715007987443,3.1854755851372363,0.4933250509040864,5526.38671875,11.89488888888889,0.0922222222222222,178.56660936717896,-10.812446631725184,107.24487171002544,1723.0,1435.0,1200.0,1528.0,1599.0,990.0,160.0,294.53,1649327631.8803203,1649327632.9875834,a2f0efcb-2b81-44eb-9d5a-097650632fd8
0.4911739699454361,0.9404517305488328,0.1459023771517507,-0.5350160799133052,-0.1816842499012865,-0.0336299219416753,-0.1983830960093701,-0.2204071645431386,-10.802609231992642,16.01601648127771,55.807764332490144,1.248189666275408,3.184494169463358,0.5047225963596443,5531.142740885417,11.905,0.0966666666666666,178.55185919421135,-10.797619524265688,107.13999339641,1723.0,1435.0,1200.0,1528.0,1599.0,990.0,160.0,294.53,1649327633.0962896,1649327634.2140648,a2f0efcb-2b81-44eb-9d5a-097650632fd8
0.6218588496131204,1.1639401082198106,0.194039752307699,-0.6457938804828963,-0.1971734159187664,-0.1631314383742176,-0.2077975638889705,-0.2406956050857098,-10.261531901553305,16.3970617239192,54.16904372692824,1.21200410276156,4.050103026086723,0.4975885916458003,5524.804253472223,11.843555555555556,0.0855555555555555,178.3030187067298,-10.79288781585442,106.97670102828286,1813.0,1435.0,1200.0,1528.0,1662.0,990.0,160.0,294.53,1649327635.5353348,1649327636.6762102,22695fa1-ad09-4f35-a8ec-aac15e5676bd
0.6103142954327719,1.1472675618700687,0.1897401289731952,-0.6396665864550013,-0.1969235903148963,-0.150035335872699,-0.2062065711057548,-0.2230500532730469,-10.231272189117153,16.32464760499393,54.50061343248003,1.226985071187985,3.9833897733796095,0.4993988214454062,5522.826171875,11.839000000000002,0.08,178.2831823195603,-10.766003716962558,106.84236107313752,1813.0,1435.0,1200.0,1528.0,1662.0,990.0,160.0,294.53,1649327636.7858193,1649327637.9122477,22695fa1-ad09-4f35-a8ec-aac15e5676bd
0.6229633399919817,1.1681476909330606,0.1829291043047757,-0.6656747164307091,-0.214148384531858,-0.1500616331775833,-0.2158314181771916,-0.2358305871204198,-9.945099360738004,16.536839680657202,53.93365904303129,1.2867151264853172,4.0674763673684,0.5474593785104895,5522.826171875,11.851,0.0844444444444444,178.21432035234818,-10.820221474002905,106.79227226031418,1813.0,1435.0,1200.0,1528.0,1662.0,990.0,160.0,294.53,1649327638.0355766,1649327639.082307,22695fa1-ad09-4f35-a8ec-aac15e5676bd
-0.193255103450453,-0.2006972662459895,-0.0643452769220704,0.0661160896217238,-0.0965858816763426,0.5423223936361272,-0.17484692723457,-0.2074556970020525,-14.260637069450242,18.073660982951697,56.698722812451614,1.1879973108190052,-1.1662357734078928,0.5070812264602022,5522.11669921875,11.9206,0.1,179.1038623332453,-10.784460766401956,106.6489956856588,1470.0,1435.0,1200.0,1528.0,1403.0,990.0,160.0,294.53,1649327640.054629,1649327641.1832273,c47b5ecd-5507-4772-ae9a-940c60c9fdd4
-0.1659584076222708,-0.1915720701967729,-0.0698414322068874,0.0522179177082922,-0.1048301147022662,0.5417044049627016,-0.1814607220783642,-0.1983567987343901,-14.322002946822842,18.04188752186407,56.01707855268972,1.2173356285117418,-1.1241728150358603,0.5352096850185523,5529.95263671875,11.921,0.1,179.10697143535552,-10.811333121162995,106.5769399219908,1470.0,1435.0,1200.0,1528.0,1403.0,990.0,160.0,294.53,1649327641.2914708,1649327642.4093866,c47b5ecd-5507-4772-ae9a-940c60c9fdd4
-0.1518751413604062,-0.1940394739020634,-0.0603399815761412,0.0502987137123091,-0.0981171991042391,0.5455999587001827,-0.1692971655674718,-0.1955692743339074,-13.9600468029782,18.13933527531472,56.05622833418277,1.23172625385403,-1.135495610186368,0.495749579169362,5531.539442274306,11.929222222222222,0.1,179.06723946604362,-10.802632313934044,106.54039006192224,1470.0,1435.0,1200.0,1528.0,1403.0,990.0,160.0,294.53,1649327642.5179355,1649327643.6343555,c47b5ecd-5507-4772-ae9a-940c60c9fdd4
-0.3936149657372428,-0.5708857326252093,-0.1282873901563559,0.2202188056365062,-0.0770600666831764,0.751675915074019,-0.1636310883476079,-0.1861022123510999,-15.401675978095431,19.537324897811885,54.85581524482791,1.3164754294140435,-2.5532600678485955,0.5042379496294058,5540.67626953125,11.874666666666668,0.0933333333333333,179.14493818022189,-10.789320275241687,106.4908840919081,1385.0,1435.0,1200.0,1528.0,1331.0,990.0,160.0,294.53,1649327644.5486996,1649327645.6931963,96ce90f4-de8b-42b8-b48f-7ac93857a57c
-0.3867644936806252,-0.5617999807179384,-0.1226991939339419,0.2306720186680405,-0.0724843202076493,0.735529317625383,-0.1634338579318286,-0.187469676949726,-15.37114747922973,19.57008815769101,55.21587818540732,1.257180191326105,-2.5235224728522154,0.4918142482033511,5540.67626953125,11.877111111111113,0.0988888888888888,179.1480436395645,-10.79717594142459,106.26309424744854,1385.0,1435.0,1200.0,1528.0,1331.0,990.0,160.0,294.53,1649327645.801245,1649327646.914953,96ce90f4-de8b-42b8-b48f-7ac93857a57c
-0.3920239732313362,-0.5702282976218217,-0.1222389895769793,0.2247025107274418,-0.0710248148950151,0.7461929092831509,-0.1584242042971775,-0.1738739243725902,-15.335718926683835,19.52841157872386,54.797999194490245,1.2943063105139496,-2.550917447354246,0.4804466916438196,5540.67626953125,11.883777777777777,0.1,179.13434076226966,-10.794301570148876,106.15063518276428,1385.0,1435.0,1200.0,1528.0,1331.0,990.0,160.0,294.53,1649327647.0233903,1649327648.1465075,96ce90f4-de8b-42b8-b48f-7ac93857a57c
-0.6121463544485111,-0.9663592460064602,-0.1715991989296502,0.4235765283211543,-0.0312105611544995,0.9389659280187392,-0.1372153555996025,-0.1682725786296368,-16.391139286268203,21.4212730899052,52.93429814216532,1.288143806118326,-4.040244128771665,0.4129730839710129,5545.057779947917,11.807222222222224,0.08,179.28604381719506,-10.792419473577583,105.80605972823622,1297.0,1435.0,1200.0,1528.0,1253.0,990.0,160.0,294.53,1649327650.07897,1649327651.4229422,6eb3ebff-e8cc-4a84-98cb-3cd71c54db78
-0.6215871215120774,-0.961862389167544,-0.1682857271400208,0.4170153294702214,-0.0290015800622477,0.9397942957688864,-0.132784244592324,-0.1601598324042062,-16.340700894347933,21.31920000137172,52.85035920897992,1.3043060591509965,-4.021975074087061,0.3995841550989223,5535.31005859375,11.811000000000002,0.0799999999999999,179.28556722177302,-10.80100374070382,105.49408856116617,1297.0,1435.0,1200.0,1528.0,1253.0,990.0,160.0,294.53,1649327651.5320635,1649327652.6518314,6eb3ebff-e8cc-4a84-98cb-3cd71c54db78
-0.6164065335005199,-0.968739161386329,-0.1785285625025257,0.4095468705921125,-0.036443742471768,0.9517464597545732,-0.140791801250918,-0.1675362526424985,-16.682629758059807,21.27798892044458,52.54617090041718,1.347007355243575,-4.042381562118778,0.4335350055631182,5536.303331163194,11.813444444444444,0.0711111111111111,179.30205529842942,-10.802146706456805,105.27836841987992,1297.0,1435.0,1200.0,1528.0,1253.0,990.0,160.0,294.53,1649327652.7603176,1649327653.8853405,6eb3ebff-e8cc-4a84-98cb-3cd71c54db78
0.0810004138105117,0.2453196656042011,0.0060659935515765,-0.1660898948785306,-0.1372942477182872,0.3142319785303311,-0.1947277577620681,-0.2276915429568254,-13.063958520994616,16.948078349720976,56.20467528310466,1.195815514581008,0.5355419680206533,0.5473893535729999,5527.971571180556,11.941666666666666,0.1044444444444444,178.86943263422063,-10.808390542859318,105.05871484854168,1553.0,1435.0,1200.0,1528.0,1471.0,990.0,160.0,294.53,1649327654.994037,1649327656.1320848,9929b52d-eaf5-43b6-b026-133723cda70a
0.0706392411849464,0.2371674743433916,0.0075649449468739,-0.1542034726131716,-0.1326922037139764,0.3132852724412483,-0.1926634122680674,-0.2161601351077154,-13.076905929183122,16.94292701504824,56.504234108382434,1.166957006117438,0.5010344157284261,0.5356721457492498,5526.38671875,11.941,0.1,178.74188871729945,-10.808428014036016,105.36434001096286,1553.0,1435.0,1200.0,1528.0,1471.0,990.0,160.0,294.53,1649327656.2402134,1649327657.3641217,9929b52d-eaf5-43b6-b026-133723cda70a
0.069626791630182,0.2146963535403726,0.0045538934611657,-0.1427115111314355,-0.128971122431806,0.3257633843896068,-0.1898101448715694,-0.2175670456610366,-13.150872901050889,16.877831070474933,56.65292885022754,1.168478950782723,0.4143527976635575,0.5282123135061901,5524.013020833333,11.946,0.1,178.69482871391807,-10.777752496108626,105.6345741687447,1553.0,1435.0,1200.0,1528.0,1471.0,990.0,160.0,294.53,1649327657.4719322,1649327658.5912569,9929b52d-eaf5-43b6-b026-133723cda70a
0.1031033719500027,0.21012060745198,-0.0309607358847603,-0.576723755745438,-0.2060487862779421,0.7494537856259446,-0.1022003752022368,-0.1225414095422078,-12.858030718708708,15.67625802148732,59.64390500645228,3.0904835685138305,0.4197737374888177,0.5574249044629676,5518.877604166667,11.932111111111109,0.1,178.66737894255368,-10.62426827962964,105.96309867872326,1553.0,1522.0,1200.0,1528.0,1471.0,990.0,160.0,294.53,1649327659.4993773,1649327660.6378748,c6a4a529-095f-4996-9fdf-a40c8f422748
0.1136400289415028,0.2326736547839716,-0.0254200774769844,-0.5927611243981958,-0.20851568428608,0.7443854694381979,-0.1003550063003521,-0.1210642039638653,-12.686188830253132,15.761348024514518,59.99173410906086,3.1162526663192907,0.5023895565316886,0.5537691061423066,5522.826171875,11.929555555555558,0.0988888888888888,178.67319067462748,-10.629266744873489,106.06867139490431,1553.0,1522.0,1200.0,1528.0,1471.0,990.0,160.0,294.53,1649327660.7464588,1649327661.873133,c6a4a529-095f-4996-9fdf-a40c8f422748
0.1065220329247351,0.2134436874379309,-0.0222214041296378,-0.5698141136338586,-0.1982495857619883,0.742868312299973,-0.0959805358342563,-0.1161081566355885,-12.80985832665967,15.756814566996022,60.13117850088468,3.061169773328156,0.4272823311965023,0.5271842741715502,5512.1708984375,11.928666666666668,0.1,178.61645456992187,-10.608525452502668,106.15920099889338,1553.0,1522.0,1200.0,1528.0,1471.0,990.0,160.0,294.53,1649327661.9858563,1649327663.0927498,c6a4a529-095f-4996-9fdf-a40c8f422748
0.1166465288485193,0.2132368483244549,-0.0526823828044847,-1.0359947858507097,-0.2773147283418357,1.192065168709746,-0.000232232038583,-0.0296984613863786,-12.60845597862698,14.851536924977202,63.19331390015112,5.115236023700511,0.4533918559940691,0.5407890574118032,5529.95263671875,11.90675,0.09,178.66509576209612,-10.461405988118845,106.31633234666168,1553.0,1613.0,1200.0,1528.0,1471.0,990.0,160.0,294.53,1649327664.0054777,1649327665.140946,1cc06080-4e56-4e7d-a48c-53bf850f9e33
0.1050625276327019,0.2094500239746615,-0.0552858247828026,-1.0305249245487829,-0.278774233847434,1.1917495999872454,-0.0048079784604845,-0.0329198917359959,-12.773609475323443,14.985057137947583,63.308582402494494,5.102878959668438,0.4385000194078088,0.5524226577981426,5544.26025390625,11.911333333333332,0.0911111111111111,178.6801513963016,-10.450869223669404,106.32327959768496,1553.0,1613.0,1200.0,1528.0,1471.0,990.0,160.0,294.53,1649327665.2499363,1649327666.573263,1cc06080-4e56-4e7d-a48c-53bf850f9e33
0.1054701372121918,0.2120271683299866,-0.061610347922386,-1.0309193854964995,-0.2842177948535201,1.1903163920748971,-0.0101332005392112,-0.0335247318832049,-12.720312007573677,14.81445102029261,63.36905338693061,5.099138737796581,0.4468974306221152,0.5765409446518919,5546.41357421875,11.9104,0.09,178.6959443114825,-10.441713165359522,106.33290136105975,1553.0,1613.0,1200.0,1528.0,1471.0,990.0,160.0,294.53,1649327666.68415,1649327667.8123176,1cc06080-4e56-4e7d-a48c-53bf850f9e33
0.1255876420991434,0.203664597882164,-0.0725369149801645,-1.4229875427859928,-0.3387717439147788,1.5808326880876131,0.0838273833805582,0.0601728785957974,-12.68313007840398,14.578747198063756,66.71592714385518,6.859536351388531,0.433181583324169,0.5323533057449545,5563.052680121527,11.847111111111111,0.08,178.73706205028597,-10.299166643062664,106.34201632439812,1553.0,1710.0,1200.0,1528.0,1471.0,990.0,160.0,294.53,1649327669.3891456,1649327670.470432,7ca88101-2a5f-4874-8cf6-abab9a9aa4fa
0.1117683626006113,0.204427222226327,-0.0730760115736767,-1.4276816325402717,-0.3406388591139115,1.5810299186763068,0.084655751156831,0.0548608055889139,-12.517830022994552,14.545488594164429,66.23663265130101,6.870327758092469,0.4396631131522964,0.5339561779681311,5566.58427734375,11.8692,0.0819999999999999,178.78120419685388,-10.31399204297487,106.17663346303902,1553.0,1710.0,1200.0,1528.0,1471.0,990.0,160.0,294.53,1649327670.579146,1649327671.9089117,7ca88101-2a5f-4874-8cf6-abab9a9aa4fa
0.1153316592203122,0.1978397256870735,-0.0759555761534416,-1.4201737189537242,-0.3403364389934374,1.5786237069787783,0.0816184024186122,0.0675098511604175,-12.637600657622697,14.507074882304654,65.93832132632731,6.847478791257808,0.4173400434489014,0.540573979473558,5564.05517578125,11.860500000000002,0.08,178.8099674894867,-10.313239441505695,106.0508855823056,1553.0,1710.0,1200.0,1528.0,1471.0,990.0,160.0,294.53,1649327672.023131,1649327673.1295242,7ca88101-2a5f-4874-8cf6-abab9a9aa4fa
0.1292955743089975,0.2024943639653443,-0.0765341189788428,-1.576472450256392,-0.3693819143177325,1.7257050475946605,0.1087047161584264,0.0780288078132765,-12.721098141832933,15.528445367817367,67.1246870427917,7.537450910484958,0.4440983767216293,0.542746897920361,5565.86083984375,11.827666666666667,0.0733333333333333,178.8755464124377,-10.27507334049292,105.85163985729744,1553.0,1814.0,1200.0,1528.0,1471.0,990.0,160.0,294.53,1649327674.040575,1649327675.1763344,750f032f-c965-4663-a577-c2e8e0cd75cd
0.1254035603506623,0.1958411239457071,-0.0706040566399345,-1.5786945829432129,-0.3644380035737499,1.7325686685171429,0.1158181608114028,0.089402430470239,-12.698319379516056,15.716455611658684,66.93073939971443,7.559409140067856,0.4213551270571524,0.5166424497235174,5559.443739149306,11.82877777777778,0.0777777777777777,178.90979753439558,-10.250184226021132,105.65990051018711,1553.0,1814.0,1200.0,1528.0,1471.0,990.0,160.0,294.53,1649327675.2838414,1649327676.4101045,750f032f-c965-4663-a577-c2e8e0cd75cd
0.123957203790889,0.1928432213202592,-0.0722739410052562,-1.5544352086800897,-0.3611902748401536,1.7128193231343265,0.1121891207688343,0.0804876141499387,-12.56140614277243,15.484045588840308,66.86300933215809,7.458740818117681,0.406645769645271,0.5196077085034436,5553.24072265625,11.8315,0.0799999999999999,178.9141688554644,-10.256022946828502,105.49229905160362,1553.0,1814.0,1200.0,1528.0,1471.0,990.0,160.0,294.53,1649327676.519133,1649327677.8406477,750f032f-c965-4663-a577-c2e8e0cd75cd
0.0336605559407705,0.2206375411148633,0.0440530830554259,0.2569987414832233,-0.0578113860267802,-0.0627547902123322,-0.267545751553746,-0.2970165355024297,-13.19688748431549,18.543120193470138,54.40786934605997,-0.593596502979874,0.4101788416630984,0.4884688552149595,5558.241807725694,11.948555555555556,0.1,178.88450458498912,-10.827614015414582,105.35728518446015,1553.0,1349.0,1200.0,1528.0,1471.0,990.0,160.0,294.53,1649327678.9579794,1649327680.0946867,22d777fd-58eb-49c0-a2d5-9515d281a8e6
0.0800729250376626,0.2332931606321314,0.0433197903349532,0.2447350542496398,-0.0609721305080351,-0.0638926582331996,-0.2693284116411438,-0.281832318045891,-13.274925515497788,18.42661541976524,54.39567739473706,-0.5693396337023601,0.4597669600596529,0.4977114385764182,5555.03955078125,11.946888888888887,0.1,178.83530749130742,-10.845068184383596,105.71332321423532,1553.0,1349.0,1200.0,1528.0,1471.0,990.0,160.0,294.53,1649327680.2030475,1649327681.5240452,22d777fd-58eb-49c0-a2d5-9515d281a8e6
0.0540410351370103,0.2272498178534115,0.0412969140982636,0.2516634053667281,-0.0612629188627858,-0.0617686379356543,-0.2690755518542407,-0.2890261730759266,-13.126434010278937,18.37865341505069,54.755553382886255,-0.5804818976546217,0.4318781108565643,0.5004654922087707,5560.44580078125,11.9475,0.1,178.7760692606359,-10.850440223029548,105.95662214157024,1553.0,1349.0,1200.0,1528.0,1471.0,990.0,160.0,294.53,1649327681.6326272,1649327682.7526083,22d777fd-58eb-49c0-a2d5-9515d281a8e6
0.0314429776879479,0.2275163317795394,0.0701527394207356,0.5875144583219438,-0.0041505435961492,-0.3842793897005196,-0.3415724166524936,-0.3588629554655645,-13.62013752166392,19.972297613393167,52.72638613646946,-2.051375002082224,0.4148623497725116,0.4856785347418146,5562.24951171875,11.934777777777777,0.0955555555555555,178.7186600028421,-10.95553596433358,106.40489352807748,1553.0,1264.0,1200.0,1528.0,1471.0,990.0,160.0,294.53,1649327684.076272,1649327685.2141817,c1bad91c-0b8f-421f-b72b-88a560de1e85
0.0477079150432776,0.2294491900573791,0.0757672326552712,0.5830176046412529,0.0004909462447104,-0.3829119249002363,-0.3340513611700663,-0.3589681450883994,-13.491323299778012,19.885256581022947,52.652327949366274,-2.0384027306662453,0.4227645156423344,0.4612109058184073,5558.64208984375,11.932333333333334,0.09,178.70085142294616,-10.949990325046222,106.60303731589951,1553.0,1264.0,1200.0,1528.0,1471.0,990.0,160.0,294.53,1649327685.3231783,1649327686.3699558,c1bad91c-0b8f-421f-b72b-88a560de1e85
0.0330471186431746,0.2341564230653205,0.0737423334699945,0.5830570507061669,-0.0012578303817736,-0.3882765940949189,-0.3386139595011861,-0.3526304721461184,-13.65201896145575,19.853976891522816,52.52647961289436,-2.0509559736645016,0.4425385014676367,0.4731420141340047,5558.64208984375,11.938875,0.09125,178.69285706597765,-10.97629894492661,106.71985821527876,1553.0,1264.0,1200.0,1528.0,1471.0,990.0,160.0,294.53,1649327686.4781609,1649327687.4174016,c1bad91c-0b8f-421f-b72b-88a560de1e85
0.0062252951961266,0.2370101957449238,0.102236063603743,0.9187068230475312,0.0488068424940453,-0.7186725794227672,-0.4166949783042507,-0.4480495691537173,-13.844819890062304,21.95232023361693,49.68031282218873,-3.5357652970876363,0.4403482520019889,0.4755607815988268,5556.640679253473,11.927888888888887,0.09,178.6826785662945,-11.097183557844676,106.9416249712552,1553.0,1178.0,1200.0,1528.0,1471.0,990.0,160.0,294.53,1649327688.5821457,1649327689.719118,8a9409c8-3e0d-4a88-aa59-a092fd47daae
0.0584898459452746,0.2584157663431917,0.1050756763057723,0.8888693995323829,0.0430532764934509,-0.7152584688307616,-0.4146528841754335,-0.4357828436354976,-13.732773480608238,21.972793197887697,49.259579667063605,-3.4605209719685432,0.5274220556057362,0.4784241410551118,5551.841634114583,11.926333333333334,0.09,178.72193242236446,-11.118643443034424,107.06537813318704,1553.0,1178.0,1200.0,1528.0,1471.0,990.0,160.0,294.53,1649327689.8270366,1649327690.9483185,8a9409c8-3e0d-4a88-aa59-a092fd47daae
0.0251579008171332,0.2406387299908626,0.0991456143599568,0.90615993349337,0.0445127817541193,-0.7129048508418023,-0.4170459473841514,-0.4409371339739494,-13.794713378899148,21.81436820183904,49.35155287909528,-3.4955973003378324,0.4578631441457516,0.48607878782225,5522.044921875,11.916777777777778,0.09,178.70879265622116,-11.116788856947288,107.1829681877578,1553.0,1178.0,1200.0,1528.0,1471.0,990.0,160.0,294.53,1649327691.0558846,1649327692.1729896,8a9409c8-3e0d-4a88-aa59-a092fd47daae
0.0207793849460682,0.2368124595737446,0.1151870234158208,1.1062830775013266,0.0717174341210343,-0.904981096843769,-0.4681154951779042,-0.5029726986143346,-14.139820922307273,23.510316514018164,47.55816082254254,-4.367065248049744,0.4382559381473633,0.497695923280866,5483.179361979167,11.903444444444444,0.09,178.71922766745314,-11.184750092962563,107.3614083976442,1553.0,1088.0,1200.0,1528.0,1471.0,990.0,160.0,294.53,1649327693.9084475,1649327695.0514135,a846fb37-1691-4e9c-9b82-a7cdc7b94baa
0.0091559373284356,0.2345114378513727,0.1150029416531454,1.1143169307076553,0.073176939385661,-0.9091886823938036,-0.46927258075209,-0.4817506972618562,-14.1650611826647,23.501812827636225,47.686176032403125,-4.394700496061731,0.4276688031567217,0.497564802193196,5470.735622829861,11.896444444444445,0.09,178.7908520667295,-11.194500757185187,107.25599429363383,1553.0,1088.0,1200.0,1528.0,1471.0,990.0,160.0,294.53,1649327695.1646402,1649327696.2792504,a846fb37-1691-4e9c-9b82-a7cdc7b94baa
0.0297073497537748,0.249356315119162,0.1133593546987652,1.097723276781669,0.0674572565741549,-0.909280723449001,-0.4698248261246721,-0.4941762178039378,-13.984293646114509,23.313166910280778,47.56157149832303,-4.358737371958447,0.4851066971850837,0.5100607187705125,5466.470703125,11.879,0.09,178.7785759400613,-11.20075208782304,107.35880533666052,1553.0,1088.0,1200.0,1528.0,1471.0,990.0,160.0,294.53,1649327696.3921423,1649327697.512709,a846fb37-1691-4e9c-9b82-a7cdc7b94baa
0.0615008974012451,0.2163267918017835,0.0105628476977005,-0.1768323805466915,-0.1319295793524617,0.3506538646657571,-0.1793043356925594,-0.2003159545486657,-12.954748295284173,17.24031450470286,56.01038797801992,1.3040779568200904,0.4293627267198356,0.5080731846500087,5464.16015625,11.948666666666668,0.1,178.82652842149423,-10.79895084197141,107.22937097515904,1553.0,1435.0,1200.0,1528.0,1471.0,990.0,160.0,294.53,1649327698.6169517,1649327699.7549694,3a6b1fdb-9b01-4ef5-bd4f-337046d893d8
0.0639991496733447,0.2267274100432091,0.0162825306894661,-0.1882717477107192,-0.1301676538647739,0.3503514446180729,-0.1739659644348818,-0.2019069472379447,-12.855254291956854,17.23007295241412,55.96082709745977,1.329461880250136,0.4698772860430564,0.4914381727699208,5473.064073350694,11.944666666666668,0.0911111111111111,178.84639516506007,-10.807527567430435,107.30173682941532,1553.0,1435.0,1200.0,1528.0,1471.0,990.0,160.0,294.53,1649327699.8628683,1649327700.9847853,3a6b1fdb-9b01-4ef5-bd4f-337046d893d8
0.0700081038327601,0.2273059526633885,0.006473603076744,-0.178344481090877,-0.1370575712392257,0.3438559890921099,-0.1865492680992937,-0.2187109828809951,-13.045681916731589,17.17241695530656,56.33283216390289,1.2915650587591712,0.4682528304992085,0.5326813003784201,5483.9580078125,11.949,0.1,178.82121149868033,-10.806215981382316,107.34586440491309,1553.0,1435.0,1200.0,1528.0,1471.0,990.0,160.0,294.53,1649327701.0931983,1649327702.2129796,3a6b1fdb-9b01-4ef5-bd4f-337046d893d8
0.1180139932188636,0.2475943899249144,0.1452580911027565,-0.195897992784141,-0.0139463225396305,0.3334159247943019,-0.0424658456377028,-0.0560484494509158,-11.971632067941316,17.21177733673529,56.45961999151631,1.3154335877652426,0.5465813044060893,-0.0261085285074505,5489.812662760417,11.951,0.1,178.81948877318965,-10.813453894900285,107.4946600759818,1553.0,1435.0,1200.0,1446.0,1471.0,990.0,160.0,294.53,1649327703.9430313,1649327705.086418,8ab2b48d-bea8-43b5-a5c1-37085575854d
0.1136486261366728,0.2418747073658561,0.1474144772492038,-0.1843797329448161,-0.0091470482955687,0.3282353391202713,-0.0418215593738551,-0.0688684288542236,-12.070397983059626,17.246150948241453,56.44516499031229,1.2780929678249264,0.5246753144647848,-0.0371966850253824,5487.46923828125,11.9488,0.09,178.83913786139397,-10.811437281547835,107.51972186143034,1553.0,1435.0,1200.0,1446.0,1471.0,990.0,160.0,294.53,1649327705.2014549,1649327706.3080692,8ab2b48d-bea8-43b5-a5c1-37085575854d
0.1331744396626626,0.2502372777665123,0.1453895780330308,-0.1911381633652693,-0.0131705494899481,0.3243696226904409,-0.0444512987648804,-0.0690788081709313,-11.990210501881338,17.15524753322462,56.158651875574506,1.283942806357084,0.5587140470621166,-0.0245702845250457,5497.148864746094,11.949749999999998,0.09,178.80078942278948,-10.807558054264389,107.56552101189097,1553.0,1435.0,1200.0,1446.0,1471.0,990.0,160.0,294.53,1649327706.41616,1649327707.5487173,8ab2b48d-bea8-43b5-a5c1-37085575854d
0.1674267924188158,0.2596780411424738,0.3528496967412869,-0.191703557358126,0.1802336220175497,0.3109053586353535,0.1724364454195851,0.1452054957576284,-10.693852315273434,17.150343289640098,57.11194061402495,1.2660643290352078,0.5897197652638831,-0.8761961781555162,5516.915798611111,11.941444444444445,0.0977777777777777,178.82272021157698,-10.792890092584145,107.60326767288409,1553.0,1435.0,1200.0,1354.0,1471.0,990.0,160.0,294.53,1649327709.471871,1649327710.533969,36103cab-9b85-41b6-927f-dd1eaebdad8d
0.1780114925025823,0.2710385140762026,0.3520213289246582,-0.1994612889152315,0.1773014628354014,0.3051593787491566,0.170017085357901,0.1478089377925864,-10.68984110616972,17.035488771048488,56.850993975816834,1.2698096778231662,0.6355134998349258,-0.8666401623857907,5533.52294921875,11.943444444444443,0.0988888888888888,178.8363487157009,-10.806876991911992,107.6065856270009,1553.0,1435.0,1200.0,1354.0,1471.0,990.0,160.0,294.53,1649327710.6435225,1649327711.8528836,36103cab-9b85-41b6-927f-dd1eaebdad8d
0.1805886368773459,0.2779415791754082,0.3619748912625009,-0.2094017043912104,0.1820086959309834,0.3084728499392883,0.1809830976558651,0.1506885024518304,-10.391438154432995,17.137741645550673,57.0599025423298,1.3010356091979884,0.6592972317224184,-0.9010231760146136,5546.654134114583,11.943333333333335,0.09,178.8333995917993,-10.81062562740147,107.60329423473084,1553.0,1435.0,1200.0,1354.0,1471.0,990.0,160.0,294.53,1649327711.984394,1649327713.069127,36103cab-9b85-41b6-927f-dd1eaebdad8d
0.2477916203806214,0.2921553189877542,0.5887898817442407,-0.1915326244152277,0.3934002728997389,0.2703416331382959,0.4098755879650337,0.3766488348793127,-8.986787528264287,17.31079035653728,57.7027826396139,1.1882919844245898,0.7091495255081461,-1.820319529367688,5552.241373697917,11.93277777777778,0.0977777777777778,178.8448287750104,-10.815332481513254,107.5538383527706,1553.0,1435.0,1200.0,1252.0,1471.0,990.0,160.0,294.53,1649327713.977425,1649327715.1112108,b86c903e-8644-4909-9d9c-f62101f7a77c
0.2547604290373049,0.294982288487603,0.5893026808426868,-0.2008156046782939,0.3924272694349925,0.2707886888313231,0.4117690000539656,0.3834335614781639,-8.901463583284835,17.229349532217032,56.95515692951192,1.20964613433588,0.7269487269226854,-1.8230897771432688,5555.03955078125,11.935555555555554,0.09,178.85078014650722,-10.80917184060938,107.55303542608816,1553.0,1435.0,1200.0,1252.0,1471.0,990.0,160.0,294.53,1649327715.2187643,1649327716.3438346,b86c903e-8644-4909-9d9c-f62101f7a77c
0.2479362560409423,0.3048569587501234,0.5850556523673761,-0.2067193701926256,0.3843408218784547,0.2696447522765346,0.40551022115852,0.3820135026537201,-8.79140912848375,17.321630311502066,57.352761835257645,1.2209120506281508,0.7601410494934869,-1.795632460358133,5559.042914496527,11.935333333333334,0.09,178.86751259215396,-10.804769309370611,107.55313863783562,1553.0,1435.0,1200.0,1252.0,1471.0,990.0,160.0,294.53,1649327716.4518473,1649327717.5691023,b86c903e-8644-4909-9d9c-f62101f7a77c
0.0145190883170555,0.1968055301598544,-0.1938624722703561,-0.1381575103118251,-0.3182061681837742,0.3549059504169994,-0.3986534462228729,-0.410575776440748,-14.296824114872786,17.567280125614335,57.32932046578943,1.217915086544272,0.336239709684819,1.3515137718985146,5553.040852864583,11.940111111111111,0.09,178.9593513157339,-10.801880613670388,107.65221053174666,1553.0,1435.0,1200.0,1604.0,1471.0,990.0,160.0,294.53,1649327719.5074012,1649327720.6457474,237fdc8b-f513-47f9-9fe9-ffcf40fc0597
0.0046985292212917,0.1975899004693453,-0.2021436231658936,-0.1352036049539554,-0.322756629269802,0.3517715037298541,-0.4068688544640594,-0.4287482896582922,-14.500789653526583,17.317868338112458,57.3202519977151,1.2020384360193883,0.3398126671399876,1.3807645194413225,5555.03955078125,11.943111111111111,0.09,178.98388990869205,-10.817866481695326,107.60225908161662,1553.0,1435.0,1200.0,1604.0,1471.0,990.0,160.0,294.53,1649327720.7561183,1649327721.8786,237fdc8b-f513-47f9-9fe9-ffcf40fc0597
-0.0048211270175004,0.1907657273945753,-0.2073110612894962,-0.1314430775469519,-0.3240320530431046,0.3510746229063126,-0.4121020366233549,-0.441699758367023,-14.765463593241009,17.242339693203736,56.72555465436644,1.1910036025165678,0.3205700833249528,1.3952108003998935,5558.64208984375,11.943666666666664,0.09,178.96750959724255,-10.816161400860024,107.578588681593,1553.0,1435.0,1200.0,1604.0,1471.0,990.0,160.0,294.53,1649327721.9868343,1649327723.1069944,237fdc8b-f513-47f9-9fe9-ffcf40fc0597
-0.0355759283238619,0.1870314977798769,-0.352433241781535,-0.1095504970767418,-0.4626719336370306,0.3499043889517036,-0.5740545698481765,-0.6108709325056865,-15.709166760018,17.895658589651063,57.71920324575214,1.1357778041160302,0.2925527307219407,2.012660215181948,5558.64208984375,11.937666666666663,0.09,178.99145624047262,-10.81897856930144,107.5520329061,1553.0,1435.0,1200.0,1676.0,1471.0,990.0,160.0,294.53,1649327725.0368907,1649327726.1744573,a2bf6a95-52b7-4528-b41c-9e6fbcc634ef
-0.0424921428152308,0.1860058994855452,-0.3724061150067742,-0.1075518953672133,-0.4814745738553274,0.3418705360068748,-0.5968675650278514,-0.6251372714430777,-15.798022296492336,17.910906494156865,56.532175067572105,1.1120889257438602,0.2983436262841922,2.096126990958687,5569.47802734375,11.939,0.09,178.98398704916025,-10.847539100179583,107.5044659509002,1553.0,1435.0,1200.0,1676.0,1471.0,990.0,160.0,294.53,1649327726.282909,1649327727.4040115,a2bf6a95-52b7-4528-b41c-9e6fbcc634ef
-0.0399149982750324,0.1903975638804269,-0.3658975089781219,-0.1019636987036059,-0.4778981274022256,0.3307861860119594,-0.5935277947870621,-0.6178660400451692,-15.553522614468925,18.056323343406213,56.3346642222291,1.075954970273339,0.3145621133413702,2.0780417947006216,5565.86083984375,11.934111111111111,0.09,178.97993902371218,-10.816936058148393,107.4448194266983,1553.0,1435.0,1200.0,1676.0,1471.0,990.0,160.0,294.53,1649327727.512153,1649327728.6298864,a2bf6a95-52b7-4528-b41c-9e6fbcc634ef
-0.0963360562300372,0.1397619363044435,-0.5368831943848895,-0.0345371813711989,-0.6237961034837142,0.3320879068750539,-0.7785168731392805,-0.8073256799467831,-17.047521253822445,18.64064076050377,56.92317944080703,0.921483744380971,0.1108745647577011,2.7672271854412056,5555.03955078125,11.925,0.09,179.03607680384647,-10.827863203482805,107.30268167225054,1553.0,1435.0,1200.0,1747.0,1471.0,990.0,160.0,294.53,1649327730.5668085,1649327731.7020586,25a8eaf8-dc4d-48cd-a754-ce6b321635b3
-0.1059214564248538,0.1558296426494933,-0.5421821205710396,-0.0432547673898996,-0.6319745954021054,0.323120496593515,-0.7873133551644643,-0.8038544226706024,-17.08655737923964,18.538589096206945,56.69259444144492,0.920000744034658,0.1741938568024053,2.799671045588687,5547.84912109375,11.920333333333332,0.09,179.00831921862346,-10.831963233232324,107.21897466833236,1553.0,1435.0,1200.0,1747.0,1471.0,990.0,160.0,294.53,1649327731.809943,1649327733.1334636,25a8eaf8-dc4d-48cd-a754-ce6b321635b3
-0.104198977035894,0.160010927928123,-0.5484934965194379,-0.0618470246565266,-0.6406001431064523,0.334480969358889,-0.7919679957062141,-0.8232750563999506,-17.21558326878529,18.54651586482459,56.4147121008992,0.9870978592007756,0.1951414281681414,2.826507174453202,5548.2083984375,11.933699999999998,0.09,179.03205245638748,-10.82103933223777,107.15410934836764,1553.0,1435.0,1200.0,1747.0,1471.0,990.0,160.0,294.53,1649327733.2426531,1649327734.365926,25a8eaf8-dc4d-48cd-a754-ce6b321635b3
0.0444864844642245,0.220166210951349,-0.0476990267728867,-0.1310354679425315,-0.1555446395031011,0.3288533278354099,-0.2128203654663465,-0.2456789617186748,-12.544784088483889,13.874423096750068,59.12418210825428,1.127271394322188,0.4038746225286481,0.6743007594236878,7978.373860677083,11.649666666666668,6.903333333333332,-179.03034581978687,-10.783190749644035,95.29901808019524,1553.0,1435.0,1350.0,1528.0,1471.0,990.0,160.0,294.53,1649327739.532018,1649327740.5150485,17e0be7c-97f7-4af7-9da7-bcc325f30eef
0.0755467392567122,0.20050992237432,-0.0459143440974013,-0.1252996017320775,-0.1486006102269399,0.3447409975352377,-0.2068341680418825,-0.2224356039620043,-12.809985167631728,13.947325888827116,59.425944217778174,1.1505211544738243,0.3287622753699242,0.6517690583059176,7984.149793836806,11.653,6.932222222222222,-178.5719945918845,-10.691587288135455,90.94540617408512,1553.0,1435.0,1350.0,1528.0,1471.0,990.0,160.0,294.53,1649327740.6227238,1649327741.7353456,17e0be7c-97f7-4af7-9da7-bcc325f30eef
0.0741367944422866,0.2162216022664832,-0.0486983276982853,-0.1378990879343913,-0.1553211115889166,0.3369134780673443,-0.2100722876241746,-0.2373295379033112,-12.574074053828705,13.744233444542736,58.83070452994623,1.1598919459132937,0.39266783345327,0.6705273320834766,7988.28173828125,11.647,6.962222222222222,-178.32486924079456,-10.548542351756662,86.37149258757549,1553.0,1435.0,1350.0,1528.0,1471.0,990.0,160.0,294.53,1649327741.845052,1649327742.8844516,17e0be7c-97f7-4af7-9da7-bcc325f30eef
0.2617423863527934,0.5631893726125761,0.0005172436431994,-0.315537994027712,-0.1939125384671666,0.1621804627787489,-0.2320963562262975,-0.248913541146556,-11.562843670893807,13.040622342565278,59.173920250614216,1.1663034022588368,1.7087879980768743,0.7292672001133472,7995.7333984375,11.6298,6.912999999999999,-178.5316468430735,-10.406687443031512,80.67595827225634,1637.0,1435.0,1350.0,1528.0,1535.0,990.0,160.0,294.53,1649327743.9080694,1649327745.0170307,3fd2180b-6e5b-4e72-8747-bd1cf2c735c5
0.2599410150560086,0.570000396621765,0.0042383247168915,-0.3071359758378109,-0.1919665312906487,0.1504123799892452,-0.2343316348844697,-0.2622726179138065,-11.608260360922706,13.22968854031762,59.55302460616612,1.122382251884385,1.7304995698692278,0.7260501257094637,7995.7333984375,11.640777777777778,6.946666666666667,-178.64940795593748,-10.337318182491586,77.57294003923325,1637.0,1435.0,1350.0,1528.0,1535.0,990.0,160.0,294.53,1649327745.1263485,1649327746.4558766,3fd2180b-6e5b-4e72-8747-bd1cf2c735c5
0.2632413376304462,0.5706972774572386,-0.0020467521887367,-0.3122771168171891,-0.1967132110737445,0.1476248564628705,-0.2385655155451256,-0.2670455954201227,-11.584499904847537,12.964675441152794,58.54399684871837,1.1254968256139306,1.7421181632770213,0.7458521532842124,7995.7333984375,11.627999999999998,6.954444444444444,-178.84675944181583,-10.341596062778,74.6398048515404,1637.0,1435.0,1350.0,1528.0,1535.0,990.0,160.0,294.53,1649327746.5688174,1649327747.8799126,3fd2180b-6e5b-4e72-8747-bd1cf2c735c5
0.4630489111635006,0.907698330762678,0.0549134004632539,-0.4903104999409733,-0.2300451595710319,-0.0213753360123317,-0.2555141870731254,-0.2766835908166799,-10.707906110360137,12.794851910311802,58.30627977675218,1.1494443378831227,3.027507383056283,0.7773034027823401,8003.19873046875,11.602666666666668,7.0,-179.45333943508572,-10.31031142478588,70.88317728182624,1723.0,1435.0,1350.0,1528.0,1599.0,990.0,160.0,294.53,1649327748.9988568,1649327750.1324337,9c321de9-f7a9-4688-9c75-7a34ee3a29a4
0.4601824956310346,0.9065412455853142,0.0529147986039518,-0.4884565332401891,-0.231294285859521,-0.020270845458795,-0.2579335474824449,-0.2814039736981664,-10.791015854788668,12.818479430712877,58.52783070685577,1.1477947748071684,3.021437677199228,0.785294634565923,8004.029893663194,11.60077777777778,6.970000000000001,-179.65159098811472,-10.335306407189805,69.2019755467716,1723.0,1435.0,1350.0,1528.0,1599.0,990.0,160.0,294.53,1649327750.2408235,1649327751.363744,9c321de9-f7a9-4688-9c75-7a34ee3a29a4
0.46352175847574,0.9047995491961288,0.0490976309430635,-0.4901127639179625,-0.2346234350526185,-0.0228282669814675,-0.2606806139003532,-0.2891146735440978,-10.70509135999949,12.728517105269436,57.68072558474503,1.144905735960992,3.021765379339873,0.7976204898347613,8003.19873046875,11.598555555555556,6.987777777777778,20.03631894909739,-10.344091453418514,67.67656435540569,1723.0,1435.0,1350.0,1528.0,1599.0,990.0,160.0,294.53,1649327751.4723046,1649327752.7961147,9c321de9-f7a9-4688-9c75-7a34ee3a29a4
0.6150351826478058,1.1402749842687614,0.0849910430680076,-0.6125094613186998,-0.2647769390328137,-0.1554278182797959,-0.2864470047131522,-0.3129972606432462,-10.41203872322973,13.144943140557674,55.64134532948064,1.127404018207988,3.9382944164243727,0.8510268609832846,7987.455349392361,11.545,6.991111111111112,179.38709874269514,-10.37387857243511,65.51043436747833,1813.0,1435.0,1350.0,1528.0,1662.0,990.0,160.0,294.53,1649327753.913051,1649327755.054074,a973c777-ba8f-4233-9e74-b3511c77b138
0.5996112577203746,1.1473201566076223,0.0838931268672107,-0.6148418386364473,-0.2652705210678867,-0.1586608806818537,-0.2872945900432657,-0.3058737007149212,-10.439093267623514,12.91752313878447,55.8530057609415,1.1238580248609338,3.963247347117529,0.8556074610576991,7980.84423828125,11.546333333333331,6.970000000000001,179.16169491098563,-10.382678417407025,64.53609194526794,1813.0,1435.0,1350.0,1528.0,1662.0,990.0,160.0,294.53,1649327755.168553,1649327756.2808132,a973c777-ba8f-4233-9e74-b3511c77b138
0.601005019384977,1.1449533913693566,0.0863650816855438,-0.6116335557517479,-0.2639162052659237,-0.1623293672423733,-0.2859534228859866,-0.3109622469305357,-10.32319074257869,13.055949735648609,55.434462873704994,1.1094097032854413,3.957023792048159,0.8476594256122912,7982.33173828125,11.540400000000002,6.992,178.99919651440405,-10.414222678478598,63.61267996696861,1813.0,1435.0,1350.0,1528.0,1662.0,990.0,160.0,294.53,1649327756.3894126,1649327757.5094397,a973c777-ba8f-4233-9e74-b3511c77b138
-0.1876406096436418,-0.2012100654211966,-0.1223836252378546,0.0385695709315207,-0.131811241094905,0.574260573793173,-0.1949118394435986,-0.2239967587901278,-13.75024330947172,15.033480280301823,57.29438683732796,1.299213087367169,-1.1773901941020444,0.6648814861342089,7980.84423828125,11.631333333333332,7.0,179.6320399510705,-10.458310809633868,62.39237332582718,1470.0,1435.0,1350.0,1528.0,1403.0,990.0,160.0,294.53,1649327758.4200993,1649327759.557185,4a8db8c4-cc2d-4fdc-90bd-8fc2d0aa810b
-0.2065878827259753,-0.2183428184134662,-0.1194383170261038,0.0613168153420502,-0.1219628669117374,0.5765221493253875,-0.1920585720167603,-0.2213012754597016,-14.04205057144802,15.109711896611737,58.229591930310846,1.2536371333110867,-1.2504844565228297,0.6426004750104639,7994.077473958333,11.634777777777778,7.047777777777778,179.48605300557048,-10.45300868556317,61.78460260291193,1470.0,1435.0,1350.0,1528.0,1403.0,990.0,160.0,294.53,1649327759.6648674,1649327760.786662,4a8db8c4-cc2d-4fdc-90bd-8fc2d0aa810b
-0.1734137190024452,-0.209940800612328,-0.1208057815450325,0.0504165462866247,-0.126814736143441,0.5714204556753609,-0.1911513119591714,-0.2119262543484113,-13.615337321374788,14.913108002734525,57.24667394895145,1.265447995100436,-1.2120283434021604,0.6496950079757002,7988.28173828125,11.645333333333332,7.058888888888888,179.3108055296661,-10.402012026762655,61.28614602202312,1470.0,1435.0,1350.0,1528.0,1403.0,990.0,160.0,294.53,1649327760.9009385,1649327762.0158615,4a8db8c4-cc2d-4fdc-90bd-8fc2d0aa810b
-0.4007284117988227,-0.5915160433337763,-0.1816579525034777,0.2154852750716264,-0.1023976057750376,0.7832590804797125,-0.1760434585959109,-0.1987644078909455,-14.701176504607169,16.527801042763556,55.63111509088601,1.3759929103039588,-2.6453173518612787,0.6294518745547627,7995.7333984375,11.574666666666666,7.027777777777778,179.00596963354897,-10.399474896077212,60.07884102542175,1385.0,1435.0,1350.0,1528.0,1331.0,990.0,160.0,294.53,1649327764.15472,1649327765.2920568,9cb72ff0-aec7-460f-b434-fbc29605a937
-0.4031214749978065,-0.5976564864190587,-0.1810925583947785,0.2233218977490952,-0.0967962607172775,0.7809843562312689,-0.1754649158235422,-0.1964107913011545,-15.000120360778793,16.37392205730089,55.4862343357308,1.3520382953267784,-2.665879443888412,0.6192036966755502,7995.7333984375,11.585888888888888,7.03,178.9067254670889,-10.45480720718087,59.68990728678399,1385.0,1435.0,1350.0,1528.0,1331.0,990.0,160.0,294.53,1649327765.40052,1649327766.5208175,9cb72ff0-aec7-460f-b434-fbc29605a937
-0.4084598467886448,-0.5996024941415786,-0.1822759411897618,0.2265696256275531,-0.0973090599465936,0.7818521701071429,-0.1763458785998118,-0.1928869403311926,-14.983927846592946,16.38183255441588,55.75539267229284,1.346706881955302,-2.6761530570098,0.6229502426086877,7995.7333984375,11.582999999999998,7.023333333333334,178.81204386699434,-10.478726529654256,59.359038504100326,1385.0,1435.0,1350.0,1528.0,1331.0,990.0,160.0,294.53,1649327766.629269,1649327767.7492745,9cb72ff0-aec7-460f-b434-fbc29605a937
-0.5463897042749865,-0.8632865584012228,-0.2027747605998842,0.3447763977516556,-0.0591909877360486,0.8994146528275785,-0.1523758033371599,-0.173321678520381,-15.985415514338518,17.629927622718352,51.21954682055941,1.350265865945227,-3.633671378399961,0.5263665503569965,7995.7333984375,11.4296,6.95,178.76895083748292,-10.463225187659935,58.73921431868378,1297.0,1435.0,1350.0,1528.0,1253.0,990.0,160.0,294.53,1649327769.3836143,1649327770.6240091,e66ca2fb-c126-4596-90e3-f1b9e2d21be5
-0.5631674456375119,-0.8724775018689915,-0.2077318195756897,0.3510877715046531,-0.062925217634556,0.9017682692578184,-0.1576484309634237,-0.1909409334706084,-16.017778316817715,17.8063308957883,51.05887609540812,1.3421985111470882,-3.66757825252707,0.5443384122541217,7988.28173828125,11.435666666666666,6.967777777777777,178.75989613159123,-10.520288515344996,58.37704627001953,1297.0,1435.0,1350.0,1528.0,1253.0,990.0,160.0,294.53,1649327770.7387578,1649327771.8460016,e66ca2fb-c126-4596-90e3-f1b9e2d21be5
-0.565954969973156,-0.8656138788380139,-0.2006183742326554,0.3387148491884182,-0.0599799095677247,0.9050028482948648,-0.1480235845834941,-0.163972955105231,-15.715281652426052,17.75720792553688,50.91856111935005,1.3775357855736368,-3.640759389071704,0.5176824711357579,7988.28173828125,11.434666666666669,6.96,178.7214892189783,-10.529886069493726,58.14465591369903,1297.0,1435.0,1350.0,1528.0,1253.0,990.0,160.0,294.53,1649327771.9544342,1649327773.0748742,e66ca2fb-c126-4596-90e3-f1b9e2d21be5
0.0555050919124602,0.2048479805141125,-0.05515433782055,-0.1278140371730051,-0.1572013753396635,0.3333238842425825,-0.2137933690652259,-0.232240992039468,-12.473395102300938,13.561073535527177,58.019338679797954,1.1274619330755795,0.3548343024711176,0.6849000355535495,7989.937662760417,11.65711111111111,7.06,178.34148633213533,-10.52850162809446,57.86348510523617,1553.0,1435.0,1350.0,1528.0,1471.0,990.0,160.0,294.53,1649327773.9852817,1649327775.0517347,c5b2c023-9eee-4076-8117-abfdcc7e4d0f
0.046116922785862,0.2071227048700981,-0.0569031145454621,-0.1278140372488689,-0.1613563637789469,0.3357300954894825,-0.2182244801755543,-0.2464152883352952,-12.518390453891232,13.821747779047048,58.65117541908973,1.1345880437663445,0.3579779725395561,0.7002799532771422,7997.392361111111,11.660222222222224,7.062222222222221,178.26825152603462,-10.534308047798875,57.86820248922295,1553.0,1435.0,1350.0,1528.0,1471.0,990.0,160.0,294.53,1649327775.1595733,1649327776.3558223,c5b2c023-9eee-4076-8117-abfdcc7e4d0f
0.039713507668988,0.1950127561271714,-0.0594539617216533,-0.1201483468496808,-0.1565044944479586,0.3404504771052036,-0.2177379783513648,-0.2384340286543433,-12.868477880910053,13.56837900938886,58.6358763057314,1.125918160889975,0.3140619127270616,0.6948954354828245,8003.19873046875,11.653,7.066666666666666,178.20639733291102,-10.505828435689647,57.902516600703166,1553.0,1435.0,1350.0,1528.0,1471.0,990.0,160.0,294.53,1649327776.4638376,1649327777.579841,c5b2c023-9eee-4076-8117-abfdcc7e4d0f
0.0606785981755501,0.1963250971003332,-0.0947415239451908,-0.5960103706094898,-0.2393013369692978,0.797915829660259,-0.1217342816987711,-0.1491316151603626,-12.604508171668606,12.354890721923203,61.80342726631762,3.2181683846870657,0.3453729295247295,0.7202163321444741,8003.19873046875,11.639888888888889,7.044444444444445,178.24902074897147,-10.391776608836436,57.9735991383054,1553.0,1522.0,1350.0,1528.0,1471.0,990.0,160.0,294.53,1649327779.5147333,1649327780.6531265,fe5af2a4-e4dd-47ec-aa8a-e4573fd1707d
0.0684828550711216,0.1951442430860516,-0.1012931151717924,-0.5944482039190158,-0.2465336265690704,0.7957108946555651,-0.1292077988774286,-0.1558602081126524,-12.519478160880626,12.442922642076748,61.47467880801072,3.2099374822712763,0.3426496976553923,0.7490686847603152,8003.19873046875,11.639888888888889,7.059999999999999,178.23212893224414,-10.395908114374388,57.94857863755583,1553.0,1522.0,1350.0,1528.0,1471.0,990.0,160.0,294.53,1649327780.7627351,1649327781.883134,fe5af2a4-e4dd-47ec-aa8a-e4573fd1707d
0.0610669904243394,0.2012452378898261,-0.0901430201283686,-0.5963284680517229,-0.2374347276519878,0.7931600478133081,-0.1193857221436741,-0.1425668753693073,-12.501280945903082,12.47730424101224,61.79576809909568,3.2092902676080706,0.3634964762620143,0.708665521847734,8003.19873046875,11.636,7.059999999999999,178.20355749203603,-10.389650522729792,58.00254168545838,1553.0,1522.0,1350.0,1528.0,1471.0,990.0,160.0,294.53,1649327781.9911523,1649327783.1102571,fe5af2a4-e4dd-47ec-aa8a-e4573fd1707d
0.0875879105663431,0.1838232160593534,-0.1339018839217646,-1.089155001264852,-0.3274638633681095,1.2839745545390295,-0.0233213431288827,-0.0460159935742568,-12.386286639891784,11.403192715793802,64.84073143880318,5.415155870212221,0.3282371670336707,0.7525480909177078,8003.19873046875,11.619666666666667,7.059999999999999,178.29010813137867,-10.199031990689525,58.09013962047371,1553.0,1613.0,1350.0,1528.0,1471.0,990.0,160.0,294.53,1649327784.020522,1649327785.15788,5660ac85-33cb-418d-a5de-b3acb29bb6ec
0.0866412044266367,0.1868474160836704,-0.140883842062918,-1.077242273938262,-0.3362471938243143,1.2723905531185813,-0.0377717607060654,-0.0568505198065583,-12.442384428584717,11.760191034122402,65.087984322041,5.36428298350922,0.3358821299433402,0.7952361572057353,7996.562879774306,11.619666666666667,7.04,178.3128329296572,-10.197854067648912,58.07772157765271,1553.0,1613.0,1350.0,1528.0,1471.0,990.0,160.0,294.53,1649327785.2661374,1649327786.3862154,5660ac85-33cb-418d-a5de-b3acb29bb6ec
0.085194847877885,0.1895166013103173,-0.1364001363446509,-1.0826595405981372,-0.3318818259653098,1.2762825672060063,-0.0321178211700826,-0.050552294146999,-12.517360014905488,11.676739302776795,65.34419078079843,5.38492203217192,0.3451029140070275,0.7757472258429803,8003.19873046875,11.62,7.056,178.33541414218115,-10.21424959524207,58.08217197713391,1553.0,1613.0,1350.0,1528.0,1471.0,990.0,160.0,294.53,1649327786.4953449,1649327787.6152723,5660ac85-33cb-418d-a5de-b3acb29bb6ec
0.09240033333188,0.1802862169015391,-0.1681147941915187,-1.5148312876170589,-0.4081442782500157,1.7019453482238112,0.0522968099707199,0.0384643814949457,-12.584559476131693,11.132646314874746,68.20455906969636,7.311552811508451,0.3367974343252105,0.8019659734689553,8003.19873046875,11.566222222222224,7.017777777777778,178.38051858651224,-10.036440475862232,58.141249167123,1553.0,1710.0,1350.0,1528.0,1471.0,990.0,160.0,294.53,1649327788.3851197,1649327789.4589474,815fe720-bdad-4ff8-a39b-c3d1b5c68b33
0.1147662653038573,0.1866238882482142,-0.1684040654792407,-1.5115704069775575,-0.4118785086778531,1.687113616080557,0.0487466620162308,0.0272616920921573,-12.24371643705549,11.218229511932211,67.38860981481547,7.271462623464709,0.3649685185410307,0.8123489540722331,8003.19873046875,11.564600000000002,7.019999999999999,178.41461701579664,-10.053278258204148,58.15950064684112,1553.0,1710.0,1350.0,1528.0,1471.0,990.0,160.0,294.53,1649327789.5682442,1649327790.6909034,815fe720-bdad-4ff8-a39b-c3d1b5c68b33
0.0935311212147761,0.1844675021473253,-0.161921757658825,-1.5110050122889769,-0.4055145384016155,1.6945426308293006,0.0551237796846026,0.0239613693806477,-12.389409448550824,11.36239180606583,68.26637663725693,7.28822624752185,0.3504760901693184,0.7865862343097993,8003.19873046875,11.5678,7.0280000000000005,178.42564367319275,-10.035829515440977,58.146002827003336,1553.0,1710.0,1350.0,1528.0,1471.0,990.0,160.0,294.53,1649327790.800357,1649327791.916022,815fe720-bdad-4ff8-a39b-c3d1b5c68b33
0.1119129982685304,0.1861505351935735,-0.1556629778515274,-1.6579418756495563,-0.4261579959221472,1.8330247313967671,0.0860889590742357,0.0631050381007417,-12.609127880587176,12.454755093422271,69.08324530798716,7.938440248522905,0.36961008593931,0.761549578024578,8003.19873046875,11.4958,6.99,178.53170011854905,-9.985892977890634,58.22050721348876,1553.0,1814.0,1350.0,1528.0,1471.0,990.0,160.0,294.53,1649327794.0562694,1649327795.1893394,d5d0f029-add1-4370-96a6-d6a24c3668ed
0.1057199624454568,0.1806543803677929,-0.1554525986762172,-1.6596643563602986,-0.4261711446207749,1.8401776237915768,0.0903622853631537,0.0747547829578262,-12.365281247627935,12.42932819823998,69.12528673073977,7.958370612625492,0.3471226450537591,0.754756531978413,7995.7333984375,11.488,6.98,178.59062279448088,-10.003710209359532,58.194536785207625,1553.0,1814.0,1350.0,1528.0,1471.0,990.0,160.0,294.53,1649327795.2973862,1649327796.422593,d5d0f029-add1-4370-96a6-d6a24c3668ed
0.1077448616344773,0.1847962195413922,-0.1601992784257334,-1.6551674982693187,-0.4299185239305671,1.8282517540018293,0.0822363911882681,0.0575825857950313,-12.464345665888452,12.356134395409796,68.54770427508466,7.920564280710916,0.3676214975178899,0.7775871116405821,7995.7333984375,11.506555555555556,7.005555555555556,178.58714850492305,-10.006544073818915,58.19809379594537,1553.0,1814.0,1350.0,1528.0,1471.0,990.0,160.0,294.53,1649327796.5312665,1649327797.6509695,d5d0f029-add1-4370-96a6-d6a24c3668ed
0.0287606436444309,0.2035068135520871,-0.0210860647842002,0.3082887681289318,-0.085580422314454,-0.0879603362957714,-0.3080958305392212,-0.3293704247881818,-12.84123444032449,15.411506214161516,54.78132206733805,-0.7896992494135933,0.3296035862058499,0.6732553949720796,7988.28173828125,11.665,7.084444444444444,178.655509591596,-10.617121625028084,58.29196639807823,1553.0,1349.0,1350.0,1528.0,1471.0,990.0,160.0,294.53,1649327799.402319,1649327800.5203516,d4cdbe8a-d8c3-47c4-9c13-61c72cbba14f
0.0332054087349692,0.21097830701117,-0.012878243753242,0.3190631125840782,-0.0756506274746874,-0.0934266541617834,-0.3029208063145188,-0.3371074220197471,-13.0480496150323,15.325652728660202,56.507980304008775,-0.826276381516933,0.3429790115357735,0.6444987862158036,7995.7333984375,11.666,7.074999999999999,178.63679487327016,-10.656537982682057,58.48314642858651,1553.0,1349.0,1350.0,1528.0,1471.0,990.0,160.0,294.53,1649327800.6286852,1649327801.743509,d4cdbe8a-d8c3-47c4-9c13-61c72cbba14f
0.0423300982623087,0.2052555900780481,-0.0263849894650138,0.3170063532137942,-0.0866717640914674,-0.0896170720990744,-0.3113435590251993,-0.3272534844834973,-12.848480839776602,15.056045362160798,55.901299919802106,-0.8155322528192012,0.3248722409427697,0.688597421816655,8012.177734375,11.6638,7.064,178.65997926738888,-10.694631313721052,58.69712532698035,1553.0,1349.0,1350.0,1528.0,1471.0,990.0,160.0,294.53,1649327801.8549674,1649327802.978119,d4cdbe8a-d8c3-47c4-9c13-61c72cbba14f
0.0249606703869687,0.21714201095354,0.0094846546598282,0.7001067333676958,-0.0214279308440865,-0.4690227550918073,-0.3949692816918817,-0.4280119632935792,-13.324155389598005,16.887187857445102,53.56915187483179,-2.518974345776656,0.3486271654054348,0.670327743008359,8025.68017578125,11.651333333333334,7.036666666666666,178.664306875247,-10.81880477893256,59.196946731447305,1553.0,1264.0,1350.0,1528.0,1471.0,990.0,160.0,294.53,1649327804.9091866,1649327806.0544918,743e4a25-40b7-4dac-8ea9-cc93e6a167eb
0.011811974003901,0.2147489483532234,0.0076832831695137,0.6907448625519232,-0.0250964172764193,-0.4622117288239263,-0.3949692817682204,-0.4109449513888147,-13.253441859791648,16.975673459690988,52.97053307305973,-2.482113915875019,0.3454967260303728,0.6765770118070461,8025.68017578125,11.646444444444445,7.045555555555556,178.69751070153214,-10.861684327086945,59.34595793292985,1553.0,1264.0,1350.0,1528.0,1471.0,990.0,160.0,294.53,1649327806.1664383,1649327807.2769165,743e4a25-40b7-4dac-8ea9-cc93e6a167eb
0.0248423321204527,0.2194430326969494,0.0016217341079929,0.6791740109777344,-0.0326832152156185,-0.4590165948815045,-0.3992294601899772,-0.4252244380919612,-13.181334031915195,16.858878157170526,52.5254549938204,-2.449943742630372,0.3675751194371011,0.7011757985124889,8016.5068359375,11.651111111111112,7.07,178.70213853414978,-10.879978040141438,59.51956236888388,1553.0,1264.0,1350.0,1528.0,1471.0,990.0,160.0,294.53,1649327807.3854206,1649327808.4343483,743e4a25-40b7-4dac-8ea9-cc93e6a167eb
0.0043172169944067,0.2199558318278096,0.0424878824986782,1.079656968829231,0.0390692214337721,-0.848112955311952,-0.4821057111054886,-0.4965166859914345,-13.718973007947424,19.013012906218083,49.52590059966653,-4.212120550757785,0.3532078839574787,0.6638222828050131,7995.7333984375,11.631777777777778,7.068888888888889,178.7048068613855,-11.004028220438425,59.71814480663264,1553.0,1178.0,1350.0,1528.0,1471.0,990.0,160.0,294.53,1649327809.4160807,1649327810.5573862,f7da79fc-70bb-4c80-adf7-c656ae864166
-0.0123027353539848,0.2132631457496729,0.0385432735799159,1.0796964149183812,0.0366761586931714,-0.8408022765268106,-0.483039268783798,-0.5054052074185498,-13.688557715226567,18.977040702823462,49.61954366074291,-4.196186101844877,0.326805480098481,0.6731464834009532,7995.7333984375,11.619999999999996,7.064444444444444,178.74556184125308,-11.0128851733809,59.84013274411897,1553.0,1178.0,1350.0,1528.0,1471.0,990.0,160.0,294.53,1649327810.666129,1649327811.7836006,f7da79fc-70bb-4c80-adf7-c656ae864166
-0.00536022356653,0.2176153639919846,0.05120546814391,1.0805905262222035,0.0491411228152378,-0.8438527755134269,-0.4709950600230761,-0.4935845260625623,-13.731931107713724,18.911389279305663,50.00506647840596,-4.204822973379857,0.3407105698088681,0.6228352166180424,7988.28173828125,11.623900000000004,7.07,178.7918866127158,-11.03089945580735,59.92838235507211,1553.0,1178.0,1350.0,1528.0,1471.0,990.0,160.0,294.53,1649327811.8935237,1649327813.018541,f7da79fc-70bb-4c80-adf7-c656ae864166
-0.0095941038726602,0.2189433822576733,0.0626448338587838,1.3146373147700283,0.0755568534959327,-1.0684852359976154,-0.5359496365203001,-0.5533716641282415,-14.099580589912469,20.566481042361666,48.67141609157821,-5.2264105683436295,0.332050782982505,0.6631398503375034,7995.7333984375,11.605222222222222,7.050000000000001,178.87013690261503,-11.123513083321429,60.16012483000436,1553.0,1088.0,1350.0,1528.0,1471.0,990.0,160.0,294.53,1649327814.9440982,1649327816.0834916,5dbde5cd-0d06-4217-be62-5f9541e0b9a7
0.0034888491566873,0.2196665605183388,0.0672468774938608,1.325826855508187,0.0811056032593435,-1.0830802990371493,-0.5340956699048796,-0.5616816433728199,-14.015014411766334,20.528278795108093,48.18726489429512,-5.284507190514744,0.337369047551476,0.6462470881625493,7995.7333984375,11.5814,7.047999999999999,178.89425202384464,-11.152479384354516,60.22421082538479,1553.0,1088.0,1350.0,1528.0,1471.0,990.0,160.0,294.53,1649327816.1916358,1649327817.312599,5dbde5cd-0d06-4217-be62-5f9541e0b9a7
-0.0054522644943034,0.22436064486589,0.0696662375394656,1.3146373148640222,0.0774108195693316,-1.074783466056246,-0.532636164245078,-0.5611030998509373,-13.875022995232392,20.8755121910654,48.56557909946562,-5.238069143057076,0.3521678390770949,0.6468624789003619,7995.7333984375,11.5934,7.040000000000001,178.90547812276446,-11.159203534837664,60.318800066143545,1553.0,1088.0,1350.0,1528.0,1471.0,990.0,160.0,294.53,1649327817.4212065,1649327818.54029,5dbde5cd-0d06-4217-be62-5f9541e0b9a7
0.0464324914885955,0.205058359641765,-0.0604401138999776,-0.1936232673155319,-0.1690615003293788,0.3996984979387734,-0.2030114370373134,-0.226823729120649,-12.676452301900488,13.5408113630244,58.89153903264192,1.4247033555912776,0.3570973424861928,0.693452784618864,7998.221842447917,11.661666666666669,7.0633333333333335,178.94500488283725,-10.70538436512262,60.38617601186518,1553.0,1435.0,1350.0,1528.0,1471.0,990.0,160.0,294.53,1649327819.451802,1649327820.5890417,84a579a9-6684-43e7-8048-593bafc6fcd5
0.0516393752266491,0.2050846570377374,-0.0544180108490014,-0.190414985274593,-0.1638020214815907,0.3969767180175217,-0.1986986642498805,-0.2290984538584687,-12.685773409711883,13.657910700232142,58.96664450573042,1.4124334608589806,0.3565850352667212,0.6720225893626172,8007.354546440973,11.663,7.071111111111112,178.93771175862355,-10.706119843686997,60.404252486958576,1553.0,1435.0,1350.0,1528.0,1471.0,990.0,160.0,294.53,1649327820.697898,1649327821.8140814,84a579a9-6684-43e7-8048-593bafc6fcd5
0.0753596231941185,0.2012715352824621,-0.0597958277680232,-0.1873250411186241,-0.16739161574761,0.3950570085431926,-0.2020515821056691,-0.2250749516368927,-12.551902544448744,13.512690804769344,58.53478060097977,1.3999175463399385,0.3444397781296786,0.6881259624516122,8009.016872829861,11.662444444444446,7.075555555555557,178.95389930695643,-10.70754109221679,60.44411119422505,1553.0,1435.0,1350.0,1528.0,1471.0,990.0,160.0,294.53,1649327821.9227705,1649327823.0483868,84a579a9-6684-43e7-8048-593bafc6fcd5
