raw_voltage_G-,raw_voltage_G0,raw_voltage_G1,raw_voltage_G2,raw_voltage_G3,raw_voltage_G4,raw_voltage_G5,raw_voltage_G6,load_x,load_y,load_z,load_l,load_m,load_n,rpm,voltage,current,roll,pitch,yaw,aileron1_pwm,elevator_pwm,throttle_pwm,rudder_pwm,aileron2_pwm,pbaro,pdiff,Tt,sample_start_time,sample_end_time,uid
0.3983310336511779,0.619242259317175,0.4574081209446239,-0.4166909323898251,0.1471646520387021,0.1308076743868841,0.235655374290912,0.2069254743728364,-3.2443190231126344,17.09597415229997,52.75086011997431,1.376777797108676,1.9585586636709065,-1.0230743421841282,5439.4173828125,11.9494,0.12,178.64675328908004,-8.845930819566192,107.52815168090396,1553.0,1435.0,1200.0,1528.0,1471.0,988.0,161.0,292.25,1649324891.5351703,1649324892.7147188,ae19a285-ffca-4ca4-a722-dd46c1c876d5
0.38724668359255,0.6175592263604345,0.4520566020140685,-0.41620443059783,0.1429044745141773,0.1312941761464537,0.2305405316846407,0.208108856948192,-3.296498023941916,17.061118829122154,52.609762564891,1.3762273152626403,1.953466373348101,-1.0031152428564731,5445.63330078125,11.95077777777778,0.12,178.68024550113014,-8.85441514774395,107.16783172964712,1553.0,1435.0,1200.0,1528.0,1471.0,988.0,161.0,292.25,1649324892.823459,1649324893.9445477,ae19a285-ffca-4ca4-a722-dd46c1c876d5
0.4050237195112657,0.6154948812511671,0.4536738915229557,-0.4178085718959821,0.1454947676382335,0.1353834205755249,0.2345903299519074,0.2205869689889147,-3.274391610429416,16.957602510534738,52.716431086757886,1.3884573826734603,1.9449202359892297,-1.0146693693122015,5449.7880859375,11.9508,0.12,178.678650272504,-8.851656054883227,106.87291114325711,1553.0,1435.0,1200.0,1528.0,1471.0,988.0,161.0,292.25,1649324894.0551784,1649324895.1727235,ae19a285-ffca-4ca4-a722-dd46c1c876d5
0.5957904661071934,0.9814170385459264,0.489107981208582,-0.5193970670225858,0.098208221880894,-0.1318117887399923,0.16656774415382,0.1452285063835627,-2.675118253718315,16.593686969531458,52.2793546663755,1.016776753985849,3.331730971156288,-0.8583764132649447,5462.98681640625,11.937333333333337,0.12,178.33847042416178,-8.901798921064742,106.3263767090186,1637.0,1435.0,1200.0,1528.0,1535.0,988.0,161.0,292.25,1649324896.0856006,1649324897.2308242,8715f2dc-c281-4890-9356-09da6f38fdde
0.6076845564383728,0.9852230379764768,0.5015351416244804,-0.5226168548104959,0.1078369024197452,-0.1336652071661495,0.1800363915542133,0.1500968106825277,-2.4098560271916107,16.588218444035178,52.222913700014175,1.020581995044768,3.3458127048346027,-0.9070666573739732,5454.105034722223,11.931555555555557,0.12,178.36696293773943,-8.906725100139873,105.891020451322,1637.0,1435.0,1200.0,1528.0,1535.0,988.0,161.0,292.25,1649324897.363944,1649324898.4602482,8715f2dc-c281-4890-9356-09da6f38fdde
0.6054624269866781,0.983342774539,0.4980112913561109,-0.5202763862457259,0.1051414197423004,-0.1323634861328648,0.1763679054518154,0.1548434902378342,-2.460788261290939,16.610368534345426,52.42463271112322,1.0182055009461155,3.336822049638452,-0.8933359668454881,5452.5615234375,11.935666666666666,0.1166666666666666,178.34877945634906,-8.900409831342293,105.68921340537509,1637.0,1435.0,1200.0,1528.0,1535.0,988.0,161.0,292.25,1649324898.5737782,1649324899.8876677,8715f2dc-c281-4890-9356-09da6f38fdde
0.7999579231494462,1.3448793165394082,0.5419542301538068,-0.6288846507322239,0.0632891199528034,-0.3967575047649274,0.1182769669750518,0.1048389997018377,-1.6509233215070345,16.425578211073557,50.92433335567977,0.6702020507119079,4.716523600980057,-0.7722017345052982,5454.875325520833,11.901333333333334,0.11,178.16864915409803,-8.936633455014238,105.39515327103852,1723.0,1435.0,1200.0,1528.0,1599.0,988.0,161.0,292.25,1649324901.0067894,1649324902.1396973,aa7c54f0-bd3b-4ece-bbf5-48c2a6de7ed6
0.7921081522177821,1.3315070921386438,0.5468192473112804,-0.6222051105353852,0.0707312820263721,-0.3913402408045832,0.1271391880837377,0.1045628769382401,-1.5157066074412098,16.416117653287948,50.75855071448579,0.6675291281001825,4.666367787271284,-0.8032825491722905,5449.0947265625,11.8898,0.101,178.21343379379394,-8.920414117842547,104.9433690423502,1723.0,1435.0,1200.0,1528.0,1599.0,988.0,161.0,292.25,1649324902.24819,1649324903.5729554,aa7c54f0-bd3b-4ece-bbf5-48c2a6de7ed6
0.8006679526813091,1.3332032740071158,0.5425196240427923,-0.6188390432631873,0.0658136696369585,-0.396468233389053,0.1189869965614576,0.0941885556596375,-1.6361923343320506,16.577774073873925,50.6572793845566,0.6491935757153958,4.673795567616615,-0.7791754272701757,5446.671728515625,11.9026,0.12,178.22037599806634,-8.930237125152129,104.67287510970694,1723.0,1435.0,1200.0,1528.0,1599.0,988.0,161.0,292.25,1649324903.684682,1649324904.8019989,aa7c54f0-bd3b-4ece-bbf5-48c2a6de7ed6
0.9261459501392124,1.5492626647009036,0.5860023584046511,-0.6648726449905216,0.05582066053295,-0.590411552595101,0.086772691263617,0.0627368743958487,-1.4149006426238924,17.043318163506484,47.19427672302368,0.3220282367649228,5.521708093242634,-0.75815102584918,5435.618310546875,11.8586,0.1,178.09327710591506,-8.951617154046833,104.29959161118738,1813.0,1435.0,1200.0,1528.0,1662.0,988.0,161.0,292.25,1649324905.4422462,1649324906.4475887,0a5d0844-f671-4a2d-af63-ca627dc4267f
0.9311556029987876,1.557112437216783,0.5811110438708013,-0.6698034079202593,0.0482733088861571,-0.5925153446598947,0.0809215214842817,0.0532303672689187,-1.2836353623634114,17.045212574674903,47.30099215876466,0.3282754183470006,5.549571664522797,-0.731724918819785,5438.72216796875,11.856111111111112,0.1077777777777777,178.08307143725722,-8.92472834042717,104.24459500388144,1813.0,1435.0,1200.0,1528.0,1662.0,988.0,161.0,292.25,1649324906.5640855,1649324907.6655428,0a5d0844-f671-4a2d-af63-ca627dc4267f
0.9260539092628416,1.5559422031374643,0.5843587715326558,-0.6700663818920073,0.0511265759579594,-0.5907402700457656,0.0843270337955117,0.0706655384950485,-1.2820364635392714,17.101030578232795,47.38079393125612,0.3334027180214007,5.54470319049708,-0.7449400473879763,5435.2734375,11.857499999999998,0.1,178.0553449673405,-8.923423669945581,104.25826896670884,1813.0,1435.0,1200.0,1528.0,1662.0,988.0,161.0,292.25,1649324907.7754447,1649324908.8989794,0a5d0844-f671-4a2d-af63-ca627dc4267f
0.1511896702246731,0.151050597458997,0.3932520972182219,-0.3051206847572121,0.1835936195104362,0.4893892874578792,0.3021594532732046,0.2908692752116583,-4.175259162242924,18.04928508021035,53.11907090843762,1.9335985715151995,0.1880931282779904,-1.1361237661519643,5427.2451171875,11.946333333333332,0.1133333333333333,178.84544349203574,-8.825438544508861,103.99557237802205,1470.0,1435.0,1200.0,1528.0,1403.0,988.0,161.0,292.25,1649324910.0152824,1649324911.151514,eeff57d6-402a-4235-bda6-d74b1511f76b
0.1233655125024154,0.1467833399117379,0.3928480277156305,-0.2997595559377425,0.1851249368691291,0.4907400630185196,0.302542788328155,0.2809394816673597,-4.2080573039270055,18.02064445295143,53.41876478103301,1.9243618324708205,0.1689781046722377,-1.1382622938083973,5442.180013020833,11.948,0.1266666666666666,178.83929176832328,-8.815111013892587,103.91133337825856,1470.0,1435.0,1200.0,1528.0,1403.0,988.0,161.0,292.25,1649324911.2586906,1649324912.3293295,eeff57d6-402a-4235-bda6-d74b1511f76b
0.1249302073228949,0.1491288649668909,0.3962358395956495,-0.2959545249891979,0.1877910877661968,0.4866963335635799,0.3047006915131957,0.2866212353158924,-4.133448448773844,18.05283732519377,53.68912413311959,1.9071545687708484,0.1745978328699518,-1.1488465896877622,5452.181857638889,11.953,0.12,178.79950971095747,-8.790253109590758,103.98534454919488,1470.0,1435.0,1200.0,1528.0,1403.0,988.0,161.0,292.25,1649324912.4378834,1649324913.609506,eeff57d6-402a-4235-bda6-d74b1511f76b
-0.0918523505714759,-0.2600504878075336,0.3511798124284905,-0.2008024559742368,0.2259516369491205,0.792357977422538,0.3685755362758006,0.3485632220538324,-4.942624781286497,19.32700702045256,52.66468941056708,2.3850098557519392,-1.35981678784713,-1.2815606173856509,5459.50732421875,11.901333333333334,0.11,179.05328159501974,-8.745861718036336,103.73727511417968,1385.0,1435.0,1200.0,1528.0,1331.0,988.0,161.0,292.25,1649324914.5196636,1649324915.660714,95836826-4128-4bb0-b738-460a93d72da7
-0.0820828687968915,-0.2576311273931825,0.35440124277893,-0.199829452282182,0.2303170038965609,0.7903462270793163,0.3705741379653266,0.3482082071976505,-5.132978198053951,19.26576574902602,52.86479714832667,2.3779848353810795,-1.3510856051622713,-1.294267627709755,5456.0322265625,11.902666666666669,0.1166666666666666,179.02408936650713,-8.73388185082335,103.66074056779996,1385.0,1435.0,1200.0,1528.0,1331.0,988.0,161.0,292.25,1649324915.7761867,1649324916.8887908,95836826-4128-4bb0-b738-460a93d72da7
-0.0866191691929785,-0.2558166070863019,0.3490234263839185,-0.178949320737397,0.2272402090935115,0.7685193933601918,0.3578330522334683,0.3469722297939153,-5.246166894830084,19.334915927202083,52.678118423299466,2.281940456101607,-1.344734943443552,-1.2645739688258055,5456.0322265625,11.888222222222222,0.11,179.0062322163771,-8.715655775614387,103.50236593587525,1385.0,1435.0,1200.0,1528.0,1331.0,988.0,161.0,292.25,1649324916.996891,1649324918.1143506,95836826-4128-4bb0-b738-460a93d72da7
-0.3088979011267626,-0.6475295082604832,0.3133904620139126,-0.0969014502486712,0.267606704488467,1.0670868157050313,0.4282706124935595,0.4074562280509924,-5.810561604036512,20.692075957389523,51.42206401677717,2.77451959532439,-2.8111072291696746,-1.420672170028317,5459.50732421875,11.834333333333332,0.0966666666666666,179.20338183221992,-8.670286528643793,102.84129772904656,1297.0,1435.0,1200.0,1528.0,1253.0,988.0,161.0,292.25,1649324919.0248654,1649324920.1625404,58b00d52-b77e-4832-96a0-d29a65d77731
-0.3047560612044321,-0.6558920820258503,0.3033843048267487,-0.0900378305039178,0.2605721524028694,1.0687041052544308,0.4165682738254352,0.4011448543758902,-6.088444909985916,20.82276665565705,51.30203578551404,2.7628803283698584,-2.840918547358989,-1.3821586743095922,5452.565592447917,11.823,0.0933333333333333,179.19262200754747,-8.670767203206632,102.61635910911056,1297.0,1435.0,1200.0,1528.0,1253.0,988.0,161.0,292.25,1649324920.2713444,1649324921.3909652,58b00d52-b77e-4832-96a0-d29a65d77731
-0.3005879238530311,-0.6462540842496906,0.3062770177871126,-0.0948502535438509,0.2614662636635395,1.062616259238346,0.4188955928492279,0.3867338843944883,-5.95987419282749,20.69006041227892,51.170195300599886,2.7593637879978017,-2.8037380446360087,-1.3895507474868345,5440.640842013889,11.83711111111111,0.0944444444444444,179.18687554172578,-8.672405784561265,102.43644357836342,1297.0,1435.0,1200.0,1528.0,1253.0,988.0,161.0,292.25,1649324921.4985342,1649324922.8271875,58b00d52-b77e-4832-96a0-d29a65d77731
0.3838148741267564,0.5957718387882333,0.4421687832932059,-0.3803742261520502,0.1429439206472831,0.1209067063331878,0.2151171117304652,0.1954335139861719,-3.8458942467455945,17.255635332430032,52.69177421365156,1.2725947679630898,1.869877046380414,-0.9704016034141832,5442.17578125,11.955222222222224,0.12,178.41567432908016,-8.737613031384946,102.29725191217764,1553.0,1435.0,1200.0,1528.0,1471.0,988.0,161.0,292.25,1649324923.4426956,1649324924.6643655,9a2803a3-fdb3-4601-b0bc-e08c98bb664d
0.3913096304085237,0.6039897731478843,0.4528455237444598,-0.3857257465781474,0.1486504546801259,0.1192762680293803,0.2263592465177782,0.2044535194236747,-3.452995534209069,17.30487880744723,52.9856528310249,1.2821053668414046,1.896650387676616,-1.0071175948694178,5442.17578125,11.956444444444443,0.12,178.2798370446868,-8.720563930579209,102.77106668836088,1553.0,1435.0,1200.0,1528.0,1471.0,988.0,161.0,292.25,1649324924.7741234,1649324925.8970764,9a2803a3-fdb3-4601-b0bc-e08c98bb664d
0.3843013758572657,0.6018859819518859,0.4485853465166126,-0.3854496238137187,0.145415875481204,0.1214063567853266,0.2219281360763365,0.1929352620203602,-3.5727844272673512,17.32193878994954,52.99853471625533,1.286111814454491,1.8891897762951304,-0.9909206755447292,5440.640842013889,11.953333333333331,0.12,178.21800258322074,-8.713923184294925,103.0774758047168,1553.0,1435.0,1200.0,1528.0,1471.0,988.0,161.0,292.25,1649324926.0057704,1649324927.32957,9a2803a3-fdb3-4601-b0bc-e08c98bb664d
0.4243260040258086,0.6079869764208985,0.4303612550582163,-0.8045907495328308,0.082394175522674,0.5151308923326992,0.316809122811832,0.2971123770989528,-3.205341773764147,16.354066277999017,55.25528681315346,3.1095642249554367,1.9399035284063184,-1.0144314111353576,5445.63330078125,11.947,0.1111111111111111,178.1716468482338,-8.55881063174506,103.44716965937256,1553.0,1522.0,1200.0,1528.0,1471.0,988.0,161.0,292.25,1649324927.9414403,1649324928.9760883,8ff45e5d-ffd1-45fe-8ea7-7b248ea33c09
0.4178962920839408,0.6083814372705626,0.4325833845346282,-0.7991603354767537,0.0852079964822956,0.5107523768857031,0.3190049549400598,0.2922868058963591,-3.104277610021473,16.289358620595454,55.41580968188988,3.087233586198573,1.9387161525381789,-1.0240003598070988,5449.0947265625,11.9426,0.1129999999999999,178.1572718803246,-8.536045905318996,103.68976090321848,1553.0,1522.0,1200.0,1528.0,1471.0,988.0,161.0,292.25,1649324929.089306,1649324930.1978056,8ff45e5d-ffd1-45fe-8ea7-7b248ea33c09
0.4213018041396962,0.59652131440169,0.4312948124094906,-0.7909160991417071,0.08623359479008,0.5133426698055156,0.3183475201784153,0.3048701072930307,-3.141276398975172,16.417791127652723,55.20254240009876,3.075191954959844,1.8952909793336752,-1.024446918892017,5446.017903645833,11.93611111111111,0.1188888888888888,178.1493470395036,-8.539800602601359,103.80983600828225,1553.0,1522.0,1200.0,1528.0,1471.0,988.0,161.0,292.25,1649324930.3057644,1649324931.426678,8ff45e5d-ffd1-45fe-8ea7-7b248ea33c09
0.4467445292298414,0.6191107723660288,0.4278367055960956,-1.2270849319302888,0.0297073497012302,0.91333912100757,0.4229716883809362,0.3920065111851209,-2.948753321063852,15.865285208683066,58.508231431637775,4.954716452050723,2.0028274348575867,-1.087772136998202,5459.50732421875,11.923666666666668,0.11,178.22092742200533,-8.42146700604846,103.76234418516334,1553.0,1613.0,1200.0,1528.0,1471.0,988.0,161.0,292.25,1649324933.5663557,1649324934.5085766,3619a3bd-f708-4b3e-9e7a-cb6f9b3247a5
0.4403148173158402,0.61757237505577,0.4318733550008327,-1.2224302894367112,0.0339412299234489,0.9110775454288512,0.4253121561098256,0.4072064028533534,-3.018225082912598,15.96951662123777,58.60537277251901,4.940007132076845,1.996372836030344,-1.102473246131505,5456.0322265625,11.919999999999998,0.105,178.21332997491857,-8.416382357098206,103.88523408707508,1553.0,1613.0,1200.0,1528.0,1471.0,988.0,161.0,292.25,1649324934.6175957,1649324935.7229452,3619a3bd-f708-4b3e-9e7a-cb6f9b3247a5
0.446968057048784,0.6168754942226271,0.4331356297445412,-1.2215493259702097,0.0346644082321854,0.9111958836884548,0.4268899995400368,0.3947414397890389,-2.9293141814105645,16.0011411059287,58.65050148524341,4.938610260849713,1.992701937419448,-1.1073891233600666,5452.5615234375,11.911,0.11,178.24011114665416,-8.438401606321857,103.84846376367832,1553.0,1613.0,1200.0,1528.0,1471.0,988.0,161.0,292.25,1649324935.831396,1649324936.9564247,3619a3bd-f708-4b3e-9e7a-cb6f9b3247a5
0.463614305061691,0.6212014148664742,0.4109537809768877,-1.5591950406425672,-0.0305005315634178,1.234430267281428,0.4842183102158797,0.4539631627701703,-3.080402410324774,16.300246150056,61.13497272246325,6.427805368990107,2.0281466055467687,-1.069180479876311,5453.602734375,11.863200000000004,0.09,178.3169862918005,-8.330299348554421,103.52749268401188,1553.0,1710.0,1200.0,1528.0,1471.0,988.0,161.0,292.25,1649324938.0717237,1649324939.2152483,20bf08d1-7bfb-47d0-b5af-3cd65106fdac
0.4573555261961967,0.6132859004945526,0.4155558242805359,-1.5500435369595282,-0.0252410529307956,1.231287728879288,0.4881629187224806,0.4659810701354721,-2.9976972660409924,16.453348760420646,60.81447461396091,6.401334744569409,1.9998814095732609,-1.0895680231315483,5452.5615234375,11.866,0.09,178.34119794637036,-8.323325725411838,103.22393858672903,1553.0,1710.0,1200.0,1528.0,1471.0,988.0,161.0,292.25,1649324939.3299296,1649324940.4445229,20bf08d1-7bfb-47d0-b5af-3cd65106fdac
0.4736993541962087,0.6325881847091179,0.408310893265179,-1.567965231519214,-0.036470039756168,1.228381867038158,0.4773809887888561,0.4593804251167232,-3.197890128065509,16.38250708717,60.676561614171824,6.434278713777967,2.076661999143372,-1.0471739275565235,5454.104058159723,11.859777777777778,0.0944444444444444,178.32877610899982,-8.324379946137482,103.14444277388914,1553.0,1710.0,1200.0,1528.0,1471.0,988.0,161.0,292.25,1649324940.5567963,1649324941.6624672,20bf08d1-7bfb-47d0-b5af-3cd65106fdac
0.4640219146103637,0.6206360209842444,0.3875885495920027,-1.6752324345794247,-0.0777437989337507,1.3476405432849643,0.4751720079657772,0.4528060776548093,-3.379760672913611,17.657112728769086,61.82017313543838,6.951745842191611,2.034900372293902,-0.9609897089066396,5452.5615234375,11.855222222222222,0.09,178.32012150041152,-8.235238388369735,103.17662207179882,1553.0,1814.0,1200.0,1528.0,1471.0,988.0,161.0,292.25,1649324942.5773494,1649324943.6174114,1045cbd4-2aa1-4919-a8c0-e7ac33c0abde
0.4515438029384728,0.618926690634759,0.3818162723738341,-1.6689736458530886,-0.0806233636199299,1.3433672166751287,0.4687554447825366,0.4498870672722689,-3.4977729747071704,17.540769647399326,61.74904360175736,6.926895396703498,2.0288165299894523,-0.9403506226066752,5449.0947265625,11.853,0.09,178.3542071800095,-8.255737019297547,103.00134499840804,1553.0,1814.0,1200.0,1528.0,1471.0,988.0,161.0,292.25,1649324943.7260523,1649324944.9390996,1045cbd4-2aa1-4919-a8c0-e7ac33c0abde
0.4473230718232075,0.6193605975729319,0.3861290444070226,-1.6853437953995525,-0.0790323712772995,1.3583041363085078,0.4784723304188564,0.4514912080984646,-3.319951669952975,17.496470324709,61.84349541386862,6.997413344769834,2.0306364165690884,-0.9620464497362192,5450.635525173611,11.856222222222222,0.09,178.3708288248097,-8.278095738409322,102.76891366095248,1553.0,1814.0,1200.0,1528.0,1471.0,988.0,161.0,292.25,1649324945.047514,1649324946.178447,1045cbd4-2aa1-4919-a8c0-e7ac33c0abde
0.3772536752106156,0.6050942635289231,0.4755401714671746,0.0308381376157598,0.2082666412967944,-0.2848489321978222,0.1280727455115977,0.0977124062228124,-3.678288799741577,18.85931849834047,49.91341644545449,-0.5548525104376331,1.8797937737223944,-0.9806557919312564,5452.5615234375,11.956333333333331,0.12,178.3931620255758,-8.79498244640856,102.57548270365776,1553.0,1349.0,1200.0,1528.0,1471.0,988.0,161.0,292.25,1649324947.0832794,1649324948.2273672,cf504c18-8280-48fd-ac4a-956fc697752c
0.3545393041449354,0.60328985799961,0.4732947789350615,0.0211945802635508,0.20624983368046,-0.2745246756310183,0.1319976312823964,0.0979121649813903,-3.4768877457095657,18.628018904991407,49.87556524212464,-0.5114487967599802,1.872977222745546,-0.9805568113192418,5459.50732421875,11.955,0.12,178.2953400562829,-8.780462602597975,103.12229171150088,1553.0,1349.0,1200.0,1528.0,1471.0,988.0,161.0,292.25,1649324948.3395312,1649324949.4494064,cf504c18-8280-48fd-ac4a-956fc697752c
0.3459800092230395,0.5982579535776757,0.465848066031703,0.0282872905515082,0.200522565255586,-0.2748533930483507,0.1215798183076239,0.0988983177372704,-3.730556705823304,18.812241368378583,49.986701255548354,-0.5274464237629847,1.85357271060256,-0.9484155583385064,5457.194986979167,11.954555555555556,0.12,178.260504573696,-8.778080289533717,103.38720059845984,1553.0,1349.0,1200.0,1528.0,1471.0,988.0,161.0,292.25,1649324949.5583618,1649324950.674096,cf504c18-8280-48fd-ac4a-956fc697752c
0.3486684116874836,0.6040423679290818,0.4994707965096703,0.3856293940398115,0.2644510175803795,-0.6251109732869233,0.050035234181492,0.0239087745349793,-3.939751931910633,20.166432507241776,47.61855875550616,-2.1104297248549075,1.855895207473348,-0.9796646735768796,5474.6181640625,11.941333333333333,0.11,178.233677108456,-8.909052866554513,103.7015623317394,1553.0,1264.0,1200.0,1528.0,1471.0,988.0,161.0,292.25,1649324951.5892715,1649324952.6471035,c286fdcb-f675-4caa-9b65-af813885980a
0.353363507341068,0.601127909117279,0.4904007254967628,0.3858685991644757,0.256429807563257,-0.6216250504250856,0.0402601898802962,0.0136846515224402,-4.1067390291978505,20.240203487372813,47.66688734669555,-2.103174924328821,1.84511457919212,-0.942887854374794,5476.9501953125,11.942125,0.10375,178.25136559085905,-8.918466681499787,103.83464458344008,1553.0,1264.0,1200.0,1528.0,1471.0,988.0,161.0,292.25,1649324952.7549822,1649324953.696593,c286fdcb-f675-4caa-9b65-af813885980a
0.3591216244499506,0.6061330104307813,0.49945764780454,0.3813955141762033,0.2627153897577168,-0.6236514675382061,0.0496144758504216,0.03920070833876,-3.914906578725569,20.24179468456698,47.56033431713131,-2.097097269428432,1.8645983061492963,-0.9765635230095916,5461.056749131944,11.943444444444443,0.11,178.23046843736591,-8.917873012366462,104.08092621644006,1553.0,1264.0,1200.0,1528.0,1471.0,988.0,161.0,292.25,1649324953.8051927,1649324954.978754,c286fdcb-f675-4caa-9b65-af813885980a
0.3187156837094069,0.60325344622908,0.5188782703984417,0.768335311652324,0.3161779854568249,-0.9922490448713148,-0.0463315623254916,-0.0769285796820998,-4.471416070043165,22.011528443018207,45.10097083360122,-3.786199997180804,1.833154909839212,-0.9407871732528548,5459.50732421875,11.902666666666669,0.1,178.2530687744196,-9.06726964521841,104.17471306175332,1553.0,1178.0,1200.0,1528.0,1471.0,988.0,161.0,292.25,1649324956.094427,1649324957.2417462,20f71a5f-edab-4146-8174-cd5e0a0470ed
0.3307861860437832,0.5950749579524321,0.5170243043864932,0.7713726601829987,0.3153101715419623,-0.9875023623535488,-0.0474492015842571,-0.0608214261318415,-4.503882711537898,22.140040520906435,45.021405136638194,-3.781654501057956,1.8029262713006449,-0.9366373744242408,5456.0322265625,11.925222222222224,0.1077777777777777,178.25228254375511,-9.06969341373638,104.42645713854202,1553.0,1178.0,1200.0,1528.0,1471.0,988.0,161.0,292.25,1649324957.3710854,1649324958.4605844,20f71a5f-edab-4146-8174-cd5e0a0470ed
0.3285246104451631,0.5958901770418134,0.5213107789752666,0.7665996839010366,0.31795305932739,-0.9874629162989208,-0.043031239448313,-0.054878215159593,-4.445124802530319,22.18838359360143,44.548661866264496,-3.770311066289502,1.810618091217136,-0.9529589776551504,5439.108072916667,11.923666666666666,0.1,178.26189337882727,-9.07494772648289,104.59274188843553,1553.0,1178.0,1200.0,1528.0,1471.0,988.0,161.0,292.25,1649324958.5698154,1649324959.6868331,20f71a5f-edab-4146-8174-cd5e0a0470ed
0.3052908657191227,0.602911580159991,0.530265040274204,1.0392510274151652,0.3452891969010732,-1.2530404802768484,-0.122738640100424,-0.1511135286774571,-4.851409980746265,23.897672722739102,43.17410377735626,-4.970780623588159,1.819038306803421,-0.8885951930422668,5431.8291015625,11.899777777777778,0.0922222222222222,178.26281773109497,-9.191209404123818,104.766457884146,1553.0,1088.0,1200.0,1528.0,1471.0,988.0,161.0,292.25,1649324960.4422555,1649324961.5332563,c5fef00e-44c7-4886-9d61-1c7d34db29b5
0.2980853806343826,0.5933524789083391,0.5182734304150115,1.0413548186610633,0.33751831798248,-1.2459796244223262,-0.1334022333930958,-0.1563730076371793,-5.142389753578925,23.862354210017283,43.03660650484582,-4.960659197788004,1.7854441585504568,-0.8480035336259334,5428.009114583333,11.887666666666666,0.0955555555555555,178.3112847534453,-9.212240505215668,104.6345130486696,1553.0,1088.0,1200.0,1528.0,1471.0,988.0,161.0,292.25,1649324961.6418808,1649324962.7604418,c5fef00e-44c7-4886-9d61-1c7d34db29b5
0.2984140980093773,0.6012679932882482,0.5270304613070786,1.0362925710592783,0.342698903955335,-1.250726308268037,-0.1263939778267178,-0.1507453655521937,-5.025302292899011,23.928287188751007,42.86109242236628,-4.959002359602756,1.8170385489643024,-0.876254072096026,5424.953125,11.891,0.098,178.30338601912518,-9.20986600892346,104.79345868440892,1553.0,1088.0,1200.0,1528.0,1471.0,988.0,161.0,292.25,1649324962.8697453,1649324963.9907944,c5fef00e-44c7-4886-9d61-1c7d34db29b5
0.3702848667347439,0.5898680747409639,0.4454033622952417,-0.4016225234410877,0.1405245606056765,0.1495051199775857,0.2265827743255573,0.2074908682250013,-3.4341345121239524,17.478408484244817,53.20483449598832,1.3867170794835284,1.8430977205692936,-0.9878206088952493,5427.248155381944,11.955222222222224,0.11,178.38918837329868,-8.81642051293846,104.64630347299686,1553.0,1435.0,1200.0,1528.0,1471.0,988.0,161.0,292.25,1649324966.1299365,1649324967.2669432,27adeabb-c797-4b56-bd7b-f06fd521a098
0.3729221915682668,0.5969177981249402,0.4508661394010511,-0.4092229770717767,0.1423143003992186,0.1457911191083216,0.2308783520514288,0.2074509164795982,-3.299774541589772,17.53449406806878,52.700362553833806,1.3961470104807203,1.874341665344492,-1.0036748479577953,5445.287548828125,11.9565,0.11,178.41799932547366,-8.800286458267655,104.53856968496238,1553.0,1435.0,1200.0,1528.0,1471.0,988.0,161.0,292.25,1649324967.3754747,1649324968.5019674,27adeabb-c797-4b56-bd7b-f06fd521a098
0.3775823925973224,0.6042264496596036,0.448374967384082,-0.4057117687593562,0.1397487875201299,0.1379211189022594,0.2248602951841287,0.1934217636282644,-3.411519756602268,17.51271535323018,53.02713562617552,1.3702690658517325,1.8990576746164272,-0.986909543224777,5454.489691840277,11.955888888888888,0.11,178.44514431861907,-8.798171955023479,104.48118668545142,1553.0,1435.0,1200.0,1528.0,1471.0,988.0,161.0,292.25,1649324968.6133068,1649324969.721152,27adeabb-c797-4b56-bd7b-f06fd521a098
0.4665333153695292,0.6406746321139368,0.6814881812874765,-0.4269732150244301,0.3492338055392043,0.1101642217000393,0.4639693197906399,0.4464684065822435,-1.811843030029353,17.458281885663624,53.18504178141536,1.367933268738145,2.0404338329148275,-1.9248474280406656,5461.053765190973,11.943,0.1044444444444444,178.36950983939,-8.786037459916782,104.70237704935296,1553.0,1435.0,1200.0,1446.0,1471.0,988.0,161.0,292.25,1649324970.6352725,1649324971.7772472,a7a0772d-38d1-472a-921b-423cb6fb8ce5
0.4598143321763546,0.6353757080431925,0.6851566671836964,-0.423620296753207,0.3534150906390987,0.1137012209378585,0.4704384777722362,0.4483092238598174,-1.6188218207318368,17.43757599193443,53.42678403749711,1.3684991174518737,2.0168703290259105,-1.9448810752248045,5467.246419270833,11.941,0.11,178.3932105958099,-8.790598318735057,104.71996099191615,1553.0,1435.0,1200.0,1446.0,1471.0,988.0,161.0,292.25,1649324971.891189,1649324972.9980984,a7a0772d-38d1-472a-921b-423cb6fb8ce5
0.4631803981256185,0.6431202893776988,0.6837103107376524,-0.4302735385116373,0.3516663141639388,0.1104008982303736,0.4667962892309651,0.4434310579386705,-1.856847716268901,17.357124461986206,53.1482342015718,1.375321374580546,2.0507967874138915,-1.934989484487676,5471.511773003473,11.946555555555555,0.1055555555555555,178.37425909759284,-8.782146718547075,104.7965653580074,1553.0,1435.0,1200.0,1446.0,1471.0,988.0,161.0,292.25,1649324973.1062396,1649324974.2304914,a7a0772d-38d1-472a-921b-423cb6fb8ce5
0.5606253770868254,0.6890486808904008,0.9965572133827064,-0.4302209436955656,0.6329563481672731,0.0486283237814356,0.7795642971870312,0.7486517152321491,0.4788548175627591,17.60689098008178,53.164224104504136,1.2548032123457096,2.226213519105579,-3.1827651883946464,5476.9501953125,11.927,0.1,178.30886383083953,-8.795710146146384,104.92090591620786,1553.0,1435.0,1200.0,1354.0,1471.0,988.0,161.0,292.25,1649324975.942762,1649324976.8958037,9884950a-0801-4238-bafb-38c7e40eb294
0.5770217997452157,0.6917704607483952,0.9942561917124562,-0.433402928862733,0.6295376874744945,0.0484836881193037,0.7784466581107131,0.759144373937142,0.6474087166780754,17.53746056130257,53.093058779070425,1.261154639071005,2.236104322305482,-3.1730335906014493,5479.401220703125,11.9365,0.1,178.34002451987095,-8.801417537594208,104.81468827838714,1553.0,1435.0,1200.0,1354.0,1471.0,988.0,161.0,292.25,1649324977.003997,1649324978.1250398,9884950a-0801-4238-bafb-38c7e40eb294
0.5675228790505967,0.6914999010630176,0.9898362071928902,-0.432979136219792,0.6270586527524785,0.0488447715551269,0.7741596778192963,0.7550434982194864,0.4977462664842065,17.4334428885739,53.13068542190906,1.2600310995900643,2.235481203564832,-3.15756630835789,5474.2294921875,11.928333333333333,0.1,178.35876215727598,-8.784664497029869,104.7863709212162,1553.0,1435.0,1200.0,1354.0,1471.0,988.0,161.0,292.25,1649324978.2580354,1649324979.359424,9884950a-0801-4238-bafb-38c7e40eb294
0.6496157446913388,0.7266933945967128,1.2987405406654935,-0.3866987502189223,0.9090789438015718,-0.0460554395564041,1.0690196740268167,1.0461672412441676,2.555020652291941,18.19182143754485,52.904879070121545,0.963788783080447,2.3688162784749296,-4.377103381760344,5469.95947265625,11.932333333333332,0.1077777777777777,178.26307120700412,-8.799348360244274,104.8173526592914,1553.0,1435.0,1200.0,1252.0,1471.0,988.0,161.0,292.25,1649324979.9640338,1649324981.1938696,b81cb412-197d-493a-bb02-fc594b871563
0.6624225735858347,0.7334912699017951,1.299503165025045,-0.3801506982321017,0.9088554159745338,-0.0584546605943606,1.0659428792684595,1.045785929064904,2.6182189546290946,18.208047896044604,52.93681689595218,0.9213377210821048,2.392824493904222,-4.372495230089615,5473.4521484375,11.923333333333334,0.1,178.2668232575882,-8.800340824676173,104.84225704682508,1553.0,1435.0,1200.0,1252.0,1471.0,988.0,161.0,292.25,1649324981.302637,1649324982.4185555,b81cb412-197d-493a-bb02-fc594b871563
0.6616336518882788,0.735595061099132,1.295584853472012,-0.3884606758471655,0.9060678925881396,-0.0555225011994877,1.0633920323200683,1.0407368301493891,2.450055215225855,18.02908039981808,52.537253727194496,0.9451421033602684,2.406218230760888,-4.360151571658326,5473.4521484375,11.919666666666668,0.1,178.2794500006338,-8.81148532180817,104.7826044513439,1553.0,1435.0,1200.0,1252.0,1471.0,988.0,161.0,292.25,1649324982.5267851,1649324983.651431,b81cb412-197d-493a-bb02-fc594b871563
0.3008860527561301,0.5618350570260864,0.2032438395660747,-0.346135014955146,-0.077862137165577,0.1367377362726453,-0.039244414794359,-0.064240087403394,-5.302549827154747,17.987163609040813,52.79700482825909,1.223169987529752,1.7326209342958276,0.0132052142534652,5475.0068359375,11.957666666666666,0.1155555555555555,178.3748783680776,-8.805235508990133,104.96222248940715,1553.0,1435.0,1200.0,1604.0,1471.0,988.0,161.0,292.25,1649324985.5903025,1649324986.720547,79cf4fec-db66-4747-88fa-a714238614a2
0.2913117796228474,0.5647287813637113,0.2023178679644128,-0.3463367968931091,-0.0797848812111795,0.1300506129515894,-0.0409077249062317,-0.0738679680754425,-5.162447990563182,17.947535827133784,52.2131418826591,1.2082669471718537,1.7476227860818143,0.0190935866211289,5467.245985243056,11.957333333333334,0.11,178.404673171057,-8.810753163474642,104.85570493039091,1553.0,1435.0,1200.0,1604.0,1471.0,988.0,161.0,292.25,1649324986.8287718,1649324987.9482107,79cf4fec-db66-4747-88fa-a714238614a2
0.2900474819786864,0.5626426903270447,0.208146280144478,-0.3453759305736369,-0.0734128205240454,0.1318964875743968,-0.0350160974092868,-0.0590630407357192,-5.251709151479384,17.98107253329256,52.35586844734303,1.2107377494477378,1.7394172187770474,-0.0060374555668236,5461.440375434027,11.958666666666668,0.11,178.3798021755593,-8.801451868781163,105.00050721752493,1553.0,1435.0,1200.0,1604.0,1471.0,988.0,161.0,292.25,1649324988.0563843,1649324989.1832898,79cf4fec-db66-4747-88fa-a714238614a2
0.2537348307823018,0.5346698531389867,0.0352035047745391,-0.3013242509952061,-0.2279808139366458,0.1281253404302609,-0.2228265244839265,-0.2415371219161733,-6.535642117347702,18.39060921229462,52.3030277254107,1.0963424321283686,1.6276773509391185,0.7034928491290624,5459.50732421875,11.953,0.11,178.3966727428092,-8.811546793510702,105.08877830562844,1553.0,1435.0,1200.0,1676.0,1471.0,988.0,161.0,292.25,1649324990.9399822,1649324991.9588974,8d206f4f-f413-4b56-a27c-c62d6db7901e
0.2430054952120104,0.5335916601442606,0.040384091122809,-0.2982080095685772,-0.2234839593383517,0.1242070290245766,-0.2185269003584565,-0.2397094531454185,-6.452855360447104,18.465142059583865,52.03907825064763,1.081259629578528,1.625332914453098,0.683736402200579,5453.718424479167,11.947666666666668,0.11,178.40056139717666,-8.80380249735677,104.9998037080404,1553.0,1435.0,1200.0,1676.0,1471.0,988.0,161.0,292.25,1649324992.0668075,1649324993.277167,8d206f4f-f413-4b56-a27c-c62d6db7901e
0.2482386760498243,0.5330788610378856,0.0284845209019447,-0.295933284776639,-0.2340292149475419,0.1231419846648158,-0.2310313119075639,-0.251714213855152,-6.5140325979925615,18.42672410871736,52.02086023970669,1.0728542153653418,1.6229689810918664,0.7320286494169252,5455.646592881944,11.950444444444445,0.1088888888888889,178.4029747306834,-8.812916436166766,105.0211275586292,1553.0,1435.0,1200.0,1676.0,1471.0,988.0,161.0,292.25,1649324993.385307,1649324994.5061855,8d206f4f-f413-4b56-a27c-c62d6db7901e
0.1800232429727706,0.508885262178498,-0.1445786259682342,-0.2517142133889977,-0.390590765149627,0.1144769940034941,-0.4233441742059884,-0.4463543980421135,-7.932872936078879,19.045776002513435,51.80114446588419,0.9483725815078702,1.5278127181501409,1.4508918990320865,5438.72216796875,11.949,0.1033333333333333,178.35388388438878,-8.802911157670083,105.32898239835944,1553.0,1435.0,1200.0,1747.0,1471.0,988.0,161.0,292.25,1649324996.6454792,1649324997.7791564,7ae490f1-6083-4fb7-8835-01c1d3e769f5
0.1892536273915806,0.5171426426661925,-0.1406471655143179,-0.2636795284916494,-0.3891049622175299,0.1175537888708844,-0.4166120403354814,-0.4404111861033521,-7.745187685053538,18.85934106030784,51.86464777713467,0.9813418292444872,1.558610955319255,1.4351156100484692,5438.72216796875,11.94611111111111,0.1011111111111111,178.3756585274628,-8.80217529965075,105.33553862105276,1553.0,1435.0,1200.0,1747.0,1471.0,988.0,161.0,292.25,1649324997.8916109,1649324999.0076206,7ae490f1-6083-4fb7-8835-01c1d3e769f5
0.1970902500419712,0.5091745334685729,-0.1396741618757087,-0.2554352948914358,-0.3863963302066166,0.1163967036265232,-0.4165594454791685,-0.4318645313687605,-7.821011741041871,18.986233921492964,51.67243328124119,0.9609655622428076,1.5300147511611035,1.4287570982023243,5429.917751736111,11.947111111111113,0.1055555555555555,178.42011395204068,-8.812180483283697,105.11886377110253,1553.0,1435.0,1200.0,1747.0,1471.0,988.0,161.0,292.25,1649324999.1168263,1649325000.2367306,7ae490f1-6083-4fb7-8835-01c1d3e769f5
0.3759519543765773,0.573050893859101,0.3925193103346988,-0.39624470564682,0.1162389191641003,0.1742378168349544,0.2165371709380557,0.1885698949478485,-2.325044101881018,14.231412780864016,54.8721639534511,1.4068297825965508,1.753325941014912,-0.8658809697378734,7907.22021484375,11.657,7.0233333333333325,-179.82413219128796,-8.92314696190683,92.3507236670945,1553.0,1435.0,1350.0,1528.0,1471.0,988.0,161.0,292.25,1649325003.9791875,1649325005.1552207,ada2cd8b-8cd8-4e18-b339-849032546046
0.3600025870259853,0.5758778632821777,0.392124849482024,-0.401346400873714,0.1157129713449852,0.1728572037659636,0.2183385422477382,0.1984971601635452,-2.1845572276644822,14.029102134340937,54.40921179114573,1.413871672224248,1.767637287017097,-0.8673660290157593,7912.087076822917,11.657,7.043333333333333,-179.3987844374551,-8.827419299368167,87.33600333193058,1553.0,1435.0,1350.0,1528.0,1471.0,988.0,161.0,292.25,1649325005.2635727,1649325006.3845046,ada2cd8b-8cd8-4e18-b339-849032546046
0.349431036018879,0.5684225532229125,0.3909677643155633,-0.3953374454644132,0.1173434096790561,0.1736724229133028,0.2163004944278199,0.1931061952460854,-2.4218165512290937,14.098791180804175,54.2614685269758,1.4024102278584076,1.741852047318616,-0.8663600725548588,7916.714990234375,11.6596,7.049,-179.1948172303467,-8.71546626632404,82.64894447439806,1553.0,1435.0,1350.0,1528.0,1471.0,988.0,161.0,292.25,1649325006.492613,1649325007.6198857,ada2cd8b-8cd8-4e18-b339-849032546046
0.5812162334474241,0.958386550842136,0.4412615233404773,-0.5175414567248398,0.0763194778863656,-0.0984529964225245,0.1616676636027946,0.1344498630954549,-1.5301668791716905,13.68944900327457,53.88135574940794,1.0667493413194835,3.2197395306874217,-0.7548847879224404,7924.76708984375,11.636599999999998,7.118,-179.38108878335348,-8.595537962895548,76.6101133159635,1637.0,1435.0,1350.0,1528.0,1535.0,988.0,161.0,292.25,1649325008.5238192,1649325009.6611357,29211cb6-c93e-4eda-934f-94fcbb8e5923
0.5772847736408064,0.9450537738500052,0.4379480521549379,-0.5138335236958107,0.0781339979459909,-0.0931935176555953,0.1611811618822204,0.1463362841918471,-1.755029397805385,13.583622333441124,53.24552414780961,1.0691228320784325,3.1762920147025686,-0.7547382879266347,7929.16455078125,11.6446,7.126,-179.48009920556197,-8.511507853084174,73.46391781442921,1637.0,1435.0,1350.0,1528.0,1535.0,988.0,161.0,292.25,1649325009.768983,1649325010.887885,29211cb6-c93e-4eda-934f-94fcbb8e5923
0.57285366343321,0.9424240348006684,0.4334906445161857,-0.5105726460210198,0.0741630917271283,-0.0929042463244789,0.1552116539715551,0.130807674345556,-1.8569575245028005,13.703632026505426,53.30613313690371,1.0629490852824903,3.165931116254738,-0.7350791838870072,7921.83544921875,11.6398,7.114,-179.62952871818567,-8.51317834660043,71.03553489654712,1637.0,1435.0,1350.0,1528.0,1535.0,988.0,161.0,292.25,1649325011.0000668,1649325012.1223068,29211cb6-c93e-4eda-934f-94fcbb8e5923
0.7705968871709841,1.2922187871431403,0.4736730567662239,-0.6033630228202077,0.0300623644191534,-0.3607695163992345,0.091532519319425,0.0755831508018083,-0.975566402602993,13.782827003709414,51.707997906874255,0.6730471405391245,4.499773248732494,-0.5992784780978901,7914.5205078125,11.603777777777776,7.12,179.89924909395992,-8.492601244388156,67.36737003968821,1723.0,1435.0,1350.0,1528.0,1599.0,988.0,161.0,292.25,1649325013.0293858,1649325014.1712673,fca33f83-485a-4b6b-9a31-97c226ab4f70
0.757750612153914,1.2917191366779628,0.4739886254606395,-0.6027450338943691,0.031535018476185,-0.3624525498045877,0.0938598385835187,0.0671679853685191,-0.8662310696657315,13.604269154353885,51.49191372727719,0.6667237313580132,4.498981445210622,-0.6052381103468061,7914.5205078125,11.6032,7.129,179.62560272545073,-8.47811155776003,65.33572222662289,1723.0,1435.0,1350.0,1528.0,1599.0,988.0,161.0,292.25,1649325014.2799828,1649325015.5998929,fca33f83-485a-4b6b-9a31-97c226ab4f70
0.7697816680806656,1.2941910916139414,0.4789193860964439,-0.6068605771677831,0.0349142333700966,-0.3626366316473133,0.098645963935917,0.0836827477286401,-0.8313390407914578,13.631782948393685,51.308323704204994,0.6760099418623133,4.510452737709783,-0.6233591229541695,7914.5205078125,11.603666666666664,7.133333333333332,179.40255925533646,-8.497123303937395,63.68073369512889,1723.0,1435.0,1350.0,1528.0,1599.0,988.0,161.0,292.25,1649325015.7080977,1649325016.8254044,fca33f83-485a-4b6b-9a31-97c226ab4f70
0.889566280145751,1.5168511249799448,0.5139738071382144,-0.6596131646059894,0.0147704305491988,-0.5596961887480606,0.058279466761432,0.0296679035666782,-0.4516120318198142,13.984263555348392,47.37913819058742,0.3558346407188449,5.386423110492106,-0.56517381357332,7914.5205078125,11.552,7.12,179.07459633868964,-8.47196088703507,61.97206852833156,1813.0,1435.0,1350.0,1528.0,1662.0,988.0,161.0,292.25,1649325017.4392369,1649325018.4679134,ea82a0d5-9ea0-4164-84da-f7f7d567c5d7
0.899493544992579,1.5279091797274489,0.5215080094063917,-0.6645044815060243,0.0187018907901221,-0.5627598358777844,0.0633285661335082,0.0383723405309596,-0.4217244922373546,14.052206893219864,47.89075692571503,0.3609059862800728,5.424232544764153,-0.5859776460323196,7914.5205078125,11.552875,7.1175,178.82021448078896,-8.435134961629593,60.80160974611773,1813.0,1435.0,1350.0,1528.0,1662.0,988.0,161.0,292.25,1649325018.5755894,1649325019.8974247,ea82a0d5-9ea0-4164-84da-f7f7d567c5d7
0.9055156473745553,1.5230310128694378,0.5204561137952755,-0.6571675063781522,0.0199904630376681,-0.5625100106107652,0.0629472539434193,0.0486677698220304,-0.4452650773491354,14.01477607903306,48.20210733040534,0.3446542292484552,5.402372918785679,-0.5858438665102393,7921.83544921875,11.557666666666668,7.113333333333334,178.61320795333643,-8.442887902241697,59.768446873140064,1813.0,1435.0,1350.0,1528.0,1662.0,988.0,161.0,292.25,1649325020.0064845,1649325021.129425,ea82a0d5-9ea0-4164-84da-f7f7d567c5d7
0.1267841734479053,0.1135828826675736,0.3491812107576548,-0.2660068480344431,0.1745007906731711,0.5031524311511635,0.2966784702029049,0.2697367931792808,-3.286956537264947,15.091346465312322,54.81597395223726,1.8552096370776745,0.0185798467639125,-1.055823890265594,7925.092827690973,11.655555555555557,7.144444444444444,179.10885960320607,-8.28545223160038,57.92342305084268,1470.0,1435.0,1350.0,1528.0,1403.0,988.0,161.0,292.25,1649325023.065463,1649325024.2015193,5de53968-9680-4080-85cd-e7e301cd65f2
0.123046403769252,0.1074828991698008,0.342439975827575,-0.2580003024530684,0.1703690658837864,0.4998197426724872,0.2893647612382589,0.2752172705284197,-3.343983677376429,15.087665377147337,54.4870686442974,1.829218629571998,-0.002393294496443,-1.031764281354964,7935.690158420139,11.651,7.150000000000001,178.954594468432,-8.282055161125681,57.33680770051668,1470.0,1435.0,1350.0,1528.0,1403.0,988.0,161.0,292.25,1649325024.3098,1649325025.43128,5de53968-9680-4080-85cd-e7e301cd65f2
0.1295322509032593,0.1166859749317652,0.3543749454149834,-0.2686497363293206,0.1779983437708311,0.5017586694738585,0.3020562866464816,0.2846737112419847,-3.1631918433886783,15.089987419551356,54.74420304303112,1.8583398403020348,0.0306330852495243,-1.074985996563779,7936.505859375,11.64411111111111,7.14777777777778,178.85273054497023,-8.288819135406241,56.84717079112112,1470.0,1435.0,1350.0,1528.0,1403.0,988.0,161.0,292.25,1649325025.5392332,1649325026.6614392,5de53968-9680-4080-85cd-e7e301cd65f2
-0.1271171559658251,-0.298063373775051,0.2999261979274415,-0.1623293673486281,0.2118430865048426,0.8074658280159235,0.3573596992586303,0.3258422765459551,-4.127338190622504,16.19346400496559,54.34571805091524,2.3095269884157754,-1.5310967437414558,-1.1765460522160394,7936.505859375,11.585777777777778,7.127777777777778,178.9353773517472,-8.27947619553157,56.13240629322249,1385.0,1435.0,1350.0,1528.0,1331.0,988.0,161.0,292.25,1649325027.5706704,1649325028.705798,1af21423-da49-4a65-8083-b41aefff8078
-0.1141788380335656,-0.3038356522863125,0.2945615301945775,-0.1665763967063562,0.2067150951667552,0.818247757949538,0.3515874220230926,0.3198464712835361,-4.410404451445827,16.41602608159467,54.47435468306028,2.3444219656419225,-1.5516963440955729,-1.1548739697846,7936.505859375,11.590222222222222,7.12,178.84903465371931,-8.283595843102212,55.690557181809865,1385.0,1435.0,1350.0,1528.0,1331.0,988.0,161.0,292.25,1649325028.813958,1649325029.9389143,1af21423-da49-4a65-8083-b41aefff8078
-0.1042515718489852,-0.286558262915035,0.3124043098706505,-0.1702317344333112,0.2185094751958871,0.8046783046656633,0.368707023269636,0.3420677664105489,-3.848048117803572,16.293414954644728,54.60641742621644,2.3225549133901784,-1.4904672100388885,-1.2169463093930497,7932.427354600694,11.593444444444446,7.13,178.73647465401734,-8.331833484932996,55.30036289381529,1385.0,1435.0,1350.0,1528.0,1331.0,988.0,161.0,292.25,1649325030.0480757,1649325031.165001,1af21423-da49-4a65-8083-b41aefff8078
-0.3371706368172715,-0.7064721012337181,0.2529403460984984,-0.0762954194330889,0.2456832775714706,1.1147614573849598,0.4201057785889619,0.3999908034781591,-4.817409924961409,17.51938426155826,52.45479007028561,2.81179110478398,-3.054783163235944,-1.3002846728836484,7943.861328125,11.533666666666669,7.1,178.7269306030171,-8.302970907911552,54.62941254162247,1297.0,1435.0,1350.0,1528.0,1253.0,988.0,161.0,292.25,1649325033.107506,1649325034.2338936,43330988-ce4e-439c-87bc-88e1ce654925
-0.3461744609475407,-0.7110245862975134,0.2576399933229408,-0.0527744236876194,0.2516047420417455,1.1036664868333803,0.4194346894085214,0.388995460007613,-4.824983535923352,17.80168076759567,53.334070348276015,2.7360433595039444,-3.0821904027570444,-1.3130261957473588,7938.140407986111,11.53711111111111,7.092222222222222,178.69761846673904,-8.345042122150415,54.365309616985584,1297.0,1435.0,1350.0,1528.0,1253.0,988.0,161.0,292.25,1649325034.342953,1649325035.4626606,43330988-ce4e-439c-87bc-88e1ce654925
-0.3471343159428343,-0.7147062227255025,0.24885666470104,-0.0681058041691164,0.244688528203653,1.121022765134755,0.4158845417252781,0.3940971537276324,-5.051880478885398,17.620237859565606,53.237604908779446,2.8078593230761704,-3.0922101584997024,-1.2873789331706893,7943.861328125,11.541,7.1,178.66639691313298,-8.366675228526615,54.15881706126804,1297.0,1435.0,1350.0,1528.0,1253.0,988.0,161.0,292.25,1649325035.5710776,1649325036.7033584,43330988-ce4e-439c-87bc-88e1ce654925
0.3707845171432886,0.5672391706733477,0.3834467106293628,-0.3817153934964766,0.1138064103747396,0.1635610758406038,0.2045850065602423,0.179878607040074,-2.725394060668988,14.066316125564118,54.37030227894269,1.3482354252961029,1.7364431878352955,-0.8346793893597994,7937.24140625,11.6565,7.131,177.90947808138785,-8.469535742992893,53.82780321295549,1553.0,1435.0,1350.0,1528.0,1471.0,988.0,161.0,292.25,1649325038.4424036,1649325039.5622928,53d338b2-f077-44db-8d26-417126bd5180
0.3653804033836131,0.5712363739507537,0.392624499876814,-0.3822544902202288,0.1202887174847801,0.1590905192501782,0.2105150682948948,0.1870052001812797,-2.7485811821165043,14.261006774651412,54.27698118493592,1.3411266305864646,1.7530778447225246,-0.8642108133489785,7943.861328125,11.649,7.135000000000001,177.8302929662642,-8.522133749130692,53.81966572557834,1553.0,1435.0,1350.0,1528.0,1471.0,988.0,161.0,292.25,1649325039.6697032,1649325040.787221,53d338b2-f077-44db-8d26-417126bd5180
0.3562815062593145,0.5593368049785972,0.3868127766035714,-0.3862122485557512,0.117054138293289,0.1730018394330582,0.2114880717925869,0.1923698679533759,-2.642613479386266,14.123516561747902,54.061594651867125,1.380133140988184,1.709722699011533,-0.8549163311451652,7936.505859375,11.651555555555555,7.141111111111111,177.81197364000033,-8.524535604125074,53.85193210839992,1553.0,1435.0,1350.0,1528.0,1471.0,988.0,161.0,292.25,1649325040.8954446,1649325042.01973,53d338b2-f077-44db-8d26-417126bd5180
0.3881933896404441,0.5580219354761752,0.3788052211943491,-0.8533724368892994,0.0594891466918284,0.6253826998687798,0.3329031259646414,0.2996500751542898,-2.249366066233478,13.15957855871434,57.47853627099508,3.444446113954488,1.7287169972527026,-0.937230002170281,7943.861328125,11.647000000000002,7.141,177.820592731605,-8.379258912921353,53.926208480403545,1553.0,1522.0,1350.0,1528.0,1471.0,988.0,161.0,292.25,1649325043.952792,1649325045.0960388,0688c89f-6f2c-4a08-a82c-bfe0aa3ad376
0.3760965900362164,0.5610329866345326,0.3816847854651098,-0.8509530753701866,0.0622240755819827,0.6216616191921861,0.3342442929070033,0.3162305802777618,-2.287402635975415,13.16138805707302,57.70196721830228,3.430798709991,1.7381839249624838,-0.946116435422318,7943.861328125,11.640333333333334,7.146666666666666,177.8209151165338,-8.380127286096958,53.9461796120272,1553.0,1522.0,1350.0,1528.0,1471.0,988.0,161.0,292.25,1649325045.2050478,1649325046.3279235,0688c89f-6f2c-4a08-a82c-bfe0aa3ad376
0.3867733305494641,0.5612828118398082,0.3881276461406917,-0.8580139289555716,0.066523699254779,0.6248699007645194,0.3428172422592652,0.3156914837469891,-2.105362660368984,13.168608351853242,57.325529239989066,3.454336006381107,1.7424467551517937,-0.9733993321621552,7943.861328125,11.640777777777778,7.137777777777777,177.83141842965748,-8.420197254909006,54.01053593111678,1553.0,1522.0,1350.0,1528.0,1471.0,988.0,161.0,292.25,1649325046.4416857,1649325047.5509732,0688c89f-6f2c-4a08-a82c-bfe0aa3ad376
0.4214069936846596,0.570933953962602,0.3883248765547996,-1.3441741782810284,0.011404364276436,1.0876382268911269,0.468531917017409,0.4357785172117726,-2.0911821211659363,12.563047999079943,61.30490297481982,5.587533598889813,1.803133916468509,-1.074808466014221,7950.411675347223,11.626333333333331,7.132222222222222,177.87103352684355,-8.284346405001006,54.09374015722102,1553.0,1613.0,1350.0,1528.0,1471.0,988.0,161.0,292.25,1649325049.4843037,1649325050.443163,3089d737-a405-4ff5-a545-62e34774e8b8
0.4195793250544657,0.5668315611281628,0.383565048899041,-1.3387043150603872,0.0089192607312485,1.0864416955871703,0.4634433720219335,0.4444961023449547,-2.189574706312844,12.541535702294397,61.24232038617195,5.572067042382828,1.7880229457735592,-1.0582871684257196,7943.861328125,11.62677777777778,7.139999999999999,177.88344929293478,-8.260361057365644,54.113153072662016,1553.0,1613.0,1350.0,1528.0,1471.0,988.0,161.0,292.25,1649325050.5564034,1649325051.644968,3089d737-a405-4ff5-a545-62e34774e8b8
0.4142541035226378,0.5584689911102161,0.3855373531780449,-1.3312489971519297,0.0104182120647092,1.0878486059999397,0.4677035492220768,0.4444961023210648,-1.8235481122260069,12.652919155181284,61.2741200363897,5.559437086760829,1.7529947514127526,-1.0697742417191434,7943.861328125,11.6196,7.132,177.8959133256962,-8.28058615818994,54.16448611827915,1553.0,1613.0,1350.0,1528.0,1471.0,988.0,161.0,292.25,1649325051.753291,1649325052.870147,3089d737-a405-4ff5-a545-62e34774e8b8
0.4415244972711677,0.5562337129580718,0.3894556643180791,-1.7404369082156292,-0.0399807418964554,1.481060370689108,0.5677914158518357,0.5472926003324279,-1.990231708538764,13.314779562706006,63.68818304409393,7.370947669932866,1.7750344801361964,-1.149815579235819,7943.861328125,11.558333333333332,7.097777777777777,177.9605363257274,-8.150349761725188,54.20950503346357,1553.0,1710.0,1350.0,1528.0,1471.0,988.0,161.0,292.25,1649325055.011608,1649325056.1586485,b89f0871-c9b3-4826-997f-e02c0a01632a
0.4405777912196038,0.5663582081076186,0.3888245269836994,-1.744854876123333,-0.0422423176567644,1.4802451514324293,0.5675678880398514,0.5466877603163846,-1.8726233891249584,13.163316494900515,64.40167440891308,7.378219058884971,1.80635280080562,-1.1432196116117956,7943.861328125,11.568555555555555,7.108888888888889,177.99499083554056,-8.160136948487125,54.21337509453828,1553.0,1710.0,1350.0,1528.0,1471.0,988.0,161.0,292.25,1649325056.2702858,1649325057.3824332,b89f0871-c9b3-4826-997f-e02c0a01632a
0.4236554205715062,0.5556025755985278,0.3895608539067673,-1.740883964268297,-0.0381136269009181,1.483690110133446,0.5702896679041284,0.553327851355528,-1.995888627510616,13.130752889443116,63.92771248005887,7.376686132034672,1.770643015899784,-1.1557299013811688,7943.861328125,11.57,7.110000000000001,178.00850853881795,-8.136353281159753,54.23870523053022,1553.0,1710.0,1350.0,1528.0,1471.0,988.0,161.0,292.25,1649325057.490215,1649325058.533862,b89f0871-c9b3-4826-997f-e02c0a01632a
0.4337854787422245,0.5425656444981293,0.3708108144659678,-1.9168992618727896,-0.083792705314106,1.6677905935550763,0.5900653051405662,0.5713284147601476,-2.107280976248336,14.158892775313904,65.23327781804684,8.193465966517376,1.7314638475142192,-1.0978905421211054,7943.861328125,11.53325,7.105,178.06507047369968,-8.100510227090624,54.333683564398704,1553.0,1814.0,1350.0,1528.0,1471.0,988.0,161.0,292.25,1649325060.5456543,1649325061.493811,4e4f693c-3c12-497e-943d-f77592f1be93
0.4428788128554369,0.5617956109439489,0.3694433501462669,-1.923940400934491,-0.0903665480705037,1.6557145255052952,0.5828203742088522,0.5505797739324404,-2.079551575811702,14.22496741788964,65.23928604751327,8.182597356036716,1.8041197463053416,-1.0744916500799555,7943.861328125,11.54022222222222,7.095555555555555,178.0803393615892,-8.046144506334196,54.35187084033864,1553.0,1814.0,1350.0,1528.0,1471.0,988.0,161.0,292.25,1649325061.60295,1649325062.7051544,4e4f693c-3c12-497e-943d-f77592f1be93
0.4356864766271082,0.5487126594138436,0.3609492929978219,-1.9146837040418188,-0.0940876293004205,1.6589622543613765,0.576140837140348,0.5638336585929253,-2.198932571571893,14.187955187523544,65.03318566876655,8.168253343304523,1.756043532346552,-1.050195687284161,7937.323133680556,11.533222222222223,7.101111111111111,178.11972223234352,-8.120292755372638,54.34786683166519,1553.0,1814.0,1350.0,1528.0,1471.0,988.0,161.0,292.25,1649325062.812636,1649325063.9333313,4e4f693c-3c12-497e-943d-f77592f1be93
0.3350691206982921,0.5887504356725447,0.4047572055326034,0.0627014744233795,0.1724045851174752,-0.2856884259630545,0.0928170458472722,0.0718549895508289,-2.831192824379824,15.460156584318336,51.31588649146154,-0.6540228520741357,1.7916009196679374,-0.7828614866405471,7936.505859375,11.65688888888889,7.15,178.15889260832364,-8.764077358234069,54.44918282217353,1553.0,1349.0,1350.0,1528.0,1471.0,988.0,161.0,292.25,1649325065.050768,1649325066.1860597,c48fceb4-96b4-411f-9e9a-c8554c3f664a
0.3259914637251092,0.5775740449358193,0.3994471555484321,0.0623474709845854,0.1695725583218556,-0.2771291292969845,0.0918308936306744,0.0673288041090664,-2.7861813294608684,15.39959389655886,50.90605317635144,-0.6346989791555193,1.7527023506953952,-0.7722390589407527,7943.044053819444,11.656777777777776,7.166666666666667,178.16747436156078,-8.782021118957339,54.60381299261327,1553.0,1349.0,1350.0,1528.0,1471.0,988.0,161.0,292.25,1649325066.2940795,1649325067.416814,c48fceb4-96b4-411f-9e9a-c8554c3f664a
0.3505567666248091,0.5804945723788342,0.4071214420789634,0.0580867877359193,0.1760963343341824,-0.2747396062621098,0.1025647811050885,0.0885816484495631,-2.561083427523037,15.255931604382685,51.166042859136304,-0.6201338183549508,1.7607672883883434,-0.8059692470521292,7942.226779513889,11.657333333333334,7.157777777777778,178.19242731932857,-8.772215054311445,54.73243721778817,1553.0,1349.0,1350.0,1528.0,1471.0,988.0,161.0,292.25,1649325067.525039,1649325068.645114,c48fceb4-96b4-411f-9e9a-c8554c3f664a
0.3252242879165354,0.5875407557339564,0.4200395293879627,0.4436545858632661,0.2232430056969397,-0.6551426059913615,-0.0023491720873072,-0.0306320184978329,-3.162595440102401,16.81440562980173,48.17494152784622,-2.334501676478072,1.7713358897280242,-0.7394640576088801,7943.861328125,11.631333333333334,7.139999999999999,178.1865351428046,-8.90702230823251,55.09403843664231,1553.0,1264.0,1350.0,1528.0,1471.0,988.0,161.0,292.25,1649325070.579368,1649325071.717348,a9b24656-e9cc-4413-8660-c429f8c94f28
0.3152181307348745,0.5749311572426262,0.4178436972753062,0.4635617102297828,0.2252942021706731,-0.6599681793177581,-0.0078453272372365,-0.022151109485833,-3.398771160784806,17.025819553275426,48.30751707154068,-2.389056580233214,1.721952197100865,-0.7328555072622127,7943.861328125,11.645333333333332,7.15,178.20753569777267,-8.917608816854814,55.250576886045145,1553.0,1264.0,1350.0,1528.0,1471.0,988.0,161.0,292.25,1649325071.8255112,1649325072.9424846,a9b24656-e9cc-4413-8660-c429f8c94f28
0.3159281602935671,0.575838417197402,0.4088105436910892,0.460931971206735,0.2151828551979291,-0.652946772964806,-0.0152217459941941,-0.0477516221601687,-3.2634480204377696,17.04746931044697,49.02319861737143,-2.3674705655839974,1.7178056126925605,-0.6950859801461443,7943.861328125,11.6415,7.15,178.23966035416896,-8.917969678515963,55.37589017701991,1553.0,1264.0,1350.0,1528.0,1471.0,988.0,161.0,292.25,1649325073.051596,1649325074.1807868,a9b24656-e9cc-4413-8660-c429f8c94f28
0.2915373303002728,0.5869227670701995,0.4310581359025462,0.8871995150419915,0.2752723939664833,-1.0794381073631143,-0.1255130149918539,-0.1438817449775634,-4.081332602860496,18.76261459347209,45.38541945940261,-4.275922581218564,1.7463658028513636,-0.6515526538571013,7936.505859375,11.628333333333334,7.153333333333332,178.25202299656667,-9.086083685878426,55.52621410291542,1553.0,1178.0,1350.0,1528.0,1471.0,988.0,161.0,292.25,1649325075.082948,1649325076.225291,5ebedb2c-ec99-4ccb-8bb8-10f45daf0f70
0.2987954101868941,0.5813871664815893,0.4360283426677261,0.8829919326097394,0.2782571478346382,-1.0656582641602157,-0.1203981718041262,-0.1544401490722837,-4.205753080257445,19.11198301516088,46.05736986386407,-4.232858187250047,1.721368126220259,-0.6696647537500031,7929.16455078125,11.6256,7.161999999999999,178.2977634074004,-9.10597387976042,55.64666107383401,1553.0,1178.0,1350.0,1528.0,1471.0,988.0,161.0,292.25,1649325076.3333693,1649325077.6553743,5ebedb2c-ec99-4ccb-8bb8-10f45daf0f70
0.3016355283953321,0.5830964968305394,0.4350947853103233,0.8792051084256153,0.2754038808901677,-1.0704443928430325,-0.1212922832115861,-0.1523100603554952,-4.001946503536416,19.109972767307045,45.111832593682905,-4.235179054040782,1.7351239568737329,-0.664249554598181,7921.83544921875,11.63011111111111,7.167777777777778,178.3157000912888,-9.1113810938806,55.72482537924069,1553.0,1178.0,1350.0,1528.0,1471.0,988.0,161.0,292.25,1649325077.76424,1649325078.884958,5ebedb2c-ec99-4ccb-8bb8-10f45daf0f70
0.2876453164457811,0.6030956618924262,0.4365016957036208,1.1912630982827177,0.2978224066697411,-1.3882749484147172,-0.2239178662535174,-0.2437329538763862,-4.42968415676321,20.81478626358105,43.15851029980183,-5.642468334039348,1.7921697387241295,-0.5491829559348115,7921.83544921875,11.592333333333334,7.146666666666667,178.3192639322157,-9.220592877933212,55.86339663657685,1553.0,1088.0,1350.0,1528.0,1471.0,988.0,161.0,292.25,1649325079.9976883,1649325081.1345131,0dc7657d-bc3e-46a1-9b92-9640c05e8da6
0.2863567442966399,0.5962583405056977,0.4369881973780271,1.1901980539935086,0.2992819117982485,-1.3799649640061,-0.2227607809315707,-0.2477959016006793,-4.616465509864993,20.94636439303506,43.253735120115735,-5.620574580262989,1.7671678466272402,-0.5543684245568281,7921.83544921875,11.582666666666665,7.150000000000001,178.3397135185907,-9.243592970780798,55.94085098176479,1553.0,1088.0,1350.0,1528.0,1471.0,988.0,161.0,292.25,1649325081.242751,1649325082.3667476,0dc7657d-bc3e-46a1-9b92-9640c05e8da6
0.2845553730192336,0.6001372055235026,0.4370539408579614,1.1908028940372604,0.2967836596491057,-1.3836991975594282,-0.2245753012740668,-0.2475329277631209,-4.470469425795666,21.074105149589307,43.333249710943946,-5.629394024321296,1.7799097539992206,-0.5478353739970618,7921.83544921875,11.571000000000002,7.126666666666667,178.32442755522823,-9.230940899116996,55.98944208588513,1553.0,1088.0,1350.0,1528.0,1471.0,988.0,161.0,292.25,1649325082.4753144,1649325083.595287,0dc7657d-bc3e-46a1-9b92-9640c05e8da6
0.3586745688009707,0.5521050227295743,0.380987904625246,-0.4171379882348063,0.1088756494204902,0.2070964074594738,0.2157351004913937,0.1837706211397896,-2.601740048366868,14.109324895698157,53.84677280337357,1.5261112923856563,1.687651901200495,-0.843298641042928,7923.464138454861,11.659777777777776,7.183333333333334,178.3932925580799,-8.748068817775636,56.033422812315706,1553.0,1435.0,1350.0,1528.0,1471.0,988.0,161.0,292.25,1649325085.5280674,1649325086.6665974,b38b1f0d-c923-4acb-a0a0-7db43b4cf66f
0.3634343964919789,0.5577458128861741,0.3839463610516381,-0.4146397354608472,0.1123074590743382,0.2015345091861719,0.2161558587552598,0.1906605374084901,-2.761505027187228,14.059984647601375,54.18309801459145,1.50777093762115,1.7068373544376072,-0.8515173409129807,7934.058756510417,11.660666666666666,7.163333333333333,178.38780715726654,-8.738942167224682,56.06699888391063,1553.0,1435.0,1350.0,1528.0,1471.0,988.0,161.0,292.25,1649325086.7748787,1649325087.8960984,b38b1f0d-c923-4acb-a0a0-7db43b4cf66f
0.3606074270151465,0.5555105347355692,0.3817242315541547,-0.4122335235093455,0.1106638720761786,0.2014950631068564,0.2140389187721165,0.184138784745213,-2.748298284483951,14.074156959451154,54.16418768275935,1.5022414086524063,1.6980909430492577,-0.8435082605593955,7934.058756510417,11.657666666666666,7.153333333333332,178.42157561252304,-8.737214413955883,56.07272144407023,1553.0,1435.0,1350.0,1528.0,1471.0,988.0,161.0,292.25,1649325088.004239,1649325089.1239605,b38b1f0d-c923-4acb-a0a0-7db43b4cf66f
0.4398283155990528,0.5934182223907727,0.6321016829939334,-0.4390305722133966,0.3377155484428352,0.1767229203396983,0.4726343098822584,0.4501105951511804,-1.2231907484567868,13.872292266024145,54.36869641907701,1.5189519130069875,1.8468293895295016,-1.8564479062191992,7933.243055555556,11.645666666666669,7.17,178.38207435182318,-8.72268954236716,56.04047232644907,1553.0,1435.0,1350.0,1446.0,1471.0,988.0,161.0,292.25,1649325090.0330791,1649325091.172652,5c9a3ce1-2860-4cf3-833e-689ea6e39d56
