raw_voltage_G-,raw_voltage_G0,raw_voltage_G1,raw_voltage_G2,raw_voltage_G3,raw_voltage_G4,raw_voltage_G5,raw_voltage_G6,load_x,load_y,load_z,load_l,load_m,load_n,rpm,voltage,current,roll,pitch,yaw,aileron1_pwm,elevator_pwm,throttle_pwm,rudder_pwm,aileron2_pwm,pbaro,pdiff,Tt,sample_start_time,sample_end_time,uid
0.5970209648065568,0.8074658280440223,0.8558924719788621,-0.5955132492641543,0.4601299008072352,0.0875221667230076,0.6733491391052142,0.6539153679503547,3.6402056278435,14.986119351878717,52.61453415615629,1.6921879580965855,2.6642356218401027,-2.58900971787047,4962.23095703125,11.932666666666668,0.13,179.61725942170662,-10.951467827772932,111.69828861701752,1553.0,1435.0,1200.0,1528.0,1471.0,990.0,160.0,294.53,1649332106.4551556,1649332107.4365122,3e57b90c-16b2-454f-8d53-ab602cae5b1d
0.6083470483742874,0.8108116651996544,0.8543793606214566,-0.5950368613302579,0.4612460227162754,0.0786569113811806,0.6765811894713281,0.6528250376961986,3.978861761657736,14.423149115585272,51.89469040147257,1.6674403142293088,2.68060345324914,-2.593207498664395,4964.14697265625,11.928999999999998,0.1333333333333333,179.49623757653288,-10.914425719765443,110.7580288387655,1553.0,1435.0,1200.0,1528.0,1471.0,990.0,160.0,294.53,1649332107.5450623,1649332108.6670809,3e57b90c-16b2-454f-8d53-ab602cae5b1d
0.5929858326118573,0.8168170787969764,0.859095190710856,-0.600030838807235,0.4640527633924411,0.0791247015853813,0.6783385631306905,0.6460231165896366,3.7624750807545815,14.557949191196398,52.16823947234721,1.6808197955371615,2.703150588840091,-2.605098666100372,4960.31591796875,11.93,0.13,179.41652926891882,-10.92490721422926,109.95138805124644,1553.0,1435.0,1200.0,1528.0,1471.0,990.0,160.0,294.53,1649332108.7751534,1649332109.8926213,3e57b90c-16b2-454f-8d53-ab602cae5b1d
0.7837061361020511,1.1112138381927723,0.9069883013378864,-0.6442949281861295,0.4457320796170884,-0.1744130202106108,0.6306158804540384,0.6184007428276068,4.320572682759401,14.63021868770913,51.335286636637775,1.213947617635732,3.819237040946611,-2.543062132085061,4962.869303385417,11.911444444444443,0.13,178.94941263158165,-10.865381451566428,108.41853498932484,1637.0,1435.0,1200.0,1528.0,1535.0,990.0,160.0,294.53,1649332111.8279305,1649332112.9648757,4302a1a8-86e7-4127-90f1-5809cc4033fa
0.7716619314795196,1.108755032160145,0.8970084417317902,-0.6441502926909182,0.4362913165089892,-0.1723881211062171,0.6213854965765174,0.5998873803014182,4.362090396939151,14.62802521235476,51.225497832919125,1.2176635008472234,3.810043711797401,-2.503878884803235,4949.816731770833,11.906555555555554,0.1355555555555555,178.81378025286335,-10.851127415951044,107.9295761659319,1637.0,1435.0,1200.0,1528.0,1535.0,990.0,160.0,294.53,1649332113.073226,1649332114.1946554,4302a1a8-86e7-4127-90f1-5809cc4033fa
0.7715567419123205,1.090622980781506,0.9019129052517812,-0.6351697299363125,0.4459161611725127,-0.1632629249748832,0.6302871630333944,0.6091177641281255,4.2755284406449245,14.64370806302719,51.22613085207127,1.218215786520771,3.7418500320579766,-2.538528987405546,4951.083930121527,11.90788888888889,0.1322222222222222,178.69667438281374,-10.82998134000816,107.50062814349656,1637.0,1435.0,1200.0,1528.0,1535.0,990.0,160.0,294.53,1649332114.3031578,1649332115.4201252,4302a1a8-86e7-4127-90f1-5809cc4033fa
0.9756770851801988,1.4581947863059614,0.964842560537272,-0.7081581697931588,0.4232215134115981,-0.4601210861634939,0.5789546578279472,0.5619796926216576,5.048390528635048,14.7750291251429,50.70917524584512,0.7200905524947807,5.132557492079549,-2.4767178330522306,4954.263509114583,11.87922222222222,0.13,178.38114392827623,-10.826243518984873,106.97322749763497,1723.0,1435.0,1200.0,1528.0,1599.0,990.0,160.0,294.53,1649332116.3336537,1649332117.4672506,f52a3ea3-4ef7-4660-9cca-100c87d88381
0.9814756598092164,1.4477547206963508,0.9762424792479468,-0.7064093926322527,0.4368435616858496,-0.4546380783505072,0.5948645788032497,0.5792439291428582,5.134066057246005,14.683247387198833,50.36935333693872,0.7284149552462215,5.096312166812272,-2.535092857346416,4944.2943359375,11.8786,0.1299999999999999,178.24938107939573,-10.854269568587718,106.64047707372592,1723.0,1435.0,1200.0,1528.0,1599.0,990.0,160.0,294.53,1649332117.576546,1649332118.7058425,f52a3ea3-4ef7-4660-9cca-100c87d88381
0.9937828386402048,1.460088198697628,0.9807656304093748,-0.7108405053427583,0.436475398228704,-0.4645390494615838,0.5968105856691561,0.5838459724177113,5.418859118250827,14.724100485540044,50.12277109081317,0.7167617495989361,5.143572966284284,-2.542239544522399,4945.37109375,11.880777777777778,0.1277777777777777,178.1524479453868,-10.788225737427195,106.39316533436264,1723.0,1435.0,1200.0,1528.0,1599.0,990.0,160.0,294.53,1649332118.8187573,1649332119.928332,f52a3ea3-4ef7-4660-9cca-100c87d88381
1.105796575643594,1.688007727728451,1.0296261825741635,-0.7331670001574463,0.4286387758876687,-0.6809798042595158,0.5577721102018004,0.5340124183091417,5.6132201307838,15.640885647073006,48.20516371727598,0.2890561437808309,6.019891756295788,-2.5181480562847924,4945.68798828125,11.825,0.11,177.8986578474867,-10.79514519337511,106.08511317805636,1813.0,1435.0,1200.0,1528.0,1662.0,990.0,160.0,294.53,1649332120.8396606,1649332121.9765327,0b075b5c-0f39-4467-aad0-ece4820f4f04
1.1124629642873058,1.697921846668355,1.0556080052937975,-0.7403330429426296,0.4525299547295512,-0.6847271844103017,0.581413463729454,0.567055088838551,5.381853660297516,15.62657691066483,48.30771273913829,0.2978988669429784,6.060333555260078,-2.618639554339288,4940.87353515625,11.825799999999996,0.112,177.78346928742812,-10.820715410516382,105.77254990947624,1813.0,1435.0,1200.0,1528.0,1662.0,990.0,160.0,294.53,1649332122.0847642,1649332123.2051818,0b075b5c-0f39-4467-aad0-ece4820f4f04
1.129043469663216,1.7112677758928658,1.0480343566748451,-0.7510229376499739,0.4416822812282476,-0.6849770094257753,0.5724723510175797,0.5539458398080562,5.406568976450899,15.576174419246936,48.668467006990994,0.3208099662311155,6.10785179031704,-2.578742763695294,4945.68798828125,11.832222222222224,0.11,177.71240010664027,-10.790823391177785,105.5529579616225,1813.0,1435.0,1200.0,1528.0,1662.0,990.0,160.0,294.53,1649332123.3140333,1649332124.4307086,0b075b5c-0f39-4467-aad0-ece4820f4f04
0.413162761793029,0.4371065356824982,0.7995108675747423,-0.5573031260889938,0.4824432363601938,0.4176727641033671,0.746324396226351,0.7222885817823423,3.676477079698148,14.717899660104136,53.029282620954646,2.343386639689888,1.2629471474068603,-2.690206240203746,4928.317816840277,11.926222222222224,0.1388888888888889,178.15424959750783,-10.66833419369736,105.1928013277778,1470.0,1435.0,1200.0,1528.0,1403.0,990.0,160.0,294.53,1649332126.3689692,1649332127.506694,591abe6c-b022-4eab-a3c3-bd7d4ab01624
0.4209467893661642,0.4294671437932429,0.8053357394604909,-0.5502422741371934,0.4880971752415409,0.4202236109538984,0.7500454769237835,0.7281134536641539,3.5665846616779504,15.046321133416422,53.2853470939228,2.335643867544265,1.232308575292182,-2.711858018283094,4969.905544704861,11.929333333333334,0.13,178.08478809146862,-10.62256044774592,105.12672076537775,1470.0,1435.0,1200.0,1528.0,1403.0,990.0,160.0,294.53,1649332127.6145785,1649332128.6626365,591abe6c-b022-4eab-a3c3-bd7d4ab01624
0.4153520195697039,0.4253399706755987,0.804338461528996,-0.5536437415429807,0.4863802590909838,0.4257319028962357,0.7517183955059051,0.7315781348406414,3.733962636410834,15.069658088860091,53.04982100965264,2.355846367425001,1.2180879355036571,-2.711295924437528,4970.864095052083,11.925666666666666,0.13,178.025451961419,-10.592555331858316,105.11985111289256,1470.0,1435.0,1200.0,1528.0,1403.0,990.0,160.0,294.53,1649332128.7712448,1649332129.9712436,591abe6c-b022-4eab-a3c3-bd7d4ab01624
0.233038783917403,0.112254864316069,0.7646273796666853,-0.5201448995505495,0.5091613847482541,0.7058132669866487,0.8116339643950101,0.7950140138583817,3.234491919352964,15.603415433735885,53.71478164990975,2.911076982242329,0.0348371909584572,-2.8107211656520583,4967.985405815973,11.87322222222222,0.12,178.24436407777736,-10.540907718084403,105.12126647987056,1385.0,1435.0,1200.0,1528.0,1331.0,990.0,160.0,294.53,1649332131.8993795,1649332133.0433242,5e8a3388-1002-487c-a0fe-55f9af73ade6
0.2315003865583616,0.1185530896995031,0.7670467395457675,-0.5192376392353469,0.5091876821397067,0.6982922134588159,0.8112789495981991,0.7902410375485271,3.3365035475296168,15.681804018949874,53.64814865563573,2.8928104574896287,0.0583709195264318,-2.812834144098636,4970.865397135417,11.873,0.1266666666666666,178.23927331011598,-10.557571956703155,104.89166587637104,1385.0,1435.0,1200.0,1528.0,1331.0,990.0,160.0,294.53,1649332133.155227,1649332134.2661202,5e8a3388-1002-487c-a0fe-55f9af73ade6
0.2354449952294806,0.1213800592942396,0.7594993886197776,-0.520881226979236,0.5031392823953682,0.7024472010733848,0.8055198211848088,0.783193337011753,3.290529474259249,15.489923597786618,54.36831684103536,2.9042986513242863,0.0626369798818506,-2.784718376423488,4974.71044921875,11.873,0.12,178.25527689868727,-10.559961498384286,104.704137568557,1385.0,1435.0,1200.0,1528.0,1331.0,990.0,160.0,294.53,1649332134.3744495,1649332135.4894717,5e8a3388-1002-487c-a0fe-55f9af73ade6
0.0241980459854436,-0.2844676200444013,0.7146754874095771,-0.4549667961675584,0.5347487452570405,1.0367922214593133,0.8759179346572706,0.845531300275201,2.6829719227420368,16.943520548011556,54.08050171555277,3.513982178210306,-1.4636199513020385,-2.916860677597916,4989.77958984375,11.8152,0.1,178.6362266015312,-10.49802568450007,104.47252995191536,1297.0,1435.0,1200.0,1528.0,1253.0,990.0,160.0,294.53,1649332136.4045308,1649332137.538,75452650-896b-461f-b7ec-c787784f8327
0.0086168407124604,-0.292738151145348,0.7045641409658981,-0.4602657224798993,0.5268200821673344,1.0482841816579944,0.8695802635897146,0.8476613889587387,2.588844327865625,16.884750868030938,53.80656268118812,3.550775108968503,-1.4915349355395824,-2.884730449374528,4995.295166015625,11.822400000000002,0.109,178.68414037855885,-10.50741634083519,104.06062788080968,1297.0,1435.0,1200.0,1528.0,1253.0,990.0,160.0,294.53,1649332137.6485074,1649332138.7705977,75452650-896b-461f-b7ec-c787784f8327
0.0139552115054217,-0.2787347876963165,0.7248788746997561,-0.4509564425928412,0.5432033561844194,1.0234199981460184,0.8836099212906597,0.8637553917679949,2.860851005255522,16.930738289802036,53.5714451481452,3.475318350486266,-1.4387127101634472,-2.953095755117771,4995.975911458333,11.825666666666669,0.11,178.7331733959185,-10.4854465820239,103.7677832924724,1297.0,1435.0,1200.0,1528.0,1253.0,990.0,160.0,294.53,1649332138.8915613,1649332140.0016973,75452650-896b-461f-b7ec-c787784f8327
0.6055281704582319,0.798222295432979,0.8596661474787197,-0.5897278211471056,0.4633513311034496,0.0905463666595982,0.6802916500472971,0.6612391910438484,4.027352146228839,15.083290335681754,52.552316289653454,1.686950254604555,2.626906630852039,-2.60935064775976,4977.599609375,11.941444444444446,0.14,177.93212881005942,-10.598951519424816,103.49407560404264,1553.0,1435.0,1200.0,1528.0,1471.0,990.0,160.0,294.53,1649332140.9106195,1649332142.0537748,c4eeeb2a-cbd8-4b51-9ac0-d17b2ea00603
0.6121814101181907,0.7781836842003904,0.8450185011813589,-0.5791957115646403,0.4555015600917124,0.0997504542455089,0.6690626645488139,0.64835346997245,3.8228019289282775,15.053326361633594,52.35022311988587,1.6828120395353618,2.552762739217989,-2.565453050056229,4972.402197265625,11.9347,0.131,177.81012068556953,-10.563306754285028,103.85979436449244,1553.0,1435.0,1200.0,1528.0,1471.0,990.0,160.0,294.53,1649332142.165151,1649332143.2768705,c4eeeb2a-cbd8-4b51-9ac0-d17b2ea00603
0.6089073850687294,0.7978672806467121,0.858509062372735,-0.5903984044105076,0.4646530518689545,0.0917428983001804,0.6788715909908948,0.6555721035079979,3.7400685949756856,14.979331021138096,52.57802761720281,1.6902644058546792,2.6273880001071745,-2.6076953530775624,4978.17802734375,11.9318,0.13,177.7534465079124,-10.567629922520188,104.144217784929,1553.0,1435.0,1200.0,1528.0,1471.0,990.0,160.0,294.53,1649332143.3849592,1649332144.5014656,c4eeeb2a-cbd8-4b51-9ac0-d17b2ea00603
0.6450268501468135,0.8049412785861308,0.836932053753101,-0.9979555835784673,0.3987254943582051,0.4791560625325092,0.7647325692536464,0.7474420353013366,3.8853310211289536,14.248442288817266,55.53976366116726,3.47480835683426,2.675440619165873,-2.608874258488493,4981.456868489583,11.927666666666669,0.1266666666666666,177.69988871790065,-10.429639383045448,104.68138484239384,1553.0,1522.0,1200.0,1528.0,1471.0,990.0,160.0,294.53,1649332146.4392836,1649332147.576836,0738591b-42d0-4135-9869-1902c7a0cbd0
0.6431658040909878,0.8011397885534,0.8289164069073214,-1.0107381467898615,0.3890546290145809,0.493232752111864,0.7615925597348059,0.7423246643840643,4.064513582119702,14.255443872698844,55.294224963985386,3.534973233024947,2.663156490019724,-2.581101213772409,4989.18896484375,11.925000000000002,0.13,177.68649699366793,-10.418270248580749,104.82030405992276,1553.0,1522.0,1200.0,1528.0,1471.0,990.0,160.0,294.53,1649332147.6847055,1649332148.8028867,0738591b-42d0-4135-9869-1902c7a0cbd0
0.6229107452155241,0.806229850695626,0.847937511456385,-0.9950234228656014,0.4070223211228721,0.4771180147217415,0.7762902721601812,0.742182557318739,4.223981919679492,14.336513063610012,55.897144865679095,3.4649736220869136,2.6750473688257896,-2.650745830749633,4989.18896484375,11.922777777777778,0.13,177.70731237461854,-10.420604845184553,104.90803632199172,1553.0,1522.0,1200.0,1528.0,1471.0,990.0,160.0,294.53,1649332148.9108975,1649332150.033798,0738591b-42d0-4135-9869-1902c7a0cbd0
0.6595824554738047,0.8275701827500903,0.8262290159336249,-1.4294304118067276,0.3294976137423553,0.8745899165323398,0.8512641313853164,0.8350780877516629,3.823474405249005,14.5400776894808,58.71053342305664,5.338577174984506,2.7850983386019816,-2.6199324417369256,4968.94287109375,11.916777777777778,0.13,177.74260927442936,-10.303082238731852,105.11227339746335,1553.0,1613.0,1200.0,1528.0,1471.0,990.0,160.0,294.53,1649332151.7955563,1649332152.8399804,3a6e1fdf-7c97-448d-8a8f-9b399d57836e
0.6509174654921205,0.824164670732143,0.825716216762965,-1.4298774677344936,0.3300104129696096,0.8805331266945235,0.8538544242371444,0.8294241487936632,3.904375303780031,14.449331315579832,59.03099777220896,5.352405515083529,2.768933728308866,-2.623490096690649,4969.903483072917,11.912999999999998,0.12,177.76241682302236,-10.27203561385956,105.19212362123017,1553.0,1613.0,1200.0,1528.0,1471.0,990.0,160.0,294.53,1649332152.9493368,1649332154.133256,3a6e1fdf-7c97-448d-8a8f-9b399d57836e
0.6674656038237035,0.8076382782242519,0.8410663069048945,-1.412115077148261,0.3480534571287528,0.8760241356848911,0.8710807320801225,0.8513703323772608,4.153758115798329,14.54261338598799,58.53649716881143,5.303635025705414,2.7083551499748406,-2.695921117266683,4968.5830078125,11.914125,0.13,177.7905702935987,-10.309686889363649,105.22964412707076,1553.0,1613.0,1200.0,1528.0,1471.0,990.0,160.0,294.53,1649332154.241232,1649332155.355851,3a6e1fdf-7c97-448d-8a8f-9b399d57836e
0.6975953326189588,0.8353936563166142,0.8420731934697611,-1.768824984173092,0.2949296936282272,1.1962859002061712,0.9471181191372338,0.9212151895720028,4.219550791145249,15.141254918624307,61.52252707622178,6.83248384052853,2.8295165292006668,-2.7289555792369167,4958.722222222223,11.864,0.11,177.87820370765223,-10.191877746988888,105.26507459502535,1553.0,1710.0,1200.0,1528.0,1471.0,990.0,160.0,294.53,1649332157.4983838,1649332158.6356409,93fded79-3e63-4b91-9a3f-db7525a301ff
0.6675900107067763,0.8189446388039606,0.8211667683654447,-1.7564651915165128,0.2810972658629706,1.1987973010804185,0.9261328016133744,0.9055419449117564,3.846756293472328,15.143425647880749,61.04727879134266,6.808956606606619,2.77182629989682,-2.6545527849504698,4970.227213541667,11.862666666666668,0.11,177.9146966494777,-10.206365811447084,105.1445483180214,1553.0,1710.0,1200.0,1528.0,1471.0,990.0,160.0,294.53,1649332158.7443097,1649332159.870829,93fded79-3e63-4b91-9a3f-db7525a301ff
0.697252455112906,0.8298899159981303,0.8275762514310371,-1.7683061158091449,0.2856856549939754,1.198875181867121,0.9372287831905096,0.922259499642901,4.181126736253567,14.737715193917584,61.10334531593063,6.833648736035504,2.811871553747266,-2.683637502670047,4960.31591796875,11.86788888888889,0.12,177.9574247951055,-10.216918643442234,105.02168004504205,1553.0,1710.0,1200.0,1528.0,1471.0,990.0,160.0,294.53,1649332159.9837835,1649332160.9369347,93fded79-3e63-4b91-9a3f-db7525a301ff
0.6671166576880198,0.7965261137603323,0.7920818548547479,-1.925202675438404,0.2291993647316354,1.3877835142787052,0.9362967428982176,0.9083820629721804,3.521671013514937,16.169324198218444,62.617539812108,7.6197035242863,2.6950756565829,-2.56131713838321,4970.38720703125,11.839000000000002,0.11,178.0339965280707,-10.201744287268056,104.735466280242,1553.0,1814.0,1200.0,1528.0,1471.0,990.0,160.0,294.53,1649332163.438338,1649332164.5712683,92014206-5267-43f1-80d3-7655f7d023a2
0.6859369916551714,0.8169055796339765,0.7965124594260622,-1.9554098325202849,0.2250499396854416,1.395524050811338,0.9414136083696512,0.9138392773933272,3.6798229207842152,16.178640829183287,62.63810190679608,7.705602751948925,2.774209624870618,-2.566653364334146,4969.3031005859375,11.835875,0.1,178.04815209512554,-10.12174526972746,104.6009679026534,1553.0,1814.0,1200.0,1528.0,1471.0,990.0,160.0,294.53,1649332164.6806724,1649332165.8101797,92014206-5267-43f1-80d3-7655f7d023a2
0.6694439766971588,0.8010361161458092,0.7991690015400882,-1.9446364806531853,0.2311190741552454,1.4024706088055123,0.9487091113592926,0.9283154849939536,3.856601153005532,16.171504438868553,62.86275928600253,7.697120320368165,2.710289022051485,-2.590310477359013,4980.49169921875,11.832333333333333,0.11,178.0886782636559,-10.185274756472516,104.50007898869568,1553.0,1814.0,1200.0,1528.0,1471.0,990.0,160.0,294.53,1649332165.9182975,1649332167.0328398,92014206-5267-43f1-80d3-7655f7d023a2
0.5904466173239764,0.7705574410995577,0.879823097178649,-0.1873644878797722,0.5275695577515377,-0.2708587186077076,0.5994008785675206,0.577626639696857,3.989964337077406,16.15595704000183,49.748719338594135,-0.0251595387959621,2.5000159341355097,-2.6133632180744137,4979.533040364583,11.943666666666669,0.14,178.08506585249486,-10.746119613332574,104.44740988218592,1553.0,1349.0,1200.0,1528.0,1471.0,990.0,160.0,294.53,1649332167.9438927,1649332168.9229996,2c22beb4-0763-4dfd-89e1-6744d7b91672
0.5734453547087878,0.7830618500599826,0.8757864477078181,-0.1907700002190076,0.5202457346547484,-0.2761444946506691,0.5901836433930514,0.5766141901904551,3.870251322615752,16.300502280836746,50.24081896949156,-0.0285799891348289,2.5435667438298,-2.5827279339107783,4966.06396484375,11.9335,0.1325,178.05013797262671,-10.776330962987618,104.7049156978582,1553.0,1349.0,1200.0,1528.0,1471.0,990.0,160.0,294.53,1649332169.032266,1649332169.965799,2c22beb4-0763-4dfd-89e1-6744d7b91672
0.585266031494723,0.7806030440770971,0.8783241458290034,-0.1921506132327558,0.5209689129093791,-0.2726337920943009,0.5937469397593776,0.5813082743035612,4.043628591680512,16.42738050294302,50.23771586839472,-0.0165224164900902,2.533478118783122,-2.5924902895576976,4975.675889756944,11.940666666666663,0.13,178.00793935638708,-10.734361158085184,105.00952610286896,1553.0,1349.0,1200.0,1528.0,1471.0,990.0,160.0,294.53,1649332170.076249,1649332171.1291132,2c22beb4-0763-4dfd-89e1-6744d7b91672
0.5612170683532826,0.7763165695151804,0.8997828163365483,0.1371716430514539,0.5747339267908185,-0.5864800914759796,0.5198118277041528,0.4977877635135144,3.479257612627032,17.635289445392107,47.922607784151324,-1.456224541157255,2.502748688694445,-2.591489683965964,4982.743760850694,11.929555555555558,0.14,177.97427411287802,-10.836389954724403,105.33142001698324,1553.0,1264.0,1200.0,1528.0,1471.0,990.0,160.0,294.53,1649332171.795766,1649332172.972044,4e61500b-739d-48d9-b23a-41d531bac0b1
0.5547479104187534,0.7750805921826769,0.8919724913918506,0.1396173004584107,0.5668052637212957,-0.5872164187208341,0.512106692431133,0.4897276134479661,3.601235322383445,17.65941334282872,47.905254513516994,-1.463566318260171,2.496607658983396,-2.559150938568568,4980.49169921875,11.9406,0.1299999999999999,177.93242205284778,-10.870920545255832,105.59365359473529,1553.0,1264.0,1200.0,1528.0,1471.0,990.0,160.0,294.53,1649332173.0809329,1649332174.201255,4e61500b-739d-48d9-b23a-41d531bac0b1
0.5475161281682286,0.7762639747373504,0.9018340127910224,0.1261924817339736,0.5740501946619819,-0.5774732325642153,0.525518361348019,0.4968542061795831,3.7113591528843775,17.64830651838248,47.78700734199619,-1.41093498239664,2.5035925173875864,-2.601616221660525,4974.069173177083,11.933333333333332,0.13,177.92175299380023,-10.865437421172128,105.78060816665902,1553.0,1264.0,1200.0,1528.0,1471.0,990.0,160.0,294.53,1649332174.309665,1649332175.4303503,4e61500b-739d-48d9-b23a-41d531bac0b1
0.5508215078077475,0.76061905054624,0.924193874724516,0.497594578832114,0.6290941718667147,-0.921541889141779,0.4379323747829666,0.415035945038139,3.080307113907394,19.66097703221208,45.04372748276751,-3.008194673894799,2.429418672979671,-2.58613632968518,4985.642306857639,11.929222222222222,0.13,177.94042673099108,-10.983713909754467,106.13266950851744,1553.0,1178.0,1200.0,1528.0,1471.0,990.0,160.0,294.53,1649332177.365255,1649332178.4992666,8734a0a1-e99b-448e-8eb8-f0448136b064
0.5222837824201855,0.7628391571302118,0.9207944312635647,0.4920417837716359,0.6268553536983053,-0.91559210057634,0.4382241747037262,0.405668005500728,3.116301680133152,19.402136061379625,45.462593640916445,-2.984099228567496,2.4342420331620844,-2.5779264991916584,4973.55615234375,11.9178,0.12,177.94503331413128,-11.019961249361032,106.26653787704608,1553.0,1178.0,1200.0,1528.0,1471.0,990.0,160.0,294.53,1649332178.6121018,1649332179.7372525,8734a0a1-e99b-448e-8eb8-f0448136b064
0.5254263205363806,0.7638647553414466,0.921451865949838,0.5001413798882338,0.6294062005274657,-0.9229159289724342,0.4342269714253792,0.4176859127939054,2.7779244657651265,19.478086543883645,45.61252873299552,-3.0184377624615144,2.4382004620931133,-2.576467055938388,4979.33486328125,11.8976,0.1159999999999999,177.94325746494707,-11.019040881370374,106.41715037843404,1553.0,1178.0,1200.0,1528.0,1471.0,990.0,160.0,294.53,1649332179.849324,1649332180.9606063,8734a0a1-e99b-448e-8eb8-f0448136b064
0.5057558727643839,0.7649823944067887,0.9228982224568102,0.74911191960736,0.6459078127095065,-1.164786358947724,0.3541645662179798,0.3285509077244389,2.5571467007255624,21.26805945939396,43.6539795019029,-4.112054825520189,2.430781916939948,-2.488255748444488,4972.150010850694,11.884555555555556,0.12,177.96684590270067,-11.12119726973784,106.5957290134876,1553.0,1088.0,1200.0,1528.0,1471.0,990.0,160.0,294.53,1649332182.894966,1649332184.031517,c19c12ca-5cca-4b28-98ad-16fdb45ca0a9
0.5138423202090773,0.7724508531770968,0.9216885425686334,0.7350033698555047,0.6412400259905658,-1.159776701655958,0.3565970747488792,0.3340207649684218,2.8760731959857058,21.118646656332004,43.56440390097175,-4.069876473959023,2.458987644328221,-2.482774505723626,4966.35185546875,11.8913,0.1109999999999999,177.99967755956703,-11.106824094753309,106.6045919428456,1553.0,1088.0,1200.0,1528.0,1471.0,990.0,160.0,294.53,1649332184.1396122,1649332185.1794465,c19c12ca-5cca-4b28-98ad-16fdb45ca0a9
0.516919114851485,0.7665207917529834,0.922622099976671,0.7378171906062359,0.647064897864861,-1.1563317429987914,0.3580565800080842,0.3436456098329909,2.4468923228028445,20.98591622222226,43.609552170534045,-4.0695247250849125,2.439094287260659,-2.4949336078271185,4958.02099609375,11.8838,0.12,178.0546059408723,-11.089008143944882,106.601140648258,1553.0,1088.0,1200.0,1528.0,1471.0,990.0,160.0,294.53,1649332185.2883885,1649332186.4903202,c19c12ca-5cca-4b28-98ad-16fdb45ca0a9
0.6161260186102209,0.7911482975002658,0.8480164036012016,-0.6100951577042624,0.4506496916649405,0.1149109006251071,0.6764390824198949,0.6537575836044632,4.1247198993821295,15.047763928611916,52.304780314261606,1.786838302345954,2.6036481186591875,-2.5719864295221213,4960.31591796875,11.941,0.13,178.0541524163114,-10.738443049887913,106.60458169756184,1553.0,1435.0,1200.0,1528.0,1471.0,990.0,160.0,294.53,1649332187.295624,1649332188.332614,f517a9e8-d981-4470-a455-1af0bbc0ad15
0.6157684752517703,0.7847797776350424,0.8537345688574611,-0.5974895994842433,0.458843857277588,0.1144491792449319,0.6799062921420194,0.6648358648309352,3.896652311909121,15.204244717947637,53.03645779799396,1.7586895885089662,2.573704805349024,-2.595730049907893,4981.948046875,11.9261,0.127,178.04126248330977,-10.697294575233167,106.6220396610804,1553.0,1435.0,1200.0,1528.0,1471.0,990.0,160.0,294.53,1649332188.4408562,1649332189.7668152,f517a9e8-d981-4470-a455-1af0bbc0ad15
0.6139478867160632,0.7874600885489083,0.8637857348097359,-0.5907888194756394,0.4658986379192273,0.1028429264328701,0.6860002065443724,0.6672380302748366,4.088114481478114,15.427320001757606,52.69570050547214,1.7195148032144412,2.585238566102125,-2.6277713947251,4997.269259982639,11.927222222222222,0.1222222222222222,178.0648925093263,-10.706094704796298,106.65992368476684,1553.0,1435.0,1200.0,1528.0,1471.0,990.0,160.0,294.53,1649332189.8748057,1649332190.9908557,f517a9e8-d981-4470-a455-1af0bbc0ad15
0.6931116276356185,0.8391147370308845,1.1004713539382172,-0.5895305903946025,0.6802916500476001,0.0412124586212992,0.918519707021633,0.8979945938387083,5.581532087996484,15.262419897487574,53.09438707698516,1.5896921787442269,2.77971820658853,-3.5655335820738845,4993.7109375,11.916666666666666,0.12,178.07111101711064,-10.72211652617812,106.64491244679095,1553.0,1435.0,1200.0,1446.0,1471.0,990.0,160.0,294.53,1649332192.9120743,1649332194.0666025,77e8a2bf-6c03-4a16-bd91-a6173a1c803d
0.6795421744303007,0.8288850522693437,1.1082553817959602,-0.584481490218193,0.6876154731470647,0.0458407996167344,0.926461519008531,0.9042139266981198,5.6257244296341415,15.550436297399246,53.0452749543396,1.5910144506607895,2.741349864236148,-3.5987769215504977,5000.508083767361,11.913111111111112,0.12,178.1219261067157,-10.690367625049914,106.5865849080088,1553.0,1435.0,1200.0,1446.0,1471.0,990.0,160.0,294.53,1649332194.1743658,1649332195.227432,77e8a2bf-6c03-4a16-bd91-a6173a1c803d
0.6846811227120998,0.8343571008479641,1.1076445154935788,-0.5936735265046004,0.6863384061542624,0.0492841147379978,0.9308356516454812,0.9084554765859896,5.9122205861593615,15.2171268920316,53.11062054426697,1.6174016872487855,2.7603538257395166,-3.6014218289740327,4991.771864149306,11.914111111111112,0.12,178.14996630998834,-10.698577038113578,106.54303789859053,1553.0,1435.0,1200.0,1446.0,1471.0,990.0,160.0,294.53,1649332195.339619,1649332196.3258564,77e8a2bf-6c03-4a16-bd91-a6173a1c803d
0.7742653730819772,0.8719338799961531,1.3839046483965125,-0.5860067383529818,0.9347057507415854,-0.0115532597216304,1.2021502185394128,1.1862665938403265,7.784567065893087,15.715937399551455,52.79221001484706,1.4813519084088365,2.907437583507205,-4.697304652358499,4985.320149739583,11.890666666666666,0.1166666666666666,178.15026683831184,-10.722943643113858,106.46392305852434,1553.0,1435.0,1200.0,1354.0,1471.0,990.0,160.0,294.53,1649332197.435507,1649332198.5693042,d720f6bb-d983-4bfe-8386-313b035e728b
0.7646799744210155,0.8528419747088588,1.3792500102267669,-0.5737521496135582,0.935455226527326,-0.0049526142602373,1.2012298101755148,1.1741566451200265,7.763529394121406,15.70832991747265,52.654240077114665,1.4682263064309349,2.8353990440166785,-4.6930790733452525,4975.674533420139,11.886666666666663,0.1177777777777777,178.1816796372146,-10.738597393190403,106.35492462301954,1553.0,1435.0,1200.0,1354.0,1471.0,990.0,160.0,294.53,1649332198.6785176,1649332199.8016508,d720f6bb-d983-4bfe-8386-313b035e728b
0.7485596743540897,0.8648204359361819,1.3731490147364198,-0.5743306924987513,0.9292227449258494,-0.0118030850854892,1.188699102736784,1.1612314769291443,7.315417002221202,15.749553827816468,53.20296827594745,1.4539688263239077,2.8783189811925816,-4.656544861981602,4964.91376953125,11.889,0.114,178.21418921271612,-10.722236377025306,106.26165565782736,1553.0,1435.0,1200.0,1354.0,1471.0,990.0,160.0,294.53,1649332199.910731,1649332201.0364258,d720f6bb-d983-4bfe-8386-313b035e728b
0.8245854289669117,0.8723151921558816,1.6151902361216477,-0.5435495862038848,1.1512516167021136,-0.0658573776825063,1.4272427534664285,1.3981315391717095,9.08973239368628,16.47479032840388,52.42463477173582,1.2806957706204511,2.9123356651395715,-5.627498213214989,4960.032275390625,11.8633,0.11,178.25708826485513,-10.728598185972984,106.10217142372646,1553.0,1435.0,1200.0,1252.0,1471.0,990.0,160.0,294.53,1649332201.9416382,1649332203.211234,5690d639-45e3-4b05-b92b-590b602cf6a0
0.8212982552048337,0.8859766864169124,1.6106802327446792,-0.5387371609620147,1.1470045880062785,-0.083200508174915,1.4147251938880263,1.3986969325512952,8.725470915923653,16.448765759761756,52.42874776069967,1.230287996032528,2.965237410536312,-5.596286654686836,4961.912651909723,11.864444444444445,0.11,178.25748563008287,-10.761222869134764,105.96596887599446,1553.0,1435.0,1200.0,1252.0,1471.0,990.0,160.0,294.53,1649332203.3196597,1649332204.5123312,5690d639-45e3-4b05-b92b-590b602cf6a0
0.8171710821114743,0.8917267119260498,1.6147153659951403,-0.5463613846208492,1.1488722085992435,-0.0790389458335528,1.4216191569377736,1.3875336893386567,8.955198291684113,16.32326441467469,52.86531886888127,1.2563921528891864,2.9825006122044377,-5.612689475922995,4962.470336914063,11.8635,0.11,178.29986505660804,-10.747242681416411,105.82285288667556,1553.0,1435.0,1200.0,1252.0,1471.0,990.0,160.0,294.53,1649332204.6202104,1649332205.7439842,5690d639-45e3-4b05-b92b-590b602cf6a0
0.5186198479793585,0.7512000334581261,0.561997898543589,-0.5658315746425786,0.1915081229367235,0.1304046161347189,0.3729221915270066,0.3523647121835651,2.085919029681696,15.54724000044529,52.47225245723406,1.7098766419081732,2.443190298367424,-1.40284836576259,4972.787923177083,11.943,0.13,178.31483796963357,-10.746298052024642,105.83384721450956,1553.0,1435.0,1200.0,1604.0,1471.0,990.0,160.0,294.53,1649332206.867121,1649332207.995763,fc45fdba-74bb-4d75-801a-1323f78414a7
0.5295418620799054,0.7525437289534906,0.5592973588475308,-0.5689265769265824,0.1890169506541965,0.135633245458029,0.3694039040591981,0.352139667133494,1.8593558741206304,15.600726205105536,52.97387646108506,1.7287936503189092,2.4455984191648867,-1.3901023208193817,4976.967502170139,11.938111111111107,0.1244444444444444,178.28484433225833,-10.731173546745032,105.9295836993759,1553.0,1435.0,1200.0,1604.0,1471.0,990.0,160.0,294.53,1649332208.103629,1649332209.2289877,fc45fdba-74bb-4d75-801a-1323f78414a7
0.5051904788605762,0.7600516337908974,0.5611907709583557,-0.5634172715918954,0.1902266307918389,0.1245225973661797,0.3681810754414449,0.3512718533358774,1.911080744940524,15.559160118029434,53.16407118796554,1.6912739852818257,2.471146853977406,-1.391311582430001,4999.212293836806,11.940555555555555,0.13,178.23966642544823,-10.714310189139225,106.05122936849382,1553.0,1435.0,1200.0,1604.0,1471.0,990.0,160.0,294.53,1649332209.3368542,1649332210.6516807,fc45fdba-74bb-4d75-801a-1323f78414a7
0.4667436944828544,0.7396843052491177,0.3784765037937987,-0.5425634327276768,0.0216340500501028,0.1323066255884349,0.1732122184103574,0.1540282708284087,0.6990809657720429,15.948548690152355,52.71147027782912,1.6545257009903949,2.3932025552676617,-0.638955971106122,4998.564398871527,11.94377777777778,0.1277777777777777,178.1925578518327,-10.706055146617356,106.21549997149208,1553.0,1435.0,1200.0,1676.0,1471.0,990.0,160.0,294.53,1649332212.294772,1649332213.5235312,12d8d73a-3bbe-4e77-8987-8fcf2fcb1e11
0.4451535371115184,0.7245896034070879,0.3704952457841027,-0.5293752868697825,0.0194645151506773,0.1375398065814021,0.1685838775176503,0.1518061413599467,0.6568784698704622,15.851143075995235,53.03191517524734,1.6355228416451988,2.3319154855405047,-0.6197802841266573,4997.91650390625,11.944,0.1233333333333333,178.17804294093654,-10.683360135552697,106.26870259166702,1553.0,1435.0,1200.0,1676.0,1471.0,990.0,160.0,294.53,1649332213.6328256,1649332214.755017,12d8d73a-3bbe-4e77-8987-8fcf2fcb1e11
0.4487825769411493,0.7213418757533607,0.3751104378631886,-0.5354631353295652,0.0230935554753921,0.1429833665351472,0.1743167089384701,0.1597348052011857,0.6297386767578627,15.94433909821133,52.595583627555335,1.66225234048327,2.3248375200805897,-0.6402955037723583,5000.83203125,11.942333333333332,0.13,178.1596697320692,-10.676002598860515,106.34614782993609,1553.0,1435.0,1200.0,1676.0,1471.0,990.0,160.0,294.53,1649332214.8638923,1649332215.9814513,12d8d73a-3bbe-4e77-8987-8fcf2fcb1e11
0.3938210311822713,0.7103758641353657,0.2139205803914191,-0.4972267161405646,-0.1238168332560955,0.1288748158488036,-0.0050446550387384,-0.0336562187715356,-0.5755014720296755,16.292944991669255,52.758796564731085,1.5380006512929805,2.2758717636511734,0.0331462825583903,5003.75146484375,11.941400000000002,0.12,178.11116263927565,-10.7048907701186,106.4737152730644,1553.0,1435.0,1200.0,1747.0,1471.0,990.0,160.0,294.53,1649332217.9156368,1649332219.0605557,2f886f52-cdd4-4540-b5f2-6538ebf4240a
0.4007766909264303,0.7171737394368207,0.2174444307538556,-0.5024467500745398,-0.1239746176935822,0.1256665339752569,-0.003216986292766,-0.0308818446704653,-0.4425828395139631,16.39856190367202,52.58499023107314,1.5434811447976768,2.302835487272592,0.0265368252741341,5003.75146484375,11.945,0.1288888888888889,178.1054182984017,-10.68036746919511,106.51230204732543,1553.0,1435.0,1200.0,1747.0,1471.0,990.0,160.0,294.53,1649332219.1684906,1649332220.292209,2f886f52-cdd4-4540-b5f2-6538ebf4240a
0.3838937662849347,0.704393207925991,0.2245447264961813,-0.4921644665410924,-0.1132584294070186,0.1294665072128963,0.0065261979363327,-0.0273185475386121,-0.4503829608011176,16.391123551535753,52.75586425032383,1.5291534290794664,2.2526255043830195,-0.0128274024264753,5012.5302734375,11.944333333333333,0.1244444444444444,178.11954768306472,-10.702863930455148,106.54590657804192,1553.0,1435.0,1200.0,1747.0,1471.0,990.0,160.0,294.53,1649332220.4010935,1649332221.7129104,2f886f52-cdd4-4540-b5f2-6538ebf4240a
0.5595325182445625,0.7198960250168805,0.8264636696254583,-0.6354059014377711,0.4667330742098367,0.2317127882652128,0.7339803002602748,0.7155468413797622,5.4337306549561495,11.338640854081651,55.845143150033095,2.0819644459368223,2.297452834600604,-2.647852636870601,7749.93359375,11.628444444444446,7.276666666666667,-179.8188683921676,-10.880025851465629,94.43443300339744,1553.0,1435.0,1350.0,1528.0,1471.0,990.0,160.0,294.53,1649332226.8814597,1649332227.860355,754c91f5-4710-4b37-a4bf-c4b191a5782f
0.5981123064926475,0.7396580078511086,0.823967440398383,-0.6569176818745807,0.4573818234616392,0.2243869419344405,0.7283369815095465,0.714425662203596,5.529410821721136,11.32973202437957,54.70931044556794,2.113711348717488,2.3834521032162894,-2.623007216050352,7752.271158854167,11.631333333333334,7.243333333333333,-179.29749273206386,-10.729848110591096,89.96064923121028,1553.0,1435.0,1350.0,1528.0,1471.0,990.0,160.0,294.53,1649332227.9686863,1649332229.0908248,754c91f5-4710-4b37-a4bf-c4b191a5782f
0.57043430354587,0.7188699210898806,0.8289770932783894,-0.664162617630841,0.4660073673754942,0.2486199875818205,0.7370545663222725,0.7144388109058138,4.974601857596786,11.57534554623404,54.36332801883833,2.186052258660673,2.3136911311750703,-2.657551868515725,7756.9462890625,11.627,7.309999999999999,-178.96098297203565,-10.565126145925191,84.82017828323725,1553.0,1435.0,1350.0,1528.0,1471.0,990.0,160.0,294.53,1649332229.2039003,1649332230.320279,754c91f5-4710-4b37-a4bf-c4b191a5782f
0.7476918604931205,1.0159909851563902,0.9102623266053432,-0.7172176274502234,0.4732391496971096,-0.0046370467747997,0.7206975897571211,0.6876023244679454,5.757265526439764,12.109764293147236,53.04183057326616,1.744402497635931,3.4459429880312937,-2.7209630560701488,7756.9462890625,11.596666666666668,7.316666666666666,-178.97460236924067,-10.364713596933816,77.86506495330497,1637.0,1435.0,1350.0,1528.0,1535.0,990.0,160.0,294.53,1649332231.432706,1649332232.5700629,f2715eb6-5584-4f0f-aa79-1ecdb4a70a8d
0.7244186703667086,1.0081017679093989,0.898717772077755,-0.6978495930383517,0.4665596126840161,-0.0118030870468129,0.7068651626162564,0.6841442176933892,5.627205489308768,12.111978387848945,53.36237090869727,1.6840353707145623,3.411316773579104,-2.6768589019466185,7749.93359375,11.5945,7.3125,-179.08175437693978,-10.238072355916062,74.83922114155034,1637.0,1435.0,1350.0,1528.0,1535.0,990.0,160.0,294.53,1649332232.6796372,1649332233.7952888,f2715eb6-5584-4f0f-aa79-1ecdb4a70a8d
0.7393555878722066,1.012467134811574,0.884753858066734,-0.7077242693609768,0.4544365155801588,-0.0087525898778138,0.6967275188025002,0.6689706236598971,5.634177970618009,11.711606436094335,53.02362459797112,1.709765183553411,3.4309662603585087,-2.626745556736571,7749.93359375,11.597400000000002,7.299000000000001,-179.30486797032964,-10.231405664399308,72.17760946162713,1637.0,1435.0,1350.0,1528.0,1535.0,990.0,160.0,294.53,1649332233.9039404,1649332235.0273793,f2715eb6-5584-4f0f-aa79-1ecdb4a70a8d
0.945632316533576,1.3982630254560433,0.9632252713945036,-0.8047090979183289,0.4330172910591364,-0.3057816655891049,0.6588855746223427,0.6483666186439195,7.056578908828005,12.290282350774696,51.98280361598147,1.2693687548343544,4.8940181695313,-2.605537903288032,7756.9462890625,11.574,7.316666666666666,20.00182345814919,-10.096768121706369,66.8641057645336,1723.0,1435.0,1350.0,1528.0,1599.0,990.0,160.0,294.53,1649332236.9623768,1649332238.0985973,3e264b62-03c8-46d6-816a-423f02f7bbeb
0.926566708412388,1.3782770063257854,0.9419506827268352,-0.8234328470384246,0.4201052721851145,-0.2818510331832133,0.648156239570514,0.6232789086406415,6.599841390821772,11.831383369009195,50.03577016759241,1.360738564091331,4.840496446772452,-2.549135041461557,7749.93359375,11.5653,7.321,179.7366807258848,-10.122534156576595,65.22372078461304,1723.0,1435.0,1350.0,1528.0,1599.0,990.0,160.0,294.53,1649332238.2067325,1649332239.3353603,3e264b62-03c8-46d6-816a-423f02f7bbeb
0.96974702360361,1.3826292249464205,0.9682612219567058,-0.8126509074374924,0.4422213774656728,-0.2925935180657741,0.6672481446444022,0.6524690114988532,6.58096388881479,12.296601167738272,50.69517733521405,1.3167670371056548,4.851457564093474,-2.640957886262429,7749.93359375,11.560333333333334,7.319999999999999,179.54668080028316,-10.130984808127195,63.94702683375964,1723.0,1435.0,1350.0,1528.0,1599.0,990.0,160.0,294.53,1649332239.4491627,1649332240.5635712,3e264b62-03c8-46d6-816a-423f02f7bbeb
1.0854929666708646,1.6025781061937785,1.013693504275611,-0.8082860439909256,0.4360991428539218,-0.5257533277696164,0.6195234389352559,0.6106101411005416,6.600554890825634,13.283872608999255,48.738085686790754,0.7914846060520289,5.69596608997768,-2.603098261570364,7756.9462890625,11.498222222222225,7.276666666666666,178.72666194890976,-10.170166567755926,60.95898223750922,1813.0,1435.0,1350.0,1528.0,1662.0,990.0,160.0,294.53,1649332242.9009216,1649332244.0349748,aa5d3a6e-a2de-4b08-a749-cb35d011cbe3
1.052360276787943,1.5871046173072645,1.0232096193075828,-0.8120460701223753,0.4436808830658728,-0.5181988962291252,0.640753524241897,0.6087758980775735,7.62276014423816,13.129421552835144,47.28015724809289,0.8166742342986956,5.644681355581589,-2.6598067952789406,7750.712782118056,11.505777777777777,7.300000000000001,178.5678630863466,-10.153643865834972,59.97730267431045,1813.0,1435.0,1350.0,1528.0,1662.0,990.0,160.0,294.53,1649332244.1435115,1649332245.2686994,aa5d3a6e-a2de-4b08-a749-cb35d011cbe3
1.0879143495712054,1.6554778477997687,1.0216580737169492,-0.8509399366115475,0.4226824165998804,-0.5436021870998623,0.6233709493870769,0.5961005560572696,7.703761801842212,13.289392837410094,48.02548389352227,0.8484674774680779,5.898636440169332,-2.59536776293889,7751.491970486111,11.515777777777778,7.2844444444444445,178.36362373414522,-10.151507534444574,59.26714513900697,1813.0,1435.0,1350.0,1528.0,1662.0,990.0,160.0,294.53,1649332245.3777142,1649332246.4970665,aa5d3a6e-a2de-4b08-a749-cb35d011cbe3
0.3548877445552448,0.3592531113646919,0.7771580861071884,-0.6092667903589749,0.4889649889719522,0.5632551160161943,0.8012070492993709,0.7682695682143715,4.703595058554884,11.930761774523331,56.22984536168663,2.769184838503429,0.9402468004638505,-2.750260607012276,7754.613444010417,11.615,7.34,178.57589235317087,-10.042662778196112,57.73463282763399,1470.0,1435.0,1350.0,1528.0,1403.0,990.0,160.0,294.53,1649332248.4309704,1649332249.561602,15bc924e-336a-42b7-901b-3fafe2e48038
0.3486552629914115,0.3509299872683348,0.7632204694028362,-0.5998391742349055,0.4772889477131752,0.561466893340699,0.788176692547334,0.758145073063516,4.856112848590625,11.9312661378021,55.9459487061724,2.7432409332139995,0.9084224067978528,-2.6980248548425214,7769.447591145833,11.608,7.337777777777777,178.3646937971152,-9.967749642834368,57.30734643844174,1470.0,1435.0,1350.0,1528.0,1403.0,990.0,160.0,294.53,1649332249.6694238,1649332250.6139953,15bc924e-336a-42b7-901b-3fafe2e48038
0.3785816934198471,0.3584904870563249,0.7683616090420609,-0.610502767661992,0.4848100015013795,0.5612696631059362,0.8008125883464051,0.7725034479572915,5.07663167618172,11.209598808456812,55.65122653557971,2.762388182373753,0.9394568132862192,-2.732411522477839,7771.01171875,11.617,7.34,178.2400155240058,-9.896091187475871,56.890499993395856,1470.0,1435.0,1350.0,1528.0,1403.0,990.0,160.0,294.53,1649332250.7238271,1649332251.8271043,15bc924e-336a-42b7-901b-3fafe2e48038
0.2148541378706515,0.0534144492203873,0.7548973453728465,-0.575198506870485,0.5296864976796372,0.8348545598248427,0.8873704481123448,0.8589692667395838,5.004500862461958,11.740454546677034,56.94558609015596,3.300550908168392,-0.2209164348940991,-2.933469025116638,7773.362467447917,11.548333333333334,7.283333333333333,178.30564908847018,-9.890358382032506,56.27587403728364,1385.0,1435.0,1350.0,1528.0,1331.0,990.0,160.0,294.53,1649332252.9352934,1649332254.0801,f489bcec-8f7d-4e1b-8298-4043a29947b2
0.2198506422447388,0.0698371707746942,0.7468766414266311,-0.5789327375729739,0.5225993510565076,0.8250982281099577,0.8790736214631412,0.85829868319505,5.007583705341822,11.26238178008345,57.30003690901068,3.283540111387666,-0.1625413663383568,-2.898417363129161,7785.1279296875,11.552,7.279999999999999,178.2606700160559,-9.87428922364519,55.681624812195295,1385.0,1435.0,1350.0,1528.0,1331.0,990.0,160.0,294.53,1649332254.1921318,1649332255.3025253,f489bcec-8f7d-4e1b-8298-4043a29947b2
0.2119351274685684,0.0643278670801675,0.7503873429786162,-0.5679404240907905,0.5259654169975287,0.8261501237004262,0.8789158371072802,0.8593374301076853,4.860009181325376,11.632450476004358,58.1298705069302,3.263793929760297,-0.1906394560483119,-2.907217811019473,7785.1279296875,11.556111111111113,7.2844444444444445,178.20265590706563,-9.826957340789342,55.326503925043696,1385.0,1435.0,1350.0,1528.0,1331.0,990.0,160.0,294.53,1649332255.4108174,1649332256.5326145,f489bcec-8f7d-4e1b-8298-4043a29947b2
0.0017532212012819,-0.3424007845214979,0.6795421744368084,-0.4853665891290329,0.5351826521923734,1.1404696861558372,0.9163107261593976,0.8894742394418127,4.053258148713343,13.108142352587755,56.82752185912299,3.7894868377608897,-1.7134993054485872,-2.927941482982922,7789.846028645833,11.496666666666666,7.256666666666667,178.3815142763112,-9.795476239994846,55.11312540027791,1297.0,1435.0,1350.0,1528.0,1253.0,990.0,160.0,294.53,1649332257.4432576,1649332258.5800571,853c2e55-5f4f-4ed8-81ab-50d746b6fce8
0.0085905433952401,-0.3373911303854179,0.668536716747941,-0.505076489750519,0.5241640457595886,1.1525401889016669,0.9107093820175596,0.8977316200403164,4.033558742036873,12.775745538909478,56.60141765052601,3.858274120506187,-1.6908432870684715,-2.889719875930429,7785.1279296875,11.499,7.260000000000001,178.42236791446678,-9.863410439844651,54.7501611792294,1297.0,1435.0,1350.0,1528.0,1253.0,990.0,160.0,294.53,1649332258.687253,1649332259.7504623,853c2e55-5f4f-4ed8-81ab-50d746b6fce8
-0.0104882152471234,-0.3528014049937419,0.677214855425348,-0.4733092319409461,0.5356034104390123,1.1404828348874922,0.9129709575698092,0.8888168046459356,3.9421063402625753,13.25977221609584,56.93593902137925,3.763168560038711,-1.754311635958809,-2.9217268661817584,7778.06396484375,11.486444444444444,7.257777777777777,178.39929098199104,-9.86368763168847,54.60127216224201,1297.0,1435.0,1350.0,1528.0,1253.0,990.0,160.0,294.53,1649332259.860432,1649332260.839794,853c2e55-5f4f-4ed8-81ab-50d746b6fce8
0.5817421812420411,0.749940287337524,0.8309493975075067,-0.6815583507124979,0.4593409789693543,0.2416643270987721,0.7368967819699584,0.7170028064911075,5.364464458112675,11.42266495290369,55.431228802677154,2.2091150186206967,2.420263997165476,-2.645487349733774,7780.88955078125,11.6264,7.333999999999999,177.47039254040442,-10.064464059007877,54.37037124250651,1553.0,1435.0,1350.0,1528.0,1471.0,990.0,160.0,294.53,1649332262.9723234,1649332264.1074135,e035f4d0-0585-46eb-9404-983037e5421c
0.5918535276795801,0.7649823944193465,0.818405542557851,-0.6768905665142758,0.4464026628146362,0.2158271391448635,0.7171605909201414,0.6878784470900152,5.320420110123961,11.26074610728748,54.34307636347018,2.1386324214978045,2.4852643832323618,-2.582304175277147,7778.06396484375,11.626888888888889,7.33111111111111,177.43458595669952,-10.145848248398528,54.396748598280205,1553.0,1435.0,1350.0,1528.0,1471.0,990.0,160.0,294.53,1649332264.2287,1649332265.345537,e035f4d0-0585-46eb-9404-983037e5421c
0.5906306990527646,0.7679408507855703,0.81285679307244,-0.6810324008398833,0.4396836798296942,0.2172209027040038,0.7127952240335317,0.6933746015546225,5.46775998143026,11.20250775259446,54.37283391899175,2.1505239086928465,2.495211017122992,-2.558883200551961,7775.713216145833,11.630666666666665,7.336666666666667,177.47034882719376,-10.228736198798693,54.42843194856511,1553.0,1435.0,1350.0,1528.0,1471.0,990.0,160.0,294.53,1649332265.454315,1649332266.6920946,e035f4d0-0585-46eb-9404-983037e5421c
0.6489436440900095,0.7824155411178039,0.8087002884455916,-1.13266710387809,0.3838583655131036,0.6435956652673259,0.8263751689648663,0.7997490613104659,5.686638026431348,10.448995902510251,58.30723761433161,4.122957426646535,2.568409840140267,-2.635092056529836,7779.633734809027,11.621111111111112,7.327777777777778,177.41674398476766,-10.134617709855734,54.45284494193351,1553.0,1522.0,1350.0,1528.0,1471.0,990.0,160.0,294.53,1649332268.9118907,1649332270.049339,57a67597-b6de-47ed-b35d-940dca549c56
0.6219771878733028,0.7884922610904427,0.8139218374994399,-1.1471144993957842,0.3821581379880034,0.6518115767423192,0.8340656383234045,0.8064139324915023,6.140593022821373,10.616903132752912,58.47555372985279,4.175637876936887,2.5886091208815234,-2.6497488689719035,7778.848849826389,11.614666666666668,7.337777777777777,177.42454709643945,-10.11391872671227,54.563756589315815,1553.0,1522.0,1350.0,1528.0,1471.0,990.0,160.0,294.53,1649332270.1583178,1649332271.2776642,57a67597-b6de-47ed-b35d-940dca549c56
0.6102222545671954,0.7704522515372995,0.8193128024621693,-1.1285879759542814,0.3960431602508933,0.646723031730917,0.8343812070950654,0.8128830905031543,5.278368705214497,10.784080741640786,57.68963225624225,4.123229311445135,2.5320799128532543,-2.6802590132693247,7778.06396484375,11.621111111111112,7.345555555555555,177.4559173963874,-10.189883995797414,54.57430391921413,1553.0,1522.0,1350.0,1528.0,1471.0,990.0,160.0,294.53,1649332271.3864105,1649332272.5086844,57a67597-b6de-47ed-b35d-940dca549c56
0.6502600307440496,0.801732996991538,0.8121467635999844,-1.5860052669723756,0.3220028572048208,1.057396227593078,0.931642105019705,0.9168498227923184,5.913916796738022,11.051729974817782,60.88739265307999,6.080135275627112,2.6724299135349976,-2.703505078241746,7781.988389756944,11.597555555555555,7.325555555555557,177.42628348230843,-10.064198744104116,55.0304319205416,1553.0,1613.0,1350.0,1528.0,1471.0,990.0,160.0,294.53,1649332274.4408753,1649332275.5776737,8614ad83-ae28-4d8b-a95c-520119e4b976
0.6698647349360436,0.8107530017824617,0.794724742716484,-1.607043210762289,0.3067898165098073,1.0750549259911926,0.9219515169049384,0.9050422945945492,5.801032470407876,10.4552754532362,61.80298724143174,6.162540834184248,2.7004201338672003,-2.6428747243767945,7778.06396484375,11.608,7.34,177.494063243992,-10.137425676514518,55.21986304316742,1553.0,1613.0,1350.0,1528.0,1471.0,990.0,160.0,294.53,1649332275.686216,1649332276.8025367,8614ad83-ae28-4d8b-a95c-520119e4b976
0.638268420934051,0.7414067842850729,0.8019565249077555,-1.566439982922721,0.3327190439898554,1.0975917897541805,0.9387029542164594,0.916941863576666,5.2703245750859296,10.667508824353613,60.75595505482416,6.122926209379679,2.4488286253282494,-2.721869336669672,7778.06396484375,11.601333333333333,7.325555555555557,177.55246287921543,-10.121670517101544,55.122254707013546,1553.0,1613.0,1350.0,1528.0,1471.0,990.0,160.0,294.53,1649332276.911298,1649332278.0424683,8614ad83-ae28-4d8b-a95c-520119e4b976
0.6599243215430799,0.7388296400623416,0.8253743507536658,-1.9668052213448115,0.3028715055654223,1.497522540218419,1.0593159368333462,1.0293500598467125,5.037229424515357,11.347637292814676,65.38538415952593,7.931045221922717,2.4505716744909547,-2.882599191916414,7784.421533203125,11.535799999999998,7.306999999999999,177.630488076436,-10.053897756361868,55.022252693119526,1553.0,1710.0,1350.0,1528.0,1471.0,990.0,160.0,294.53,1649332278.7908278,1649332279.8798912,c8f736d9-eaf9-4c7e-9756-3a48f85d91f7
0.6623831275020835,0.7355424663274054,0.8276227776711874,-1.956707011675809,0.3041732262719427,1.476957979291292,1.0560945066661551,1.038330618908847,5.157178772845349,11.558430973369484,63.32032499215711,7.863295351256527,2.454599177147059,-2.88607482617774,7781.988389756944,11.536888888888887,7.2844444444444445,177.7003243321877,-10.060690683055409,55.0696633887693,1553.0,1710.0,1350.0,1528.0,1471.0,990.0,160.0,294.53,1649332279.9879923,1649332281.1153996,c8f736d9-eaf9-4c7e-9756-3a48f85d91f7
0.6656703012433829,0.7400130226232426,0.8226788685486891,-1.973497919036518,0.2932992545400981,1.4950111392855536,1.0558972766551444,1.044457911164783,5.569754888741545,11.682005439137583,64.28735033513743,7.942674231607748,2.461631646144335,-2.862248753062445,7778.848849826389,11.54188888888889,7.308888888888889,177.77201247989632,-10.039035188836928,54.91280543829529,1553.0,1710.0,1350.0,1528.0,1471.0,990.0,160.0,294.53,1649332281.2284267,1649332282.336553,c8f736d9-eaf9-4c7e-9756-3a48f85d91f7
0.652206037598714,0.7097841728575065,0.8127253062135984,-2.2531449334299403,0.2494089095021978,1.7980491905901126,1.121798538731567,1.0921482297208382,5.592951282974814,12.354696912363808,66.7545982688592,9.258825047916655,2.360034684626676,-2.8856197634159537,7778.06396484375,11.525666666666666,7.286666666666666,177.8304090794801,-9.951188331371856,54.923419172810526,1553.0,1814.0,1350.0,1528.0,1471.0,990.0,160.0,294.53,1649332284.4763663,1649332285.6138835,71bb64ec-3a90-42ff-9898-16771ccbeae3
0.651588048935142,0.7129530083491707,0.8250061873487005,-2.2605213701759626,0.2558649191240965,1.8084498125707789,1.12988498660482,1.106296226800735,5.394278512381265,12.932119182561404,67.78081406650502,9.30333895408598,2.365927108993434,-2.9212764359304355,7778.06396484375,11.5312,7.282000000000001,177.820617320286,-9.94462907303892,55.079426840623874,1553.0,1814.0,1350.0,1528.0,1471.0,990.0,160.0,294.53,1649332285.7217834,1649332286.837868,71bb64ec-3a90-42ff-9898-16771ccbeae3
0.6632114952836958,0.7210657531446607,0.8125280757692728,-2.252145632242447,0.2490144485145342,1.7865309308477912,1.1133965220791084,1.090149628083664,5.066982003117318,12.461510335160687,66.78780566601591,9.231126593921148,2.405642107549761,-2.871841955736869,7778.06396484375,11.532,7.305,177.88755044207642,-9.974760879449256,54.97662976153951,1553.0,1814.0,1350.0,1528.0,1471.0,990.0,160.0,294.53,1649332286.9466352,1649332288.0673516,71bb64ec-3a90-42ff-9898-16771ccbeae3
0.5540247321932409,0.6990942838527617,0.8502516818242296,-0.2312548412617479,0.5330788609840073,-0.1510346377567443,0.6473015743714212,0.6303660552490105,5.052372422634532,12.627114410910922,51.18960090926495,0.3190059449053467,2.2151650099786964,-2.6535667561615868,7778.06396484375,11.636333333333331,7.35,177.9369008355595,-10.670178155045788,54.975304704840525,1553.0,1349.0,1350.0,1528.0,1471.0,990.0,160.0,294.53,1649332289.9708188,1649332290.9137945,7e54118d-1e21-4a5c-9195-e86ebb588047
0.542690557095798,0.7093897120121493,0.8574440181847345,-0.2373426891338339,0.5338677825735693,-0.1574643512916858,0.6490766481789823,0.6209778869691671,5.1250491115246986,12.975013272592298,50.9427870063458,0.3209518473021378,2.25666364308806,-2.666220268727788,7778.06396484375,11.638333333333334,7.353333333333333,177.93302128811095,-10.6254182178674,55.20178694752898,1553.0,1349.0,1350.0,1528.0,1471.0,990.0,160.0,294.53,1649332291.0273411,1649332292.1673574,7e54118d-1e21-4a5c-9195-e86ebb588047
0.5529333905015347,0.722932867837278,0.8327639174944079,-0.2304659185545493,0.5122644766413076,-0.1711126977449133,0.622858150405688,0.6051600069795781,5.159947885779179,12.497621395242478,51.59839241652767,0.2704983626268479,2.2989817317646866,-2.5629805076603964,7776.496799045139,11.641,7.373333333333333,177.9350065964297,-10.682393379193924,55.24038434652872,1553.0,1349.0,1350.0,1528.0,1471.0,990.0,160.0,294.53,1649332292.276048,1649332293.3968527,7e54118d-1e21-4a5c-9195-e86ebb588047
0.5213239276800062,0.6983316595423767,0.8672660933473074,0.1364353158616534,0.582688887234475,-0.5068384160907697,0.5544980851533371,0.5388642867265464,4.581335169230332,14.202947246837905,48.32893008450499,-1.2993510878454757,2.1968274640639103,-2.614076745101076,7778.06396484375,11.6279,7.345999999999999,177.97754501458053,-10.798315207491772,55.35880514183003,1553.0,1264.0,1350.0,1528.0,1471.0,990.0,160.0,294.53,1649332294.307201,1649332295.4439275,0f67ded3-4579-400b-b270-a8ae9ad48c19
0.518181389571654,0.701671428065574,0.8657276960519452,0.1241807300521598,0.5791518882591621,-0.4961485248337701,0.5548268025211835,0.5317639914560336,4.5431890826809145,14.220237322757107,48.70470657948925,-1.2476074163921107,2.207704686469931,-2.6068373533125526,7778.06396484375,11.629499999999998,7.345000000000001,177.99244848734952,-10.782034597831402,55.50304780879803,1553.0,1264.0,1350.0,1528.0,1471.0,990.0,160.0,294.53,1649332295.552642,1649332296.6689026,0f67ded3-4579-400b-b270-a8ae9ad48c19
0.5193516234233246,0.691362851211172,0.8787054581142574,0.1218928558724077,0.5920507580597527,-0.4859188386543866,0.571091738216564,0.547555574159371,4.577679757978344,14.355806633109344,48.53443721784242,-1.2179239309876717,2.1714129385996968,-2.666793070423584,7778.06396484375,11.6348,7.342,178.00586571095508,-10.784652353208172,55.647169922927176,1553.0,1264.0,1350.0,1528.0,1471.0,990.0,160.0,294.53,1649332296.7765076,1649332297.9016876,0f67ded3-4579-400b-b270-a8ae9ad48c19
0.5002071234527269,0.7050243452787942,0.8579173710868219,0.5576143257100816,0.6134305361082929,-0.9137775812197572,0.4178436971814258,0.3896528946524294,3.773809032295323,15.79413894914686,45.97033256923181,-3.15457414815689,2.196126941867554,-2.448679531894607,7778.06396484375,11.618799999999998,7.346999999999999,177.92028344065483,-10.959968709673053,55.98323230556473,1553.0,1178.0,1350.0,1528.0,1471.0,990.0,160.0,294.53,1649332298.8163345,1649332299.949566,d109a52d-840b-4b46-aa2b-9ee446924fec
0.5185495530369675,0.7256414990022144,0.8698958323238662,0.5426905568789555,0.6190976236520934,-0.917183095577246,0.4301377271813185,0.4060230201351512,4.1054122408279445,15.634515089198338,46.49766569722985,-3.1287731653864,2.2690271560776143,-2.4868253581098765,7783.71513671875,11.608,7.337999999999999,177.91816881408778,-10.92446683778252,56.23473421420185,1553.0,1178.0,1350.0,1528.0,1471.0,990.0,160.0,294.53,1649332300.057275,1649332301.177343,d109a52d-840b-4b46-aa2b-9ee446924fec
0.5082935708961913,0.7146886360960886,0.8986257311772876,0.5486469156466848,0.6470254517729559,-0.9079001136868872,0.4637326432486507,0.441721727548098,4.435023631189687,15.76858093624169,47.30750253518457,-3.1187348451523014,2.2195270298435985,-2.6118134726902555,7778.06396484375,11.6078,7.326,177.93873724575434,-10.981774259353044,56.42729466388689,1553.0,1178.0,1350.0,1528.0,1471.0,990.0,160.0,294.53,1649332301.3054616,1649332302.404382,d109a52d-840b-4b46-aa2b-9ee446924fec
0.4869795362059327,0.7017108741478375,0.8921565733343282,0.7950929062489874,0.6559271182614573,-1.1511380058088294,0.3746370843292408,0.3465909173956777,4.121149895779738,17.8351706254833,42.79418941997679,-4.208744533983114,2.182357595068108,-2.4951093434504186,7771.716943359375,11.590099999999998,7.3199999999999985,178.0410288908401,-11.047100152254432,56.578296827567,1553.0,1088.0,1350.0,1528.0,1471.0,990.0,160.0,294.53,1649332304.3424408,1649332305.479499,2ce78fa4-9653-439f-beb8-e7d0f976761d
0.48314011724859,0.7038935575236711,0.8992042738827272,0.7809712082584329,0.6622516405389581,-1.1342945207684694,0.3827892752741694,0.3615146865859661,3.707432028623266,17.91098178439302,43.70332188989655,-4.138249727584724,2.187601315628217,-2.523835247380029,7778.06396484375,11.580000000000002,7.32,178.0901611736157,-11.091166825232062,56.53831836431707,1553.0,1088.0,1350.0,1528.0,1471.0,990.0,160.0,294.53,1649332305.5868003,1649332306.9163368,2ce78fa4-9653-439f-beb8-e7d0f976761d
0.4835740241616419,0.718383419385575,0.8848458986816494,0.785086749617999,0.6480116038971517,-1.1502175992099537,0.3637631135015723,0.3375446152915722,3.675483236429194,17.709658023915974,43.87072483869488,-4.185353611887772,2.2392691749849747,-2.4556928045760182,7774.929633246527,11.579,7.319999999999999,178.06290568318775,-11.087830088095036,56.60420957869515,1553.0,1088.0,1350.0,1528.0,1471.0,990.0,160.0,294.53,1649332307.0309,1649332308.040389,2ce78fa4-9653-439f-beb8-e7d0f976761d
0.5695533409853772,0.7130187518296374,0.821837351809653,-0.6783369214911503,0.4579866634295688,0.2627942802099928,0.7299148250102013,0.7104416076690542,4.607687117279592,11.833548105730255,53.65212587669686,2.2509356227986808,2.3019429055439824,-2.628927580941023,7778.06396484375,11.6254,7.332000000000001,178.1597471408798,-10.571354936938786,56.729581419569286,1553.0,1435.0,1350.0,1528.0,1471.0,990.0,160.0,294.53,1649332309.8768322,1649332311.005371,8b489765-b7e8-461b-a24d-6001711887d6
0.5631630752196863,0.7148332717315096,0.8218110544210763,-0.682123743141545,0.4608136328804352,0.2674094735915927,0.7372386480433413,0.7257072425155009,4.849023228019267,11.287174803283328,54.09835755555,2.2664180507169305,2.30354070616983,-2.641960994571174,7785.1279296875,11.632099999999998,7.331999999999999,178.20054659286797,-10.634838300934195,56.5339402130591,1553.0,1435.0,1350.0,1528.0,1471.0,990.0,160.0,294.53,1649332311.113733,1649332312.4440272,8b489765-b7e8-461b-a24d-6001711887d6
0.5691983262200233,0.7143467700215664,0.8325666869668135,-0.6679757434463582,0.4707408976389018,0.2587707798057171,0.7411306617376086,0.714491405681926,4.653414077643923,11.674087833462524,54.70699072855165,2.21819033819033,2.2966526919467056,-2.675056780191829,7785.1279296875,11.628333333333334,7.32888888888889,178.2353998339467,-10.62780783543952,56.413136554483856,1553.0,1435.0,1350.0,1528.0,1471.0,990.0,160.0,294.53,1649332312.552391,1649332313.6680896,8b489765-b7e8-461b-a24d-6001711887d6
0.6924410441939611,0.8103979870283345,1.0845745811145984,-0.6853846287690654,0.6851829645870314,0.168859997561982,0.9800687499405012,0.9637643674897436,6.811293854574809,11.581648100933451,54.90519409195477,2.0684723184778324,2.6579913357525298,-3.637549944979445,7778.06396484375,11.609777777777778,7.331111111111111,178.21493658719334,-10.61185953345502,56.44912823631524,1553.0,1435.0,1350.0,1455.111111111111,1471.0,990.0,160.0,294.53,1649332315.3231003,1649332316.3400471,f21c2574-f8c8-4ebb-b043-5a5d29b0cce9
