raw_voltage_G-,raw_voltage_G0,raw_voltage_G1,raw_voltage_G2,raw_voltage_G3,raw_voltage_G4,raw_voltage_G5,raw_voltage_G6,load_x,load_y,load_z,load_l,load_m,load_n,rpm,voltage,current,roll,pitch,yaw,aileron1_pwm,elevator_pwm,throttle_pwm,rudder_pwm,aileron2_pwm,pbaro,pdiff,Tt,sample_start_time,sample_end_time,uid
0.0264596218026867,0.1432989354851634,-0.090287655783703,-0.1346908060964505,-0.1960426275067437,0.3961352014312486,-0.2708981638012659,-0.2849278246534287,-15.023741805273335,16.78644918618197,57.0953294156389,1.302320583583756,0.1489022726025102,0.8550806217863668,5488.250379774306,11.943888888888887,0.1277777777777777,-179.8357283346788,-11.330380066214726,111.92892285581144,1553.0,1435.0,1200.0,1528.0,1471.0,990.0,160.0,294.53,1649328869.9477062,1649328870.9254887,541e872f-ee95-4df1-a94b-33aea160a3d1
-0.0041505435069102,0.1438248833348451,-0.0853305970751528,-0.1414229388579011,-0.1931499140475268,0.4008950291427466,-0.2645736400762691,-0.2955782699683668,-14.931088306520616,16.844100491959765,57.006268017066674,1.328864042532052,0.152152565508717,0.8352989827827345,5498.0283203125,11.943555555555555,0.12,-179.7800622929432,-11.310851891331492,111.5079456641375,1553.0,1435.0,1200.0,1528.0,1471.0,990.0,160.0,294.53,1649328871.0334222,1649328872.1578703,541e872f-ee95-4df1-a94b-33aea160a3d1
0.008222379894261,0.1428124337354826,-0.0835029282758576,-0.1304043305817086,-0.1900468214911812,0.3915989015718021,-0.26661168854684,-0.304216965776095,-15.055130183163191,16.94053776285432,56.98481902592119,1.283783563353995,0.1481841771724218,0.8313004202103229,5498.0283203125,11.951,0.13,-179.72309547962567,-11.327244629930735,111.07740620762556,1553.0,1435.0,1200.0,1528.0,1471.0,990.0,160.0,294.53,1649328872.2666426,1649328873.384734,541e872f-ee95-4df1-a94b-33aea160a3d1
0.2206395639373599,0.5128035733002558,-0.0215331204844792,-0.3495799745972745,-0.226100550232574,0.2311453715301425,-0.2719237623662304,-0.2915153224474341,-13.796811331913668,16.140131266831226,57.24088973963331,1.4160835279582,1.5556004775014307,0.8479153469513045,5499.792724609375,11.9325,0.12,-179.9785582149625,-11.258854799545045,110.43527963318516,1637.0,1435.0,1200.0,1528.0,1535.0,990.0,160.0,294.53,1649328874.4987984,1649328875.6432316,61d2201e-69b0-472b-9d2e-83132a0ac99a
0.2255571761317383,0.5200353555680605,-0.0183116900052371,-0.3534456916960609,-0.226692241855928,0.2243606446242834,-0.2735016065609741,-0.287281441801017,-13.84633217295969,16.374587154595552,56.78170869955317,1.4111739698525876,1.5878284144543136,0.8466392628210444,5501.55712890625,11.931666666666665,0.1211111111111111,179.97371788757067,-11.247378279328396,110.1460977717358,1637.0,1435.0,1200.0,1528.0,1535.0,990.0,160.0,294.53,1649328875.777892,1649328876.8660328,61d2201e-69b0-472b-9d2e-83132a0ac99a
0.2134209300605118,0.4994444991270247,-0.017404429720687,-0.3520519300119959,-0.2218009260587825,0.244386107947387,-0.2654151568743617,-0.2871894007554119,-13.871116611259506,16.39937546249164,56.97718018278569,1.4532580585200972,1.5089294769642176,0.824995951129173,5508.237521701389,11.932555555555556,0.12,179.92181300333803,-11.19146758401127,109.92411814153022,1637.0,1435.0,1200.0,1528.0,1535.0,990.0,160.0,294.53,1649328876.9734242,1649328878.091645,61d2201e-69b0-472b-9d2e-83132a0ac99a
0.4118478922758957,0.8341576789767666,0.0365578202112237,-0.5201054537055328,-0.2529633401217203,0.0700738470781184,-0.2828634794275594,-0.2947630516129309,-12.97615164210684,15.836569484758732,56.96307465442547,1.440047014926895,2.782200440065948,0.8585902747761636,5510.990234375,11.905666666666669,0.1166666666666666,179.564794461962,-11.139629294123027,109.36503452483863,1723.0,1435.0,1200.0,1528.0,1599.0,990.0,160.0,294.53,1649328879.9106925,1649328881.16609,6e1c6b81-620d-40d0-93c1-cde6b14a0f57
0.4125973679192917,0.8456101923784147,0.0486283235226526,-0.5273109407242963,-0.2463232475268377,0.0623555625894021,-0.2731991861589204,-0.2958280956304542,-12.750959799473163,15.929805574946773,56.59942313901075,1.440231303948062,2.828437446541651,0.8202618042738254,5512.1708984375,11.903777777777778,0.1111111111111111,179.46101808553263,-11.119732573615826,109.18187237750604,1723.0,1435.0,1200.0,1528.0,1599.0,990.0,160.0,294.53,1649328881.2743504,1649328882.3954823,6e1c6b81-620d-40d0-93c1-cde6b14a0f57
0.4153454452105117,0.8338158129027772,0.0371363627924567,-0.530966279698152,-0.2543965482484602,0.0749388646387687,-0.2801679965468401,-0.3069518949476927,-12.872876211144453,15.848852397275486,56.19769071656837,1.475518933560441,2.788344939823355,0.8547670262756389,5520.850531684027,11.907777777777778,0.1144444444444444,179.41583866090275,-11.094672894142269,109.0824680810554,1723.0,1435.0,1200.0,1528.0,1599.0,990.0,160.0,294.53,1649328882.5038269,1649328883.630118,6e1c6b81-620d-40d0-93c1-cde6b14a0f57
0.5488704437518944,1.0721753609393516,0.089441876235278,-0.6607834005610265,-0.2709902051508722,-0.0507100790009394,-0.286387331204521,-0.3041775195539624,-12.365463884362406,16.253766419945038,54.71385903119403,1.4913121760077956,3.711204013326999,0.8407241507025297,5510.39990234375,11.8475,0.1,179.11347377544536,-11.0013997834047,108.806494667096,1813.0,1435.0,1200.0,1528.0,1662.0,990.0,160.0,294.53,1649328884.5344286,1649328885.6776447,0273d794-aeb2-4406-bea1-8cec4201f16d
0.5613748526972744,1.0899655460242446,0.090914530275688,-0.6643466979450853,-0.2741984873081283,-0.0649501173177306,-0.2907789958633763,-0.3255704515500355,-12.300684282782784,16.308384460370803,54.68883971468429,1.4678148525408798,3.77822427808938,0.851448321192651,5505.095377604167,11.857666666666669,0.1066666666666666,179.04598239952676,-10.9976931251195,108.57538952470428,1813.0,1435.0,1200.0,1528.0,1662.0,990.0,160.0,294.53,1649328885.7869318,1649328886.9495676,0273d794-aeb2-4406-bea1-8cec4201f16d
0.5534067435233319,1.0826811687080842,0.0845374126578261,-0.6546429566666463,-0.2776302975784062,-0.0650421581291354,-0.2976689136559665,-0.3210998936012362,-12.409016925230608,16.351014068063293,54.88025119778371,1.4456598007960642,3.7483754204243422,0.8740054453312553,5498.0283203125,11.864,0.104,178.98389962273887,-10.977433759512866,108.43659416127234,1813.0,1435.0,1200.0,1528.0,1662.0,990.0,160.0,294.53,1649328887.0588849,1649328888.1251173,0273d794-aeb2-4406-bea1-8cec4201f16d
-0.2585439504035291,-0.2788612174468048,-0.1460340856966419,0.0823739465952868,-0.1499786948477158,0.6044909407010041,-0.2457998282610519,-0.2675583944731013,-16.230990802688574,18.186164697580587,56.199032169674766,1.286631358770548,-1.4482021058524568,0.78073266482744,5494.115017361111,11.940111111111111,0.1255555555555555,179.787750050309,-10.941840106955366,108.17705972249831,1470.0,1435.0,1200.0,1528.0,1403.0,990.0,160.0,294.53,1649328888.9975712,1649328890.1778734,079fa73e-2779-4f5c-a7f2-a7758d31b484
-0.234029214782662,-0.2655071974646983,-0.1556498291181578,0.0713755679711729,-0.1639203596815133,0.6004659228820995,-0.2578809529174873,-0.278103650913484,-16.134874375327474,18.205825029306244,55.96304168299512,1.302058549062831,-1.3959602400731106,0.8312756872139232,5515.71875,11.939222222222222,0.1288888888888889,179.73688335483018,-10.915016151673695,108.03139000133972,1470.0,1435.0,1200.0,1528.0,1403.0,990.0,160.0,294.53,1649328890.2862532,1649328891.4074192,079fa73e-2779-4f5c-a7f2-a7758d31b484
-0.2172519822219045,-0.2748028212561821,-0.1586391348270867,0.0753318083520127,-0.1623055985023771,0.6051230895048367,-0.2581140893965495,-0.2787095017968465,-16.307949571494195,18.051111899179457,55.83865296942775,1.30231810585949,-1.4291762710069826,0.8321599529460196,5514.141927083333,11.941333333333333,0.12,179.70184600220784,-10.913887747504567,107.878915893948,1470.0,1435.0,1200.0,1528.0,1403.0,990.0,160.0,294.53,1649328891.514993,1649328892.64196,079fa73e-2779-4f5c-a7f2-a7758d31b484
-0.4584906469576058,-0.6627688527382567,-0.2125442429992484,0.2815180242066515,-0.1258811786833892,0.7876638933258184,-0.2421551102744691,-0.2655466440473866,-17.218711312194763,19.676698520362034,54.57922289627357,1.254838959141698,-2.8954519896708355,0.785088513256833,5508.62890625,11.891333333333332,0.11,179.7858846497557,-10.939359704785527,107.72650098152909,1385.0,1435.0,1200.0,1528.0,1331.0,990.0,160.0,294.53,1649328893.3617847,1649328894.4783354,b09f3055-acbe-461d-bb30-1b33ad5dcaa5
-0.4582145242306035,-0.6630055292984716,-0.2077449682956423,0.2841214659626925,-0.1213974728840819,0.7825621996410419,-0.2394333297450035,-0.2712268816284729,-17.26843078930244,19.76276787108124,54.19023432977766,1.238224546906476,-2.892555003882112,0.7679398293935251,5505.0908203125,11.880555555555556,0.11,179.7731228207465,-10.899704480238082,107.50252769499576,1385.0,1435.0,1200.0,1528.0,1331.0,990.0,160.0,294.53,1649328894.5862246,1649328895.7071514,b09f3055-acbe-461d-bb30-1b33ad5dcaa5
-0.4605944388729261,-0.6543405353485303,-0.2121497821113259,0.2818204442715218,-0.1267226953165677,0.7768425173247406,-0.2471647641326315,-0.2661646325059663,-17.41414360057264,19.74983565426649,54.23704768917741,1.2301912528732797,-2.859435750471905,0.7932028590201141,5508.27509765625,11.8812,0.101,179.7569322367739,-10.916191209829408,107.25404799328436,1385.0,1435.0,1200.0,1528.0,1331.0,990.0,160.0,294.53,1649328895.816026,1649328896.9427216,b09f3055-acbe-461d-bb30-1b33ad5dcaa5
-0.706790704419232,-1.0556389507748254,-0.2862952892395593,0.4808785415931235,-0.107643935828387,0.975729680085007,-0.2501100724393985,-0.2750925987475502,-18.76290446162252,21.548079400164657,52.361131218140216,1.235341825409048,-4.367554642708645,0.8213400202922199,5498.0283203125,11.827,0.09,179.8586216109569,-10.880568851504645,106.8032013218961,1297.0,1435.0,1200.0,1528.0,1253.0,990.0,160.0,294.53,1649328897.9557085,1649328899.1887772,300dda4f-4f9c-4fe5-aece-ad5f14eb37d5
-0.7043450459644721,-1.069366199079813,-0.2837575905952418,0.4921469733454442,-0.1011090334968136,0.9751379886790416,-0.2458498945132178,-0.2732649301866295,-18.77277307617376,21.53811165982109,51.86668489584413,1.2085698924469042,-4.415814734663868,0.800652119685604,5508.235785590277,11.829555555555556,0.09,179.8793079772231,-10.86529256424348,106.39989079396535,1297.0,1435.0,1200.0,1528.0,1253.0,990.0,160.0,294.53,1649328899.2968638,1649328900.4202669,300dda4f-4f9c-4fe5-aece-ad5f14eb37d5
-0.6828600679395126,-1.0706284748724022,-0.2759472637331674,0.4985898339297812,-0.0956654728000208,0.9720085992041316,-0.23989353414043,-0.2619964952050339,-18.58217376163663,21.78571882216553,52.13823801957854,1.1891737713930874,-4.424598741630791,0.7744292958955802,5503.127658420139,11.823555555555554,0.09,179.83349865736974,-10.834249639056988,106.0965226296099,1297.0,1435.0,1200.0,1528.0,1253.0,990.0,160.0,294.53,1649328900.5285711,1649328901.653342,300dda4f-4f9c-4fe5-aece-ad5f14eb37d5
0.011535851358232,0.1510040712587647,-0.0766261597934906,-0.1552948143999692,-0.1892578996316269,0.4023282368913841,-0.2566318267385719,-0.2799313195164353,-14.869156567387773,16.9718781239331,56.45665689033555,1.3646002441947918,0.1857736437835773,0.8067881048561054,5489.579638671875,11.9448,0.127,179.34416478070037,-10.818044038154625,105.5451804252146,1553.0,1435.0,1200.0,1528.0,1471.0,990.0,160.0,294.53,1649328903.992947,1649328905.0348616,fc5387fe-7449-4edc-a06f-4de6338d47db
0.0049615031199392,0.1326879378376874,-0.0874738346374882,-0.1467876074800747,-0.1953457465079171,0.4128340443069811,-0.2657833204910645,-0.2863873306808603,-15.114769704693275,17.121003126499694,56.43505184707409,1.369339368189456,0.1172743067600038,0.8404912235429101,5493.6240234375,11.9475,0.1225,179.2153699525782,-10.773320557110935,105.69824633055242,1553.0,1435.0,1200.0,1528.0,1471.0,990.0,160.0,294.53,1649328905.146775,1649328906.352956,fc5387fe-7449-4edc-a06f-4de6338d47db
0.0183863221509929,0.1568157947709865,-0.0808600401948579,-0.1627632750421522,-0.1928606427583293,0.4081268112559443,-0.2602214212910834,-0.2815880554121598,-15.09102702869891,16.82685224786142,57.08525731657704,1.3932937380274688,0.2042188776921193,0.82400591649859,5479.2861328125,11.949333333333335,0.1233333333333333,179.1123536244215,-10.780484287185418,105.80972298636108,1553.0,1435.0,1200.0,1528.0,1471.0,990.0,160.0,294.53,1649328906.4610455,1649328907.5887115,fc5387fe-7449-4edc-a06f-4de6338d47db
0.0052244770766467,0.1244042594168167,-0.1199774137446092,-0.5490851881034245,-0.2625881868075985,0.817340498025157,-0.1796462018826801,-0.2084549979451198,-14.996182716658966,15.771882218973438,60.34207798177274,3.175924708193932,0.0981862817728201,0.8553603530828672,5482.789225260417,11.926,0.1133333333333333,179.03542748052936,-10.603354430118538,106.08347241483574,1553.0,1522.0,1200.0,1528.0,1471.0,990.0,160.0,294.53,1649328908.4965613,1649328909.640485,009ce5fc-b354-41da-85dd-1afc0601393c
0.0278665323097426,0.1169489487975143,-0.1156120462655412,-0.5481516311753916,-0.2580781833418112,0.8202463597582057,-0.1732953810846595,-0.1873644876102842,-14.875860565870504,15.837244265167874,59.87903514657344,3.180986106256156,0.0736395691992215,0.8327352027370237,5487.46923828125,11.93,0.12,178.98928727595617,-10.6091979415447,106.13915211694967,1553.0,1522.0,1200.0,1528.0,1471.0,990.0,160.0,294.53,1649328909.754243,1649328910.862636,009ce5fc-b354-41da-85dd-1afc0601393c
0.0389903294162352,0.1319910569694661,-0.1194909119289381,-0.5481253330356006,-0.262930052908389,0.8080838167108366,-0.179501566282831,-0.1924267360056355,-14.785733728826488,15.589466400780882,60.21216177713257,3.151858704751549,0.1262128924368013,0.8559221241745889,5489.422092013889,11.928333333333336,0.1155555555555555,178.92434735514752,-10.598623290889703,106.24502915600377,1553.0,1522.0,1200.0,1528.0,1471.0,990.0,160.0,294.53,1649328910.9710855,1649328912.0712912,009ce5fc-b354-41da-85dd-1afc0601393c
0.0357294526527372,0.1304658082253558,-0.1615535943579296,-1.0142731264518776,-0.3545764797691897,1.2595048312791115,-0.0983083612282992,-0.117939365829371,-14.730019990209309,14.943214540147617,63.30807508532687,5.211920243229685,0.1473742136112787,0.9228810388473236,5509.8095703125,11.908333333333331,0.11,178.84678220911303,-10.437640380475688,106.4125759730739,1553.0,1613.0,1200.0,1528.0,1471.0,990.0,160.0,294.53,1649328914.0263116,1649328915.1632297,37190220-a583-4112-a21d-a683e864a61d
0.0373072962428136,0.1221952785274031,-0.1551896246876815,-1.0067389176954704,-0.3445177251489919,1.258860544780086,-0.0905900758774648,-0.1124300617052744,-14.839306788378607,14.850955432619086,63.10678054191868,5.193095303103494,0.1183865270834369,0.8882595219108553,5512.1708984375,11.91,0.11,178.85922681378077,-10.428270499299291,106.38430126663977,1553.0,1613.0,1200.0,1528.0,1471.0,990.0,160.0,294.53,1649328915.2715538,1649328916.3928516,37190220-a583-4112-a21d-a683e864a61d
0.041606919973327,0.1334505622666729,-0.1509294468601502,-1.013957556698999,-0.3464242865165846,1.2551657612945428,-0.0872108609311992,-0.1082356272335852,-14.430416537615834,14.951769566995177,63.23027277274016,5.2021820600960105,0.157772702325242,0.8819552965154975,5522.826171875,11.907333333333334,0.1055555555555555,178.82889773822632,-10.443577901866677,106.40842625369817,1553.0,1613.0,1200.0,1528.0,1471.0,990.0,160.0,294.53,1649328916.5016377,1649328917.621762,37190220-a583-4112-a21d-a683e864a61d
0.0589106042274784,0.123023646340052,-0.1776607484777191,-1.4156374142907295,-0.4140743414648732,1.6530453386494353,-0.005386521215835,-0.0319863344739446,-14.534079780367945,14.448063279508176,65.97490007287315,6.998077100600255,0.1428257920198517,0.893256064985838,5520.850531684027,11.863222222222223,0.0944444444444444,178.81470764077068,-10.299269759946384,106.3436502574296,1553.0,1710.0,1200.0,1528.0,1471.0,990.0,160.0,294.53,1649328918.5305035,1649328919.6748638,a8edafb1-f7d4-417c-9391-faf3940bbd5c
0.0335073230516253,0.1160548374746293,-0.1896786579498919,-1.407064455289553,-0.4230943490140366,1.6507048701589178,-0.0194950725925487,-0.0424395481501416,-14.74309274484694,14.53294626560161,65.69341462896163,6.973293465980703,0.1188467159775238,0.9406648720328692,5522.826171875,11.86111111111111,0.1,178.84360996569853,-10.28774485922311,106.20902950561836,1553.0,1710.0,1200.0,1528.0,1471.0,990.0,160.0,294.53,1649328919.783744,1649328920.898526,a8edafb1-f7d4-417c-9391-faf3940bbd5c
0.0472082645612883,0.112254864361783,-0.1833541347384131,-1.4012132794087566,-0.4142584235350219,1.6508626545699854,-0.0096072529302263,-0.0292382569860091,-14.587697007928597,14.30590591214975,66.01662076749889,6.959388793660519,0.1003067713656565,0.9061800662384598,5522.826171875,11.868222222222222,0.1,178.8705163575689,-10.272747661080532,106.07289624636093,1553.0,1710.0,1200.0,1528.0,1471.0,990.0,160.0,294.53,1649328921.00608,1649328922.1227944,a8edafb1-f7d4-417c-9391-faf3940bbd5c
0.0536905717972052,0.1083628502592327,-0.1662345306493302,-1.5559736092647,-0.4262500368958824,1.802532898190424,0.0409889308261889,0.0271565024383936,-14.215688622361595,15.278715703031573,67.02317276424206,7.656962495459618,0.0943114222190067,0.8265916482372035,5519.27001953125,11.835555555555556,0.09,178.85131897254175,-10.2157717408441,105.87005252947998,1553.0,1814.0,1200.0,1528.0,1471.0,990.0,160.0,294.53,1649328924.06103,1649328925.1962726,9e5ee2c9-f5ae-43d0-b8da-a8b03ef5e966
0.0520075386847781,0.1036424684506463,-0.1653798652145815,-1.5470324828611814,-0.4229760108145166,1.799508695904377,0.0407128084036127,0.0152963781571167,-14.336080725112858,15.299568767956693,67.10876059534733,7.630131553543315,0.0756543542380515,0.8208956352424319,5512.565104166667,11.83122222222222,0.0911111111111111,178.88819592278054,-10.21621703123249,105.72415285861932,1553.0,1814.0,1200.0,1528.0,1471.0,990.0,160.0,294.53,1649328925.3051689,1649328926.4282668,9e5ee2c9-f5ae-43d0-b8da-a8b03ef5e966
0.0426851130420058,0.1099275451497602,-0.1833146884512614,-1.5567099348589328,-0.4404769293452406,1.8020332461032265,0.0208845742882397,-0.0095546581703761,-14.680463779708573,15.239511319636216,66.93354412813869,7.656142068924164,0.1032711216667313,0.8976231658457631,5506.85986328125,11.836,0.09,178.88408870235963,-10.240394620233866,105.52240652546504,1553.0,1814.0,1200.0,1528.0,1471.0,990.0,160.0,294.53,1649328926.5366504,1649328927.6564844,9e5ee2c9-f5ae-43d0-b8da-a8b03ef5e966
-0.0154194821429158,0.1481553557524619,-0.048999230618635,0.2510438994378278,-0.1239468030073876,0.0205624312408184,-0.3435174126361294,-0.366274775521065,-15.167859612444444,18.43064455947985,54.73743164478522,-0.3992575185483636,0.144187972115733,0.8038657562554317,5515.71875,11.949,0.12,178.9014176511939,-10.808348613086917,105.28643411437982,1553.0,1349.0,1200.0,1528.0,1471.0,990.0,160.0,294.53,1649328929.3683548,1649328930.5241797,c7408458-f387-4d45-b022-1fd550504e09
-0.0080162603008085,0.1449293737517639,-0.0524194090793024,0.257574249783582,-0.1258943274885031,0.0154278653644336,-0.3475813721584792,-0.3620317916428967,-15.139718278068278,18.41267214824713,54.38448381821004,-0.4258579837185766,0.1339964166878395,0.8161628160672842,5502.617236328125,11.950399999999998,0.12,178.8107010518035,-10.825044384412337,105.63602194117576,1553.0,1349.0,1200.0,1528.0,1471.0,990.0,160.0,294.53,1649328930.6332214,1649328931.7531698,c7408458-f387-4d45-b022-1fd550504e09
-0.0108432300327447,0.1596033183352168,-0.0497765210270629,0.2248208489105085,-0.1306015610321403,0.0281689519222864,-0.3429004357232673,-0.3736026472352274,-15.091629882664334,18.43567071979905,53.979994588728005,-0.3230996262230904,0.1964778303042693,0.8132490927530039,5512.1708984375,11.949,0.1177777777777777,178.75382940578845,-10.803811090748304,105.92359438238373,1553.0,1349.0,1200.0,1528.0,1471.0,990.0,160.0,294.53,1649328931.8610575,1649328932.981941,c7408458-f387-4d45-b022-1fd550504e09
-0.0137885381210329,0.1588932887330125,-0.0182196490652669,0.5745498450225478,-0.069157700002799,-0.3067546640346733,-0.4144293567489899,-0.4382810965668626,-15.450116998252112,19.96831969242222,51.88108699165551,-1.853404236685932,0.1739220414839671,0.7875272777757018,5505.0908203125,11.943888888888887,0.12,178.71975586874896,-10.90726644828667,106.38444394170244,1553.0,1264.0,1200.0,1528.0,1471.0,990.0,160.0,294.53,1649328934.9162345,1649328936.053632,488519f1-0e90-4cdc-97c4-d28d4131905c
-0.0156425042945212,0.1626275184001179,-0.0109089736608855,0.5734585033466818,-0.0651210499996446,-0.3083851024726194,-0.4076709251995069,-0.4344548250805778,-15.220593340921768,20.0861363338912,52.07799141965467,-1.853314282469364,0.1851578255778243,0.7632735395430094,5499.597764756944,11.944,0.1122222222222222,178.70395232882936,-10.93669934610381,106.5795832051996,1553.0,1264.0,1200.0,1528.0,1471.0,990.0,160.0,294.53,1649328936.1622298,1649328937.2831173,488519f1-0e90-4cdc-97c4-d28d4131905c
-0.0157608425555221,0.1715028880912489,-0.0138016871434032,0.5699346531268205,-0.0688815775281505,-0.3148937076649041,-0.4122335240785203,-0.4377025544878938,-15.238551338908405,19.963604273074203,51.90067649857412,-1.860984666908676,0.2203928987793022,0.7796654366281988,5497.63671875,11.940555555555555,0.12,178.69452818559455,-10.92715206973647,106.719321286519,1553.0,1264.0,1200.0,1528.0,1471.0,990.0,160.0,294.53,1649328937.390911,1649328938.5121734,488519f1-0e90-4cdc-97c4-d28d4131905c
-0.0232687483765335,0.182613535976998,0.0181101993961232,0.922569505461774,-0.0125920068256419,-0.667528683715453,-0.4931637680732744,-0.5251019593158737,-15.614346134060703,21.90425703445267,49.27152367404505,-3.435014820695354,0.2466655394351068,0.7743938700710173,5490.988606770833,11.924,0.1166666666666666,178.71387128132403,-11.049689363132298,107.03743127583309,1553.0,1178.0,1200.0,1528.0,1471.0,990.0,160.0,294.53,1649328940.446005,1649328941.5842736,a997510e-fc3d-4d77-9f64-a022a6acff1f
-0.0350762778385144,0.1784848455168309,0.0164797609796415,0.9195979001236296,-0.0119214234006538,-0.6597446522592183,-0.4926246714274297,-0.513202387224244,-15.811612865374704,21.816564469506392,49.411825226382525,-3.411559292802389,0.2315941762095743,0.774505712454602,5480.45166015625,11.926,0.1133333333333333,178.7163847909386,-11.078519591618925,107.15557761136624,1553.0,1178.0,1200.0,1528.0,1471.0,990.0,160.0,294.53,1649328941.6921337,1649328942.8122635,a997510e-fc3d-4d77-9f64-a022a6acff1f
-0.0207573472780789,0.1729623932984355,0.0131268433547514,0.9223985721155552,-0.0135781592287884,-0.6573647369999283,-0.4938737979072456,-0.5110459994609406,-15.748399799774512,21.75395646197489,49.330294947220885,-3.413092100798332,0.2105983754793434,0.7824223821982608,5468.796549479167,11.924666666666669,0.1133333333333333,178.71915329428217,-11.075235693584224,107.30075783563431,1553.0,1178.0,1200.0,1528.0,1471.0,990.0,160.0,294.53,1649328942.919947,1649328944.0409973,a997510e-fc3d-4d77-9f64-a022a6acff1f
-0.0399675930162537,0.1837180263767346,0.0299440259741246,1.1261639057392123,0.0114043640640253,-0.8638519539855735,-0.5488485119151424,-0.5635487584913551,-15.941643336750678,23.43918182395753,47.98316243669154,-4.325044186489333,0.240252696663717,0.8041051573079585,5469.95947265625,11.8885,0.107,178.7385387371845,-11.164502993237312,107.46665675573068,1553.0,1088.0,1200.0,1528.0,1471.0,990.0,160.0,294.53,1649328945.9757233,1649328947.110081,77a93a4a-5c5b-49ac-97a3-0c7c0711a863
-0.0288569443804408,0.1885830438181623,0.0378989871215797,1.1270711654679595,0.0181627939015941,-0.8733190193916527,-0.5434969913679576,-0.5676117077627334,-15.934884291831544,23.44829557010279,47.48514307900857,-4.347983966942468,0.2632583177084625,0.7763322153182354,5463.335205078125,11.8862,0.109,178.7757755625016,-11.17942823723426,107.35426940803272,1553.0,1088.0,1200.0,1528.0,1471.0,990.0,160.0,294.53,1649328947.2182324,1649328948.3419323,77a93a4a-5c5b-49ac-97a3-0c7c0711a863
-0.0305531262862771,0.1787083733572961,0.0327446984297214,1.1420212325650183,0.0176105488986281,-0.8740290496559324,-0.5465474891097576,-0.5671646517357395,-15.862998073473356,23.32542606344549,47.935033506504254,-4.384266453478073,0.2195566277856322,0.7881249925445143,5462.98681640625,11.88811111111111,0.1,178.8018608138518,-11.182636528869397,107.39618923871772,1553.0,1088.0,1200.0,1528.0,1471.0,990.0,160.0,294.53,1649328948.449652,1649328949.5667927,77a93a4a-5c5b-49ac-97a3-0c7c0711a863
-0.00234917208202,0.1444428720462677,-0.0853831919038593,-0.1632760737227505,-0.1946094195541856,0.4203682466827443,-0.2579466964799807,-0.2817852860202374,-14.918144979179315,16.683037432591863,57.02710856363934,1.4208577927511388,0.1568786028727301,0.8279109338997732,5473.070258246527,11.951666666666666,0.12,178.84542527819792,-10.80444392674765,107.3710670440405,1553.0,1435.0,1200.0,1528.0,1471.0,990.0,160.0,294.53,1649328951.4757164,1649328952.4062643,a608b993-0db0-4e65-a83b-ad08de7503dc
0.0138363675232309,0.1467014134089332,-0.0842225665714227,-0.1645813347191577,-0.1977817957331977,0.4189426246773084,-0.2587968103662749,-0.283172473480303,-14.690660674660323,16.964231966850615,56.96480645868626,1.422625021193524,0.1645306620624655,0.8320777911422971,5500.385525173611,11.95077777777778,0.1155555555555555,178.85208698936842,-10.774420976477217,107.38371275983384,1553.0,1435.0,1200.0,1528.0,1471.0,990.0,160.0,294.53,1649328952.515643,1649328953.6675122,a608b993-0db0-4e65-a83b-ad08de7503dc
0.0250790086612065,0.1456919981235616,-0.0778752859828637,-0.1516920715449335,-0.1895208735768268,0.4096652087611928,-0.2559875404436106,-0.2728573203272287,-14.837309491784048,17.018021465062233,57.22784390612395,1.373343148745909,0.1582677428397442,0.8084115073892765,5505.0908203125,11.953,0.12,178.86395330468645,-10.78703301564338,107.43829507822112,1553.0,1435.0,1200.0,1528.0,1471.0,990.0,160.0,294.53,1649328953.775666,1649328954.896293,a608b993-0db0-4e65-a83b-ad08de7503dc
0.0660897923309722,0.1746059802807643,0.0697451296910988,-0.180132703893936,-0.0593093261362165,0.3995670108070676,-0.101832212098875,-0.1255787587545103,-13.747189982809871,16.88276941975387,57.25437993073624,1.4218131255857085,0.2716196734534698,0.2144559632760075,5510.203125,11.949444444444444,0.1155555555555555,178.8685932798626,-10.750736631484026,107.46572815356753,1553.0,1435.0,1200.0,1446.0,1471.0,990.0,160.0,294.53,1649328956.0107696,1649328957.1453865,2fa667ba-fcd7-4038-8dd2-2d525f4b23ae
0.0659977514662837,0.1809830977199783,0.0728350732643886,-0.1927291562796679,-0.0606899393158046,0.4028147385919409,-0.1001360301477344,-0.1320216207848377,-13.751534982598336,17.065812690804187,56.9718206144287,1.458845759764552,0.2998226931798379,0.2098939705045054,5515.71875,11.949999999999998,0.12,178.8704146636413,-10.78044188309432,107.48685089303076,1553.0,1435.0,1200.0,1446.0,1471.0,990.0,160.0,294.53,1649328957.2536838,1649328958.3735552,2fa667ba-fcd7-4038-8dd2-2d525f4b23ae
0.061882209579442,0.1748426568084804,0.0601728789315108,-0.1797382431670008,-0.068329332028545,0.3983047360771056,-0.1149283140479413,-0.1458803471027688,-14.040151762655594,17.020164222917938,57.07228596779419,1.4183444952094018,0.275541693900783,0.2579496320823189,5513.747721354167,11.949777777777776,0.11,178.90033696348524,-10.759574421951331,107.51070494925206,1553.0,1435.0,1200.0,1446.0,1471.0,990.0,160.0,294.53,1649328958.481744,1649328959.521986,2fa667ba-fcd7-4038-8dd2-2d525f4b23ae
0.1205385428438578,0.1897795751830238,0.252275325491649,-0.1845375173554351,0.1066666684569463,0.3778716638041628,0.0861941486110932,0.0643541642513553,-12.369483533336265,16.996435068201798,57.12517157759644,1.3935121582713572,0.3320396782219397,-0.5255956045987428,5512.1708984375,11.942333333333332,0.1133333333333333,178.89504432578835,-10.751823959654397,107.48213123231426,1553.0,1435.0,1200.0,1354.0,1471.0,990.0,160.0,294.53,1649328960.5164957,1649328961.4805968,adb0f2fa-fc54-4847-9bf9-a15457b40f53
0.1235364455283148,0.19957535351019,0.2686717487732855,-0.1946751634906364,0.1190658887489658,0.3761491846330305,0.1033006021154578,0.0811713466349733,-12.176356961764796,16.933867107711105,57.04645394550269,1.4129958923230472,0.3703971186399391,-0.5880437503597203,5508.62890625,11.941999999999998,0.103,178.91159797226078,-10.767712886424988,107.480232439725,1553.0,1435.0,1200.0,1354.0,1471.0,990.0,160.0,294.53,1649328961.5891345,1649328962.6780193,adb0f2fa-fc54-4847-9bf9-a15457b40f53
0.1184610488578156,0.1908051734336168,0.26200536018401,-0.1830385661866975,0.1145558860521618,0.3753339655351235,0.0922556974565297,0.0611853285108835,-12.50797820996669,17.254278861996635,57.16190671173519,1.3865582543594437,0.3369775961332563,-0.5582480909360643,5522.826171875,11.945,0.11,178.9121607798484,-10.768090339753998,107.47021938240177,1553.0,1435.0,1200.0,1354.0,1471.0,990.0,160.0,294.53,1649328962.7866256,1649328963.9063342,adb0f2fa-fc54-4847-9bf9-a15457b40f53
0.1843097177824173,0.2195482222383641,0.4599195216807703,-0.1994481409244768,0.2919843858332974,0.3512850018197969,0.2952978570252707,0.2707623913131197,-11.06425745572924,17.272463174417968,57.13449899252338,1.380230715289655,0.4493734988780066,-1.3544821416971178,5512.1708984375,11.933666666666667,0.1166666666666666,178.88673426229812,-10.74997696266634,107.4646732687957,1553.0,1435.0,1200.0,1252.0,1471.0,990.0,160.0,294.53,1649328965.0225346,1649328966.15594,d393793d-675e-4230-b3f7-25d14a397cdb
0.1852038290622181,0.2147752457173697,0.4812204077613713,-0.1755964035757086,0.3155074019997916,0.3328899770952196,0.313863815028748,0.2912086127037573,-10.889397417905426,17.283996400130484,57.12940183236572,1.2863152674754923,0.4286933934192236,-1.4422487959583408,5512.1708984375,11.945,0.11,178.90497542084154,-10.768338787885057,107.42352820923556,1553.0,1435.0,1200.0,1252.0,1471.0,990.0,160.0,294.53,1649328966.2641723,1649328967.3912213,d393793d-675e-4230-b3f7-25d14a397cdb
0.1857692229511067,0.226319800434029,0.4700703142368811,-0.1946094199938075,0.3002154690991986,0.3411079117313905,0.3032791150006285,0.2824910275257818,-10.878913573651174,17.272570362584094,57.33306931225033,1.347077568977665,0.4717470498526022,-1.3896220076682664,5521.245659722223,11.93588888888889,0.11,178.9006890976824,-10.78154097436826,107.4307712453954,1553.0,1435.0,1200.0,1252.0,1471.0,990.0,160.0,294.53,1649328967.499694,1649328968.547711,d393793d-675e-4230-b3f7-25d14a397cdb
-0.0561799360353445,0.1348837701044197,-0.2850461629318761,-0.1297600445317721,-0.3837271444835577,0.408087365376603,-0.4815140201343404,-0.4961748202160673,-16.19319295632604,17.505382324332544,56.70482612596757,1.3124734026310447,0.1161368541290776,1.6734244436367982,5512.1708984375,11.938444444444444,0.11,178.98378517912477,-10.765189975813945,107.47649404951927,1553.0,1435.0,1200.0,1604.0,1471.0,990.0,160.0,294.53,1649328969.5387151,1649328970.6697922,a88502cb-537a-4f91-a2e0-feed50e9ea59
-0.0445827855190302,0.1160811348148963,-0.286873832071308,-0.119845927374787,-0.3810053639244857,0.4162395562116024,-0.4800545147888596,-0.5036695788012999,-16.25680947827906,17.571725930797427,56.54073434754122,1.3087192585482383,0.0461847639256451,1.6676392226094068,5522.826171875,11.941,0.11,179.00895822076583,-10.787793727962192,107.44322647480188,1553.0,1435.0,1200.0,1604.0,1471.0,990.0,160.0,294.53,1649328970.7778826,1649328971.8991692,a88502cb-537a-4f91-a2e0-feed50e9ea59
-0.0739058964738614,0.1220476085105811,-0.2933880004309999,-0.117625314494091,-0.3879321994747785,0.4090305313243595,-0.4896196876458981,-0.5143493571689917,-16.303863941987096,17.569028324167284,56.57602825032455,1.2871501536355987,0.0678964845636197,1.700331513884862,5514.141927083333,11.943,0.11,178.98619547699187,-10.807080664358493,107.43720073013408,1553.0,1435.0,1200.0,1604.0,1471.0,990.0,160.0,294.53,1649328972.0080998,1649328973.1275084,a88502cb-537a-4f91-a2e0-feed50e9ea59
-0.1300230181086201,0.0764772623089215,-0.4773590309862258,-0.0564955051791599,-0.5460609871345468,0.4108617400572235,-0.6871859914779865,-0.7123657546836597,-17.894180991359427,17.96899433834808,57.02548611756415,1.1461332662717685,-0.1149300679639332,2.4421533209588304,5512.1708984375,11.924888888888889,0.11,178.998596064885,-10.805053710858552,107.42938623481368,1553.0,1435.0,1200.0,1676.0,1471.0,990.0,160.0,294.53,1649328974.443333,1649328975.5728989,35872097-d257-412b-b8b0-06b90c2d0b76
-0.1219497180765078,0.0928736862790713,-0.4789500235318605,-0.0693417817155657,-0.5526090397568766,0.4034458760435748,-0.6931292041019248,-0.7179276553984687,-17.932010325106116,18.021394254435748,56.54433471422873,1.1586192860901294,-0.0474196498330763,2.4628473209065245,5512.1708984375,11.931111111111113,0.1088888888888888,179.01075228378784,-10.803160230638644,107.33251745636494,1553.0,1435.0,1200.0,1676.0,1471.0,990.0,160.0,294.53,1649328975.6811686,1649328976.8101022,35872097-d257-412b-b8b0-06b90c2d0b76
-0.1232514390666341,0.0936494594448986,-0.4744531682829158,-0.0716953985549843,-0.5473890057104775,0.4062596967719893,-0.6873569242662445,-0.7155608887449263,-18.002173477460243,17.922694596844508,56.78525385480047,1.1698242068991622,-0.0455755081433944,2.4417937090513364,5509.810872395833,11.929,0.11,179.00345764175424,-10.79626230875936,107.29989495506916,1553.0,1435.0,1200.0,1676.0,1471.0,990.0,160.0,294.53,1649328976.9185982,1649328978.0387151,35872097-d257-412b-b8b0-06b90c2d0b76
-0.1710206561038456,0.0661160897014547,-0.649528111273618,-0.0215462693136073,-0.7079872367054599,0.392953217240368,-0.8803535760753809,-0.8996164262943092,-18.90271023633873,18.61660904394829,56.20296180661232,1.022134973124033,-0.1545692479863649,3.16933917195293,5505.0908203125,11.926333333333332,0.11,179.02208129089115,-10.801836596895738,107.21502985463174,1553.0,1435.0,1200.0,1747.0,1471.0,990.0,160.0,294.53,1649328978.9493244,1649328980.082141,82607991-6522-4773-b96f-584991d1a0a5
-0.1706130465133804,0.0786599458543162,-0.6471613453228925,-0.0313288999129151,-0.7066197719937706,0.3934002727405021,-0.879775033578868,-0.9023119106475396,-19.18398425927008,18.493773830963946,56.74714619102525,1.0444555040325922,-0.1090020565431486,3.165480020948046,5505.0908203125,11.929222222222222,0.1022222222222222,179.03040653257946,-10.795991377922284,107.16896402322956,1553.0,1435.0,1200.0,1747.0,1471.0,990.0,160.0,294.53,1649328980.1910136,1649328981.3148754,82607991-6522-4773-b96f-584991d1a0a5
-0.1855236693855766,0.0658531157749269,-0.6487523378012048,-0.0165103187379098,-0.7046737638979615,0.388890270237474,-0.8821417998582315,-0.9159076699388592,-19.2237559820489,18.59408876008906,56.24604346842141,1.0013797179026471,-0.1542363442466957,3.166172513642784,5495.287109375,11.928555555555556,0.1077777777777777,179.00136001476915,-10.756824986219184,107.1504132294438,1553.0,1435.0,1200.0,1747.0,1471.0,990.0,160.0,294.53,1649328981.423354,1649328982.5499814,82607991-6522-4773-b96f-584991d1a0a5
-0.0099096725830498,0.126481753444998,-0.1683120246059812,-0.0901561689051414,-0.2379212295337376,0.3949386702826666,-0.3222964247126195,-0.3489356886516316,-14.825292128926783,13.854793923532773,59.94677608216598,1.176407629878729,0.0486715223636513,1.0953760705957611,7980.84423828125,11.656444444444444,7.02,-179.07999218813396,-10.812447011180137,95.55092608152404,1553.0,1435.0,1350.0,1528.0,1471.0,990.0,160.0,294.53,1649328986.4793935,1649328987.459052,400ebde8-96ff-433b-8513-8645e7fb65d0
-0.0324859845818371,0.117895654958117,-0.1716780911133245,-0.0921021761262604,-0.2361067092150323,0.4046818534275273,-0.3224542090960468,-0.3508159515504193,-15.205781548737027,13.663803402642152,59.87195602233619,1.2010544165415886,0.0198475370135976,1.0963683908239432,7984.976182725694,11.655333333333331,6.98,-178.6013765478741,-10.67976176422496,90.96058664897042,1553.0,1435.0,1350.0,1528.0,1471.0,990.0,160.0,294.53,1649328987.5685596,1649328988.6880062,400ebde8-96ff-433b-8513-8645e7fb65d0
-0.0386067028649179,0.1203787356268274,-0.1752772941261724,-0.0968402584079513,-0.2420954353201221,0.4018366780783375,-0.3224162801184826,-0.3505595520722991,-14.667078543350954,13.498759021095882,59.17893892497528,1.2042362634415975,0.0318423748471077,1.1091032941868848,7994.905436197917,11.652333333333331,7.003333333333333,-178.37513032616698,-10.497620919900754,87.11425744597658,1553.0,1435.0,1350.0,1528.0,1471.0,990.0,160.0,294.53,1649328988.7961454,1649328989.916907,400ebde8-96ff-433b-8513-8645e7fb65d0
0.188596192599228,0.4729761759695292,-0.1172293359407749,-0.2736593904808618,-0.2714241116906136,0.2250706744180958,-0.3388769333813159,-0.358810360461678,-13.999897053782894,12.82298861200487,60.18114814437363,1.2047863292614212,1.3661311421656652,1.1366321303610871,8003.19873046875,11.636222222222225,7.004444444444443,-178.57978707881762,-10.306469727968963,78.85154234494074,1637.0,1435.0,1350.0,1528.0,1535.0,990.0,160.0,294.53,1649328991.858399,1649328992.9898298,3d2cff10-e9d1-49d2-af76-396954789780
0.1886619360384791,0.4815228277718628,-0.1146653399752418,-0.2804178212258759,-0.2733964163518533,0.2212444039716135,-0.3364444241368122,-0.3611245315754841,-13.657209889966555,12.84485510309723,59.960242728303854,1.2118434644941098,1.3987137283669295,1.13325409155544,8003.19873046875,11.638666666666666,6.986666666666668,-178.70783794755718,-10.300703056170963,76.2693574550013,1637.0,1435.0,1350.0,1528.0,1535.0,990.0,160.0,294.53,1649328993.09828,1649328994.2144082,3d2cff10-e9d1-49d2-af76-396954789780
0.1858086690907117,0.4794584826464484,-0.1150598008243496,-0.2710296507864991,-0.2705300001454818,0.217234051822921,-0.3391925020709233,-0.3615321410322526,-13.94180855692934,12.824985394253208,60.32099534418419,1.1814171414639176,1.388606928687684,1.1339507684003027,8003.19873046875,11.633555555555557,7.037777777777778,-178.88444235437666,-10.264897117539512,74.17652450378705,1637.0,1435.0,1350.0,1528.0,1535.0,990.0,160.0,294.53,1649328994.323128,1649328995.447028,3d2cff10-e9d1-49d2-af76-396954789780
0.3847352827756609,0.8103716896106513,-0.0702227444367965,-0.4745057632892739,-0.316458402947198,0.0684171115758557,-0.3590075908247249,-0.3868170887637439,-12.912007895901292,12.41930383586795,58.71906876862538,1.3058041573095187,2.6645296220861514,1.2004852563595163,7995.7333984375,11.603111111111112,7.014444444444445,-179.7837354168969,-10.207921007575605,69.57268102833443,1723.0,1435.0,1350.0,1528.0,1599.0,990.0,160.0,294.53,1649328997.3795862,1649328998.517773,7613073a-7f87-4901-ab41-b2ee93c3def6
0.3680890346178356,0.8120678712688644,-0.0723791305605873,-0.4691147963272918,-0.3172999194404802,0.0664316584688863,-0.3630705386079668,-0.3959159880868689,-13.070662847955164,12.417355401934849,59.35532693427989,1.2890831487368133,2.665574635406443,1.2113953369914845,8001.539767795139,11.60488888888889,7.001111111111111,-179.98329684842668,-10.202059472039132,67.99044873435327,1723.0,1435.0,1350.0,1528.0,1599.0,990.0,160.0,294.53,1649328998.6262455,1649328999.7494452,7613073a-7f87-4901-ab41-b2ee93c3def6
0.3821055437410957,0.8079260323347248,-0.0654629160960095,-0.4652622275449264,-0.3121850758881991,0.069021951589841,-0.3575349365125238,-0.3768372262232323,-13.02715803556494,12.717653669258771,59.69485030980348,1.288624547958747,2.646692328009917,1.18703831614975,8004.861056857639,11.603444444444444,7.027777777777778,179.8141191339647,-10.165855864616,66.71940744805698,1723.0,1435.0,1350.0,1528.0,1599.0,990.0,160.0,294.53,1649328999.8591125,1649329000.9735258,7613073a-7f87-4901-ab41-b2ee93c3def6
0.5323951288955946,1.075988482591372,-0.0220722170626312,-0.6156307605834807,-0.3419142829489983,-0.0695390120024461,-0.3742074864975607,-0.4059089993516391,-12.399329531599694,12.633431423443168,57.75346154064193,1.3180629438060982,3.686115256434479,1.220975033575586,8003.19873046875,11.548444444444446,7.003333333333334,179.28465956552327,-10.129933148722488,65.05053116881459,1813.0,1435.0,1350.0,1528.0,1662.0,990.0,160.0,294.53,1649329001.8876965,1649329003.0238523,4d964372-750d-4da6-8ae9-0171b7a13002
0.5261757961534343,1.067547020038826,-0.02909362098477,-0.619509627448973,-0.3468844908328485,-0.0589411624800539,-0.3792565867289665,-0.3998737465019188,-12.619570858996369,12.678118034056782,57.53075632774861,1.3504277495802717,3.658020493974524,1.242962531290392,8003.19873046875,11.5492,7.01,179.0731811234936,-10.164724405834496,64.05652888187922,1813.0,1435.0,1350.0,1528.0,1662.0,990.0,160.0,294.53,1649329003.1328745,1649329004.249961,4d964372-750d-4da6-8ae9-0171b7a13002
0.5459251360694747,1.0812348121235762,-0.0245967667823383,-0.6218369472556671,-0.348067873769894,-0.0706566512805607,-0.3796116016165141,-0.4022142151180473,-12.397403618423938,12.8466518142455,57.479984104163535,1.330796229307942,3.708810061905654,1.2406005057640683,8003.19873046875,11.54888888888889,7.01,178.85838138814356,-10.171178953572904,63.24197069085627,1813.0,1435.0,1350.0,1528.0,1662.0,990.0,160.0,294.53,1649329004.3589363,1649329005.478349,4d964372-750d-4da6-8ae9-0171b7a13002
-0.2728558023973136,-0.2965234589323738,-0.2206276577298303,0.1053715215867458,-0.1895006448738295,0.6176017067540437,-0.2850436341378437,-0.3082308575601923,-15.790056026930063,14.935315352756852,58.21042025760112,1.2394941531992263,-1.5430094205046372,0.9946610195818472,8003.19873046875,11.645666666666669,7.07,179.38138111544993,-10.250476690926844,61.65388264802669,1470.0,1435.0,1350.0,1528.0,1403.0,990.0,160.0,294.53,1649329007.4164448,1649329008.5552902,ad9802ca-adda-4546-9a5b-378df948b73c
-0.2489479295485687,-0.2995324879174011,-0.2239527610332921,0.1022613494592871,-0.1920924553801082,0.6209900243104604,-0.2870412247840628,-0.3156902155041104,-15.832615490122125,14.905175708470814,57.84614928679246,1.2536790839493877,-1.550593735039473,1.0046452562843446,7997.392361111111,11.64011111111111,7.077777777777778,179.20749057046066,-10.30192347816641,61.12713466468577,1470.0,1435.0,1350.0,1528.0,1403.0,990.0,160.0,294.53,1649329008.6637156,1649329009.785148,ad9802ca-adda-4546-9a5b-378df948b73c
-0.2666511341169212,-0.2879388762189023,-0.2248514238643208,0.0926501583256197,-0.1959505866025223,0.6219377417830139,-0.2898454374786954,-0.3209552575153883,-15.921457480792323,14.91994416667042,58.32334994049707,1.2775737263267934,-1.5095846345193804,1.017041163468895,7988.28173828125,11.64011111111111,7.08,179.03816107401718,-10.29244023482254,60.72350084113433,1470.0,1435.0,1350.0,1528.0,1403.0,990.0,160.0,294.53,1649329009.9163978,1649329011.011512,ad9802ca-adda-4546-9a5b-378df948b73c
-0.4749396698524968,-0.6804144095024749,-0.2717265316150342,0.2937200136478555,-0.1526124799398865,0.8100298235498279,-0.2678082195852219,-0.3010744259983363,-17.126602701898843,16.731350956748184,56.605274159723656,1.2554708737307472,-2.9855464380312373,0.9407967273120792,7988.28173828125,11.583333333333334,7.059999999999999,178.8785835698886,-10.369206153860391,59.82148556877493,1385.0,1435.0,1350.0,1528.0,1331.0,990.0,160.0,294.53,1649329012.948745,1649329014.083126,2eab5904-394b-4986-ad74-a9d3febd576d
-0.4744926141432518,-0.6755362413668125,-0.262285766645892,0.2917477092949841,-0.1434478381272419,0.8055198211545247,-0.2556851201720689,-0.2877547952013765,-16.87389828377287,16.452974083335977,56.47054295135026,1.24851575273923,-2.9670081961207404,0.8988585538488247,7988.28173828125,11.575666666666663,7.033333333333333,178.80260909902083,-10.42578592312496,59.4615968301277,1385.0,1435.0,1350.0,1528.0,1331.0,990.0,160.0,294.53,1649329014.193558,1649329015.3170507,2eab5904-394b-4986-ad74-a9d3febd576d
-0.4744268705773236,-0.6775085465515667,-0.2694386584499174,0.2839505327912394,-0.1493384545316553,0.8112920982816457,-0.2601819748622337,-0.2847831888316278,-16.953651136564417,16.309019092139707,55.95332544014819,1.2776422957407327,-2.9687528801391148,0.922001331673189,7993.24951171875,11.576,7.056666666666667,178.707469117342,-10.422859566520565,59.17188221392309,1385.0,1435.0,1350.0,1528.0,1331.0,990.0,160.0,294.53,1649329015.429994,1649329016.5512772,2eab5904-394b-4986-ad74-a9d3febd576d
-0.6386278377759599,-0.9530133112128072,-0.2875312667845525,0.4312422175835197,-0.1081304376513753,0.9139045149062676,-0.2415502700191371,-0.2577626145357631,-17.937087433301325,18.111171508245057,51.43499426654134,1.185802652800549,-3.974308048158217,0.8241644390405684,7988.28173828125,11.4249,6.99,178.65352337258534,-10.439896932681853,58.58263086592342,1297.0,1435.0,1350.0,1528.0,1253.0,990.0,160.0,294.53,1649329018.4748948,1649329019.6109269,2b3b9077-d786-42c0-8e47-6d4b31fa2d07
-0.6388776630243371,-0.9440458951278192,-0.2964723815583804,0.4214201422998092,-0.1170715516473044,0.9163107261289744,-0.2484927825156124,-0.2710822457914172,-17.939411824919986,17.81761674359759,51.682612865970434,1.211013010091037,-3.942215461420407,0.8598819781326007,7988.28173828125,11.4366,6.9990000000000006,178.67088571345556,-10.481321603111155,58.28361679538184,1297.0,1435.0,1350.0,1528.0,1253.0,990.0,160.0,294.53,1649329019.7199976,1649329020.8482702,2b3b9077-d786-42c0-8e47-6d4b31fa2d07
-0.6321718257170287,-0.9541703972164202,-0.2895167202200678,0.4276657724709015,-0.1083013707119465,0.916547402656841,-0.2410374708180059,-0.2708981636749771,-17.983600305678046,17.91388443916761,51.17846510425966,1.198338150630286,-3.975733882081321,0.825888795642842,7980.84423828125,11.440111111111111,6.991111111111112,178.6427978506407,-10.449571867182051,58.07056581613225,1297.0,1435.0,1350.0,1528.0,1253.0,990.0,160.0,294.53,1649329020.956295,1649329022.0709646,2b3b9077-d786-42c0-8e47-6d4b31fa2d07
-0.0154847199360718,0.1240229472903134,-0.1686538906680529,-0.0925623803340676,-0.2335558617986087,0.3923615260308237,-0.3175891906811747,-0.3411122122015936,-14.81752199503367,13.331099627481688,58.94661492271253,1.1724000905038103,0.0485246144984399,1.0816852996074038,7984.149793836806,11.65877777777778,7.1,178.3178994122015,-10.486531064282117,57.87948292609217,1553.0,1435.0,1350.0,1528.0,1471.0,990.0,160.0,294.53,1649329022.981774,1649329024.0330012,5e7f9550-8f39-4193-b72e-0795f7dfa607
-0.0167995895846984,0.1226949290084312,-0.1647750250226134,-0.0896565183520997,-0.2315046649878321,0.3928874738283532,-0.3156957782016995,-0.3393765844943866,-14.796008637162018,13.583007496450364,59.23569705524622,1.168947032691157,0.0407217423914619,1.0710925291389874,7994.077473958333,11.655444444444443,7.103333333333334,178.28756274754798,-10.483662100239494,57.93319856936478,1553.0,1435.0,1350.0,1528.0,1471.0,990.0,160.0,294.53,1649329024.141859,1649329025.3450096,5e7f9550-8f39-4193-b72e-0795f7dfa607
-0.0214805255437333,0.1133593548572425,-0.1672995749162036,-0.0907610089768719,-0.230623702297555,0.4064569272771857,-0.3158667112566456,-0.3345378630423194,-15.135375583417376,13.598295797301189,59.710731073113536,1.2018114034168712,0.0038756073612187,1.0728643395746007,7998.221842447917,11.667333333333334,7.09,178.29021286094596,-10.48625396730204,58.00814092275797,1553.0,1435.0,1350.0,1528.0,1471.0,990.0,160.0,294.53,1649329025.4534929,1649329026.5729382,5e7f9550-8f39-4193-b72e-0795f7dfa607
0.0117629192798837,0.1148031828171789,-0.2140406658093759,-0.5554390445744801,-0.323718507109124,0.8529633472493763,-0.2346360777612844,-0.2590496695607119,-14.832846974121756,12.414507608305165,62.70130337957364,3.243824879665776,0.0348728499598858,1.1487366827959684,7995.7333984375,11.63888888888889,7.087777777777777,178.25710769294878,-10.39151611301059,58.18216655371082,1553.0,1522.0,1350.0,1528.0,1471.0,990.0,160.0,294.53,1649329028.357441,1649329029.451327,aaf69f4a-6012-4702-a7ca-8cf4571f3d69
-0.0138770388681439,0.1200500182249496,-0.2051526520339666,-0.5582584293095452,-0.3151086384308256,0.8533932084345669,-0.2233079690158154,-0.2458251138428613,-14.698480716055505,12.196208384140672,63.2036132089268,3.2502938158130847,0.0500555791748251,1.1102677464508477,8003.19873046875,11.63522222222222,7.08,178.29765017804215,-10.378508966373689,58.22865889248119,1553.0,1522.0,1350.0,1528.0,1471.0,990.0,160.0,294.53,1649329029.5876846,1649329030.6730454,aaf69f4a-6012-4702-a7ca-8cf4571f3d69
-0.0081214498577327,0.1160942836133982,-0.2077449683306492,-0.5621155498577951,-0.318036246648472,0.8586799952958256,-0.2260479553109166,-0.2557114175900065,-14.819998127188,12.34047474757181,62.87784136818651,3.271588831174414,0.0392795490138387,1.120573897825415,8003.19873046875,11.637999999999998,7.08,178.324750850849,-10.361492593557724,58.22820278762661,1553.0,1522.0,1350.0,1528.0,1471.0,990.0,160.0,294.53,1649329030.7811766,1649329031.9022264,aaf69f4a-6012-4702-a7ca-8cf4571f3d69
0.0172818316954507,0.110808507825884,-0.2583674545779241,-1.0587551942156224,-0.4184791555425201,1.341736778021798,-0.1395295261560125,-0.1717964294433002,-14.522524012856856,11.267233772980598,65.94710728073494,5.4683829747167865,0.0480659742053606,1.2031842591511963,7995.7333984375,11.615333333333334,7.07,178.38981523288248,-10.245440849370036,58.36638889818458,1553.0,1613.0,1350.0,1528.0,1471.0,990.0,160.0,294.53,1649329034.0415642,1649329035.1789672,fcdcd5b7-8066-48b2-a1d6-31896f2027d3
0.0116541896568682,0.102459085846408,-0.2574207484072069,-1.0509054172469712,-0.4136667318353189,1.3459049148423252,-0.1372548015733615,-0.1594498026398916,-14.696993453803213,11.22469043103366,66.41778615521213,5.4597944812105625,0.0129066212548685,1.1917182238553117,7995.7333984375,11.597,7.029999999999999,178.40775130964298,-10.186553519667124,58.38309098743499,1553.0,1613.0,1350.0,1528.0,1471.0,990.0,160.0,294.53,1649329035.2871866,1649329036.40369,fcdcd5b7-8066-48b2-a1d6-31896f2027d3
0.0145337541737115,0.1062064642108353,-0.2610892351912541,-1.051944165017687,-0.4191760367751068,1.3431699859665232,-0.1426852135904997,-0.1665106531443017,-14.636696437067686,11.311957928159524,66.3786090697697,5.456411838889624,0.0267788361496719,1.2123498177504433,8000.710286458333,11.611333333333333,7.066666666666666,178.414918454812,-10.199973133838908,58.39814017090626,1553.0,1613.0,1350.0,1528.0,1471.0,990.0,160.0,294.53,1649329036.5137494,1649329037.6385572,fcdcd5b7-8066-48b2-a1d6-31896f2027d3
0.025355131277125,0.1019988814854725,-0.2994965820935695,-1.5003414078064687,-0.5061546829416828,1.7789309810030105,-0.0654497673082459,-0.0778621376365665,-14.796590145920767,10.964270172559184,69.19489879218605,7.443250453129569,0.0399354068637151,1.272766802545677,8003.19873046875,11.560333333333334,7.029999999999999,178.49672590723102,-10.05755145222188,58.529045299809,1553.0,1710.0,1350.0,1528.0,1471.0,990.0,160.0,294.53,1649329039.5695484,1649329040.703967,969a7bf7-f28a-4e90-a36a-3a045ca507d7
0.0175842517283074,0.0982120570162226,-0.2963145971713953,-1.4948452463557833,-0.5004481472788173,1.7724749696431816,-0.0596643407457104,-0.0898011540200139,-14.607086110901555,10.707386902162227,68.50615367199968,7.414786072836746,0.0300162495735669,1.251276209085595,8003.19873046875,11.5631,7.048,178.51942626861052,-10.083870077855082,58.54279447060824,1553.0,1710.0,1350.0,1528.0,1471.0,990.0,160.0,294.53,1649329040.8125496,1649329041.9378254,969a7bf7-f28a-4e90-a36a-3a045ca507d7
0.0246845477673928,0.0979227857061244,-0.3031519201252324,-1.4894674233305496,-0.5052605712887654,1.771659750255158,-0.068513413666082,-0.0928253543140705,-14.835978688323962,10.721447024033914,68.99431802257085,7.400538465589075,0.0251294268699161,1.2802849462723465,8003.19873046875,11.562777777777775,7.038888888888888,178.55323585678406,-10.094657593252832,58.55239316312182,1553.0,1710.0,1350.0,1528.0,1471.0,990.0,160.0,294.53,1649329042.0466063,1649329043.161335,969a7bf7-f28a-4e90-a36a-3a045ca507d7
0.0360976161885533,0.1016570153736984,-0.3119352507405615,-1.698400468380125,-0.5508865601578168,1.970218270693309,-0.0358914972346879,-0.0530899927767508,-14.649643867179318,11.85102307085567,70.46709269955075,8.325407043594568,0.0499495320384563,1.3083190068570472,8003.19873046875,11.507100000000005,7.013,178.71199525603205,-10.057150292444629,58.68204973344429,1553.0,1814.0,1350.0,1528.0,1471.0,990.0,160.0,294.53,1649329044.8944128,1649329046.0334425,14e97d0f-b67e-4784-b910-8312b6379a74
0.0384643815284695,0.1095593816953048,-0.3068204070125299,-1.7073284453323363,-0.5480595894465626,1.9678252071655176,-0.0328409995519621,-0.0545494977557755,-14.77639032539172,11.872190342364846,70.09099171496962,8.340440090817289,0.0852425020116814,1.2934033410417884,7997.392361111111,11.517444444444443,7.02,178.71760815370993,-10.070157894427476,58.66182417727404,1553.0,1814.0,1350.0,1528.0,1471.0,990.0,160.0,294.53,1649329046.141951,1649329047.258044,14e97d0f-b67e-4784-b910-8312b6379a74
0.0423169495421056,0.1057462598649979,-0.3042432624485583,-1.6924046565432949,-0.5418271061266046,1.957056421323419,-0.0308161002742452,-0.0506443349180613,-14.734079533000283,11.71385002253882,70.0020410571719,8.281662566407995,0.0697531328848485,1.2781570993435316,7995.7333984375,11.5171,7.019999999999999,178.72081166421268,-10.083662952368504,58.6786080011215,1553.0,1814.0,1350.0,1528.0,1471.0,990.0,160.0,294.53,1649329047.3661458,1649329048.487005,14e97d0f-b67e-4784-b910-8312b6379a74
-0.0167469947631713,0.1287696265290609,-0.134874887433286,0.3393065404805966,-0.1630525456749728,-0.032301902852671,-0.4081574266901548,-0.4339683232161227,-14.767021195551347,14.839409999490908,55.53720771418168,-0.7449031309328882,0.0451822862106166,1.0675312303300064,7995.7333984375,11.666999999999998,7.097777777777777,178.79731494350415,-10.735258379323652,58.84303289050402,1553.0,1349.0,1350.0,1528.0,1471.0,990.0,160.0,294.53,1649329050.3563764,1649329051.5627298,255598de-803c-45f0-bbfe-948083d531af
-0.040980042674916,0.1271917830108006,-0.1211344989203392,0.3491680620140724,-0.148273409905469,-0.0315392784525591,-0.3999526386010737,-0.4242645835847975,-15.274677999847324,15.164928270190163,56.79928653261861,-0.7626468678562373,0.0313341345976751,1.018176964132371,7995.7333984375,11.661888888888887,7.104444444444444,178.78869979823108,-10.76774864056802,59.04947308143793,1553.0,1349.0,1350.0,1528.0,1471.0,990.0,160.0,294.53,1649329051.6708202,1649329052.7988193,255598de-803c-45f0-bbfe-948083d531af
-0.0405284354569776,0.129266748390933,-0.1297625729044412,0.3425916914566115,-0.1555795341903034,-0.0299968351951752,-0.4036727089704535,-0.4320941276183687,-15.059527197612828,14.77709369058054,56.40291668852191,-0.747301616127451,0.0413628884545361,1.0451297703962297,7995.7333984375,11.666444444444444,7.09,178.75729762406698,-10.72452530622541,59.23231420987955,1553.0,1349.0,1350.0,1528.0,1471.0,990.0,160.0,294.53,1649329052.916477,1649329054.0209303,255598de-803c-45f0-bbfe-948083d531af
-0.0541155906572866,0.1259689543025045,-0.0982163200496265,0.7281397510663358,-0.0917340124817493,-0.4000315307544644,-0.4867866481548904,-0.5095338986578877,-15.449615160845378,16.59335000081637,53.59366776502679,-2.4355541431263648,0.011214852962472,1.031506453534392,8003.19873046875,11.649777777777778,7.09,178.78028804081325,-10.869289837591491,59.5869763359919,1553.0,1264.0,1350.0,1528.0,1471.0,990.0,160.0,294.53,1649329054.931306,1649329056.069125,8fb7f0cb-9ebb-4b7b-9d04-1590df7f31aa
-0.0583757684289136,0.1264291586545189,-0.0916419715170801,0.7208948201316265,-0.0856593144595831,-0.3952059582615066,-0.477030313097034,-0.4930322805220262,-15.36277028753526,16.46820385646982,53.45936530365297,-2.408847591580917,0.0148232140587373,1.0002948259477369,7995.7333984375,11.649888888888889,7.09,178.7910205447291,-10.86608069218271,59.75485707342146,1553.0,1264.0,1350.0,1528.0,1471.0,990.0,160.0,294.53,1649329056.177419,1649329057.2298248,8fb7f0cb-9ebb-4b7b-9d04-1590df7f31aa
-0.0480671901583677,0.1270471473682691,-0.0980322383308602,0.724826279938459,-0.092562380479571,-0.398493133019023,-0.4869970274563278,-0.5142411333290076,-15.476462967570832,16.653051096715117,53.52815856938117,-2.424241804173422,0.0164500025273267,1.0326490682960934,7994.077473958333,11.649888888888889,7.110000000000001,178.80710336349472,-10.880790453197717,59.87884853306433,1553.0,1264.0,1350.0,1528.0,1471.0,990.0,160.0,294.53,1649329057.3610866,1649329058.5327404,8fb7f0cb-9ebb-4b7b-9d04-1590df7f31aa
-0.0715376139311992,0.1309391613659208,-0.0555619474273672,1.1159868149130248,-0.0188244889688961,-0.7903375561639705,-0.5630359585622192,-0.5823908462578763,-15.713130879047098,18.369664191537403,49.42511118289824,-4.174409684459271,0.0236489724800283,0.97983059111558,7988.28173828125,11.630333333333333,7.080000000000001,178.8431576553935,-11.007215262596144,60.11340102371211,1553.0,1178.0,1350.0,1528.0,1471.0,990.0,160.0,294.53,1649329059.6412675,1649329060.7832625,e94011fd-63ff-4114-86a4-b65c156fee42
-0.066330729985676,0.1343183762275073,-0.0491059373200271,1.1110297566159753,-0.0176542549917774,-0.7830531752168663,-0.5573951662146288,-0.5748171940354595,-15.529308240338953,18.70571599555349,50.3234376997525,-4.144073874524817,0.028085481865027,0.9630282127360376,7988.28173828125,11.6297,7.093999999999999,178.84540934108983,-11.02798894144728,60.27415863274725,1553.0,1178.0,1350.0,1528.0,1471.0,990.0,160.0,294.53,1649329060.89075,1649329062.0082655,e94011fd-63ff-4114-86a4-b65c156fee42
-0.0653708751167197,0.1360540040883313,-0.0501446843284721,1.1160657070748323,-0.0188244890050297,-0.7854330902188021,-0.5630228098630871,-0.5931070362066325,-15.797336017001117,18.91991845676148,50.85896327552717,-4.159463032879451,0.031063575064515,0.9747847332471128,7988.28173828125,11.625999999999998,7.1,178.85177735412606,-11.068952773321458,60.3641099473866,1553.0,1178.0,1350.0,1528.0,1471.0,990.0,160.0,294.53,1649329062.1170833,1649329063.2330525,e94011fd-63ff-4114-86a4-b65c156fee42
-0.0645425071855055,0.1457840390453385,-0.013262590415681,1.3619463251794004,0.0297073495325102,-1.031129764880417,-0.6066896440442163,-0.6286216768535122,-15.796732539783717,20.6364725953774,49.42756008095045,-5.253234843501802,0.052333413914091,0.9211908162837988,7988.28173828125,11.588,7.07,178.9156031951901,-11.183348765817849,60.53770148187219,1553.0,1088.0,1350.0,1528.0,1471.0,990.0,160.0,294.53,1649329064.8600693,1649329065.8995392,bde7733b-202a-43bb-be33-72a12d286aaa
-0.0870925222789777,0.1333848188003022,-0.0183248385400191,1.361275741620501,0.0281295060108336,-1.018822577074786,-0.6089512204668075,-0.631882554647284,-16.05606596334652,20.66735823905892,49.335126052056005,-5.224258874860296,0.0082457054706788,0.9316297097199217,7988.28173828125,11.584499999999998,7.07,178.9203638370416,-11.19362307787684,60.59769103335242,1553.0,1088.0,1350.0,1528.0,1471.0,990.0,160.0,294.53,1649329066.0077925,1649329067.127827,bde7733b-202a-43bb-be33-72a12d286aaa
-0.0708275842690817,0.1373557249756463,-0.0261746103257844,1.3634715739217724,0.0210818048333911,-1.0264488258505606,-0.6155913140684467,-0.6351960270864448,-15.817598925303033,20.402353976852392,49.03785441441449,-5.24842429390705,0.0233134359422905,0.9617391012759976,7981.58798828125,11.5891,7.071000000000001,178.9278729470151,-11.1895778983409,60.65960260006508,1553.0,1088.0,1350.0,1528.0,1471.0,990.0,160.0,294.53,1649329067.236497,1649329068.353439,bde7733b-202a-43bb-be33-72a12d286aaa
-0.0381267754364322,0.1150160905522174,-0.1805008670512227,-0.1460644289971601,-0.2475197789198069,0.4484933056753407,-0.3138944064768048,-0.3360894093792557,-15.053388229597555,13.199832137634402,58.63959074302456,1.4175954490454286,0.0249679623961351,1.10948976257066,7988.28173828125,11.666222222222222,7.095555555555555,178.97550850767053,-10.723724466545226,60.765025355648376,1553.0,1435.0,1350.0,1528.0,1471.0,990.0,160.0,294.53,1649329069.470421,1649329070.6102574,e22bb153-015d-43cd-a782-32418d02d502
-0.0376139762625161,0.1176852758252771,-0.1812108967724911,-0.1396610134094804,-0.2509384404719753,0.4457189310087694,-0.3171947298166516,-0.3420589183363963,-14.862425606303471,13.43331681265898,59.43546956642994,1.3986519587971185,0.0257441397174906,1.121352261744936,7995.7333984375,11.665,7.092222222222222,178.96107555904442,-10.69084924825014,60.78320807812885,1553.0,1435.0,1350.0,1528.0,1471.0,990.0,160.0,294.53,1649329070.7182617,1649329071.8384387,e22bb153-015d-43cd-a782-32418d02d502
-0.0196791541366202,0.1111109278422855,-0.177095354426662,-0.1354797275887793,-0.2435225747490663,0.4461265405599768,-0.3107518676233661,-0.3318818266301807,-14.91442567145268,13.27555708899053,59.1680129088663,1.3892262641103577,0.0035682650542568,1.0953607080412644,7995.7333984375,11.663666666666664,7.1,178.94481363754053,-10.69822338609655,60.80768899393401,1553.0,1435.0,1350.0,1528.0,1471.0,990.0,160.0,294.53,1649329071.947335,1649329073.271938,e22bb153-015d-43cd-a782-32418d02d502
