raw_voltage_G-,raw_voltage_G0,raw_voltage_G1,raw_voltage_G2,raw_voltage_G3,raw_voltage_G4,raw_voltage_G5,raw_voltage_G6,load_x,load_y,load_z,load_l,load_m,load_n,rpm,voltage,current,roll,pitch,yaw,aileron1_pwm,elevator_pwm,throttle_pwm,rudder_pwm,aileron2_pwm,pbaro,pdiff,Tt,sample_start_time,sample_end_time,uid
-0.036377998809282,0.0559127013409659,-0.179764540196663,-0.1892447517136003,-0.2670455954415188,0.5297653897452923,-0.3283448266750227,-0.348186212353111,-16.560373434536828,16.991474892247034,56.21911499761012,1.7216564086727155,-0.1591595904932388,1.1421012309116103,5431.3990478515625,11.943625,0.12,179.79976606060637,-10.85965350788966,110.75566587790388,1553.0,1435.0,1200.0,1528.0,1471.0,990.0,160.0,294.53,1649330167.83542,1649330168.9751022,ef4b611d-fe6d-4feb-abb1-8c7867e424f9
-0.0711825990560831,0.0636046887539092,-0.1802773392291442,-0.1901651600691202,-0.2686628851458723,0.5262941343669394,-0.3339330229355925,-0.3665549439493973,-16.879514451929648,17.134033929009664,56.652816608574646,1.7167602442921208,-0.1318118148218802,1.154212107332495,5435.2734375,11.941199999999998,0.12,179.8480524244532,-10.89391403558722,110.09894882411322,1553.0,1435.0,1200.0,1528.0,1471.0,990.0,160.0,294.53,1649330169.1052792,1649330170.0703442,ef4b611d-fe6d-4feb-abb1-8c7867e424f9
-0.0561536387352061,0.0646039895892494,-0.1834724728342233,-0.2075608875677192,-0.2753424238248553,0.5407708474370041,-0.3308693763478489,-0.3453855398104195,-16.521523307522767,17.063199947918708,56.57128843856376,1.7880703950040435,-0.127936989659381,1.163436042578157,5435.656629774306,11.938666666666668,0.12,179.82945063192167,-10.886475826771845,109.60381642040248,1553.0,1435.0,1200.0,1528.0,1471.0,990.0,160.0,294.53,1649330170.1796968,1649330171.2268426,ef4b611d-fe6d-4feb-abb1-8c7867e424f9
0.1453764294070577,0.4166471660264762,-0.1223967738598063,-0.3949955796832957,-0.3007325597155533,0.3715339927120308,-0.3384430265139704,-0.3641750302049077,-15.747729952425054,16.076175720044752,57.22625416563288,1.827571301603172,1.2080896553761404,1.1683725014699051,5440.257975260417,11.931,0.12,179.5047753129954,-10.838226516701228,109.05733981509891,1637.0,1435.0,1200.0,1528.0,1535.0,990.0,160.0,294.53,1649330172.834858,1649330174.0991628,e7cdeaa4-227d-48ab-a57e-7d132eb87920
0.1558844289011743,0.4294457771771575,-0.1219639629133892,-0.4064004324714901,-0.3043199632378873,0.369495944828846,-0.3399995043465668,-0.3642972032944921,-15.73264633597777,16.08848816753603,57.22174557703541,1.848828135381412,1.25745725826376,1.1763325691508426,5442.944552951389,11.930444444444444,0.1188888888888888,179.43554299774834,-10.813571715663464,108.91815573801222,1637.0,1435.0,1200.0,1528.0,1535.0,990.0,160.0,294.53,1649330174.2124274,1649330175.3218255,e7cdeaa4-227d-48ab-a57e-7d132eb87920
0.166716762791362,0.4302823629053018,-0.1160459532639549,-0.4208853678809419,-0.3017976043607387,0.3793443176669233,-0.3302250901353404,-0.3532747586501426,-15.518764038201546,16.10566499717818,56.90141250487939,1.904098354185812,1.264079128142164,1.1505783868948205,5452.5615234375,11.931555555555557,0.12,179.3744143224965,-10.811909608101692,108.80144526002456,1637.0,1435.0,1200.0,1528.0,1535.0,990.0,160.0,294.53,1649330175.4304965,1649330176.547177,e7cdeaa4-227d-48ab-a57e-7d132eb87920
0.3308519295060907,0.7181993376414753,-0.0741016100056023,-0.5728317407973212,-0.3338409821215405,0.2423875064168258,-0.3487516062054341,-0.3609798963296187,-14.9187265776417,15.730157531423952,57.736328210337454,1.939126300634342,2.3536566110859645,1.1986826947341829,5449.7880859375,11.9094,0.11,179.02321145952584,-10.776622612065175,108.28882301857912,1723.0,1435.0,1200.0,1528.0,1599.0,990.0,160.0,294.53,1649330178.4856036,1649330179.6199424,3cd0d0e7-e786-4159-8a4e-89cba17580b4
0.344894736094606,0.732084359539772,-0.0635169090799863,-0.585467641667955,-0.3295019116154906,0.2333806499148992,-0.3417433500105718,-0.3667521754695141,-14.79337532720309,15.84505931136553,56.80212294629006,1.9485931141375503,2.415355229688817,1.1686585332873398,5451.405924479167,11.909,0.1166666666666666,179.05871387213963,-10.78446088023844,107.91545892382736,1723.0,1435.0,1200.0,1528.0,1599.0,990.0,160.0,294.53,1649330179.729044,1649330180.8467548,3cd0d0e7-e786-4159-8a4e-89cba17580b4
0.3351647015838487,0.7284158736362828,-0.0711825994923853,-0.5977090818820224,-0.3368914803585622,0.2509736044997087,-0.3447412535571246,-0.3650428441309929,-14.871443844416149,15.798170811995488,57.14937000155007,2.0150640478459927,2.4000915092248447,1.1933441375906906,5457.962836371527,11.912333333333333,0.1155555555555555,179.01732140794957,-10.770913389747198,107.59120783553956,1723.0,1435.0,1200.0,1528.0,1599.0,990.0,160.0,294.53,1649330180.9549592,1649330182.086673,3cd0d0e7-e786-4159-8a4e-89cba17580b4
0.4778148957539531,0.9795296529154373,-0.0320652264837373,-0.7360465660772794,-0.3674096093993672,0.1217087766385211,-0.3648456132326247,-0.3829513712481621,-14.39607946736684,15.956960198206977,55.71156254715142,2.0396547009329287,3.3708144275111174,1.2376251719668434,5456.0322265625,11.864,0.1,178.67068627193177,-10.71406098209826,107.53577553805556,1813.0,1435.0,1200.0,1528.0,1662.0,990.0,160.0,294.53,1649330183.8344193,1649330184.9502995,331275c4-496b-440e-b395-152ea8673df5
0.4715955629791989,0.9746514869506464,-0.0210729163797315,-0.7388603884221719,-0.3566276768390981,0.1305447002339382,-0.3508291011142841,-0.3675542453534085,-14.355271568984076,15.992725715914156,56.015291920312976,2.0667108903321707,3.3505814673618746,1.1878268468263693,5449.0947265625,11.861333333333334,0.1,178.6441669241143,-10.724734860223696,107.335068152565,1813.0,1435.0,1200.0,1528.0,1662.0,990.0,160.0,294.53,1649330185.0630944,1649330186.1771424,331275c4-496b-440e-b395-152ea8673df5
0.4876238222805351,0.987589803143231,-0.0237158042952498,-0.7351787519210631,-0.3626103345823243,0.1158839041867904,-0.359638729019409,-0.3785334086719809,-14.279476769777755,16.107154016367282,56.16929676566077,2.0261509174220933,3.3965877288726074,1.2139420935550356,5456.0322265625,11.859222222222222,0.1,178.6418401063371,-10.74253613561178,107.07770662463888,1813.0,1435.0,1200.0,1528.0,1662.0,990.0,160.0,294.53,1649330186.286165,1649330187.4052866,331275c4-496b-440e-b395-152ea8673df5
-0.3116328303408434,-0.3578505054112724,-0.2451924595166382,0.0504033972355695,-0.2277572862532791,0.7057080774549825,-0.3245842987322255,-0.3438602906085816,-18.103943420717616,18.415130494628084,54.72337237024418,1.5815998978885986,-1.720470897149734,1.1206829023568508,5414.305935329861,11.939555555555554,0.12,179.29812566292696,-10.701134849094007,106.85205159374996,1470.0,1435.0,1200.0,1528.0,1403.0,990.0,160.0,294.53,1649330189.545059,1649330190.884802,a066257a-4889-493d-99a9-8152b1ed5352
-0.2951443628513293,-0.3464111376297346,-0.2323198842420907,0.0334810250027501,-0.2223531713648158,0.706457553070504,-0.3109885444259799,-0.3332755887912344,-17.722854280006523,18.509375613775376,54.30707398535995,1.622847996207951,-1.6736727688700512,1.077294568626173,5380.698893229167,11.935,0.13,179.23166336884327,-10.726288159077445,106.77832577293891,1470.0,1435.0,1200.0,1528.0,1403.0,990.0,160.0,294.53,1649330190.9982092,1649330192.112008,a066257a-4889-493d-99a9-8152b1ed5352
-0.2739051696492956,-0.3471333045719653,-0.2332327073623177,0.0287297940892237,-0.2240286189724947,0.7116022328297199,-0.3109111694804344,-0.3343259666898039,-17.727188160506905,18.550620319197307,54.31218858687848,1.6453529888087994,-1.675868180835215,1.0805689155987936,5363.84619140625,11.9372,0.12,179.1835706408594,-10.71311534240767,106.70444384435989,1470.0,1435.0,1200.0,1528.0,1403.0,990.0,160.0,294.53,1649330192.2201607,1649330193.286203,a066257a-4889-493d-99a9-8152b1ed5352
-0.5171338469727655,-0.725119994435545,-0.2914101327936593,0.2654371695181087,-0.1867990931913484,0.8612045448531878,-0.3084639945418668,-0.3285683543053007,-18.842625090796474,19.953286246043945,53.69059907040054,1.4533165408329314,-3.112952255864218,1.0597855494672772,5391.588324652777,11.882444444444443,0.1111111111111111,179.273157526961,-10.730246348565204,106.57870211079666,1385.0,1435.0,1200.0,1528.0,1331.0,990.0,160.0,294.53,1649330194.3423011,1649330195.29352,0b868dc9-0bcf-436a-aa18-08fe04c41576
-0.5145172557845765,-0.7414243846958054,-0.2948945378527245,0.2825436224327051,-0.1824205770785618,0.860586556169527,-0.3124349012769843,-0.3354714212557624,-19.283517724373308,19.921055563607023,53.54515185130887,1.4127075906274242,-3.1720216174288014,1.061902123825451,5402.539442274306,11.883,0.1122222222222222,179.2834483453105,-10.763682780737092,106.37861551361068,1385.0,1435.0,1200.0,1528.0,1331.0,990.0,160.0,294.53,1649330195.402911,1649330196.4237578,0b868dc9-0bcf-436a-aa18-08fe04c41576
-0.5095076011257733,-0.7284729134101907,-0.2915547684509238,0.2723402346696527,-0.1840641641845751,0.8619803178366618,-0.309108280667795,-0.3400997626164833,-19.048185953621942,19.92455917412342,54.2355747802811,1.4392739436443895,-3.129762508684536,1.057466457611329,5409.736762152777,11.884888888888888,0.11,179.2695162772235,-10.752870781008442,106.26898414724282,1385.0,1435.0,1200.0,1528.0,1331.0,990.0,160.0,294.53,1649330196.5387728,1649330197.6416008,0b868dc9-0bcf-436a-aa18-08fe04c41576
-0.7490769290146915,-1.1429595056053694,-0.3545238849476644,0.489359449963141,-0.1525993314984147,1.054477216828818,-0.3004432887869457,-0.3234140646767492,-20.08142536210946,21.88973084031481,52.04967184919837,1.391321365422978,-4.68833090675472,1.0352447419617,5448.325954861111,11.816444444444445,0.09,179.35389946986942,-10.744822256845223,106.0053456754695,1297.0,1435.0,1200.0,1528.0,1253.0,990.0,160.0,294.53,1649330199.3752687,1649330200.513174,3ba3a7b8-0e0b-40f4-9db1-75bf1d96e469
-0.7463814451154817,-1.1502438890035869,-0.3571141783576864,0.4908584011884289,-0.149772361428262,1.060551914145781,-0.3011138720711649,-0.3177995705675314,-20.48265661697165,21.702878576809606,52.08663085975658,1.400027031018725,-4.713491456617966,1.0348598854913855,5438.72216796875,11.815444444444443,0.09,179.3678588587131,-10.767364252699728,105.76608490775386,1297.0,1435.0,1200.0,1528.0,1253.0,990.0,160.0,294.53,1649330200.6210144,1649330201.7418606,3ba3a7b8-0e0b-40f4-9db1-75bf1d96e469
-0.7610816939063157,-1.1476535938213772,-0.3625445911214386,0.4935933297406265,-0.154676825684607,1.0561471012485737,-0.3089504965032695,-0.3327233433514094,-20.60137504469112,21.712910149265348,52.12867740327872,1.383702544380407,-4.703989489732425,1.060409446129353,5442.17578125,11.8205,0.09,179.39160454259962,-10.754470430284805,105.51956243469463,1297.0,1435.0,1200.0,1528.0,1253.0,990.0,160.0,294.53,1649330201.8497715,1649330202.970088,3ba3a7b8-0e0b-40f4-9db1-75bf1d96e469
-0.0524983009882036,0.0725720995538188,-0.182946524986106,-0.2051678238647135,-0.2734884574097509,0.5328553331904974,-0.3344195250207699,-0.3652532229001675,-16.8554793572448,16.976532429076073,56.860185183732376,1.7642146182653518,-0.0985113233601233,1.1664432183403606,5429.153211805556,11.853444444444444,0.0966666666666666,179.00770601941798,-10.719315864027196,104.9157301506368,1553.0,1435.0,1200.0,1528.0,1471.0,990.0,160.0,294.53,1649330204.9029052,1649330206.037864,8fefe259-5b01-4b70-b33e-dc711c02408b
-0.0556013934157565,0.0603438120407496,-0.181053112592945,-0.2002107650896273,-0.2672033798617211,0.5405867658413278,-0.3296728449260501,-0.3627549701858176,-17.055469110480978,16.925319692615123,56.93210054803801,1.7700718474946535,-0.1440878983411079,1.1470899561284724,5434.890733506944,11.946333333333332,0.12,178.86273145973493,-10.711362203602455,105.37963963470372,1553.0,1435.0,1200.0,1528.0,1471.0,990.0,160.0,294.53,1649330206.145954,1649330207.271911,8fefe259-5b01-4b70-b33e-dc711c02408b
-0.0498422642102418,0.0586476302351267,-0.1817631425165767,-0.2033007093973496,-0.2690836438863856,0.5479631837055228,-0.3274770126501103,-0.3463848408081104,-16.853901216561834,16.938720466056918,57.34420137713131,1.7938384366639932,-0.1551930451963007,1.1479767574979889,5435.2734375,11.946444444444444,0.12,178.76813030409065,-10.699759894068588,105.74009224341242,1553.0,1435.0,1200.0,1528.0,1471.0,990.0,160.0,294.53,1649330207.3799398,1649330208.5005324,8fefe259-5b01-4b70-b33e-dc711c02408b
-0.0510256469947501,0.0540850325700875,-0.2157130792208733,-0.5460215418549538,-0.3351164058886197,0.8829656354158969,-0.2660725921767612,-0.2985235787875692,-16.837824364304407,16.07029826209699,59.582850154715125,3.3126454971969825,-0.1522311388879983,1.1967344493713856,5432.594509548611,11.942222222222222,0.1277777777777777,178.76209545250398,-10.56979979772851,105.8683184203407,1553.0,1522.0,1200.0,1528.0,1471.0,990.0,160.0,294.53,1649330209.4107568,1649330210.377085,d51b366b-9689-4b3c-9632-7c2af02bdf33
-0.0288963904184579,0.041357094647294,-0.2207227333055323,-0.5379745367080356,-0.3349717704886937,0.8850957238802971,-0.268820670082535,-0.2836392529292056,-16.97600291185384,15.964258982641589,59.1385904996027,3.29818725066407,-0.1963633309978915,1.205129613013707,5433.359917534723,11.930444444444444,0.12,178.75472947293903,-10.596644243577693,105.92390401762609,1553.0,1522.0,1200.0,1528.0,1471.0,990.0,160.0,294.53,1649330210.4848237,1649330211.5719907,d51b366b-9689-4b3c-9632-7c2af02bdf33
-0.0368250545037204,0.056570136224274,-0.2119788491460725,-0.5350160800432407,-0.3309088225267666,0.8683837325430283,-0.2669009600576812,-0.293395586540244,-16.873322478246497,16.121055348718006,59.3076674217879,3.25551306896173,-0.1413377215392959,1.187056238838572,5437.190375434027,11.929222222222222,0.1122222222222222,178.72329694237865,-10.54745625681489,106.13274843514785,1553.0,1522.0,1200.0,1528.0,1471.0,990.0,160.0,294.53,1649330211.6815872,1649330212.8112252,d51b366b-9689-4b3c-9632-7c2af02bdf33
-0.0307898027766612,0.0429875329931205,-0.2469675335977672,-0.9957991972162892,-0.4120888878826662,1.3271022796762917,-0.1714282660947929,-0.1950959213707809,-16.53973521764322,15.24134991449504,62.54722861365238,5.318839160927419,-0.1688546904890687,1.208866840046559,5456.034423828125,11.9205,0.11,178.73385186137602,-10.41538363988277,106.44682481830208,1553.0,1613.0,1200.0,1528.0,1471.0,990.0,160.0,294.53,1649330214.9383545,1649330216.0751789,f0cea82e-7019-4cf6-b909-5a3b067d62ad
-0.0334458394534089,0.0439473878572776,-0.2609051535469699,-0.9844124178149418,-0.4225684012578352,1.320054577740385,-0.1873381900433689,-0.2142272763412562,-16.651723786460614,15.102940994532837,63.05666393048122,5.275729553967022,-0.1712650103372732,1.265704153807211,5456.0322265625,11.907,0.11,178.80861511203102,-10.398091308451592,106.25805205002123,1553.0,1613.0,1200.0,1528.0,1471.0,990.0,160.0,294.53,1649330216.1863587,1649330217.307259,f0cea82e-7019-4cf6-b909-5a3b067d62ad
-0.0321046724259806,0.0391086676337331,-0.2556719717754134,-0.9822034353036014,-0.4163885127253786,1.3205673768623896,-0.1809084769989551,-0.2046944708661878,-16.62491341169258,15.095202911310896,62.78975809611569,5.272079188874338,-0.1871776791004482,1.2400783387978354,5457.577690972223,11.918333333333331,0.11,178.8105366719175,-10.419025363938989,106.25938166017968,1553.0,1613.0,1200.0,1528.0,1471.0,990.0,160.0,294.53,1649330217.415027,1649330218.4421566,f0cea82e-7019-4cf6-b909-5a3b067d62ad
-0.0182722435716244,0.0251579008107918,-0.2923568392186049,-1.352773434348552,-0.4890876710666481,1.6929384899115445,-0.1152044369434865,-0.1392402553511375,-16.704020936536946,14.555190420941877,65.38975313023614,6.939730091387141,-0.2186950081486659,1.294450316319918,5461.440375434027,11.87377777777778,0.1044444444444444,178.87489374991702,-10.287611860261771,106.236641683703,1553.0,1710.0,1200.0,1528.0,1471.0,990.0,160.0,294.53,1649330220.470677,1649330221.604494,54133437-93eb-4cf4-b31d-548ce5c355ab
-0.0308292488139709,0.0310090706770779,-0.2795500071866252,-1.3657249130250024,-0.481592912112585,1.6978166571283324,-0.099610082153058,-0.1288133382429414,-16.33371981395044,14.591621525641424,65.30980220867228,6.980960203673317,-0.1962547540366818,1.2453077005342057,5466.470703125,11.85811111111111,0.0977777777777778,178.894775671681,-10.30368974611303,106.1345599530977,1553.0,1710.0,1200.0,1528.0,1471.0,990.0,160.0,294.53,1649330221.7142437,1649330222.832423,54133437-93eb-4cf4-b31d-548ce5c355ab
-0.0329067428945623,0.0170846011381939,-0.2857430441183541,-1.3494994062789345,-0.4829472283880555,1.6974616426515572,-0.1048432635924099,-0.1280638633748831,-16.36015563844513,14.602296138391322,65.39975782093101,6.943325094522871,-0.2514802805229859,1.2616064653296946,5473.4521484375,11.86,0.09,178.9123611320641,-10.271759560380604,106.00799882450708,1553.0,1710.0,1200.0,1528.0,1471.0,990.0,160.0,294.53,1649330222.9412775,1649330224.0648775,54133437-93eb-4cf4-b31d-548ce5c355ab
-0.0061359967123186,0.0194119204813864,-0.2771832416087661,-1.535856079105709,-0.5028149133185267,1.8747061106970164,-0.053918360674817,-0.0772835949692451,-16.21946947265167,15.10110578204544,66.74711031062789,7.766010560565328,-0.2321931106918923,1.2049344058940443,5476.9501953125,11.840125,0.09,178.95752860386293,-10.220811934274913,105.7504195843012,1553.0,1814.0,1200.0,1528.0,1471.0,990.0,160.0,294.53,1649330226.4099894,1649330227.5331385,34af8149-e572-4456-bdab-a03d5aa8b849
0.0051192874968482,0.0248686294534964,-0.2652836700901244,-1.5321744402728452,-0.4920461285400066,1.866777445209864,-0.0444118530842609,-0.0610712519306091,-16.197526703320285,15.116039359638696,66.94399684335171,7.740622861352913,-0.2133261061911644,1.161490715132948,5470.658544921875,11.821000000000002,0.09,178.99724717841494,-10.233218055095568,105.50586722238988,1553.0,1814.0,1200.0,1528.0,1471.0,990.0,160.0,294.53,1649330227.6524274,1649330228.7759826,34af8149-e572-4456-bdab-a03d5aa8b849
-0.0251753093261739,0.0155462037360443,-0.27383032357315,-1.526586235985964,-0.4975817308560005,1.8671193100765309,-0.0518145690223136,-0.0753244390151241,-16.2299273220403,15.090650839583557,66.36501896352821,7.728082985682405,-0.2441603510504748,1.1893124728279856,5466.470703125,11.819,0.086,178.97173642186493,-10.173469780047778,105.49168570061616,1553.0,1814.0,1200.0,1528.0,1471.0,990.0,160.0,294.53,1649330228.8839958,1649330230.0052063,34af8149-e572-4456-bdab-a03d5aa8b849
-0.0731154576084334,0.0745181065337416,-0.1450256818092945,0.2818072952505475,-0.1905727694937203,0.0662738734387735,-0.4340472157074541,-0.4569916957803313,-17.105455224382794,18.54543140151226,54.296788858143366,-0.370998605934792,-0.1242505029355012,1.143738520512938,5468.215087890625,11.888,0.1049999999999999,178.93758274393917,-10.819040135867708,105.38756493087064,1553.0,1349.0,1200.0,1528.0,1471.0,990.0,160.0,294.53,1649330231.9390423,1649330233.07277,a61bfd49-1b49-4e39-9ceb-19ef8a9de53e
-0.0727472940344373,0.0787782841549465,-0.1427115112711395,0.2684482209110901,-0.1902834983176027,0.0697319810114145,-0.430733743546709,-0.4527841122809781,-17.139607362812963,18.5046009320248,53.65574712948005,-0.3333677947145528,-0.1005581879793252,1.1349594648411527,5457.42314453125,11.9524,0.12,178.90702447759253,-10.80130964780127,105.5188698535128,1553.0,1349.0,1200.0,1528.0,1471.0,990.0,160.0,294.53,1649330233.1806383,1649330234.3018048,a61bfd49-1b49-4e39-9ceb-19ef8a9de53e
-0.0559876363945998,0.0898944109600064,-0.1332499277737117,0.2497469406502236,-0.1856529651654568,0.0747734101649576,-0.419288896670634,-0.4422443347775909,-16.985388082482142,18.4337783579431,53.55328690800571,-0.2797905942390382,-0.0561482369901982,1.100633791076502,5459.50732421875,11.9498,0.11,178.84098747662122,-10.803559341359144,105.8499687376805,1553.0,1349.0,1200.0,1528.0,1471.0,990.0,160.0,294.53,1649330234.4100993,1649330235.5937755,a61bfd49-1b49-4e39-9ceb-19ef8a9de53e
-0.0751535056111243,0.0934390802662259,-0.1085117499092485,0.6002292463201078,-0.1356506607059477,-0.2633376629238864,-0.4993173593828925,-0.53121610595954,-16.95057545626486,20.194796227303588,51.628574975793775,-1.8175570238395824,-0.0675950331286703,1.1128403855994016,5462.98681640625,11.9451,0.11,178.75458968173402,-10.940188652591422,106.27115098681152,1553.0,1264.0,1200.0,1528.0,1471.0,990.0,160.0,294.53,1649330236.4448388,1649330237.5836751,e9cc49dd-0e0e-4805-8dcc-9b8d72f25fdd
-0.0749562751132414,0.0909934227495981,-0.0929831385990217,0.6004922201516947,-0.1211476475830695,-0.2610366423166047,-0.4794891203871695,-0.4998433078741101,-16.576342847386933,20.10036949564432,51.78462412153742,-1.8126190185754216,-0.0798490697829981,1.0439153022756522,5449.0947265625,11.935,0.11,178.77984635524692,-10.948409041389628,106.3018882041144,1553.0,1264.0,1200.0,1528.0,1471.0,990.0,160.0,294.53,1649330237.691811,1649330238.8111117,e9cc49dd-0e0e-4805-8dcc-9b8d72f25fdd
-0.0689736180489027,0.0976992577675099,-0.1022529701494422,0.5758252684409529,-0.1299572748391253,-0.2428914374845899,-0.486957581753821,-0.4999747949801554,-17.173486781197074,19.95184288290142,52.00953841894429,-1.71791263190041,-0.0500182302062133,1.0797393388777332,5458.11728515625,11.9346,0.11,178.76225998417195,-10.956699525004188,106.44723736172791,1553.0,1264.0,1200.0,1528.0,1471.0,990.0,160.0,294.53,1649330238.9195251,1649330240.0380433,e9cc49dd-0e0e-4805-8dcc-9b8d72f25fdd
-0.0889070424542597,0.1061275719160007,-0.0649238199730645,0.9535478312276834,-0.0663175818226775,-0.6170639694095323,-0.5683874808192372,-0.5967492270669814,-17.47619398592414,22.014596082874988,49.24628510199695,-3.395837701574441,-0.0358780763889415,1.0574909871520983,5444.941796875,11.9314,0.11,178.73170991405237,-11.091375829020665,106.86686915791734,1553.0,1178.0,1200.0,1528.0,1471.0,990.0,160.0,294.53,1649330240.7947998,1649330241.8837185,7b7d0cd2-0048-469d-b913-cb36c4d70ad2
-0.1000045426711444,0.0993033987107981,-0.0717216959133427,0.9527852069677188,-0.0723002385724073,-0.6101214554764518,-0.5737521498888419,-0.6039547145033294,-17.510502742962878,22.09704172053308,49.13527915638429,-3.378343564189222,-0.0605818586198545,1.0814971741286652,5432.5220703125,11.9308,0.11,178.72098378497975,-11.084176468126014,107.0223461200322,1553.0,1178.0,1200.0,1528.0,1471.0,990.0,160.0,294.53,1649330241.9934328,1649330243.112838,7b7d0cd2-0048-469d-b913-cb36c4d70ad2
-0.0874475371169093,0.0846426026014413,-0.0706435026232875,0.972074342982686,-0.0647791838432481,-0.6107920395259544,-0.5711750045074012,-0.5948295169249467,-17.62021296808408,22.01677730291367,49.53827088733935,-3.4238314028862966,-0.120671876293976,1.065033998069624,5429.422021484375,11.9212,0.1,178.74328025450637,-11.101072904717428,107.07252342175076,1553.0,1178.0,1200.0,1528.0,1471.0,990.0,160.0,294.53,1649330243.2207882,1649330244.3510196,7b7d0cd2-0048-469d-b913-cb36c4d70ad2
-0.0903008043624969,0.1178693575047544,-0.0445696370724248,1.1647553275673657,-0.0373115564910546,-0.8373967633683053,-0.622297151908931,-0.6404949543458777,-17.59099823117005,23.658822129820607,47.06076886839837,-4.355880172447575,0.0036575581601834,1.0664296852966344,5424.953125,11.905,0.1066666666666666,178.78720929917216,-11.197300280971245,107.2992278732602,1553.0,1088.0,1200.0,1528.0,1471.0,990.0,160.0,294.53,1649330246.480541,1649330247.6199338,63b98490-de04-4a4c-aae6-19116571336b
-0.1017138733547087,0.0998687926402957,-0.0478305141331652,1.173683292248924,-0.036193917597612,-0.825405146881394,-0.6211400669352927,-0.6421516907422316,-17.6118250000388,23.6993221635492,47.41819562786432,-4.348920108075746,-0.0681812208440095,1.0660780559685017,5428.006944444444,11.892222222222223,0.1,178.77446720182058,-11.23921667758892,107.37417174447324,1553.0,1088.0,1200.0,1528.0,1471.0,990.0,160.0,294.53,1649330247.7281144,1649330248.846999,63b98490-de04-4a4c-aae6-19116571336b
-0.0878814441369755,0.1203544610428055,-0.0370222853426248,1.1665698477062767,-0.0317628066870874,-0.8407365337938186,-0.6164196833271525,-0.6429011674993029,-17.503784627290944,23.78267082074177,47.21930859891062,-4.366212206480244,0.011212953258209,1.040766328091018,5421.52197265625,11.882,0.1,178.82644190576474,-11.20147011145954,107.3193131828795,1553.0,1088.0,1200.0,1528.0,1471.0,990.0,160.0,294.53,1649330248.9568074,1649330250.074767,63b98490-de04-4a4c-aae6-19116571336b
-0.070833652896689,0.0755846680522175,-0.1748600761353523,-0.1492327598855949,-0.2612369052798192,0.4750395094781361,-0.3416336093581333,-0.3648334761322381,-16.694449395119243,17.08464887417342,56.38448066259123,1.5092435389929109,-0.0905082654679319,1.1492570252982786,5436.427625868056,11.917333333333332,0.11,178.8584147801795,-10.733949259732734,107.45286614845048,1553.0,1435.0,1200.0,1528.0,1471.0,990.0,160.0,294.53,1649330250.794778,1649330252.1231172,c6ae04d1-3209-4e04-b79c-ed2f18018eac
-0.0630567044875664,0.0748994187401567,-0.163197181501658,-0.1355323229970872,-0.2503336004004918,0.4651395534124207,-0.3331703989729532,-0.35677231327957,-16.55585750313744,17.259367539237324,56.74955259504044,1.457959110489203,-0.0982393982656056,1.1070360384852278,5451.791720920139,11.93988888888889,0.1088888888888888,178.82750589745544,-10.768085976022029,107.5882776843856,1553.0,1435.0,1200.0,1528.0,1471.0,990.0,160.0,294.53,1649330252.2313,1649330253.359522,c6ae04d1-3209-4e04-b79c-ed2f18018eac
-0.0750483159564624,0.0680883941259956,-0.1760171615178966,-0.124369078699772,-0.2576574252256911,0.4627990858158088,-0.3459772312090199,-0.3764822116831455,-16.76415919922376,17.10296636031999,56.833728949707385,1.4257516358732982,-0.1252464314910334,1.1520315854957857,5454.6439453125,11.936600000000002,0.11,178.87767652076684,-10.768058579374356,107.69813733085375,1553.0,1435.0,1200.0,1528.0,1471.0,990.0,160.0,294.53,1649330253.47239,1649330254.5811098,c6ae04d1-3209-4e04-b79c-ed2f18018eac
-0.0058467254024396,0.0823284320803069,-0.0120660589989452,-0.1298783833053046,-0.1065394453175107,0.4454165108131686,-0.1753334293105701,-0.1913222461199982,-15.629009746544584,17.00549820042157,56.9082538293408,1.4072191374230738,-0.069462166216122,0.4823733103050874,5459.50732421875,11.941,0.11,178.88697923841642,-10.761098275100654,107.79814496068109,1553.0,1435.0,1200.0,1446.0,1471.0,990.0,160.0,294.53,1649330255.491867,1649330256.6298325,b1fac0df-04a2-406e-8921-4a36f369c375
-0.0048211270432414,0.087009367908868,-0.0120660590010644,-0.1347171035430136,-0.109248076875741,0.4453244699964092,-0.1779237224962976,-0.2002633596516769,-15.695122980336643,17.18218299153077,56.90202269970863,1.41906426861255,-0.0507839048257234,0.4901470196026289,5465.774365234375,11.9349,0.11,178.90006997897964,-10.791352341897133,107.64639181770174,1553.0,1435.0,1200.0,1446.0,1471.0,990.0,160.0,294.53,1649330256.7386105,1649330257.7937613,b1fac0df-04a2-406e-8921-4a36f369c375
-0.0109484196325442,0.0791070015146934,-0.0095941040498123,-0.1316929031685983,-0.104856412105688,0.4497292829259116,-0.1732033401367999,-0.2037872105999544,-15.698913747322148,17.170655750468704,56.85124463952392,1.4221772851813852,-0.0801615391471189,0.4730758393897434,5461.6820068359375,11.932,0.10375,178.91836088406748,-10.771890379531758,107.67821144923334,1553.0,1435.0,1200.0,1446.0,1471.0,990.0,160.0,294.53,1649330257.9021828,1649330259.086748,b1fac0df-04a2-406e-8921-4a36f369c375
0.0621451835024841,0.1153974026892786,0.182613535828417,-0.1542166216370324,0.0660371973357209,0.423734312630521,0.024973818815633,0.0077358778692083,-14.15666676600402,16.99592345305484,56.75922952079694,1.4237451023809262,0.0608045402529396,-0.2986355367789678,5468.408908420139,11.935444444444446,0.1055555555555555,178.95002583078715,-10.758948321277412,107.62355561144872,1553.0,1435.0,1200.0,1354.0,1471.0,990.0,160.0,294.53,1649330261.4309723,1649330262.567933,9ccdff27-4d65-4537-973c-61999fe52f6b
0.0514684421288954,0.108849352054342,0.1826398331647039,-0.1403315975584567,0.0680226503675126,0.4205391795847251,0.0235537595652506,0.0050798408692932,-14.161157174959282,17.113271283810143,57.2035318341568,1.386091785715016,0.0306334246022517,-0.2994490023058231,5476.5615234375,11.933333333333334,0.1011111111111111,178.97153181975378,-10.793381486749432,107.54027511489876,1553.0,1435.0,1200.0,1354.0,1471.0,990.0,160.0,294.53,1649330262.6760762,1649330263.797631,9ccdff27-4d65-4537-973c-61999fe52f6b
0.0548082109573807,0.1117420651914638,0.1785242914944893,-0.155768167723996,0.0602649197422496,0.4284678428565916,0.0207136412626871,-0.0006135446752782,-14.090883676490876,17.213443392941073,56.68481118126247,1.439141484384817,0.0472242547819056,-0.2797379421036582,5461.831380208333,11.937444444444443,0.11,178.9821277198862,-10.77874647836034,107.60438630608812,1553.0,1435.0,1200.0,1354.0,1471.0,990.0,160.0,294.53,1649330263.905813,1649330265.022047,9ccdff27-4d65-4537-973c-61999fe52f6b
0.1207094758912372,0.1424048241635068,0.3815138523639467,-0.1472609603876147,0.2448857585140087,0.3803304698488148,0.2198637907764872,0.1892930731776138,-12.83280709454448,17.389414494451373,56.76575080877615,1.3237004489230686,0.1644305418681779,-1.086736165451626,5451.521484375,11.9321,0.107,178.97698473922316,-10.793275467035317,107.56530312885644,1553.0,1435.0,1200.0,1252.0,1471.0,990.0,160.0,294.53,1649330265.908126,1649330266.8724787,6c5316a2-c724-46ce-b835-2f6ed07c0120
0.1073898468162108,0.1269682551386073,0.3888902703877666,-0.1430533776626114,0.2558517706167467,0.3914279684469132,0.2329861889317405,0.200771884323455,-12.788909080469304,17.325774899944882,56.8234011886026,1.339123443027041,0.1056608722461535,-1.132103444433417,5446.787109375,11.928333333333333,0.1066666666666666,178.98771177898763,-10.788636402551042,107.40006650943656,1553.0,1435.0,1200.0,1252.0,1471.0,990.0,160.0,294.53,1649330266.98114,1649330267.9291463,6c5316a2-c724-46ce-b835-2f6ed07c0120
0.1185399410709102,0.1595112774580704,0.3821318410441025,-0.1851423575473421,0.2359972403105008,0.3976210039766497,0.2255045811379013,0.1992992304736696,-12.4684321532568,17.355748672525234,56.67025240922212,1.4479815297530496,0.2315602030437387,-1.0816316763538472,5450.250325520833,11.918,0.1,179.04825457579062,-10.806695138125342,107.20978882280862,1553.0,1435.0,1200.0,1252.0,1471.0,990.0,160.0,294.53,1649330268.0369997,1649330269.122219,6c5316a2-c724-46ce-b835-2f6ed07c0120
-0.1467876069544064,0.038964031928003,-0.3983353488937423,-0.0904059942846046,-0.4603051677955736,0.4699782734239278,-0.5839160951008752,-0.6160252217288277,-18.342395206883747,17.571027170457715,56.47447455750214,1.3564529907181997,-0.2383935003299672,2.064834786902695,5452.5615234375,11.934,0.11,179.12127385147753,-10.768725547346808,107.11687320606949,1553.0,1435.0,1200.0,1604.0,1471.0,990.0,160.0,294.53,1649330269.8121674,1649330270.7611904,f1fc217e-f2dd-4e6f-bba2-4278d651bd10
-0.1035789654159975,0.0407406230997272,-0.3941778320464664,-0.1017204481669203,-0.4598833984989587,0.4730419193562676,-0.5802825030154678,-0.5947713589755557,-18.31198234883847,17.75735997621471,55.70439763887296,1.3901948417031444,-0.2234605097814375,2.052394137786912,5453.718424479167,11.927666666666669,0.1066666666666666,179.1276350343245,-10.76288374346794,107.00928406626343,1553.0,1435.0,1200.0,1604.0,1471.0,990.0,160.0,294.53,1649330270.8686936,1649330271.9863994,f1fc217e-f2dd-4e6f-bba2-4278d651bd10
-0.1256915337844221,0.0375040209210246,-0.4006763230042699,-0.09080955823459,-0.4630947148025007,0.4705006811377001,-0.5867177797284557,-0.6025594349381669,-18.342404989335087,17.651267143596236,56.271902364121054,1.3589203114929944,-0.2421713249067381,2.075315409115104,5456.0322265625,11.931333333333336,0.1077777777777777,179.1235566524801,-10.77758088760573,106.95079943313036,1553.0,1435.0,1200.0,1604.0,1471.0,990.0,160.0,294.53,1649330272.09429,1649330273.221658,f1fc217e-f2dd-4e6f-bba2-4278d651bd10
-0.1887845463759938,0.0040410943621256,-0.5709777743480597,-0.0553778656990652,-0.6163013447617665,0.4773546913571538,-0.7713113855024554,-0.8058398782710752,-19.79446545531444,18.289870659556684,55.85731374536459,1.2893534565561202,-0.3688736026447997,2.773349319433564,5428.388671875,11.920999999999998,0.102,179.09566610624128,-10.722336268541916,107.05619517152093,1553.0,1435.0,1200.0,1676.0,1471.0,990.0,160.0,294.53,1649330275.35871,1649330276.501608,605294b7-2f5c-43b5-88af-9a8d955876b1
-0.1890606689817122,0.0084064615778483,-0.5816676674802143,-0.0605321552156463,-0.6271227251774169,0.4814702328742388,-0.780949383763318,-0.8137685450306802,-19.798071492656845,18.18093133561188,56.29850067933206,1.309042497513626,-0.3564304538838481,2.817529848532746,5431.8291015625,11.9294,0.102,179.1429036945411,-10.769008317178448,106.81851824878284,1553.0,1435.0,1200.0,1676.0,1471.0,990.0,160.0,294.53,1649330276.6214275,1649330277.727806,605294b7-2f5c-43b5-88af-9a8d955876b1
-0.1803825287113531,0.0179918612257316,-0.576789499907725,-0.0584152156016775,-0.6268071564993233,0.4675720620018296,-0.7797791502421147,-0.8040779516175816,-19.45871833333443,18.29835713448814,55.95530188821028,1.2741735985840026,-0.3197888726425655,2.80966785835342,5428.388671875,11.922666666666666,0.1033333333333333,179.12124197726138,-10.770281692112713,106.7667827532416,1553.0,1435.0,1200.0,1676.0,1471.0,990.0,160.0,294.53,1649330277.8357422,1649330278.9492657,605294b7-2f5c-43b5-88af-9a8d955876b1
-0.2389994226695988,-0.0073193794223568,-0.7546914268350626,-0.0129733196887138,-0.7859853375092857,0.4560932511959035,-0.9782588266027956,-1.0050558861461467,-21.115204372250744,18.858033074804663,55.29985031559674,1.1397869097083473,-0.4140513742743394,3.5465901706047034,5428.388671875,11.918888888888889,0.1,179.1065601061855,-10.75231497436473,106.75539303334564,1553.0,1435.0,1200.0,1747.0,1471.0,990.0,160.0,294.53,1649330280.8889143,1649330281.9447734,59b4b4f0-026e-4907-95d4-2bed4ed25a60
-0.2403142923712696,-0.0164577235238523,-0.7486956173776944,-0.0003505708067229,-0.7782144532737577,0.4545285566295352,-0.9720000413591996,-1.0037410140492389,-21.026319209272742,18.95801287112556,55.50229671050796,1.108835346293392,-0.4519214379694692,3.518233416071876,5434.125325520833,11.918666666666669,0.1,179.06783900487076,-10.76814241994642,106.77071011201436,1553.0,1435.0,1200.0,1747.0,1471.0,990.0,160.0,294.53,1649330282.0530465,1649330283.2576418,59b4b4f0-026e-4907-95d4-2bed4ed25a60
-0.2550671313392832,-0.023742101455952,-0.7725342146261615,0.0087483270587554,-0.7961624324930782,0.4568164294743804,-0.9950497210879508,-1.016311176124886,-21.2581466819354,18.78901337364348,55.82653542261557,1.0910792861183358,-0.4831095608932307,3.607554595027458,5433.359917534723,11.90822222222222,0.1,179.02406659920987,-10.78981280777184,106.8491184069564,1553.0,1435.0,1200.0,1747.0,1471.0,990.0,160.0,294.53,1649330283.3651893,1649330284.683796,59b4b4f0-026e-4907-95d4-2bed4ed25a60
-0.0605978981357133,0.0540455866521235,-0.2621805769926565,-0.0769417286668924,-0.3028626488955031,0.4494663091108695,-0.4048439546018461,-0.4206486909066866,-16.671587638739517,13.686985500396394,58.67193967436784,1.262210931392652,-0.2062222673042874,1.4176426453233146,7957.79296875,11.656555555555554,6.926666666666666,-179.15083035674587,-10.753835640092442,95.7516251190056,1553.0,1435.0,1350.0,1528.0,1471.0,990.0,160.0,294.53,1649330289.8510923,1649330290.829632,f3f1f020-0247-4759-9fe7-f61083bbcae5
-0.0853437455921429,0.0460248819173062,-0.2581702242445128,-0.0703542315607331,-0.2950917683224823,0.4597617373882495,-0.4002419099856567,-0.4267496870630928,-17.046418727906193,13.750457836927476,59.91429432616077,1.2711161665466877,-0.2452185327008522,1.395590848623674,7958.61328125,11.655333333333331,6.941111111111111,-178.67865330814365,-10.654728551734436,91.11595675657024,1553.0,1435.0,1350.0,1528.0,1471.0,990.0,160.0,294.53,1649330290.9397857,1649330292.041606,f3f1f020-0247-4759-9fe7-f61083bbcae5
-0.0751272081491109,0.0443681461925804,-0.2585383876728027,-0.0732337961134259,-0.2975242773523302,0.4592094921883969,-0.3990453783705807,-0.4144819514994164,-16.743942106560507,13.79198312842868,59.22956035442,1.2766708425454514,-0.2471724735337116,1.3967052711119756,7965.187934027777,11.65011111111111,6.938888888888889,-178.4145617671554,-10.507746485617822,87.04658317277018,1553.0,1435.0,1350.0,1528.0,1471.0,990.0,160.0,294.53,1649330292.154796,1649330293.288854,f3f1f020-0247-4759-9fe7-f61083bbcae5
0.1134645444070723,0.3773457160792723,-0.205733217581583,-0.2551723211158581,-0.3295939524909976,0.3089725003825426,-0.4136798803482683,-0.4290112634391695,-16.16520718640541,13.255272862595104,60.58550539604949,1.3490558928353502,1.0113210026062625,1.4304749875013003,7973.419921875,11.643999999999998,6.975555555555555,-178.51189955192712,-10.35610376403006,80.72452972061006,1637.0,1435.0,1350.0,1528.0,1535.0,990.0,160.0,294.53,1649330294.4043603,1649330295.5372813,7f6cac84-e339-4479-8992-e9892547f305
0.117527491449432,0.3830522498066005,-0.2165282983069809,-0.2576311277308813,-0.3403364390104581,0.3029898440020112,-0.421700586671599,-0.4457890037145902,-15.811520452232338,12.912830113442055,60.13807645495132,1.3384576272692703,1.033798790848758,1.4716670621653436,7973.419921875,11.6346,7.045,-178.63006030674853,-10.339702155671269,78.11010686902509,1637.0,1435.0,1350.0,1528.0,1535.0,990.0,160.0,294.53,1649330295.6457531,1649330296.7712977,7f6cac84-e339-4479-8992-e9892547f305
0.1374740632092051,0.4263114569910013,-0.2105587896614697,-0.2927118542946816,-0.3447149557448691,0.2843449938381253,-0.4222002372490409,-0.4471959146831035,-15.812806917420971,12.641677547533495,58.94595102441863,1.3740027430470432,1.2113150268191577,1.47356083484129,7980.84423828125,11.6338,7.006,-178.787523487874,-10.31156186166818,75.69279432174979,1637.0,1435.0,1350.0,1528.0,1535.0,990.0,160.0,294.53,1649330296.8798697,1649330298.0679505,7f6cac84-e339-4479-8992-e9892547f305
0.3191364419531374,0.7083904111885796,-0.1534014018784303,-0.4611466846797707,-0.3653321150158311,0.1673084541073718,-0.4207144342620581,-0.4522844609957666,-15.123919070238593,12.491479239184132,59.773535489151215,1.4932827858089597,2.2814308276934976,1.4559802381456144,7980.84423828125,11.637999999999998,7.029999999999999,-179.27548586255807,-10.213542158398784,72.67070608951028,1723.0,1435.0,1350.0,1528.0,1599.0,990.0,160.0,294.53,1649330298.807759,1649330299.9490757,12e273d9-aa8e-491e-bcb2-ee83b3f3e325
0.3107870203700343,0.7168844681401015,-0.1607252262155857,-0.4705480047810624,-0.3770870515931682,0.1643762949402997,-0.4310493117562999,-0.4509564426171855,-15.062368301214104,12.657846405087517,59.23916841120123,1.5085848998385536,2.3182851801211743,1.496855165167216,7980.84423828125,11.588333333333331,7.02,-179.55806444889984,-10.17748615895272,70.78737021833847,1723.0,1435.0,1350.0,1528.0,1599.0,990.0,160.0,294.53,1649330300.0570686,1649330301.1734009,12e273d9-aa8e-491e-bcb2-ee83b3f3e325
0.3280907035036211,0.7187647315217552,-0.1597653712525441,-0.4694303651956869,-0.3757327355732192,0.1613783923069868,-0.4272624863642159,-0.4409502826471363,-14.780677488538206,12.420168415244325,59.240829548337125,1.497941350287107,2.3232480635207047,1.4888447124617177,7988.28173828125,11.599666666666666,7.013333333333333,-179.77395762164505,-10.207205450396303,69.159517573071,1723.0,1435.0,1350.0,1528.0,1599.0,990.0,160.0,294.53,1649330301.282615,1649330302.6038027,12e273d9-aa8e-491e-bcb2-ee83b3f3e325
0.4753692384604954,0.993598756881074,-0.1065131478032884,-0.6351302837994146,-0.4017014156990842,0.0352823969730082,-0.4370188210832241,-0.4680891976560853,-14.383370812468629,12.78192717217019,58.067691676681946,1.5934279686320847,3.3854114574943948,1.4957941321554171,7980.84423828125,11.578099999999996,7.026000000000001,179.60019578777613,-10.224380217196396,66.18679248400099,1813.0,1435.0,1350.0,1528.0,1662.0,990.0,160.0,294.53,1649330304.337329,1649330305.473956,6ae91d6c-485e-4172-a9e7-e75b53e07980
0.4704910725770467,0.9892859848396583,-0.1033706094127293,-0.6318562573562415,-0.396862694801943,0.0349931256836279,-0.4317330441948265,-0.4641314391608558,-14.299529099827025,12.667327653552045,57.887919303435126,1.5848028663094127,3.370030021084582,1.4767531479089913,7975.069769965277,11.547444444444444,7.015555555555555,179.35041303775313,-10.270364683970106,65.08391182110826,1813.0,1435.0,1350.0,1528.0,1662.0,990.0,160.0,294.53,1649330305.582736,1649330306.7093318,6ae91d6c-485e-4172-a9e7-e75b53e07980
0.4614842164431893,0.9836583432134566,-0.1070653931066078,-0.6367870201996771,-0.401228062576892,0.0427377078088517,-0.4322063972204127,-0.4531391265834632,-14.136047157448088,12.705166858206422,57.54237083276856,1.613422644669648,3.3512019403744926,1.4872965400487894,7973.419921875,11.541,7.036666666666666,179.13938295969697,-10.272386230236954,64.19075530410238,1813.0,1435.0,1350.0,1528.0,1662.0,990.0,160.0,294.53,1649330306.8251002,1649330307.9326274,6ae91d6c-485e-4172-a9e7-e75b53e07980
-0.3231875018165993,-0.3844553798283663,-0.3249575190444264,0.1519482485417672,-0.258164661242432,0.661637191921918,-0.382900293352266,-0.398501730396645,-17.863732173550456,14.970328144551226,57.55210304938753,1.2272704815771058,-1.864643922327172,1.357099587259216,7973.419921875,11.563444444444444,7.054444444444444,179.59180254776004,-10.360911837750796,63.01590812534682,1470.0,1435.0,1350.0,1528.0,1403.0,990.0,160.0,294.53,1649330308.8431482,1649330309.789184,28ec53d6-1fed-48a4-ac3f-c3a06842cdd1
-0.351420791612599,-0.3906959545752534,-0.3233351721308956,0.1565922668773529,-0.255987540463714,0.6653415838681077,-0.3817022448239048,-0.4130618922068759,-17.934210629140853,15.144297551192144,57.82636244034736,1.2263612650585372,-1.8904477762521616,1.349768806931621,7973.419921875,11.6391,7.097,179.45831363418532,-10.347613990673716,62.43179831608136,1470.0,1435.0,1350.0,1528.0,1403.0,990.0,160.0,294.53,1649330309.9009037,1649330311.0014188,28ec53d6-1fed-48a4-ac3f-c3a06842cdd1
-0.3157089267760504,-0.3844503226112074,-0.3230459007043985,0.1564739284081639,-0.2567238675384933,0.6582412885866685,-0.3828330328347281,-0.4120362929933416,-17.855792661908154,15.075786315947129,57.6687230034834,1.210247475607134,-1.866148981458709,1.352602709251852,7967.656467013889,11.633888888888889,7.068888888888888,179.26961948897093,-10.436681118352256,61.83536988119282,1470.0,1435.0,1350.0,1528.0,1403.0,990.0,160.0,294.53,1649330311.1099226,1649330312.2399,28ec53d6-1fed-48a4-ac3f-c3a06842cdd1
-0.5429710421925477,-0.7588069683669771,-0.3689085609371485,0.3436061637779439,-0.2136750309148943,0.841073892616198,-0.3589681447124752,-0.3742469333678733,-19.056233142511616,16.451450868282734,55.9184222384466,1.204924786739542,-3.272128817116825,1.274976836199103,7973.419921875,11.622111111111108,7.056666666666668,179.14325947150587,-10.514741358237822,60.96188810354612,1385.0,1435.0,1350.0,1528.0,1331.0,990.0,160.0,294.53,1649330313.3499784,1649330314.4862976,978959f5-b60d-41f0-a809-3a9cbf0d51d3
-0.549348161778844,-0.7586097378618688,-0.3570484349468686,0.3484974784806567,-0.2043394557934618,0.8337106233599851,-0.3492512565182747,-0.3653847097251111,-18.85714015537986,16.6403862522949,55.619361356293865,1.1792405068563991,-3.269994797541825,1.231966651095778,7973.419921875,11.579,7.071111111111112,179.0596776877225,-10.499130676298543,60.54984100475703,1385.0,1435.0,1350.0,1528.0,1331.0,990.0,160.0,294.53,1649330314.595358,1649330315.710785,978959f5-b60d-41f0-a809-3a9cbf0d51d3
-0.5440371827273296,-0.7541013766583936,-0.3651052998435076,0.3491702534875059,-0.2129365124231576,0.8301111680612423,-0.3597636409779894,-0.3914574845638216,-18.916891999170407,16.675120650917464,55.75203644974772,1.1694545866721144,-3.254431695315606,1.270308438415161,7973.419921875,11.583,7.068888888888889,178.9424124465923,-10.534408223906706,60.13081800609565,1385.0,1435.0,1350.0,1528.0,1331.0,990.0,160.0,294.53,1649330315.8192403,1649330316.94798,978959f5-b60d-41f0-a809-3a9cbf0d51d3
-0.777136259104877,-1.1642209637437124,-0.4154023601167486,0.5666080332664598,-0.1709023181577743,1.0129799338887464,-0.3413357400323226,-0.3658843603020723,-19.914548789490105,18.722243171728312,52.94606527315842,1.1000154435644267,-4.790624168536917,1.2021659364942856,7973.419921875,11.525,7.053333333333333,178.91681593322272,-10.558429145443991,59.49488110086308,1297.0,1435.0,1350.0,1528.0,1253.0,990.0,160.0,294.53,1649330317.8544512,1649330319.1959102,6abaed06-066a-4ea1-981a-7a97135c433d
-0.7871818675869809,-1.1624853344628978,-0.4265919030012827,0.5563783485488418,-0.180790138484927,1.013952937342972,-0.3477917510984579,-0.3779154198788464,-19.75598309174722,18.32724779874264,51.92361310849692,1.1220187712435712,-4.775631387840095,1.2390293081493866,7960.256944444444,11.501444444444443,7.042222222222223,178.89157914314944,-10.600727273745283,59.15217256470815,1297.0,1435.0,1350.0,1528.0,1253.0,990.0,160.0,294.53,1649330319.3045056,1649330320.4276264,6abaed06-066a-4ea1-981a-7a97135c433d
-0.7765840135913011,-1.171031993735132,-0.4271572968459434,0.575969904113482,-0.1775687074857793,1.0125723243705584,-0.3536692191438775,-0.3790856537858815,-20.208458904685376,18.6347115800828,53.074728007733135,1.0766883914435024,-4.81712911457115,1.244099122836274,7963.544270833333,11.509666666666666,7.043333333333333,178.84721023430106,-10.586800612891365,58.88360041962434,1297.0,1435.0,1350.0,1528.0,1253.0,990.0,160.0,294.53,1649330320.536053,1649330321.6614263,6abaed06-066a-4ea1-981a-7a97135c433d
-0.0793479398289807,0.0423958417543364,-0.2584069007743511,-0.0593882183081121,-0.2944869281757105,0.4478490196189991,-0.401530482503486,-0.4342444458106467,-16.81531203901886,13.73804995241477,59.14432930465855,1.219509617965156,-0.2550065409285147,1.3956620832551894,7966.009765625,11.5712,7.075999999999999,178.4126990986777,-10.599884637101926,58.56344759662052,1553.0,1435.0,1350.0,1528.0,1471.0,990.0,160.0,294.53,1649330322.2939844,1649330323.4999475,3ea5605f-ce7d-483a-b81e-89ee9656053d
-0.0565480995317206,0.0533355570388205,-0.2597875142268962,-0.0611501439502317,-0.2961831104699328,0.4381189851941077,-0.4060930810862568,-0.4205829474025162,-16.94807251740277,13.597795080575048,59.033857456126654,1.200536454092921,-0.2119301734876052,1.4074676089385654,7980.019314236111,11.645333333333332,7.088888888888889,178.3612695956113,-10.621236244820585,58.49676810252124,1553.0,1435.0,1350.0,1528.0,1471.0,990.0,160.0,294.53,1649330323.6335385,1649330324.7302048,3ea5605f-ce7d-483a-b81e-89ee9656053d
-0.0801500103713904,0.0424615852382766,-0.2622989154164938,-0.063937667745023,-0.2975374262070744,0.447783276122749,-0.4035685308185368,-0.4227656314327078,-16.78944310498805,13.569053132829886,58.52803226157432,1.22822501062886,-0.2491702961521455,1.4072102453062396,7980.84423828125,11.645,7.089999999999999,178.32740096424692,-10.606263521522532,58.455934954933184,1553.0,1435.0,1350.0,1528.0,1471.0,990.0,160.0,294.53,1649330324.839363,1649330326.1680472,3ea5605f-ce7d-483a-b81e-89ee9656053d
-0.0645162097840215,0.0355453709559414,-0.3148411128931908,-0.5390264325584497,-0.3924841777994119,0.9208338772600116,-0.3224805064912568,-0.3431765581684313,-16.95206891072672,12.285085591683483,62.7448515653584,3.35237922723019,-0.2561919170263587,1.494058085753836,7980.84423828125,11.638444444444444,7.09,178.21724215549315,-10.350552907237086,58.43342341033872,1553.0,1522.0,1350.0,1528.0,1471.0,990.0,160.0,294.53,1649330327.793176,1649330329.0246785,e1e217db-c117-47b8-83bb-04ce1ad9b105
-0.070262190297963,0.0349405309458768,-0.3088979012498588,-0.539644421665635,-0.3872509957140551,0.9207812824903756,-0.3149331536374996,-0.3435841673835634,-16.779669719652794,12.248233673058577,62.62376513818139,3.3537741877034546,-0.2581552173192689,1.4679695301534244,7988.28173828125,11.632222222222222,7.09,178.28463031966433,-10.37161939250339,58.40679629731439,1553.0,1522.0,1350.0,1528.0,1471.0,990.0,160.0,294.53,1649330329.1335142,1649330330.3308716,e1e217db-c117-47b8-83bb-04ce1ad9b105
-0.0531425870845591,0.0517971595809156,-0.3095684849678602,-0.5429447451854866,-0.3909194827451802,0.9058575134596568,-0.3194300085263582,-0.3401786545311614,-16.663517810811612,12.111456938185372,62.399430278534375,3.3267658148600145,-0.1934049222600256,1.482114459987968,7984.976182725694,11.625444444444444,7.09,178.30873785179483,-10.38384315438799,58.42382471782513,1553.0,1522.0,1350.0,1528.0,1471.0,990.0,160.0,294.53,1649330330.439422,1649330331.6975317,e1e217db-c117-47b8-83bb-04ce1ad9b105
-0.048540543267514,0.0313772342330646,-0.3735500515232864,-1.0510500533328946,-0.502788615628172,1.418656654221999,-0.2431807084473634,-0.2649943984595745,-16.89267002484824,11.343526627437436,65.9957108719176,5.617436403754715,-0.241754393497845,1.6114366546281105,7980.84423828125,11.631,7.09,178.3257207377111,-10.21908058804202,58.44105197273172,1553.0,1613.0,1350.0,1528.0,1471.0,990.0,160.0,294.53,1649330333.2960489,1649330334.3521612,166a7a56-c4b9-4db6-a174-d62bc1ec1fdb
-0.0595854485033855,0.0251184547778878,-0.3706310404770281,-1.0400971818724671,-0.4964114964532219,1.4138705284520088,-0.2407613480619755,-0.2674663535252632,-16.99880834927559,11.291394795646566,65.89912910400207,5.581705281578513,-0.264785766318318,1.59447687427362,7980.84423828125,11.616,7.091111111111111,178.35898527678887,-10.19541180070194,58.43433941459742,1553.0,1613.0,1350.0,1528.0,1471.0,990.0,160.0,294.53,1649330334.4609723,1649330335.5840218,166a7a56-c4b9-4db6-a174-d62bc1ec1fdb
-0.0504208068914941,0.0355059248983761,-0.3633203640381779,-1.0412279702032987,-0.4949519907778688,1.4044692101388796,-0.2371717536050657,-0.2636532313836915,-16.685690172162023,11.50420359757877,65.89923601541226,5.565062436370038,-0.2274372676266416,1.5787916516739424,7980.84423828125,11.622,7.09,178.42846044320643,-10.227194852775996,58.46017650240775,1553.0,1613.0,1350.0,1528.0,1471.0,990.0,160.0,294.53,1649330335.6922803,1649330336.8098342,166a7a56-c4b9-4db6-a174-d62bc1ec1fdb
-0.0507363756065218,0.0159801107842707,-0.4224632114049298,-1.4998680543264142,-0.5944087578382107,1.8642923391153432,-0.1681016453503656,-0.1795147152724481,-16.965133008440493,10.547846217430733,68.55842283725009,7.623924563876712,-0.2695585694408033,1.6940960675640495,7980.84423828125,11.588111111111113,7.061111111111112,178.47260623254195,-10.092679020259515,58.48596957344345,1553.0,1710.0,1350.0,1528.0,1471.0,990.0,160.0,294.53,1649330337.9253683,1649330339.063762,89bc9e96-2f8a-4aaf-a90a-3fd29c39f03e
-0.0460159935109361,0.0178866717669948,-0.4131276350620519,-1.4907296994900157,-0.5872821620973745,1.8580072604908056,-0.1609619026863487,-0.1839852720971428,-16.73069492774365,10.721261006477098,69.18648227272654,7.5910198268370275,-0.2701639369268823,1.662787914099517,7988.28173828125,11.56377777777778,7.050000000000001,178.51790101147785,-10.091637131819873,58.46648380265131,1553.0,1710.0,1350.0,1528.0,1471.0,990.0,160.0,294.53,1649330339.17187,1649330340.4344485,89bc9e96-2f8a-4aaf-a90a-3fd29c39f03e
-0.05127547216388,0.0161378951196682,-0.4166514863803168,-1.4846155491416062,-0.5883866529482653,1.85211664300916,-0.1665895451557948,-0.1891264126346841,-16.922704670208823,10.69067244313544,68.87221761611495,7.563465809647846,-0.2735552900435201,1.6763852733677198,7988.28173828125,11.560300000000002,7.05,178.5799171559758,-10.10259060184171,58.44295759551015,1553.0,1710.0,1350.0,1528.0,1471.0,990.0,160.0,294.53,1649330340.5470836,1649330341.7212973,89bc9e96-2f8a-4aaf-a90a-3fd29c39f03e
-0.023281896989113,0.0389114372118671,-0.4224369141098601,-1.728497876536801,-0.6338285625158088,2.0644944594629284,-0.1301545051326128,-0.1597653716074396,-17.303776760844162,11.57992594945243,70.41857266635324,8.596507468673586,-0.1694733817793504,1.6964559944949549,7987.455349392361,11.544777777777776,7.0344444444444445,178.61556664532978,-10.012474575293258,58.48870240802136,1553.0,1814.0,1350.0,1528.0,1471.0,990.0,160.0,294.53,1649330342.852156,1649330343.9836094,e7e7ae54-51be-4c00-98ef-593f20d11e3b
-0.0333725101857611,0.0354432157031279,-0.4168972658524545,-1.7291381173229188,-0.6297292017686934,2.0686363006316446,-0.1202171243923001,-0.1477156018274114,-16.87278699825362,11.536756847762147,70.4982275236504,8.607478276183496,-0.1858084602933306,1.6691788500176907,7980.84423828125,11.4646,7.006,178.6658341055454,-10.025616675084512,58.43884445559197,1553.0,1814.0,1350.0,1528.0,1471.0,990.0,160.0,294.53,1649330344.0960114,1649330345.2067957,e7e7ae54-51be-4c00-98ef-593f20d11e3b
-0.0303953418497577,0.0304962715814599,-0.4243303266128687,-1.7347698125295452,-0.636576640716725,2.078497826519943,-0.1256445019750576,-0.1457225627193921,-16.970308230918683,11.578152486931977,70.4243989308597,8.642185607683247,-0.2027950683530993,1.6955275415006492,7980.84423828125,11.478444444444444,7.002222222222222,178.67615953018665,-10.02199405658522,58.446313495122354,1553.0,1814.0,1350.0,1528.0,1471.0,990.0,160.0,294.53,1649330345.3176906,1649330346.4323325,e7e7ae54-51be-4c00-98ef-593f20d11e3b
-0.0726921706001159,0.0531939557001983,-0.2110948517990075,0.3809631243053928,-0.2085283272237959,0.01035954875652,-0.482324687507999,-0.4939815161913783,-17.001025724934564,15.119796361843974,55.957277751670354,-0.7459983097824617,-0.2361397655148776,1.3291011543977815,7979.359375,11.5178,7.022,178.7263413853647,-10.699714169746644,58.49456104072743,1553.0,1349.0,1350.0,1528.0,1471.0,990.0,160.0,294.53,1649330347.350572,1649330348.4937074,363291db-65c1-40ac-bcf1-b4ce7cc6eef9
-0.1158932258344055,0.0419037770810743,-0.2140912377164142,0.3801539737865115,-0.2061388043028608,0.0194372063859402,-0.4792398003209432,-0.5133505621215524,-17.10715662168071,14.812249309043482,55.57404850184192,-0.7260768348266726,-0.2744326270763247,1.323677004162201,7980.84423828125,11.652,7.1,178.71631193558747,-10.76223914436502,58.74210394404864,1553.0,1349.0,1350.0,1528.0,1471.0,990.0,160.0,294.53,1649330348.6262429,1649330349.7122257,363291db-65c1-40ac-bcf1-b4ce7cc6eef9
-0.0902482095562657,0.0495618812117727,-0.2131096368814062,0.3743872595039418,-0.209112432864335,0.0182679839365886,-0.4788579822615421,-0.4931243213215575,-16.88023287276781,14.878955274054494,55.7227858365704,-0.7150669229225124,-0.247861080746315,1.327062701276165,7980.84423828125,11.656666666666668,7.1,178.71746396082747,-10.738532980711982,58.981133244242415,1553.0,1349.0,1350.0,1528.0,1471.0,990.0,160.0,294.53,1649330349.8206108,1649330350.9416406,363291db-65c1-40ac-bcf1-b4ce7cc6eef9
-0.107025946903807,0.0546504266595568,-0.1643542667162872,0.7483098492075464,-0.1331524082086476,-0.3504477880759634,-0.546153027701265,-0.5777230579768063,-17.242733459057423,16.860757718979176,52.87238245718411,-2.372169789751991,-0.2438606318908808,1.25176445743847,7980.84423828125,11.6548,7.093999999999999,178.68674814478396,-10.818061028250185,59.42414432261484,1553.0,1264.0,1350.0,1528.0,1471.0,990.0,160.0,294.53,1649330352.8756676,1649330354.013244,8d4dbf54-8822-4551-9634-c63daab2b5dd
-0.1024633490681883,0.0599624999474589,-0.162408259406721,0.7462980988385532,-0.1319558766311493,-0.3528934459307977,-0.5424976890406602,-0.5695051194688917,-17.02821414352758,16.674024084946165,53.02385986284529,-2.3741363452655584,-0.2264300936161364,1.243343117791214,7975.069769965277,11.63511111111111,7.117777777777778,178.70056759064067,-10.82423468445898,59.57767210052253,1553.0,1264.0,1350.0,1528.0,1471.0,990.0,160.0,294.53,1649330354.1225233,1649330355.240461,8d4dbf54-8822-4551-9634-c63daab2b5dd
-0.1073415156176912,0.0536248283633408,-0.1696663404733528,0.7406047139479593,-0.137281099212475,-0.3425454203163216,-0.5466658270116425,-0.5723978335059584,-17.16606862925246,16.614940732869023,52.824423564508855,-2.3388943269888447,-0.2472170643979221,1.2652541448396553,7975.647216796875,11.6436,7.107000000000001,178.7157586902647,-10.810083964941164,59.72068313260119,1553.0,1264.0,1350.0,1528.0,1471.0,990.0,160.0,294.53,1649330355.3478715,1649330356.4779873,8d4dbf54-8822-4551-9634-c63daab2b5dd
-0.1054754120332954,0.0565569876247388,-0.1321773817063966,1.1299836014935776,-0.0696072842608165,-0.7326557177025759,-0.627718967623373,-0.6519302774365839,-17.334680204918325,18.421675494638336,48.56113622902263,-4.080788330070501,-0.2427745192403542,1.2342772664645345,7973.419921875,11.629375,7.1025,178.7250699456507,-10.913223321880306,59.9570927137388,1553.0,1178.0,1350.0,1528.0,1471.0,990.0,160.0,294.53,1649330357.3990896,1649330358.5192406,1ec750d9-7df2-4bed-9097-50560906454c
-0.1136528902015951,0.0670890932911679,-0.1144023659566464,1.1520010924113455,-0.0577051849722598,-0.7491295238820668,-0.622441787127614,-0.6497647885367105,-17.330201985371215,19.12624083042664,50.64745703249771,-4.16158268569659,-0.2233674581162818,1.1904472671465571,7970.949869791667,11.615,7.093333333333334,178.7814036383777,-10.88510257929372,60.06443084409284,1553.0,1178.0,1350.0,1528.0,1471.0,990.0,160.0,294.53,1649330358.6277292,1649330359.7473035,1ec750d9-7df2-4bed-9097-50560906454c
-0.1062633224237494,0.0571355302481478,-0.1221337999791126,1.1369984306361014,-0.0607425340100281,-0.7342057473237336,-0.6221656644089617,-0.6384306078568573,-17.52886105650346,18.731926701689066,49.39649587495898,-4.097502977979557,-0.2468557442151399,1.201652511506076,7966.009765625,11.614333333333333,7.103333333333333,178.8145255023928,-10.898161047213136,60.17565364453733,1553.0,1178.0,1350.0,1528.0,1471.0,990.0,160.0,294.53,1649330359.8554847,1649330360.9776294,1ec750d9-7df2-4bed-9097-50560906454c
-0.1271697507966256,0.0655901419209228,-0.0681846963636221,1.4203002418824782,0.0074597552767701,-1.0066468769046264,-0.6610726703537957,-0.6927873377575032,-17.85130627027603,20.846579025555084,48.96448287624116,-5.332300635066402,-0.2404592699489179,1.092419570715387,7973.419921875,11.602888888888888,7.085555555555555,178.86011929183235,-10.998455924440556,60.43310700056226,1553.0,1088.0,1350.0,1528.0,1471.0,990.0,160.0,294.53,1649330362.910827,1649330364.0486305,3c8d016b-bb80-4b6c-98a2-b0599f3f9d68
-0.1477080157460749,0.0621714809024082,-0.0851728126984011,1.4005771962027078,-0.0083712752314325,-0.9975479727329,-0.6698560026418598,-0.7021623618032821,-17.636404564983774,20.421508339666808,47.10580462626347,-5.271215671333278,-0.2369847661372733,1.1467609220157449,7973.419921875,11.572875,7.097499999999999,178.90586846807554,-11.000510151265306,60.52053124007242,1553.0,1088.0,1350.0,1528.0,1471.0,990.0,160.0,294.53,1649330364.156791,1649330365.2776558,3c8d016b-bb80-4b6c-98a2-b0599f3f9d68
-0.1387800503963407,0.0545320883994042,-0.0780856651427818,1.42473135261324,0.0012404218244093,-1.0049243963165522,-0.6676075748212181,-0.6896316502664823,-17.781814198427877,20.708747771195725,48.1876013179661,-5.339921052431506,-0.2767156307729831,1.12140121939183,7967.656467013889,11.58622222222222,7.097777777777777,178.94532817845797,-11.106113650729514,60.58338330486106,1553.0,1088.0,1350.0,1528.0,1471.0,990.0,160.0,294.53,1649330365.386617,1649330366.5135517,3c8d016b-bb80-4b6c-98a2-b0599f3f9d68
-0.0872240092650272,0.0383197459007556,-0.2674795022844905,-0.1289974199829347,-0.3059657416285327,0.51777378002749,-0.3890655159660565,-0.4189919546668199,-17.028371297022957,13.300079706248177,59.42405197874459,1.5302434238833345,-0.2632777721836417,1.405237870110613,7969.306315104167,11.589222222222222,7.086666666666667,178.95977326964268,-10.636000267893998,60.77399491184841,1553.0,1435.0,1350.0,1528.0,1471.0,990.0,160.0,294.53,1649330368.2901275,1649330369.3732452,1794c0bb-5acb-449f-9750-35fc2d741519
-0.0571923856773396,0.0474317924261135,-0.2601819750202556,-0.1213448783260999,-0.3004301398087434,0.5020742381491866,-0.3882897428044845,-0.402109025923051,-17.095909958989267,13.42706605377976,59.49308256899507,1.4788843805621297,-0.2297132657207837,1.3878139810464625,7980.84423828125,11.655666666666669,7.1,178.9776213128538,-10.65473813297202,60.797100682900655,1553.0,1435.0,1350.0,1528.0,1471.0,990.0,160.0,294.53,1649330369.48149,1649330370.6071978,1794c0bb-5acb-449f-9750-35fc2d741519
-0.0704199746544195,0.0388325450499757,-0.2619964952453076,-0.1205165104210525,-0.2996017717414438,0.5069524040080623,-0.3846607018646782,-0.4028979471966276,-16.90377072906683,13.21258298567006,59.105975945515446,1.4865005013428478,-0.2601153278969692,1.3826352925880514,7980.84423828125,11.655,7.1,178.97200689735607,-10.636802151075305,60.82949399340431,1553.0,1435.0,1350.0,1528.0,1471.0,990.0,160.0,294.53,1649330370.7153416,1649330371.7554767,1794c0bb-5acb-449f-9750-35fc2d741519
