raw_voltage_G-,raw_voltage_G0,raw_voltage_G1,raw_voltage_G2,raw_voltage_G3,raw_voltage_G4,raw_voltage_G5,raw_voltage_G6,load_x,load_y,load_z,load_l,load_m,load_n,rpm,voltage,current,roll,pitch,yaw,aileron1_pwm,elevator_pwm,throttle_pwm,rudder_pwm,aileron2_pwm,pbaro,pdiff,Tt,sample_start_time,sample_end_time,uid
0.4240630301064306,0.6379134061689051,0.4383688103275374,-0.4812904924454343,0.1321225437592784,0.2004957619788708,0.2495009504721598,0.2198769393985205,-2.9283092438819938,15.2904673748415,56.79948835726703,1.6669845082378538,1.9971832644210528,-0.9879818855231948,5376.186686197917,11.943,0.12,179.02691706482352,-10.869397507934655,110.3281170007473,1553.0,1435.0,1200.0,1528.0,1471.0,990.0,160.0,294.53,1649330823.467096,1649330824.6475916,368a1095-ac9b-4696-9f17-0e1125723b72
0.4219010812004243,0.6220267483307792,0.4343670555780383,-0.4729941686062777,0.1330722842820066,0.2080198503558629,0.2453039881793208,0.2261751647651104,-3.357671221273664,15.450619521237542,56.71112618580239,1.6658098574166091,1.9401482798677905,-0.9801852180931944,5380.68212890625,11.94077777777778,0.1188888888888888,179.04546330514984,-10.867707225842556,109.69862248172188,1553.0,1435.0,1200.0,1528.0,1471.0,990.0,160.0,294.53,1649330824.7553835,1649330825.8775463,368a1095-ac9b-4696-9f17-0e1125723b72
0.431189622892181,0.6397279260753617,0.4394601520090608,-0.4838807862640364,0.1333059263363515,0.2009033715689777,0.2497770731973979,0.2282526586015609,-3.0736453978696865,15.288328413697524,56.77717604088773,1.6737069765082284,2.0056032939356747,-0.9914098377379872,5380.68212890625,11.940555555555555,0.1244444444444444,179.03997335087695,-10.852625693836478,109.1891670195396,1553.0,1435.0,1200.0,1528.0,1471.0,990.0,160.0,294.53,1649330825.9954898,1649330827.1085374,368a1095-ac9b-4696-9f17-0e1125723b72
0.5792965239719278,0.936875285449822,0.4751457106241283,-0.57726285285421,0.0997373056439436,-0.0079110709121292,0.2034542186443629,0.1701091258772812,-2.578314674639906,15.048980301275494,56.21765388587569,1.4154704872081754,3.1352953034071844,-0.8935860812371672,5377.30615234375,11.942,0.13,178.69713276439805,-10.844661882991716,108.59740550112896,1637.0,1435.0,1200.0,1528.0,1535.0,990.0,160.0,294.53,1649330827.7837973,1649330828.743804,cb1e880b-af36-4288-a836-09af2379de66
0.5869622131504171,0.9486565163667856,0.4726343097344105,-0.5906219322152763,0.0935574181907959,-0.0091076023717681,0.2005615052714937,0.173330556581904,-2.4840016248230934,14.97532293643666,55.91955356774557,1.442303152604882,3.182940943292252,-0.876642789754944,5374.309624565973,11.905888888888889,0.1188888888888888,178.65322830841322,-10.849256987619585,108.2949146366269,1637.0,1435.0,1200.0,1528.0,1535.0,990.0,160.0,294.53,1649330828.8519456,1649330829.976014,cb1e880b-af36-4288-a836-09af2379de66
0.5821497907860884,0.9426081165678256,0.4800370250855899,-0.5856122776320593,0.1002632531831432,-0.0076349483095963,0.2100943097152299,0.1756447267228524,-2.188896671398019,15.05541989455872,56.00482178894162,1.435373568326759,3.1572652116076005,-0.9098339455346576,5377.30615234375,11.909333333333333,0.1155555555555555,178.6189954002931,-10.842011390138795,107.980958920148,1637.0,1435.0,1200.0,1528.0,1535.0,990.0,160.0,294.53,1649330830.0857935,1649330831.2044609,cb1e880b-af36-4288-a836-09af2379de66
0.7674806464660345,1.2671836695074017,0.5212055893392733,-0.6880538076461948,0.0616981274903517,-0.240195955028408,0.1585908681815315,0.1451923471186529,-1.4775625271450976,15.13026612033169,54.70076125764185,1.1465572045968293,4.396367964587127,-0.8030912773195061,5373.93505859375,11.901555555555555,0.11,178.32451558877756,-10.81080245340998,107.44100438659189,1723.0,1435.0,1200.0,1528.0,1599.0,990.0,160.0,294.53,1649330832.7820003,1649330833.8665864,1fd2c41b-df67-4baf-9b8f-f3e1866cf91e
0.772358812311991,1.2845530972766042,0.5302518914904367,-0.7059886342552685,0.0638019187552377,-0.2422208537704132,0.1683603492429915,0.1463757299083872,-1.1060788917790714,15.046186336562144,54.55609669385468,1.1825205669665542,4.462946990186943,-0.8301627750694859,5372.8125,11.875666666666667,0.11,178.31979213351153,-10.830919542381654,107.22492452200936,1723.0,1435.0,1200.0,1528.0,1599.0,990.0,160.0,294.53,1649330833.9750698,1649330835.0955284,1fd2c41b-df67-4baf-9b8f-f3e1866cf91e
0.771885459288865,1.2764009055465666,0.5183128764278571,-0.6971395591234071,0.0563334594538328,-0.2410243227971831,0.1529632263945763,0.122497698085182,-1.6351363721209498,15.187957404577244,54.64487885316236,1.1653411589902485,4.43348500335667,-0.7830058247523881,5369.2248046875,11.8768,0.11,178.2767359870216,-10.839643059989593,107.03125815086123,1723.0,1435.0,1200.0,1528.0,1599.0,990.0,160.0,294.53,1649330835.2036922,1649330836.324052,1fd2c41b-df67-4baf-9b8f-f3e1866cf91e
0.8827421073731904,1.4896859162133922,0.546188109784024,-0.7416479139915723,0.0306935012180765,-0.4275912045682451,0.106587775288842,0.092663306257185,-1.2877044686936796,15.719166736042968,51.92718768346656,0.8511515328504008,5.262317341480764,-0.6984423847613188,5346.004231770833,11.846333333333332,0.1,178.1172314900262,-10.795213590130547,106.69511357828064,1813.0,1435.0,1200.0,1528.0,1662.0,990.0,160.0,294.53,1649330837.4404514,1649330838.3910968,ced6a8dd-53e0-486b-8f4c-d8957e0afe2e
0.8841884638492307,1.4950900309263444,0.5543008546970821,-0.7575578457958246,0.0326526572924042,-0.4214770610477412,0.1149503464891487,0.0857996875836568,-1.1151327402267197,15.945479743818783,51.526442800088525,0.9027069418764236,5.287393424876851,-0.7240989262068216,5342.450390625,11.8062,0.094,178.0953111362499,-10.803405149838632,106.42680689988258,1813.0,1435.0,1200.0,1528.0,1662.0,990.0,160.0,294.53,1649330838.500884,1649330839.6018531,ced6a8dd-53e0-486b-8f4c-d8957e0afe2e
0.8749843772679714,1.476090163252033,0.5425590700760917,-0.7377033033211617,0.0301149590018838,-0.4213981670411631,0.1054964341808804,0.0836564499085596,-1.3474034888456103,15.759957216537025,51.41215807783634,0.8561475932550131,5.2155971951263815,-0.6935491663259556,5330.4892578125,11.803555555555556,0.09,178.08425533671337,-10.78021639198797,106.17684489533934,1813.0,1435.0,1200.0,1528.0,1662.0,990.0,160.0,294.53,1649330839.7098334,1649330840.827592,ced6a8dd-53e0-486b-8f4c-d8957e0afe2e
0.1540019739612858,0.2083718308869478,0.3673132614968167,-0.3571010301452761,0.1601950095526972,0.509411209917411,0.2939303926589481,0.263438567915408,-4.038388857496781,15.882223733715929,57.03657846252634,2.0808815066401194,0.3721118569582832,-1.0441895717091407,5332.704210069444,11.877,0.1166666666666666,178.78047928611002,-10.699345624122682,105.67797394964089,1470.0,1435.0,1200.0,1528.0,1403.0,990.0,160.0,294.53,1649330842.970136,1649330844.107376,edbb4c26-6ae3-497b-9848-9336095ccf51
0.1511092608720922,0.2074645708762091,0.3654067007334405,-0.35335365102059,0.1572234043465221,0.5089378568861339,0.2906432189205933,0.2632413375091174,-3.972733627479636,16.042336415550423,57.311025563405664,2.0724079199243386,0.3652324380409254,-1.0325726874893126,5351.568956163194,11.92377777777778,0.1111111111111111,178.7062973604444,-10.690109311090056,105.70179840837578,1470.0,1435.0,1200.0,1528.0,1403.0,990.0,160.0,294.53,1649330844.21634,1649330845.3362198,edbb4c26-6ae3-497b-9848-9336095ccf51
0.1528711861203853,0.203506307742524,0.3614802979844163,-0.3633795338367391,0.1547676324539202,0.5198335735652685,0.2903003412703655,0.267277481337464,-4.130678462804607,15.925608662240611,56.98216507893148,2.1184067467070493,0.3554026297241431,-1.0244807677513532,5364.221354166667,11.933222222222222,0.1255555555555555,178.64818762880577,-10.693504104835029,105.72235727777756,1470.0,1435.0,1200.0,1528.0,1403.0,990.0,160.0,294.53,1649330845.444492,1649330846.4882195,edbb4c26-6ae3-497b-9848-9336095ccf51
-0.0258458928473287,-0.1475502314831774,0.3164015132061339,-0.261168127572067,0.1849014089173294,0.7646010822850507,0.3332186945719602,0.3132063802145769,-4.983139826164774,16.986291408647006,56.24302833501636,2.4421079716361125,-0.964112548612677,-1.108838941369527,5373.93505859375,11.900333333333332,0.12,178.88006496202863,-10.649416656698673,105.64207675209302,1385.0,1435.0,1200.0,1528.0,1331.0,990.0,160.0,294.53,1649330847.4760818,1649330848.5286744,34a5e130-ef24-4806-ae21-5878d0469c98
-0.0290015800372805,-0.1537432679379128,0.3174008140874835,-0.2537259642985368,0.1878072707449491,0.7634308484152872,0.3365453145023038,0.3137717741019674,-4.79785668157475,16.89337190115343,56.20506436738548,2.422211601884304,-0.9891696306120612,-1.1194653257464422,5376.182454427083,11.883333333333333,0.1166666666666666,178.88935705493947,-10.664600736406042,105.42842995267482,1385.0,1435.0,1200.0,1528.0,1331.0,990.0,160.0,294.53,1649330848.642834,1649330849.632899,34a5e130-ef24-4806-ae21-5878d0469c98
-0.0331697168608532,-0.1586345832541787,0.3126804324536074,-0.2489529875037071,0.1848882602855567,0.7638910527618533,0.3290242607650477,0.3154153610787608,-5.114606793015285,17.060947343448436,56.16654734429002,2.413189326822988,-1.0058158427758743,-1.0992413618715349,5387.784619140625,11.879,0.11,178.88915806876162,-10.658277204976836,105.27224879805658,1385.0,1435.0,1200.0,1528.0,1331.0,990.0,160.0,294.53,1649330849.7408135,1649330850.8714125,34a5e130-ef24-4806-ae21-5878d0469c98
-0.2359226272801534,-0.534739956042403,0.2797166529707897,-0.1491543727176464,0.226635369070119,1.0344649022743595,0.3943338301757976,0.3754786012458223,-5.499302836416652,18.365445712698545,55.418515300633246,2.8027770844590507,-2.421442037700549,-1.2506492805045466,5401.02490234375,11.860222222222225,0.1,178.9852286257694,-10.603209762917366,104.96651033038614,1297.0,1435.0,1200.0,1528.0,1253.0,990.0,160.0,294.53,1649330852.799104,1649330853.9447503,0291fd0c-a3ad-44f7-bb40-f483402d7751
-0.2417606490821893,-0.5419059976170613,0.2653845748698056,-0.1535591863307833,0.2172603490470462,1.0481658429121363,0.3832363314147604,0.3710080448599235,-5.910225467942711,18.190763106957807,55.69766505458424,2.841467123972276,-2.448253951373994,-1.2032711631414967,5403.673448350694,11.832666666666666,0.0977777777777777,179.00351835454686,-10.605511157212709,104.72940790244822,1297.0,1435.0,1200.0,1528.0,1253.0,990.0,160.0,294.53,1649330854.0579593,1649330855.1663673,0291fd0c-a3ad-44f7-bb40-f483402d7751
-0.2522270125104228,-0.5346347664844706,0.2765741147610488,-0.1663528688138009,0.227292803852167,1.0514793141848175,0.3986728996376676,0.3798176705316951,-5.7729841941971465,17.875899116969872,55.61237816576626,2.8762977310450406,-2.418918684784476,-1.2532941318601978,5399.134982638889,11.82311111111111,0.0955555555555555,179.0047887697325,-10.592406300925177,104.49284733618444,1297.0,1435.0,1200.0,1528.0,1253.0,990.0,160.0,294.53,1649330855.274852,1649330856.5237873,0291fd0c-a3ad-44f7-bb40-f483402d7751
0.4093101941304347,0.6265397850228717,0.4356601790810879,-0.4823029419125301,0.1337924280229035,0.212934428203144,0.2515389982958884,0.2161032636171692,-3.120142194399932,15.149751689808204,56.851082454197176,1.6960636575739123,1.955376294282133,-0.9908546302851448,5408.224826388889,11.859111111111112,0.1044444444444444,178.2085845112652,-10.68437840292146,104.30461187611836,1553.0,1435.0,1200.0,1528.0,1471.0,990.0,160.0,294.53,1649330857.3061323,1649330858.4401264,51c5413a-0090-438e-9647-48206331b2f9
0.4035905117139813,0.6260532833106827,0.4236422716937376,-0.4765306630925591,0.1241412851807715,0.2088846299043069,0.2369965409250446,0.2229931800592183,-3.3383609276649664,15.138361610764866,56.86226079984405,1.673160391634141,1.9535242867395768,-0.9407627531956486,5385.189615885417,11.938333333333333,0.12,178.15515270029812,-10.6416623998522,104.67299737009309,1553.0,1435.0,1200.0,1528.0,1471.0,990.0,160.0,294.53,1649330858.5492566,1649330859.6681397,51c5413a-0090-438e-9647-48206331b2f9
0.3953331311450081,0.6294193492190461,0.4375930373319198,-0.4783057375929408,0.1335426029585638,0.2054396716812749,0.2505528462344801,0.2186409621289328,-2.9884346052154256,15.302464204733672,56.7111791356334,1.671357815325323,1.966117157825169,-0.9915294032978892,5387.44580078125,11.939,0.12,178.092783966257,-10.630825735551545,104.97467999554335,1553.0,1435.0,1200.0,1528.0,1471.0,990.0,160.0,294.53,1649330859.776231,1649330860.900792,51c5413a-0090-438e-9647-48206331b2f9
0.4219723875748723,0.6301030813607195,0.4059309793575554,-0.8888739357836586,0.0616060867524782,0.604239598332898,0.3316277023226308,0.3009123500226325,-2.9411192684457323,14.3010619520943,59.95373047795737,3.485981487633065,1.988133576214392,-0.964323470635916,5389.707411024306,11.938666666666668,0.1177777777777777,177.98001450742044,-10.480039254067233,105.6615685941644,1553.0,1522.0,1200.0,1528.0,1471.0,990.0,160.0,294.53,1649330862.8339412,1649330863.9798057,a27632be-6c62-4ffa-8bcf-8292a07eca4e
0.430055800793751,0.6179936390133671,0.4112809810357953,-0.8839922264326733,0.0681379542332931,0.6093711294104168,0.3396332347145933,0.3062431344000589,-2.825001186461546,14.405017690967131,59.685244719884246,3.487471965088225,1.9440134138839948,-0.9936735010178483,5398.379014756944,11.921666666666663,0.11,177.99300249158222,-10.491766594008409,105.78635463248072,1553.0,1522.0,1200.0,1528.0,1471.0,990.0,160.0,294.53,1649330864.0915508,1649330865.20802,a27632be-6c62-4ffa-8bcf-8292a07eca4e
0.4209204919593798,0.6261321754812721,0.4088894358109744,-0.8878351877804227,0.064814368693562,0.6068298912536303,0.3346650510108256,0.3134430565414566,-2.993682804356615,14.393471473013612,59.927100003235374,3.490188261749056,1.973909547343032,-0.9776341234256616,5393.849609375,11.925111111111113,0.1111111111111111,178.03062469135045,-10.473050357862755,105.8558002014119,1553.0,1522.0,1200.0,1528.0,1471.0,990.0,160.0,294.53,1649330865.3160555,1649330866.4375432,a27632be-6c62-4ffa-8bcf-8292a07eca4e
0.4504130151533886,0.6277626136510454,0.4001061073743874,-1.3235570049292058,0.0055268968147983,1.0231438757923634,0.4377376728950923,0.4268899993478922,-2.917861481027644,14.082963145648568,62.66316900880091,5.406561602607641,2.0083229261814943,-1.0312469717537602,5393.097005208333,11.92,0.1133333333333333,178.05001332167436,-10.34065454017366,106.11385309626397,1553.0,1613.0,1200.0,1528.0,1471.0,990.0,160.0,294.53,1649330868.36623,1649330869.5036554,8a987b5d-0a81-4138-a70a-f0e279ddbc84
0.4581312991988412,0.6301293787508727,0.4008424343502392,-1.3208483687582149,0.005014097770718,1.0220788311379123,0.4401570329138916,0.4067067522374333,-2.584168176808359,14.017468890233603,63.20683258881226,5.397915416144011,2.0097315358943617,-1.0336597110552694,5394.2265625,11.905333333333331,0.11,178.0911948089101,-10.333576187463803,106.11027407713884,1553.0,1613.0,1200.0,1528.0,1471.0,990.0,160.0,294.53,1649330869.61215,1649330870.624272,8a987b5d-0a81-4138-a70a-f0e279ddbc84
0.4501138823475404,0.6283471827160358,0.4043262905637585,-1.328494343541086,0.0094682183113211,1.030012425338868,0.4461418805078434,0.4152561434680454,-2.741373461883191,13.923520117292997,63.12399487788855,5.432449044526989,2.006054713848596,-1.0534673124562206,5394.2265625,11.897111111111112,0.1011111111111111,178.12405105445748,-10.336061332820568,106.13928416727364,1553.0,1613.0,1200.0,1528.0,1471.0,990.0,160.0,294.53,1649330870.7392786,1649330871.68863,8a987b5d-0a81-4138-a70a-f0e279ddbc84
0.4744225324043894,0.6347840167669969,0.3826840861823875,-1.6868558963947005,-0.0602954784937257,1.3674819262604665,0.5023898066946355,0.4849414883769645,-3.1673717966958823,14.625868407242171,65.20910146622965,7.002860192640694,2.0574935080317047,-1.0090395891117456,5399.134982638889,11.89,0.1088888888888888,178.14569516502738,-10.227019165132342,106.1923911648002,1553.0,1710.0,1200.0,1528.0,1471.0,990.0,160.0,294.53,1649330873.8938131,1649330875.241595,3889b067-c11b-4527-bb00-786e29e7f101
0.4813387460205749,0.6420815424755899,0.3920985518936622,-1.6937458238648582,-0.0530505467658214,1.367113763222876,0.5135267513586557,0.4812467050529326,-2.9816283672189186,14.483947447521418,65.35106764032257,7.017218964559095,2.083733494927212,-1.046386074886355,5390.833984375,11.865666666666666,0.1,178.2104408048996,-10.217904372548698,106.05842383441956,1553.0,1710.0,1200.0,1528.0,1471.0,990.0,160.0,294.53,1649330875.3496778,1649330876.4737403,3889b067-c11b-4527-bb00-786e29e7f101
0.4853228006500481,0.6439881032442255,0.3809221610700796,-1.6945084486883917,-0.0638061804402547,1.3680210229409564,0.501587736339005,0.4738176923129554,-3.062830806207147,14.469620087362076,65.55725999077748,7.020318498608004,2.089016639164707,-0.9990393317230618,5380.68212890625,11.861555555555556,0.1,178.26243220486174,-10.2392766036441,105.9082788215348,1553.0,1710.0,1200.0,1528.0,1471.0,990.0,160.0,294.53,1649330876.5869892,1649330877.691076,3889b067-c11b-4527-bb00-786e29e7f101
0.4729630272646675,0.6441458875839902,0.3630530842158039,-1.8320045662675444,-0.1078411663602627,1.5013356628295862,0.5024949963108194,0.4908584011597223,-3.499274521040976,15.84140446491202,66.45204605335609,7.638178752489906,2.1005861768075493,-0.9167890065327612,5379.6693359375,11.846900000000002,0.097,178.28045844011925,-10.209677466611662,105.77229172832564,1553.0,1814.0,1200.0,1528.0,1471.0,990.0,160.0,294.53,1649330878.318951,1649330879.5370872,3e55df62-f862-4264-82af-2b246b5db030
0.4782619513815199,0.6333376603202098,0.3593451520519325,-1.816607424384316,-0.1058294159274343,1.499021493609766,0.5029157544555567,0.480102768389238,-3.3230376008648426,15.550069560423552,66.62295655045504,7.596246358243442,2.0551508944987606,-0.9157627564809904,5370.5673828125,11.843777777777778,0.1,178.3249694169024,-10.171641983480388,105.63431613937604,1553.0,1814.0,1200.0,1528.0,1471.0,990.0,160.0,294.53,1649330879.6450202,1649330880.7216218,3e55df62-f862-4264-82af-2b246b5db030
0.4643111858802071,0.6388469635108283,0.3588192041866658,-1.7988303565514148,-0.1072626240073859,1.4750645654378818,0.4958286077994668,0.4818778423423436,-3.1051222653886303,15.646176683934655,66.28035846614743,7.502977230190186,2.0750877681688973,-0.9025509215293164,5359.375,11.835666666666665,0.1,178.3468032549492,-10.18152934635015,105.49600784432292,1553.0,1814.0,1200.0,1528.0,1471.0,990.0,160.0,294.53,1649330880.8349867,1649330881.995703,3e55df62-f862-4264-82af-2b246b5db030
0.3616067278504764,0.6132727517966219,0.4589465182223868,-0.0784932749622685,0.1940791985498365,-0.1652483782461467,0.16162821728059,0.1310049044626239,-3.3027995065293787,16.80044987760747,53.82847517027549,-0.053130863193381,1.8854855604098848,-0.9798284464990136,5357.1416015625,11.866222222222223,0.1066666666666666,178.36215144892412,-10.728295380919782,105.35271806463516,1553.0,1349.0,1200.0,1528.0,1471.0,990.0,160.0,294.53,1649330882.9046,1649330884.0443065,e0aa197e-40be-47f8-9fe6-475c14998b16
0.3369397754479171,0.528397925570252,0.4768944869201892,-0.1184258697845875,0.216537170500021,-0.0571134952803059,0.2095815102081538,0.1865712930247258,-3.559495130330226,17.63419982304034,52.39705340149232,0.2860041348050981,1.5877253446444513,-1.1163179342618768,5356.398491753473,11.947111111111113,0.1211111111111111,178.29204638728314,-10.769704446264106,105.66601277058436,1553.0,1349.0,1200.0,1528.0,1471.0,990.0,160.0,294.53,1649330884.152518,1649330885.2725897,e0aa197e-40be-47f8-9fe6-475c14998b16
0.3603444530939212,0.5275038143442246,0.486111722143578,-0.1330603687826798,0.2235454252496026,-0.0453980061327536,0.2225724215369355,0.2070569609999353,-3.5176844041530746,17.645134383898295,52.10756004971751,0.3458485903073469,1.5890280592325772,-1.157543884073315,5340.824327256944,11.947888888888889,0.12,178.29541291163403,-10.67780633798383,105.92319140122268,1553.0,1349.0,1200.0,1528.0,1471.0,990.0,160.0,294.53,1649330885.380968,1649330886.5012934,e0aa197e-40be-47f8-9fe6-475c14998b16
0.325842276559275,0.5260969039392304,0.5176948877330176,0.2192326529755557,0.2834114361753354,-0.380794985512914,0.1538047429384046,0.1387231887987655,-3.417461148273208,19.139153748192083,50.18857400981245,-1.1912987320791604,1.5587025895409852,-1.1845553081882438,5343.7822265625,11.944333333333333,0.12,178.28422050831412,-10.79051631725635,106.23863609894065,1553.0,1264.0,1200.0,1528.0,1471.0,990.0,160.0,294.53,1649330887.4126112,1649330888.5554664,e733f0df-d8ea-465d-a997-ee8ff0c701e2
0.3204776088651134,0.5212844815749272,0.5072285265178368,0.2247156592177566,0.2766661555194929,-0.3815444611307125,0.1399591662580526,0.1177247215517102,-3.9078445386563634,19.21778958285533,50.03761925896918,-1.2056220006350096,1.5441245476761716,-1.142510385530442,5341.192545572917,11.936666666666667,0.12,178.25948308096017,-10.833016410456846,106.44966390026708,1553.0,1264.0,1200.0,1528.0,1471.0,990.0,160.0,294.53,1649330888.6692104,1649330889.7738664,e733f0df-d8ea-465d-a997-ee8ff0c701e2
0.3295765060369936,0.5302781889640076,0.5115018524068027,0.2233744915424483,0.2794010841732447,-0.3906433626232453,0.1415107124841382,0.1177510187717623,-3.911644448387445,19.16772441733664,49.844472089750695,-1.2231949079913804,1.5800303552773929,-1.1534475887505224,5337.126953125,11.938,0.12,178.2881319299788,-10.835023632299183,106.60446558434596,1553.0,1264.0,1200.0,1528.0,1471.0,990.0,160.0,294.53,1649330889.882104,1649330891.0064228,e733f0df-d8ea-465d-a997-ee8ff0c701e2
0.3123780124771335,0.5400213719655049,0.5412179031325364,0.5908147804568479,0.3367425447079075,-0.7539025085759364,0.0582268706377078,0.036794496256466,-4.152008955251031,20.90530912499265,47.436709060910935,-2.8558484653361944,1.5962879424235894,-1.1533530241087322,5340.45263671875,11.9335,0.117,178.31332394436754,-10.988205309343432,106.96817520670592,1553.0,1178.0,1200.0,1528.0,1471.0,990.0,160.0,294.53,1649330892.9425538,1649330894.0798955,c686963a-f360-43fc-8d3a-af956e4d32e8
0.337347384912757,0.57330071901161,0.519614597162728,0.59692892382168,0.3133773129845129,-0.7863009075757386,0.0280374641843794,0.0127455305361971,-4.0282606868897295,20.47816130641841,48.07155879038467,-2.946187827711765,1.7124736500980924,-1.043860104615864,5333.80615234375,11.927,0.11,178.28303205539854,-10.981987105123055,107.09248943073254,1553.0,1178.0,1200.0,1528.0,1471.0,990.0,160.0,294.53,1649330894.187547,1649330895.3049612,c686963a-f360-43fc-8d3a-af956e4d32e8
0.3336394529292113,0.6020306175949157,0.4990105920983473,0.6279072492857423,0.2965864291376663,-0.835805770245359,-0.0065567556331941,-0.0240971167119205,-4.189655806534561,20.02993065364808,48.88429454706403,-3.131260381101866,1.8090394152175344,-0.938684660595654,5333.443250868056,11.921111111111111,0.1122222222222222,178.2685930354931,-11.009312320398813,107.18379008718792,1553.0,1178.0,1200.0,1528.0,1471.0,990.0,160.0,294.53,1649330895.4142215,1649330896.5372708,c686963a-f360-43fc-8d3a-af956e4d32e8
0.323107347924647,0.6037136505483484,0.5141841860993719,0.8796521640696181,0.3268941718284931,-1.0799114612921372,-0.0714850200702894,-0.0925229347815074,-4.277020404318327,21.72029594083355,47.16138175733322,-4.236030752285786,1.8012356948910946,-0.9089780665183164,5347.115234375,11.919,0.11,178.27049182808238,-11.172988222620583,107.33520020288896,1553.0,1088.0,1200.0,1528.0,1471.0,990.0,160.0,294.53,1649330898.2828567,1649330899.404706,5abd28a2-9f35-442a-b776-85774052b328
0.3086832290935776,0.5805456499912635,0.5111468376682331,0.8765227748282843,0.3270256590483699,-1.0564541721108198,-0.0683293323059899,-0.0972564658712272,-4.42827005480442,21.90951964249513,46.85846787671123,-4.17528123034282,1.7182927849142422,-0.912951379587958,5345.633897569444,11.890666666666666,0.11,178.29459480675345,-11.154770210829392,107.37593848673856,1553.0,1088.0,1200.0,1528.0,1471.0,990.0,160.0,294.53,1649330899.5126922,1649330900.63399,5abd28a2-9f35-442a-b776-85774052b328
0.3234892079474403,0.5983791154189839,0.5216373048364505,0.8765151046308456,0.3351449783188082,-1.0725602396807976,-0.0617264951363356,-0.0866131430429062,-4.359864274264727,21.72757694958072,47.1193597514953,-4.212064156068063,1.7830455839381152,-0.945062621351926,5349.786474609375,11.8807,0.1,178.33442239871368,-11.149989353515224,107.32567891918596,1553.0,1088.0,1200.0,1528.0,1471.0,990.0,160.0,294.53,1649330900.7425616,1649330901.85793,5abd28a2-9f35-442a-b776-85774052b328
0.4117690001261361,0.616349546419763,0.428520437640299,-0.5069304571155472,0.1221163860856224,0.2454643009538871,0.2507632253010898,0.237128028146999,-3.0520974019241733,15.518752003302676,56.79695660538056,1.8268325258728928,1.9197406263417087,-0.9657438053438504,5349.724283854167,11.922222222222222,0.1111111111111111,178.34293129659972,-10.734634081060769,107.29267772184618,1553.0,1435.0,1200.0,1528.0,1471.0,990.0,160.0,294.53,1649330902.9605637,1649330904.1194563,16c5e8a1-783e-4eeb-92e3-6f19314668e9
0.4099150341116931,0.5991247560028582,0.4193426484272261,-0.5000668351296497,0.1190001451551597,0.2551943358720391,0.2433210636505571,0.2298567993989672,-3.4473220688098025,15.557666990953395,56.617160502050346,1.8327879368616784,1.8581017993559588,-0.9409629517503152,5364.592990451389,11.944333333333333,0.12,178.35278042938288,-10.718084627565569,107.38976127179885,1553.0,1435.0,1200.0,1528.0,1471.0,990.0,160.0,294.53,1649330904.228051,1649330905.3440423,16c5e8a1-783e-4eeb-92e3-6f19314668e9
0.407732350715533,0.6089336824551524,0.4260879290460256,-0.5049844490583858,0.1233260661115728,0.2511313889127795,0.248672582719789,0.2252284584507898,-3.410470109210695,15.513561861121472,56.80891865277383,1.8348434941548573,1.893963190926764,-0.9622109013482348,5379.556803385417,11.947,0.12,178.3642065769544,-10.757031978896531,107.42911758070636,1553.0,1435.0,1200.0,1528.0,1471.0,990.0,160.0,294.53,1649330905.451661,1649330906.5792887,16c5e8a1-783e-4eeb-92e3-6f19314668e9
0.4625887068276739,0.6325092925376407,0.6497866777177874,-0.5152798808496408,0.3257896816724706,0.228581375963846,0.481286151119562,0.4587755851458321,-1.597212277138369,15.520599462694374,57.2861801748056,1.8195687592386616,1.980771327770308,-1.869391159552076,5384.0615234375,11.942777777777778,0.1155555555555555,178.363930333748,-10.742099382959854,107.4348283777624,1553.0,1435.0,1200.0,1446.0,1471.0,990.0,160.0,294.53,1649330907.4866445,1649330908.620762,66951f78-dc97-4f40-86dd-4c020811abb7
0.4708986821255604,0.6383999078854864,0.6454081622968016,-0.5156480443468052,0.3206616905331439,0.2223883403808722,0.4742778966917739,0.4441805334344982,-1.649387162465153,15.516233961742124,57.13468254932016,1.806185294650096,2.0043443976742306,-1.845998823250231,5386.694281684027,11.937666666666669,0.11,178.38265415899272,-10.76834163379721,107.42613127021924,1553.0,1435.0,1200.0,1446.0,1471.0,990.0,160.0,294.53,1649330908.7297852,1649330909.8462155,66951f78-dc97-4f40-86dd-4c020811abb7
0.4647450928195047,0.6379660009493221,0.6426995311280556,-0.5162134383966009,0.3179399105069516,0.222204258608703,0.4721872541159082,0.4403674119112516,-1.5840327827014888,15.486573126884856,56.95570041955827,1.806719898720226,2.003738131025022,-1.835874889929451,5383.688205295139,11.93688888888889,0.1144444444444444,178.39889938447865,-10.722367156175162,107.43121976115089,1553.0,1435.0,1200.0,1446.0,1471.0,990.0,160.0,294.53,1649330909.955568,1649330911.0085857,66951f78-dc97-4f40-86dd-4c020811abb7
0.5510925732039533,0.6727442991340564,0.9268165336955708,-0.5126238435298953,0.5756937815149409,0.1662171122015714,0.7552655088495467,0.734543165532516,0.2995497877609818,15.78591637763945,56.48123999263155,1.6898160868759535,2.142626114302589,-2.97250600238967,5375.95771484375,11.9246,0.1139999999999999,178.3464544599556,-10.72629231410919,107.38309622142474,1553.0,1435.0,1200.0,1354.0,1471.0,990.0,160.0,294.53,1649330911.9866831,1649330913.0379894,a3607b65-de86-438a-a26b-4dd744613b21
0.5457936491253432,0.6947815118989115,0.9338116395035456,-0.5099941038145075,0.5781394388022114,0.1470989084738828,0.7574613408937872,0.7313085865465182,0.6082199876087279,15.669273697482776,57.21194485393319,1.6407698083334956,2.216735847118174,-2.984514681786502,5374.309624565973,11.917222222222222,0.11,178.36817264013246,-10.75808344857376,107.35756755460092,1553.0,1435.0,1200.0,1354.0,1471.0,990.0,160.0,294.53,1649330913.1512034,1649330914.3638833,a3607b65-de86-438a-a26b-4dd744613b21
0.5377860938639732,0.681935236914693,0.9181515435605384,-0.5129525609232123,0.5669498993337374,0.1592088573898217,0.7429057355465798,0.7174235646580663,0.1192406307291932,15.72899059258515,56.64273853633479,1.6739352626582342,2.176432737946404,-2.929953229218701,5375.433322482639,11.917444444444444,0.11,178.3622470715725,-10.727689581085896,107.32132732977476,1553.0,1435.0,1200.0,1354.0,1471.0,990.0,160.0,294.53,1649330914.4762075,1649330915.5839994,a3607b65-de86-438a-a26b-4dd744613b21
0.6370981870839396,0.7221307974410713,1.2133529077409546,-0.4750711576600426,0.8346573294796368,0.0707181331349667,1.0262864138266237,1.0107709531241436,2.242846849526174,16.34161829671933,56.829558455261534,1.409492614640791,2.324564956199453,-4.093753123498049,5370.5673828125,11.9134,0.106,178.34688339583545,-10.751349546098297,107.24601978893392,1553.0,1435.0,1200.0,1252.0,1471.0,990.0,160.0,294.53,1649330916.4946773,1649330917.6321278,a40a81e8-5a05-4b07-b22e-9f5a26670704
0.643054545901678,0.7228934217521236,1.2096318270234512,-0.4803700835359051,0.8298580558374534,0.0742025376556381,1.022775712392343,0.995571061675588,2.229597001203449,16.391246420225105,56.709168232057706,1.4293934606918168,2.329003411896051,-4.077299223761348,5360.119466145833,11.90711111111111,0.1088888888888888,178.32264867040442,-10.753438161028242,107.2378624181172,1553.0,1435.0,1200.0,1252.0,1471.0,990.0,160.0,294.53,1649330917.74094,1649330918.856501,a40a81e8-5a05-4b07-b22e-9f5a26670704
0.6472358309015855,0.7285868066774905,1.210065733781028,-0.4810012212363315,0.8334870956265573,0.0693506687137471,1.0219736417218586,0.9979641239359084,1.8692609350721403,16.11508800664607,56.7336646249848,1.417927794409039,2.3527908565661786,-4.081112326931464,5360.49169921875,11.906333333333334,0.11,178.31918196994567,-10.734235653359182,107.22679371711224,1553.0,1435.0,1200.0,1252.0,1471.0,990.0,160.0,294.53,1649330918.9658115,1649330920.01221,a40a81e8-5a05-4b07-b22e-9f5a26670704
0.3103399647462913,0.5771401379894724,0.1846384350265048,-0.4618435662592231,-0.0959415955740571,0.2549708079008219,-0.0083844241005047,-0.0361676199551719,-4.899205287017995,15.889277197958943,56.65776021093565,1.7358505218872995,1.765982879337797,0.0266789613922236,5367.205078125,11.918499999999998,0.1129999999999999,178.41461564975882,-10.719401165500834,107.3072483367296,1553.0,1435.0,1200.0,1604.0,1471.0,990.0,160.0,294.53,1649330921.819092,1649330922.9536524,ba50fbc4-9adf-4434-a91b-704addd4cb77
0.3121150386289317,0.5768377180036769,0.1882017315787766,-0.459752922716778,-0.0934433431681658,0.2533272210910475,-0.0039270159632236,-0.0317759551660726,-4.668064545128724,15.89705802854171,56.68519866178677,1.7277909159042335,1.762938099864108,0.0122515729344357,5376.29482421875,11.9491,0.11,178.43096302451832,-10.748764319497448,107.29535629436567,1553.0,1435.0,1200.0,1604.0,1471.0,990.0,160.0,294.53,1649330923.0631227,1649330924.1860445,ba50fbc4-9adf-4434-a91b-704addd4cb77
0.3462707976722896,0.5819738005553877,0.18283504084646,-0.4692518468186985,-0.0974471213338476,0.2538000683115847,-0.008200342242688,-0.0213743246937659,-4.859827239824142,15.628479858683905,56.19180670736621,1.7480578717750883,1.7887564481873282,0.0309229782620104,5373.93505859375,11.9484,0.118,178.40900806445023,-10.737936249851495,107.34214923735053,1553.0,1435.0,1200.0,1604.0,1471.0,990.0,160.0,294.53,1649330924.294461,1649330925.4142215,ba50fbc4-9adf-4434-a91b-704addd4cb77
0.2744834722832712,0.5669630480703907,0.0256444024277558,-0.4378603385923666,-0.2428256938569095,0.2491722332877077,-0.1811057074076124,-0.2066667755547471,-5.905303563087093,16.13898619456041,56.280851965285,1.661892048969596,1.7252460614483007,0.687026274924987,5380.68212890625,11.949666666666666,0.11,178.4003018499882,-10.750606383571103,107.37743353925686,1553.0,1435.0,1200.0,1676.0,1471.0,990.0,160.0,294.53,1649330926.3253963,1649330927.4638584,d7c24e15-3987-4c60-80c7-890f551d360d
0.2740364166212126,0.559731265821312,0.0330208209660764,-0.4247773826877249,-0.2335558620145437,0.2466213863158463,-0.1762538382225748,-0.2014598912622183,-6.065616836890211,16.33646094159253,56.668861310085965,1.6283055457182192,1.694678404781266,0.657031291408204,5380.68212890625,11.9474,0.11,178.40722401903903,-10.755269733172426,107.3724083414115,1553.0,1435.0,1200.0,1676.0,1471.0,990.0,160.0,294.53,1649330927.5719578,1649330928.6879113,d7c24e15-3987-4c60-80c7-890f551d360d
0.2711437036337586,0.5604018492579224,0.0309433270185255,-0.425027208142858,-0.2345814603965295,0.2439916472271358,-0.1791991463029711,-0.1985145828889601,-6.195720073918831,16.279742694353363,56.33796391896888,1.6223620408207884,1.7009451692554327,0.6649980800327638,5373.93505859375,11.949,0.11,178.38790414595277,-10.711220562554542,107.3940217920211,1553.0,1435.0,1200.0,1676.0,1471.0,990.0,160.0,294.53,1649330928.7968607,1649330929.9163537,d7c24e15-3987-4c60-80c7-890f551d360d
0.2098576335429596,0.5313169358998691,-0.1244479706755746,-0.3808607286843909,-0.3737078360699036,0.2397314698679861,-0.348409740012862,-0.361242869989837,-7.263710116050365,16.77030868287066,56.21283250056408,1.5081171230142618,1.58524656930888,1.302971791202517,5370.193793402777,11.949222222222222,0.11,178.40232813944195,-10.770880092574991,107.4914415390629,1553.0,1435.0,1200.0,1747.0,1471.0,990.0,160.0,294.53,1649330930.8310006,1649330931.9642496,b875a9f6-eb1b-4dda-af38-64aa9475b4f5
0.2012846839157271,0.5261100526573943,-0.1335468691560174,-0.3797693861566947,-0.3824122746919601,0.2437023759636017,-0.3575217880856264,-0.3704732562980989,-7.29412397231554,16.8956449535866,56.12351722461501,1.5149267358049414,1.566015388578171,1.339384821200652,5367.205078125,11.94477777777778,0.1122222222222222,178.40777104130058,-10.727243816378811,107.46214002752356,1553.0,1435.0,1200.0,1747.0,1471.0,990.0,160.0,294.53,1649330932.0734725,1649330933.196976,b875a9f6-eb1b-4dda-af38-64aa9475b4f5
0.2331834195861256,0.539574316371258,-0.1226597478589478,-0.3871852525770582,-0.3744047170513041,0.2370228385331298,-0.3480021304845452,-0.3739445130818237,-7.239008593450682,16.766235931145694,56.15844304941473,1.5163628500459645,1.6174159665315555,1.3017889988825004,5360.49169921875,11.9438,0.11,178.44798932008135,-10.728852952029026,107.41178028386312,1553.0,1435.0,1200.0,1747.0,1471.0,990.0,160.0,294.53,1649330933.3055751,1649330934.425917,b875a9f6-eb1b-4dda-af38-64aa9475b4f5
0.3871940888039863,0.6215827270238923,0.356833751405415,-0.5021180323339453,0.0872460443204147,0.2539452098915959,0.2270429787311497,0.1981947404469991,-1.9353798860999925,10.933778008095382,59.04201936262438,1.801990747583851,1.906351624424404,-0.7802551378389059,7907.22021484375,11.658,7.050000000000001,-179.61285622642168,-10.896584981062157,95.65710668454123,1553.0,1435.0,1350.0,1528.0,1471.0,990.0,160.0,294.53,1649330938.2929127,1649330939.3405163,8a7692f2-1dfe-44e2-b4dd-14b3d2402e66
0.3898895713115839,0.6180325793817669,0.3476954081590732,-0.4978315560886461,0.0791727448900363,0.2561673394429728,0.2169184830705397,0.1935926964099403,-2.0329707541497526,11.037017391842058,59.349461943638616,1.7975441704049333,1.88989695229529,-0.7424563021806369,7914.5205078125,11.657555555555556,7.066666666666666,-179.04223338458235,-10.718383258614274,90.37807776015542,1553.0,1435.0,1350.0,1528.0,1471.0,990.0,160.0,294.53,1649330939.4498825,1649330940.5697992,8a7692f2-1dfe-44e2-b4dd-14b3d2402e66
0.3853138253769663,0.6128388448688238,0.3519029906817891,-0.4943077045440773,0.0852211451519277,0.2576531420442501,0.2232298570062568,0.2000618551652195,-1.996752362591488,10.955338787386903,59.33982909800056,1.7926187695674742,1.8700778124340485,-0.7659681722551852,7914.5205078125,11.659,7.04,-178.77744212865906,-10.574945396630731,85.94040443920022,1553.0,1435.0,1350.0,1528.0,1471.0,990.0,160.0,294.53,1649330940.6788175,1649330941.798041,8a7692f2-1dfe-44e2-b4dd-14b3d2402e66
0.5878694731039741,0.9576633726066376,0.3921642955584499,-0.5905298910596543,0.0430927224943858,0.0033573622005901,0.165572826252107,0.1434830171264884,-1.04539074723267,10.849876896326824,58.55400978466735,1.439895127978204,3.178008210288772,-0.6408966183238652,7919.397135416667,11.645666666666664,7.083333333333333,-179.0689136213002,-10.31742734353617,77.34454306684746,1637.0,1435.0,1350.0,1528.0,1535.0,990.0,160.0,294.53,1649330943.93841,1649330945.073716,ff06df40-c90e-4bb8-94e9-18ddc550fe91
0.5812951256134998,0.9517859058177424,0.3940445589593667,-0.5728448892125985,0.0510608324368576,-0.007884773317032,0.1655070827709133,0.1496234578786535,-1.2996984263784304,10.67747345862933,58.46270449603402,1.3735476918250082,3.156512172634306,-0.6550108477039093,7914.5205078125,11.628888888888888,7.092222222222222,-179.19646209168084,-10.244501413767944,74.66040242534743,1637.0,1435.0,1350.0,1528.0,1535.0,990.0,160.0,294.53,1649330945.182071,1649330946.2999103,ff06df40-c90e-4bb8-94e9-18ddc550fe91
0.5833594707262888,0.9595041899432892,0.3902840321325624,-0.5938959584696866,0.0401737118753979,0.0030680908429566,0.1653492984189392,0.1420892553918933,-0.843538187158591,10.764942912521782,58.32064590675034,1.446245865679534,3.1858458257178013,-0.633999453554761,7921.83544921875,11.625111111111112,7.09111111111111,-179.38782426056696,-10.205127649932544,72.07627320822425,1637.0,1435.0,1350.0,1528.0,1535.0,990.0,160.0,294.53,1649330946.4082963,1649330947.532983,ff06df40-c90e-4bb8-94e9-18ddc550fe91
0.7704299998859742,1.286238153182047,0.4351382771305534,-0.7003276123818041,0.0082734573210029,-0.2338522131633318,0.1191523667557504,0.0884678614781966,-0.295045773649537,10.480832687432542,56.215489348526745,1.1542286077035058,4.4420154117315525,-0.5497841586891125,7921.83544921875,11.614,7.13,179.82176439237568,-10.199912515910022,68.05548579563013,1723.0,1435.0,1350.0,1528.0,1599.0,990.0,160.0,294.53,1649330949.2816222,1649330950.3995802,8fc206cc-4de5-40c0-93e6-3b07c0fac3d1
0.7659291004474481,1.28594685898751,0.4355023948527413,-0.6899340701973187,0.0086168405695994,-0.2391835045641268,0.1141745739033821,0.0836038555330566,-0.4992377998092832,10.75712502812916,56.75726915686612,1.1206364830530842,4.436314422942338,-0.5430970495593898,7914.5205078125,11.58,7.123333333333333,179.6209340634801,-10.20213602707608,66.39395121083561,1723.0,1435.0,1350.0,1528.0,1599.0,990.0,160.0,294.53,1649330950.5082252,1649330951.6283753,8fc206cc-4de5-40c0-93e6-3b07c0fac3d1
0.7547001149193027,1.2765192437415882,0.4397888694825934,-0.6894344189473292,0.0156382445757264,-0.2301109030867781,0.1247198280886013,0.1112292659185346,-0.3509378306410808,10.559119301555864,56.85788012609824,1.1388882614935414,4.399220654444596,-0.5743270710288013,7914.5205078125,11.588888888888889,7.126666666666667,179.37478315271173,-10.21403990843455,65.08800310442109,1723.0,1435.0,1350.0,1528.0,1599.0,990.0,160.0,294.53,1649330951.73726,1649330952.8547611,8fc206cc-4de5-40c0-93e6-3b07c0fac3d1
0.8835047316847141,1.5047543233181502,0.4789456834809448,-0.7334168255985538,-0.0016128452884368,-0.4374658769831813,0.0832356920560173,0.0564912439928631,-0.0231102035045261,11.072454674088364,53.399275130972704,0.7771138908797417,5.291480428777789,-0.5227695958570044,7919.397135416667,11.57,7.113333333333333,179.01993205803234,-10.205259415665283,63.209917371991295,1813.0,1435.0,1350.0,1528.0,1662.0,990.0,160.0,294.53,1649330953.975619,1649330955.116984,e367a0e9-bec5-41e6-8cdc-5da68e3f9418
0.8920908296188004,1.4894492395865069,0.4795768208598642,-0.7251199949160265,-0.0005478008659961,-0.4338499846610776,0.0828543798978824,0.0629604025635304,-0.0495926254403644,11.469494547733484,52.86420078355367,0.7690884936431889,5.238032072723343,-0.5272529441582483,7914.5205078125,11.52422222222222,7.092222222222222,178.78280003260798,-10.206845442508802,62.15359143026336,1813.0,1435.0,1350.0,1528.0,1662.0,990.0,160.0,294.53,1649330955.228812,1649330956.3499918,e367a0e9-bec5-41e6-8cdc-5da68e3f9418
0.8887247636628719,1.498390353797899,0.4828508459289546,-0.7431994608746321,0.0005435409512568,-0.4220424534518087,0.0873775313427592,0.0686537880509211,-0.2847383036097289,11.4131858274489,53.453051834884256,0.8361696857437748,5.270444588464674,-0.5380297087233977,7914.5205078125,11.5446,7.116000000000001,178.5947263721342,-10.20471943229315,61.43635083700862,1813.0,1435.0,1350.0,1528.0,1662.0,990.0,160.0,294.53,1649330956.4628556,1649330957.569116,e367a0e9-bec5-41e6-8cdc-5da68e3f9418
0.1835339447409247,0.2141441083367887,0.3117600237995747,-0.3514602380747905,0.1339896586901426,0.5190229060546541,0.2829775295529613,0.2523147716342458,-2.5970527192884254,11.89967058979383,59.72793816049787,2.0617435702144946,0.3554227081740335,-0.9099909096334946,7916.146050347223,11.577444444444446,7.138888888888889,179.00885349119855,-10.124142191807444,59.852725336218754,1470.0,1435.0,1350.0,1528.0,1403.0,990.0,160.0,294.53,1649330959.2983265,1649330960.3485324,28ad9c81-70f5-47e1-856b-a3ee5ce311d2
0.1606157679664041,0.2032306909329846,0.3079206047302026,-0.343965479987589,0.1348706212866497,0.522310079813009,0.2792695974301335,0.2655423593387783,-2.924904145156173,11.90864522170288,59.628850411997625,2.051911439806314,0.3165234099892261,-0.902305478597928,7921.83544921875,11.635888888888887,7.155555555555556,178.85577529152022,-10.081076520998174,59.33065451463948,1470.0,1435.0,1350.0,1528.0,1403.0,990.0,160.0,294.53,1649330960.458225,1649330961.664794,28ad9c81-70f5-47e1-856b-a3ee5ce311d2
0.1540545687555696,0.2112250979039415,0.3107607229172401,-0.3578242082311965,0.1324512612208713,0.528108654320462,0.2836349643065258,0.250710630583441,-2.65525727905404,11.973110693223436,59.77796676138068,2.0969317781696604,0.3451646357347078,-0.9078787311177496,7929.16455078125,11.638444444444444,7.157777777777778,178.72075459418758,-10.07397369344379,58.8238119792697,1470.0,1435.0,1350.0,1528.0,1403.0,990.0,160.0,294.53,1649330961.774153,1649330962.8946922,28ad9c81-70f5-47e1-856b-a3ee5ce311d2
-0.0396125782235589,-0.1618297166299993,0.2544185628896503,-0.2568948005236752,0.157631013924709,0.7979593215020803,0.321358571459051,0.2955871284226741,-3.9247001118553135,13.05986041495944,59.31102391429935,2.479335535642254,-1.0568743595428334,-0.9653313456350971,7929.16455078125,11.625888888888888,7.163333333333333,178.82391928923127,-10.04952379808113,57.91727208604013,1385.0,1435.0,1350.0,1528.0,1331.0,990.0,160.0,294.53,1649330964.828594,1649330965.9646003,25baec11-cdcb-4f9e-99c8-12d5542041f5
-0.034050679500915,-0.1540719852375535,0.2681458010282817,-0.2527135145885547,0.1673216027263205,0.7861254959767748,0.3328505312009544,0.3043441595612021,-3.545312144741103,13.140166130804722,59.35075681628473,2.444724581959716,-1.0304587267970478,-1.0123403724570823,7929.16455078125,11.579,7.13,178.72617472874896,-10.0490993777152,57.49291243290723,1385.0,1435.0,1350.0,1528.0,1331.0,990.0,160.0,294.53,1649330966.0742471,1649330967.3801258,25baec11-cdcb-4f9e-99c8-12d5542041f5
-0.0328409994248855,-0.1612380252579026,0.2624655645569274,-0.253094826906728,0.1651652166319004,0.7873351759236538,0.3290637069529322,0.3053566091221725,-3.701319185160704,12.990218056409972,58.44138647094325,2.4468026908694047,-1.0484875198971906,-0.9984694578680718,7933.243055555556,11.57411111111111,7.124444444444445,178.66081133621174,-10.060068661522244,57.15825668978375,1385.0,1435.0,1350.0,1528.0,1331.0,990.0,160.0,294.53,1649330967.4888203,1649330968.6280696,25baec11-cdcb-4f9e-99c8-12d5542041f5
-0.2667168777040424,-0.5756718594378638,0.2127240490872032,-0.1424353884819698,0.2019552673115336,1.086770412974633,0.3829602089213619,0.3685360901478329,-4.890255803114068,14.458584952504577,57.772929490518365,2.876605218254499,-2.605279842995972,-1.1090659718584626,7936.505859375,11.584,7.12,178.71105268992656,-10.082455460300608,56.76504649381565,1297.0,1435.0,1350.0,1528.0,1253.0,990.0,160.0,294.53,1649330969.2802527,1649330970.2663352,f5eeabc3-f8c6-480f-8928-7ba8e9c2eaba
-0.2537654101907656,-0.5646269512625183,0.2137496474141649,-0.1561494796056685,0.1983262273526253,1.0821157747411971,0.385576799278363,0.3604233452145517,-4.487833380631837,14.306606457981973,56.86868916789871,2.896183266459292,-2.556937771741383,-1.1089619229809988,7929.16455078125,11.513444444444444,7.101111111111111,178.66427803667045,-10.119707501761331,56.48720692039301,1297.0,1435.0,1350.0,1528.0,1253.0,990.0,160.0,294.53,1649330970.3751705,1649330971.4958515,f5eeabc3-f8c6-480f-8928-7ba8e9c2eaba
-0.2618255620941638,-0.5622470365253543,0.2225855709145937,-0.1558602080969634,0.2070701100360467,1.0854292460131585,0.3926902433844038,0.3697194727416403,-4.736949907322378,14.401843960449014,57.770137675942905,2.90406616127773,-2.5537118242636505,-1.1416951528677606,7929.16455078125,11.518,7.086666666666667,178.64586536448795,-10.169614650525494,56.26686046430896,1297.0,1435.0,1350.0,1528.0,1253.0,990.0,160.0,294.53,1649330971.6045997,1649330972.720709,f5eeabc3-f8c6-480f-8928-7ba8e9c2eaba
0.4016708022149766,0.6268027589260773,0.352218559402385,-0.4635923423865031,0.0872723418141203,0.2114617744176627,0.2097524439780623,0.178024641174067,-2.093709173531064,10.931553230445834,58.68970300816939,1.619239863654672,1.9251371512168367,-0.749019204202453,7930.795952690973,11.55577777777778,7.128888888888889,177.71573020331562,-10.321448143091324,55.893722676491706,1553.0,1435.0,1350.0,1528.0,1471.0,990.0,160.0,294.53,1649330974.8637936,1649330975.997186,7a43bb02-68f6-4100-baed-6a6c1d764598
0.3930321094611807,0.6136146178715574,0.3520476263150718,-0.4618567141893074,0.0879429252318011,0.2175627692067263,0.2084770204586608,0.1902792252457442,-2.3282228521650823,11.27067863109917,57.93928905944039,1.6310363849739828,1.883765556119543,-0.7508257565128064,7930.795952690973,11.643555555555556,7.17,177.70711050458306,-10.34538406671894,55.901975062828896,1553.0,1435.0,1350.0,1528.0,1471.0,990.0,160.0,294.53,1649330976.105647,1649330977.2311635,7a43bb02-68f6-4100-baed-6a6c1d764598
0.3986334536439549,0.5999005290154422,0.342764647446907,-0.4557557176320935,0.0845637103733956,0.2234928309378762,0.2016396987291517,0.179957499410938,-2.5975355024046576,11.166543718531983,57.61153311163278,1.6292593073867971,1.835798985560753,-0.7260483132173043,7897.204528808594,11.64275,7.1762500000000005,177.6990184379639,-10.394486676117117,55.9151519681258,1553.0,1435.0,1350.0,1528.0,1471.0,990.0,160.0,294.53,1649330977.34449,1649330978.4661195,7a43bb02-68f6-4100-baed-6a6c1d764598
0.417962035553969,0.5987039977720024,0.3286166512691933,-0.9217325452179272,0.0224624179795958,0.6727968939124089,0.3178873158959129,0.2871851121040396,-2.164376543977825,10.027587821036256,60.721016645449296,3.6824940458507847,1.8571416969419272,-0.7867651586964665,7888.623697916667,11.636888888888889,7.199999999999999,177.68953870457835,-10.26763573880547,55.97150183512018,1553.0,1522.0,1350.0,1528.0,1471.0,990.0,160.0,294.53,1649330979.3690536,1649330980.5061655,2c43a2de-a89d-481c-9622-cc946a05a953
0.4300193890270352,0.6018991306513827,0.3239883104877245,-0.9239415274465996,0.0186098499093152,0.6703117905644966,0.3140478968179026,0.2947193145719742,-2.145304719060768,9.842397812020948,60.49328563843394,3.680407800731992,1.8709841965118017,-0.7696069779207617,7892.65771484375,11.6285,7.231999999999999,177.67464388338232,-10.280230161775403,56.01305086242426,1553.0,1522.0,1350.0,1528.0,1471.0,990.0,160.0,294.53,1649330980.614587,1649330981.7357051,2c43a2de-a89d-481c-9622-cc946a05a953
0.4184353885710948,0.608631262476669,0.3328505311447821,-0.9278466926480938,0.0247502910846311,0.669628058426295,0.3212928279783192,0.300609929992554,-2.1455390933557705,9.929362765767856,60.88333496234294,3.688760297995211,1.8938225473093373,-0.7990712792998369,7892.65771484375,11.629,7.206666666666667,177.65908972125845,-10.278438347024014,56.03100834044411,1553.0,1522.0,1350.0,1528.0,1471.0,990.0,160.0,294.53,1649330981.8447063,1649330982.9608428,2c43a2de-a89d-481c-9622-cc946a05a953
0.4487036848001169,0.6143377960927872,0.3440137734752088,-1.4137440001064443,-0.0265164765869182,1.1406406191750007,0.4553437758206927,0.4409196571433203,-1.871018477057472,10.030722203940329,65.58365081413999,5.845368915849007,1.9321575153699888,-0.932110945252499,7914.5205078125,11.631999999999998,7.17,177.69834054168874,-10.16231061698181,56.12452159873561,1553.0,1613.0,1350.0,1528.0,1471.0,990.0,160.0,294.53,1649330984.7802918,1649330985.830904,0865f980-8368-4b39-9c4d-f23431aafa67
0.4471389900803802,0.6176381185340516,0.3296422494901088,-1.4115613136199086,-0.0382188164729575,1.1348946391250547,0.4421030398342955,0.431794462700047,-1.816072645613493,9.699784156713983,65.40972419012336,5.824623824685652,1.944502919393078,-0.8773825620681188,7921.83544921875,11.600333333333332,7.153333333333332,177.7007174475199,-10.17813417315022,56.16405701038136,1553.0,1613.0,1350.0,1528.0,1471.0,990.0,160.0,294.53,1649330985.9394066,1649330987.056919,0865f980-8368-4b39-9c4d-f23431aafa67
0.4391840295287874,0.613312197887354,0.3347965380576664,-1.4061177478760294,-0.0326306204544371,1.135105018279595,0.4472178822351489,0.4318602062411362,-1.7879114312329536,9.78767438801948,65.58788440210051,5.813699083626728,1.926157764728437,-0.8995430013422815,7921.83544921875,11.606555555555556,7.16,177.69929373253294,-10.194694725702826,56.19402105027021,1553.0,1613.0,1350.0,1528.0,1471.0,990.0,160.0,294.53,1649330987.165081,1649330988.2885296,0865f980-8368-4b39-9c4d-f23431aafa67
0.4603534286627003,0.6122997483750778,0.3386754031906211,-1.818237858881112,-0.0837133073836417,1.532603264723498,0.550934788861698,0.5186152965015515,-1.6870641255094612,10.303256945409704,68.41169848799188,7.640684615560656,1.9476147480297727,-0.98281898400145,7921.83544921875,11.5886,7.144000000000001,177.77650249447473,-10.043437492402724,56.33881741790693,1553.0,1710.0,1350.0,1528.0,1471.0,990.0,160.0,294.53,1649330990.4278767,1649330991.5652568,bd2cbe7e-ef52-4f96-8564-8b611613b24d
0.466704248402659,0.6118658414400518,0.3359010284524729,-1.8072718297476609,-0.0869741842913995,1.5239382730958884,0.5449521326249581,0.5238747744974307,-1.5686799576084636,10.456498872738512,68.5187114892324,7.597430911349665,1.9426775510576049,-0.965863269516853,7921.83544921875,11.53,7.110000000000001,177.80573843619803,-10.05910389730198,56.348572294079545,1553.0,1710.0,1350.0,1528.0,1471.0,990.0,160.0,294.53,1649330991.6738698,1649330992.7166922,bd2cbe7e-ef52-4f96-8564-8b611613b24d
0.4839290389696297,0.6207806566307305,0.341278844882691,-1.8277969753500685,-0.0822800993214113,1.5337866475107813,0.5551949660496738,0.5381148112137848,-1.6435842102737603,10.09177683070621,68.53855926483335,7.663676675255749,1.9793295959184751,-0.9931469239841484,7926.9658203125,11.5424,7.116,177.83575848363807,-10.07756248353394,56.36805267661133,1553.0,1710.0,1350.0,1528.0,1471.0,990.0,160.0,294.53,1649330992.8258655,1649330994.0192444,bd2cbe7e-ef52-4f96-8564-8b611613b24d
0.4506102456030119,0.6008735324427465,0.3188077245461487,-1.945925057213009,-0.1270382639563256,1.674766989487604,0.5529728365613407,0.5323030879652877,-2.0459499006886066,11.723484615142349,70.23005586980642,8.256711308795026,1.9056691492685869,-0.9004001186822164,7926.9658203125,11.5414,7.121,177.94111961573688,-10.06838894183706,56.48574708129441,1553.0,1814.0,1350.0,1528.0,1471.0,990.0,160.0,294.53,1649330995.7789886,1649330996.8903017,2952909c-93c9-462d-8967-2bdc1b8bbb19
0.4622994355447971,0.6031877027583986,0.3173876653535144,-1.9590869252179413,-0.1295365166254741,1.680131658468725,0.5541956651855086,0.535590261744654,-2.0284045672060693,11.601413811328348,69.59307569985057,8.29748374781846,1.9213984658202816,-0.89747418265833,7921.83544921875,11.5301,7.103,177.96601975337506,-10.047479769108264,56.51385194369118,1553.0,1814.0,1350.0,1528.0,1471.0,990.0,160.0,294.53,1649330996.9987323,1649330998.1157236,2952909c-93c9-462d-8967-2bdc1b8bbb19
0.4593935739160378,0.6102222545671914,0.3033974534867546,-1.922165324759025,-0.1359530807465276,1.6381741623604518,0.5314484227978982,0.5121066924469768,-2.104671139032459,11.190769194062574,69.30562141141465,8.116410522558574,1.9454300998475489,-0.83639247951978,7921.83544921875,11.5231,7.1190000000000015,178.00478927314188,-10.061061685650198,56.53703599630042,1553.0,1814.0,1350.0,1528.0,1471.0,990.0,160.0,294.53,1649330998.224393,1649330999.3484287,2952909c-93c9-462d-8967-2bdc1b8bbb19
0.3792128307988515,0.6227266634857891,0.3616724712848528,-0.0396257271873782,0.139446367509007,-0.1942018097078414,0.101551825791144,0.0826702981244899,-2.3381142265424155,12.097810007611098,55.561881038237445,-0.241124807852913,1.8877207028176848,-0.6807511281733092,7914.5205078125,11.613,7.166666666666667,178.04409837785312,-10.708592846485232,56.77867727466927,1553.0,1349.0,1350.0,1528.0,1471.0,990.0,160.0,294.53,1649331001.488246,1649331002.6252773,43ddf429-110f-4d6f-8427-4b5042198425
0.3565181827821396,0.6175066315835473,0.3641049799103296,-0.0367067164469234,0.1429044745315103,-0.186628159946406,0.1033663458480901,0.0732163853849979,-2.574382951485358,12.274917067165031,56.30858089044514,-0.2293950952563724,1.862994498428784,-0.691151254265364,7921.83544921875,11.654777777777776,7.196666666666668,178.03112860752918,-10.729482600606763,56.98263089729034,1553.0,1349.0,1350.0,1528.0,1471.0,990.0,160.0,294.53,1649331002.733205,1649331003.8560994,43ddf429-110f-4d6f-8427-4b5042198425
0.3882854305157019,0.6163889925105174,0.3623036086202456,-0.0421108307389622,0.1402615865829166,-0.1835513646990152,0.1040369292886952,0.0757803814398657,-2.408278027904196,12.221345534700468,55.8785349474557,-0.2107205349349674,1.861988765179628,-0.6867018581049866,7925.092827690973,11.658111111111111,7.180000000000001,178.04914816437952,-10.726687250825195,57.169997784967,1553.0,1349.0,1350.0,1528.0,1471.0,990.0,160.0,294.53,1649331003.9854548,1649331005.0792425,43ddf429-110f-4d6f-8427-4b5042198425
0.3489576829677078,0.6253958485640072,0.3752550734746653,0.3689305510336975,0.1858086689551089,-0.5892807643049224,-0.0076875429229368,-0.0326174717340391,-2.5820158741373347,14.016317871031784,52.863592318601576,-2.0376813908224967,1.873964489078823,-0.6077376801771794,7929.16455078125,11.647,7.177777777777777,178.07699256889592,-10.88784603861034,57.546615174711405,1553.0,1264.0,1350.0,1528.0,1471.0,990.0,160.0,294.53,1649331006.8126163,1649331007.946882,d533fdf7-e725-4c55-9206-c026ccd915f9
0.3494573333881227,0.6260927293978553,0.37480801785171,0.3670239901908385,0.1845726915743348,-0.5873479053643816,-0.0095020630108464,-0.0269372348870754,-2.695798567390674,14.133596686540686,52.97627489929157,-2.028321382554683,1.8765932254447129,-0.6027625280791576,7925.5,11.642500000000002,7.17,178.08686219224663,-10.890022023043418,57.68304099373829,1553.0,1264.0,1350.0,1528.0,1471.0,990.0,160.0,294.53,1649331008.0549414,1649331009.1799097,d533fdf7-e725-4c55-9206-c026ccd915f9
0.3504566342432971,0.6236733695233808,0.3823816663024923,0.368141629324726,0.1930536003384783,-0.5863354554225372,0.0011878272433082,-0.021651458754145,-2.5353332849940524,13.981845942486588,53.00078584953384,-2.0291115679779983,1.8665061312355704,-0.6399315490708323,7923.464138454861,11.641,7.17,178.13062321425886,-10.894040735596327,57.78021675124473,1553.0,1264.0,1350.0,1528.0,1471.0,990.0,160.0,294.53,1649331009.2882588,1649331010.407626,d533fdf7-e725-4c55-9206-c026ccd915f9
0.3218845192942245,0.6346262324313056,0.4009476239268842,0.795987017269676,0.2513943628740517,-1.009053089283961,-0.1125089536738108,-0.1275510635740756,-3.5299942877787123,15.628629518488149,50.0617594094713,-3.933256902732877,1.8892024959168896,-0.583261243016571,7921.83544921875,11.6335,7.167,178.19434887921506,-11.033094678606592,58.103002005045695,1553.0,1178.0,1350.0,1528.0,1471.0,990.0,160.0,294.53,1649331012.3452156,1649331013.585467,37823d7b-ed29-4620-955b-7feb6b7f620f
0.330667847781277,0.6389915991598276,0.3994486727065502,0.7863884699027465,0.2439127551075778,-1.0033071052733613,-0.1142840276961158,-0.1391087679925406,-3.2468591649127028,15.914380539493054,50.21250522268328,-3.896706745199188,1.9033268653972468,-0.5677630718501145,7921.83544921875,11.619,7.17,178.21031786149456,-11.03125496715365,58.2179779944391,1553.0,1178.0,1350.0,1528.0,1471.0,990.0,160.0,294.53,1649331013.6941288,1649331014.8075788,37823d7b-ed29-4620-955b-7feb6b7f620f
0.3352698911563417,0.6387023278697971,0.401315787396632,0.7736736818311498,0.244031093328671,-0.9954704773247662,-0.1094058611294424,-0.1247109444770699,-3.1790733568339165,15.89034059160977,49.64806281100038,-3.850537596694081,1.908448209724165,-0.5783001172937853,7920.209906684027,11.612444444444444,7.17,178.23297132224175,-11.052721587668833,58.29403063302738,1553.0,1178.0,1350.0,1528.0,1471.0,990.0,160.0,294.53,1649331014.9188328,1649331015.8562737,37823d7b-ed29-4620-955b-7feb6b7f620f
0.3131406368500625,0.649168689062327,0.4102174540627331,1.0856790713572375,0.2743125391888144,-1.302242945879143,-0.2041685224933903,-0.2267974313314286,-3.82489189069476,17.8655763675027,47.98888691550432,-5.230756262139909,1.92916288191736,-0.4963569623455933,7921.83544921875,11.605666666666668,7.156666666666666,178.24622644269107,-11.163774582021452,58.4530594452926,1553.0,1088.0,1350.0,1528.0,1471.0,990.0,160.0,294.53,1649331016.8703191,1649331017.9228709,6c635ad5-4a3c-4815-9159-7dda3fcd8c23
0.3150866437881396,0.6509043167976896,0.4055891133542422,1.0693878375389172,0.2668309314277055,-1.2861752242678863,-0.2045366860205019,-0.2298742264095601,-3.709184119072899,17.876122446456108,48.361988827583325,-5.157943744451118,1.9332593634947064,-0.4786636334855542,7921.83544921875,11.579666666666668,7.146666666666666,178.25962272038316,-11.155874614472689,58.527355966354285,1553.0,1088.0,1350.0,1528.0,1471.0,990.0,160.0,294.53,1649331018.0311177,1649331019.107909,6c635ad5-4a3c-4815-9159-7dda3fcd8c23
0.3118257673259966,0.6508780194077569,0.4125973678696505,1.0700452722913474,0.2747595947700768,-1.2879108537652464,-0.1967921032299198,-0.2133331651310143,-3.7278799999949626,17.771374347217904,48.25587839411679,-5.163698696572304,1.9345950764545143,-0.5101595785340534,7914.5205078125,11.583333333333334,7.153333333333332,178.29030393013488,-11.15690028121305,58.57985735377444,1553.0,1088.0,1350.0,1528.0,1471.0,990.0,160.0,294.53,1649331019.215585,1649331020.5449295,6c635ad5-4a3c-4815-9159-7dda3fcd8c23
0.3845774984456585,0.6088679389868069,0.3450393717501866,-0.4995540356541803,0.0789360684261078,0.2660025637068482,0.215906033549434,0.1879650546630566,-2.2890063522960475,11.09464835526784,59.23221397080582,1.8236329423712203,1.85841997454748,-0.7385640557843355,7922.656087239583,11.628222222222222,7.166666666666667,178.31238820845124,-10.65863418671108,58.618639167881774,1553.0,1435.0,1350.0,1528.0,1471.0,990.0,160.0,294.53,1649331021.4640548,1649331022.5934622,2443dffb-f82a-4c85-b4b6-d34940b08849
0.3988175353702431,0.6176118211422392,0.3464331334091611,-0.5122162335899852,0.078962365729364,0.2689084254079164,0.2204291848251388,0.1962487334828555,-2.172477361695527,10.816302683085905,59.231207068295625,1.8570083280524683,1.892041633552432,-0.7457984309640822,7929.16455078125,11.649666666666668,7.172222222222222,178.3235457019154,-10.674342768028463,58.61147202271271,1553.0,1435.0,1350.0,1528.0,1471.0,990.0,160.0,294.53,1649331022.7011893,1649331023.82874,2443dffb-f82a-4c85-b4b6-d34940b08849
0.3750972891864931,0.6107876484527911,0.3459466317154135,-0.4966218756448476,0.0803166815066096,0.2630309585178391,0.2155510187462922,0.1904238612248698,-2.352931918482417,11.078674458017929,59.46352704398711,1.8102850908724668,1.863718612609706,-0.7406296379860566,7929.16455078125,11.654666666666666,7.176666666666667,178.33989110350916,-10.670777504145455,58.61534929343155,1553.0,1435.0,1350.0,1528.0,1471.0,990.0,160.0,294.53,1649331023.941249,1649331024.8743296,2443dffb-f82a-4c85-b4b6-d34940b08849
