raw_voltage_G-,raw_voltage_G0,raw_voltage_G1,raw_voltage_G2,raw_voltage_G3,raw_voltage_G4,raw_voltage_G5,raw_voltage_G6,load_x,load_y,load_z,load_l,load_m,load_n,rpm,voltage,current,roll,pitch,yaw,aileron1_pwm,elevator_pwm,throttle_pwm,rudder_pwm,aileron2_pwm,pbaro,pdiff,Tt,sample_start_time,sample_end_time,uid
-0.2998252993783114,-0.2252195873723457,-0.5539107608179212,-0.0829375345088727,-0.5351738633700576,0.7205529540612444,-0.6757597697109522,-0.6958904316609588,-23.272495132673463,17.603882062918913,55.34919766165133,1.892490859734948,-1.195156980543287,2.472691805236599,5119.31689453125,11.942333333333334,0.1366666666666666,-179.6589554498598,-11.158820702734689,110.98733422631088,1553.0,1435.0,1200.0,1528.0,1471.0,990.0,160.0,294.53,1649331459.3819382,1649331460.4328558,d452b6ec-6f4f-4a6e-a01f-d22caaa47126
-0.2947534419039919,-0.2337763552840484,-0.548245188793314,-0.0730208884870414,-0.526790050450328,0.7212108945471726,-0.671982046890036,-0.6932728285070964,-23.555846245108608,17.769625838147245,55.58472759965276,1.8728755722972443,-1.2281910424832705,2.4472888741956247,5141.8271484375,11.946666666666664,0.14,-179.52002029522285,-11.18000823413128,110.75042228475984,1553.0,1435.0,1200.0,1528.0,1471.0,990.0,160.0,294.53,1649331460.5414064,1649331461.793358,d452b6ec-6f4f-4a6e-a01f-d22caaa47126
-0.3072411652223709,-0.2251801413520099,-0.5435101391262086,-0.0764552267256393,-0.5244313755371077,0.7153723682461129,-0.667449790430783,-0.6992564986520172,-23.3455147019713,17.667574278415547,55.53834312119665,1.8671603931040768,-1.1963062975601997,2.432302494999216,5148.00390625,11.940666666666669,0.1333333333333333,-179.46841593931367,-11.111857175775324,110.51348074572236,1553.0,1435.0,1200.0,1528.0,1471.0,990.0,160.0,294.53,1649331461.9019806,1649331463.0284202,d452b6ec-6f4f-4a6e-a01f-d22caaa47126
-0.0974668441919978,0.1294007638757966,-0.5042875674501538,-0.3172341761735063,-0.5783147483871017,0.5932735867221243,-0.6844510612899433,-0.707421842554994,-22.45923605943124,16.6404449229761,56.14429800076056,2.131613227326631,0.1540583800157373,2.5191242499049125,5140.799641927083,11.930666666666667,0.1333333333333333,-179.52522945282985,-11.066160364315785,110.02539998109268,1637.0,1435.0,1200.0,1528.0,1535.0,990.0,160.0,294.53,1649331464.9569733,1649331466.0938137,425b9ca7-be2c-44d6-83a1-7602a79affe9
-0.0995574870515449,0.1233786610992435,-0.506299318716716,-0.3145255445192249,-0.5766185663416422,0.600531666341218,-0.6836621394243251,-0.7072640581328418,-22.618106828909028,16.496489843436017,56.68938980556728,2.140765543841507,0.1273016803147242,2.5184448285204115,5148.00390625,11.935,0.14,-179.55768195830632,-11.018514103030638,109.8939324999483,1637.0,1435.0,1200.0,1528.0,1535.0,990.0,160.0,294.53,1649331466.2025578,1649331467.3230426,425b9ca7-be2c-44d6-83a1-7602a79affe9
-0.0844759316298291,0.1473881799052339,-0.502157478493831,-0.3313295809834843,-0.5820095336829677,0.5914590668097156,-0.6855424037843014,-0.7136674757279552,-22.45046975433723,16.71158951914242,56.54951200413925,2.159978235185245,0.2197403680193549,2.52540831392304,5151.09765625,11.931,0.1366666666666666,-179.5994144141351,-11.010377355590643,109.71506578269371,1637.0,1435.0,1200.0,1528.0,1535.0,990.0,160.0,294.53,1649331467.4316113,1649331468.3798802,425b9ca7-be2c-44d6-83a1-7602a79affe9
0.0982909491648356,0.4401175868558371,-0.452889301385193,-0.5449564968193268,-0.6148023923803789,0.4997732164514978,-0.6806510865281196,-0.7079872366257804,-21.548090931635976,16.08559211792618,56.53636955750476,2.434593423994474,1.340798056779087,2.530367858304664,5144.91748046875,11.913,0.13,-179.7793079364949,-10.997384343650772,109.4105509054676,1723.0,1435.0,1200.0,1528.0,1599.0,990.0,160.0,294.53,1649331470.4868734,1649331471.619751,fec0579d-1784-4f8e-a1cb-5a0da1fc00f7
0.1031428180298955,0.437685078272047,-0.448405594739009,-0.5398942469888087,-0.608951220485017,0.4979323991845979,-0.6778635617472211,-0.7088550508225501,-21.73158747076645,16.149090259469723,56.626687726537455,2.419603891709294,1.3318349750519305,2.512040777551449,5139.430121527777,11.914222222222222,0.13,-179.8181474277552,-10.951198509619408,109.23626345059658,1723.0,1435.0,1200.0,1528.0,1599.0,990.0,160.0,294.53,1649331471.729169,1649331472.85872,fec0579d-1784-4f8e-a1cb-5a0da1fc00f7
0.0895602149583151,0.4396705312294848,-0.4504304944775241,-0.5335565734160523,-0.6096612503701327,0.4908978473291225,-0.6809009118604421,-0.703293150481628,-21.707520685665344,16.039089730653536,56.714508060491134,2.388696155971729,1.337422405943892,2.520574213449577,5140.114637586806,11.912777777777778,0.13,-179.87325035833925,-10.926238247343765,109.0851121231741,1723.0,1435.0,1200.0,1528.0,1599.0,990.0,160.0,294.53,1649331472.9714537,1649331474.084244,fec0579d-1784-4f8e-a1cb-5a0da1fc00f7
0.2333017578552327,0.7116512875509305,-0.411392006846388,-0.7482748585009936,-0.6525260149204393,0.4178568459703449,-0.6860289054338267,-0.7090259842678353,-21.05364089165659,15.99265665146469,56.23560611762352,2.710803970457233,2.386042561652008,2.5638728982030794,5154.1953125,11.865,0.12,179.8295917891645,-10.84860375591646,108.82971389517944,1813.0,1435.0,1200.0,1528.0,1662.0,990.0,160.0,294.53,1649331475.8100088,1649331476.945486,4a6ea89d-ffdc-42d3-bac5-ab193f9b2eab
0.2520517977116201,0.7071675825600872,-0.4151919808087024,-0.7436991103780869,-0.6532623420779099,0.4179620355274964,-0.6899077721360086,-0.7063042026294446,-21.248663992716303,15.933055603359827,56.197229308518125,2.700029975706795,2.3701411187100407,2.574909806659972,5154.50537109375,11.8668,0.111,179.79624134148517,-10.848546809214255,108.6289049675432,1813.0,1435.0,1200.0,1528.0,1662.0,990.0,160.0,294.53,1649331477.0536003,1649331478.381747,4a6ea89d-ffdc-42d3-bac5-ab193f9b2eab
0.2381799239136953,0.7026444314919119,-0.4141137875445544,-0.7437122591535191,-0.6529073272920901,0.4201578675542185,-0.6871728425742141,-0.7110640335490297,-21.065671367476057,15.995186280644711,55.89077437418173,2.705502785609762,2.3546685019812683,2.568185437486966,5138.74462890625,11.8684,0.12,179.7458591340915,-10.836260067293685,108.43076937594816,1813.0,1435.0,1200.0,1528.0,1662.0,990.0,160.0,294.53,1649331478.490978,1649331479.6071255,4a6ea89d-ffdc-42d3-bac5-ab193f9b2eab
-0.5455744849421719,-0.6349462016504819,-0.5817597087884343,0.1968141271503036,-0.4574650493199237,0.8572467876705373,-0.6435060068730377,-0.6737743160652098,-24.53413099855079,19.12269733664124,54.337360975026506,1.5764942966425266,-2.750166598277426,2.3088314643732053,5137.718424479167,11.929666666666666,0.13,-179.80070008897536,-10.89926867622354,108.21599863095656,1470.0,1435.0,1200.0,1528.0,1403.0,990.0,160.0,294.53,1649331480.5201752,1649331481.6573188,91ea73d4-7fe2-4224-b613-23ca407a7ae9
-0.4930717264952894,-0.5922655194857724,-0.5704123798608838,0.1404719655682499,-0.4675369525387112,0.8610467605402594,-0.6362742206561353,-0.6514741188281249,-24.047897657685223,19.514811654803687,53.51180369703768,1.715405008972081,-2.57854970106814,2.3004706611182515,5136.008083767361,11.937222222222225,0.14,-179.86044299473554,-10.85967871792816,108.16112868571425,1470.0,1435.0,1200.0,1528.0,1403.0,990.0,160.0,294.53,1649331481.7706792,1649331482.8877792,91ea73d4-7fe2-4224-b613-23ca407a7ae9
-0.5176597949467228,-0.6022979778046025,-0.5829167940426568,0.1565922667200482,-0.4735459084360368,0.859731891014781,-0.64805545706013,-0.6682781594699498,-24.21269266484564,19.36039245333288,53.94666186177532,1.6744269370913805,-2.621645363980561,2.341962815941944,5128.155544704861,11.929666666666668,0.13,-179.93559784290295,-10.890489511546612,108.04935871122623,1470.0,1435.0,1200.0,1528.0,1403.0,990.0,160.0,294.53,1649331482.9964924,1649331484.1160042,91ea73d4-7fe2-4224-b613-23ca407a7ae9
-0.7173622606167298,-0.9509095188336693,-0.5979589076664343,0.3621984187007445,-0.4060667844255655,0.99192887305342,-0.6077020945790652,-0.6434139670107184,-25.102468584480867,20.869192372658613,51.18196127844757,1.516058522211665,-3.924592029768573,2.167583170216208,5112.522732204861,11.836333333333336,0.11,-179.93207650093078,-10.883692145230109,107.84951572412064,1385.0,1435.0,1200.0,1528.0,1331.0,990.0,160.0,294.53,1649331485.847278,1649331486.9835784,ea584e10-4e07-4dce-8c14-82e3c38e5079
-0.7080661286232932,-0.9470832460175754,-0.5903458114789616,0.3748737609260081,-0.400018384071387,0.9748487179259562,-0.6062557395365991,-0.6275171872171229,-25.03648029549775,21.07201103966559,50.9783157877136,1.45080901184335,-3.909977860951002,2.1471580413811195,5111.170247395833,11.842666666666666,0.11,-179.9470573825104,-10.858090604082395,107.5659057792142,1385.0,1435.0,1200.0,1528.0,1331.0,990.0,160.0,294.53,1649331487.092331,1649331488.2123272,ea584e10-4e07-4dce-8c14-82e3c38e5079
-0.7186245359572436,-0.948214034595148,-0.6036522945333171,0.3799623061924259,-0.4107740183215631,0.9753615167529642,-0.616064667982197,-0.6416257424452779,-24.80815820875935,20.791120463045527,51.472687655477465,1.4381519335267663,-3.921691451251582,2.1947916423503258,5105.078125,11.849,0.11,-179.97191471762983,-10.859497243596463,107.31250955555626,1385.0,1435.0,1200.0,1528.0,1331.0,990.0,160.0,294.53,1649331488.3209145,1649331489.442008,ea584e10-4e07-4dce-8c14-82e3c38e5079
-0.8476790481480606,-1.1904789311137969,-0.5946322858938886,0.5350248678275239,-0.3472395059479574,1.033031694612945,-0.582548630028124,-0.6046515958711699,-25.726824400921227,22.40270265355144,46.37667572870543,1.227819117247845,-4.797156558873512,2.0117945597522224,5105.68662109375,11.7318,0.062,-179.97381259952718,-10.798165370216855,106.77583639665944,1297.0,1435.0,1200.0,1528.0,1253.0,990.0,160.0,294.53,1649331491.376628,1649331492.5133035,ee9fe588-4a0c-4738-ba78-4c3096c531bd
-0.8438001808584333,-1.1956463733046734,-0.6042045396514348,0.5472663028494987,-0.3549446430990144,1.0284953948579263,-0.5950398958847468,-0.6107394440875845,-25.81320134942673,22.55182687057012,46.528122388003176,1.1905043573994665,-4.819380005443618,2.052696238028558,5105.078125,11.74,0.07,-179.97197732769718,-10.807754955811554,106.31267990300302,1297.0,1435.0,1200.0,1528.0,1253.0,990.0,160.0,294.53,1649331492.621184,1649331493.656749,ee9fe588-4a0c-4738-ba78-4c3096c531bd
-0.8533855854829837,-1.2024837008974598,-0.5950530448471304,0.5666211818966618,-0.3414672276132932,1.0199224453346092,-0.5852835607022356,-0.6170245231820265,-25.718587144299143,22.39922401444015,46.96455022638666,1.1271411860583844,-4.851367277937067,2.0080608017022747,5100.017415364583,11.743333333333332,0.07,-59.98572202082734,-10.814686459454256,105.91902195018936,1297.0,1435.0,1200.0,1528.0,1253.0,990.0,160.0,294.53,1649331493.7674458,1649331494.9722164,ee9fe588-4a0c-4738-ba78-4c3096c531bd
-0.2875049692762766,-0.1970550770878649,-0.5343454956370002,-0.1067629740905434,-0.5249178779605752,0.715753680443881,-0.6604152357459506,-0.6922745391413939,-23.25253492661099,17.655692233407905,55.60463505615193,1.9368190466582555,-1.087753517990787,2.4137577970511,5116.048046875,11.9406,0.132,179.6406660246463,-10.736663444099666,105.56385074731084,1553.0,1435.0,1200.0,1528.0,1471.0,990.0,160.0,294.53,1649331495.882289,1649331497.0156896,ce0c63b9-a0b6-4f3e-a016-87d40941d60c
-0.2805230105707303,-0.1889686281002227,-0.5357918523735204,-0.1222389902883864,-0.5312161048540969,0.7208816714854787,-0.6640311283980463,-0.6875147089093678,-23.35249748318717,17.876786820455603,55.41259474424388,1.9845651410059904,-1.0531973717695933,2.429867276435392,5122.707085503473,11.942111111111112,0.1322222222222222,179.513715271709,-10.744256489508976,105.82307904182808,1553.0,1435.0,1200.0,1528.0,1471.0,990.0,160.0,294.53,1649331497.1238258,1649331498.2526371,ce0c63b9-a0b6-4f3e-a016-87d40941d60c
-0.2720552490467259,-0.1870620670141713,-0.5304403317508046,-0.1207400385987394,-0.526351086109184,0.7177785794367445,-0.6576671572202009,-0.6809009119099874,-23.16527769008808,17.785766369102788,55.47841239774788,1.9739786288940728,-1.0478018832037366,2.4073902451938234,5119.308756510417,11.946666666666667,0.1333333333333333,179.39709055054098,-10.71713229049504,105.99795616969745,1553.0,1435.0,1200.0,1528.0,1471.0,990.0,160.0,294.53,1649331498.361662,1649331499.4764454,ce0c63b9-a0b6-4f3e-a016-87d40941d60c
-0.2920412700680843,-0.2395253706099625,-0.5776047188679057,-0.4480374316951366,-0.5885838836821053,1.091188374873566,-0.5934752002732397,-0.6083595289590259,-23.575460603476973,16.540553265081694,58.49008327051367,3.5410534906523408,-1.231074132340555,2.460302212249,5128.49755859375,11.926,0.13,179.2679681010116,-10.619725824376626,106.22477764511468,1553.0,1522.0,1200.0,1528.0,1471.0,990.0,160.0,294.53,1649331500.3938007,1649331501.524318,f68a071e-1e6a-4988-b5a0-ce97fa28777d
-0.2910945639463267,-0.2321620997987049,-0.5854150468048452,-0.4591349336106517,-0.5998260225017882,1.0928056643759083,-0.6033367255276614,-0.6284375952463099,-23.62724984038664,16.667428286548247,58.223779019266594,3.5701046493646635,-1.1998572320299024,2.500631223794508,5141.142144097223,11.926222222222222,0.1222222222222222,179.22685188002794,-10.558634335710307,106.31234977719312,1553.0,1522.0,1200.0,1528.0,1471.0,990.0,160.0,294.53,1649331501.6320102,1649331502.7533443,f68a071e-1e6a-4988-b5a0-ce97fa28777d
-0.275171490478806,-0.2190922942391796,-0.5860330360671098,-0.4729410682352968,-0.6055983022801558,1.0897157210562245,-0.6075180127986755,-0.6401004926254485,-23.665995183144343,16.797595501510347,57.77815422453234,3.595045975208023,-1.1449508624774063,2.5160402883426243,5133.617024739583,11.930333333333332,0.13,179.15289307387522,-10.570716371169633,106.3760321842846,1553.0,1522.0,1200.0,1528.0,1471.0,990.0,160.0,294.53,1649331502.8624933,1649331503.989123,f68a071e-1e6a-4988-b5a0-ce97fa28777d
-0.2722524795258562,-0.2320832075840075,-0.6226258693953133,-0.8920559217541252,-0.681860767302998,1.50902765042094,-0.5217621897746518,-0.5402755595417076,-23.263487506499825,15.706539551050533,60.91139667579157,5.474363542316836,-1.1750296700282554,2.547596257866481,5131.568033854167,11.903,0.12,179.11759010278516,-10.442354918550288,106.46497490765653,1553.0,1613.0,1200.0,1528.0,1471.0,990.0,160.0,294.53,1649331504.902668,1649331506.035985,3c04900b-ccc8-43cb-8360-25ded1f95651
-0.2840468616873761,-0.2497813548107808,-0.6217712047930831,-0.8779736605959705,-0.6753258637177061,1.5134850589509916,-0.5172784841216056,-0.5304929270492033,-23.28280573772673,15.648006200505016,60.94465453186184,5.45226391257482,-1.2432471556332834,2.5291860571987006,5139.7734375,11.901222222222222,0.1277777777777777,179.11472597679318,-10.41709640468089,106.4219507871647,1553.0,1613.0,1200.0,1528.0,1471.0,990.0,160.0,294.53,1649331506.1442096,1649331507.4607933,3c04900b-ccc8-43cb-8360-25ded1f95651
-0.2716607881546597,-0.2322935867717301,-0.6270701300998389,-0.8846137563697808,-0.6852005371814525,1.502847763383982,-0.5304797775365718,-0.5641535993804438,-23.49312086767658,15.837625758317529,60.926752817539366,5.444223357292715,-1.1755253416535203,2.570462217057444,5149.03515625,11.907666666666666,0.12,179.11320512133796,-10.42178864977695,106.3682571522794,1553.0,1613.0,1200.0,1528.0,1471.0,990.0,160.0,294.53,1649331507.575997,1649331508.678084,3c04900b-ccc8-43cb-8360-25ded1f95651
-0.2797340887150591,-0.2663355655207903,-0.6625847713598461,-1.2378800212567835,-0.7482091152733923,1.883187021805134,-0.4531259779384738,-0.4676815880013511,-23.24389065321395,14.817749288554152,64.17910693295069,7.087893221378859,-1.2925670787836168,2.592520688077085,5135.973876953125,11.8595,0.11,179.12391030449717,-10.283840343638577,106.31875877136432,1553.0,1710.0,1200.0,1528.0,1471.0,990.0,160.0,294.53,1649331510.83262,1649331511.9701576,7d7ecf73-fba8-49ea-90bc-fe660c3aaa61
-0.2649812495895458,-0.2621937256880248,-0.6536962493239448,-1.2445595650316337,-0.7408326934062517,1.882884601717002,-0.445999383185263,-0.4696933396206382,-23.427929786835847,14.886356502306894,63.90063315283344,7.103041420940716,-1.2718749281192627,2.560103921234994,5141.486599392361,11.868444444444444,0.11,179.1139382283089,-10.273462269622444,106.19954009613149,1553.0,1710.0,1200.0,1528.0,1471.0,990.0,160.0,294.53,1649331512.0784009,1649331513.1951244,7d7ecf73-fba8-49ea-90bc-fe660c3aaa61
-0.2777091891998651,-0.2593930529667837,-0.6638864928345669,-1.252580276006713,-0.753994544192438,1.8874077542480896,-0.4546775246033367,-0.4833548380831117,-23.17506695638948,14.930446488932532,63.80931999891758,7.131195908111697,-1.2620088355605463,2.60457558963726,5151.7171875,11.866,0.11,179.10772548823988,-10.28256002467866,106.0699759610358,1553.0,1710.0,1200.0,1528.0,1471.0,990.0,160.0,294.53,1649331513.3037882,1649331514.427878,7d7ecf73-fba8-49ea-90bc-fe660c3aaa61
-0.2489924328822484,-0.2700172008976393,-0.63764168554698,-1.3941524258815678,-0.7505232867793197,2.0330296185872494,-0.3943381445112636,-0.4236334457900723,-23.05697034613454,15.639023590712442,64.82190199470203,7.78400468343044,-1.2925598374934688,2.4768557211180284,5155.228841145833,11.830666666666668,0.1,179.1414957648802,-10.201680965722629,105.73390788657392,1553.0,1814.0,1200.0,1528.0,1471.0,990.0,160.0,294.53,1649331516.362754,1649331517.507314,c4a4c79f-3540-4796-9c8b-a2b388dcf982
-0.2524373917751516,-0.2565923804787959,-0.6222708544585598,-1.391299153418047,-0.7390839162407624,2.0162255765938104,-0.3832800889560777,-0.4140348961856168,-22.832775774449,15.654453278789305,64.77692265955783,7.74078080764313,-1.2427733505583394,2.426314870269088,5151.786024305556,11.840666666666667,0.1,179.1557374682096,-10.215523767031732,105.54925448127254,1553.0,1814.0,1200.0,1528.0,1471.0,990.0,160.0,294.53,1649331517.6200364,1649331518.725849,c4a4c79f-3540-4796-9c8b-a2b388dcf982
-0.2618518594049605,-0.2685051006361016,-0.6351171350721028,-1.3975842373863463,-0.7489717401827625,2.034489122786315,-0.3920108249021276,-0.4098010146252993,-23.08380986267765,15.677136774635096,64.80913451123754,7.795388527318562,-1.2860022019159374,2.4680880656943267,5145.841015625,11.8339,0.1,179.14717802692368,-10.224810689868836,105.38083309642468,1553.0,1814.0,1200.0,1528.0,1471.0,990.0,160.0,294.53,1649331518.8410504,1649331519.9644134,c4a4c79f-3540-4796-9c8b-a2b388dcf982
-0.3224542091387717,-0.2140300456321111,-0.5039194041027044,0.3816453392751489,-0.4425807212500167,0.2691188042835531,-0.7617785757547986,-0.7766892040454688,-23.89426090463881,19.1292719538704,53.39640020980565,-0.1579501296624799,-1.1854861366172191,2.402517656802861,5164.893500434027,11.942333333333334,0.1244444444444444,179.11826097914366,-10.810650102245994,105.21958022278372,1553.0,1349.0,1200.0,1528.0,1471.0,990.0,160.0,294.53,1649331520.8687894,1649331522.207433,aa556ad9-b6fc-4e8c-9405-101a32550bb1
-0.3282659336959361,-0.2045761320743304,-0.5081138390759441,0.369969297911714,-0.4511668216679501,0.2692239939739511,-0.7673404763897882,-0.7886282251642346,-23.798580495366465,19.21402935710893,53.16078752116041,-0.1310118484493642,-1.147444082720688,2.4285900365312103,5160.40087890625,11.94,0.12,179.05903716776035,-10.842024576198448,105.47231391809215,1553.0,1349.0,1200.0,1528.0,1471.0,990.0,160.0,294.53,1649331522.3160074,1649331523.4461553,aa556ad9-b6fc-4e8c-9405-101a32550bb1
-0.310949098065004,-0.2088363101156674,-0.5027623186438078,0.3791207897196629,-0.443146115490417,0.2669755669667921,-0.7622387805215015,-0.7890358360644099,-23.89745441723324,19.176879910247543,53.48675431438129,-0.1566854953443727,-1.1663996873844529,2.403077713935979,5175.982421875,11.944666666666668,0.1266666666666666,178.9923244334071,-10.801855379915954,105.73339334565644,1553.0,1349.0,1200.0,1528.0,1471.0,990.0,160.0,294.53,1649331523.5584238,1649331524.670811,aa556ad9-b6fc-4e8c-9405-101a32550bb1
-0.3276084989110318,-0.1956218691164743,-0.4730331086519449,0.734175002055826,-0.3897229510766709,-0.0914052949625625,-0.8411572916981044,-0.8625107865119684,-23.676348760079257,20.834707877188848,50.65020479056284,-1.7508010635214994,-1.1350641479877368,2.402338006857887,5172.8583984375,11.936,0.13,178.89754417502456,-10.929771162691956,106.14182955110432,1553.0,1264.0,1200.0,1528.0,1471.0,990.0,160.0,294.53,1649331526.3077238,1649331527.3340414,a5696b23-26d9-46fd-8acd-7591104cadeb
-0.3142362726403542,-0.1985014338506701,-0.4620013500015389,0.721289281020706,-0.3756275462395587,-0.0723659824426787,-0.8239456402336262,-0.8445759555969261,-24.025170857715143,20.558581367487733,51.38238137908544,-1.6802901995250468,-1.147603472263539,2.3440369776284973,5171.818359375,11.928999999999998,0.12,178.9053396975973,-10.928879538414051,106.27026670498697,1553.0,1264.0,1200.0,1528.0,1471.0,990.0,160.0,294.53,1649331527.4419596,1649331528.560091,a5696b23-26d9-46fd-8acd-7591104cadeb
-0.3129871463531771,-0.1740711539823025,-0.4708504246992275,0.6763733389752323,-0.3983616463932481,-0.0613210773213368,-0.8340569925218254,-0.8537668981804555,-23.788850405797383,20.856281061355816,50.39843230468,-1.5526564892691423,-1.043952793026763,2.402677866881876,5158.330891927083,11.926,0.12,178.86671725457057,-10.947667396682249,106.40618063928105,1553.0,1264.0,1200.0,1528.0,1471.0,990.0,160.0,294.53,1649331528.6687496,1649331529.784958,a5696b23-26d9-46fd-8acd-7591104cadeb
-0.3180756925122778,-0.1522574651217877,-0.4288403307080827,1.0342282261138749,-0.3357869896282387,-0.4304576218336106,-0.909898711987404,-0.938668075769877,-23.94485920747291,22.90671231445908,47.65365017136439,-3.174220229427277,-0.9780686766437784,2.369122243227158,5143.543077256944,11.908,0.12,178.84752897646229,-11.05974681668514,106.6560942253722,1553.0,1178.0,1200.0,1528.0,1471.0,990.0,160.0,294.53,1649331530.9035618,1649331531.8667572,efcedfac-5d32-4a07-8bc8-d7ec05f53bf9
-0.3110148416060285,-0.151060933825723,-0.4361378589710154,1.0372129798842484,-0.3437813985563852,-0.4345994614230723,-0.920628055225233,-0.9467808287069188,-24.026317396136047,23.068555848735244,47.55138155810147,-3.189608163279883,-0.9729253783181464,2.405137871030588,5138.74462890625,11.917800000000002,0.12,178.8523365189461,-11.033048745584424,106.71111079200872,1553.0,1178.0,1200.0,1528.0,1471.0,990.0,160.0,294.53,1649331531.9738247,1649331533.1017745,efcedfac-5d32-4a07-8bc8-d7ec05f53bf9
-0.3112252207468318,-0.1606989288097478,-0.4435537252538635,1.0414731572042415,-0.3466346660366957,-0.4294188742073626,-0.9241387591598108,-0.9550776601937966,-24.07007859715308,22.867386577343773,47.463683809300285,-3.189315452205764,-1.0089847824922604,2.42293068655701,5133.957953559027,11.910999999999998,0.12,178.84434155484962,-11.03850644618622,106.77068962144683,1553.0,1178.0,1200.0,1528.0,1471.0,990.0,160.0,294.53,1649331533.2098396,1649331534.2938588,efcedfac-5d32-4a07-8bc8-d7ec05f53bf9
-0.3286209485894326,-0.1562809665202544,-0.3977173604993274,1.2925343573489263,-0.2884122301517926,-0.6755888395304859,-0.9599689765782684,-0.9719737444384312,-24.18080416593309,24.72316101053136,45.96684844443091,-4.294534633384461,-1.0063383889899935,2.3319498788764434,5141.8271484375,11.88,0.11,178.89335043887417,-11.182096279878795,106.91123670072793,1553.0,1088.0,1200.0,1528.0,1471.0,990.0,160.0,294.53,1649331536.330808,1649331537.4656994,2d86565a-bd0f-479d-a403-b2b5e7673d85
-0.3297780340473203,-0.1524415469102208,-0.3991768657700377,1.2746521297641644,-0.2923699879255549,-0.6625584748673375,-0.957326087053734,-0.9775882404268694,-24.11131343961084,24.64131387084334,46.01828055675546,-4.225487809641295,-0.990778138856068,2.336029548535806,5133.20546875,11.875,0.12,178.88809119321326,-11.183565965833454,106.90002153011076,1553.0,1088.0,1200.0,1528.0,1471.0,990.0,160.0,294.53,1649331537.5742931,1649331538.7002814,2d86565a-bd0f-479d-a403-b2b5e7673d85
-0.3244396625473682,-0.148036733325709,-0.3957845016934957,1.263344251044394,-0.2907526983378843,-0.6555107710403643,-0.9532894350235512,-0.9872130923716276,-24.231161069301265,24.65466332714628,46.18244121515326,-4.18391962201609,-0.973256583427741,2.324031320906966,5128.156412760417,11.885111111111112,0.1177777777777777,178.92017486847456,-11.184352329307147,106.89187766789036,1553.0,1088.0,1200.0,1528.0,1471.0,990.0,160.0,294.53,1649331538.8208864,1649331539.925892,2d86565a-bd0f-479d-a403-b2b5e7673d85
-0.2889250287361795,-0.2127546220718132,-0.5358970424270803,-0.0811098657860524,-0.5205656583540934,0.7040118957910727,-0.6656747159998507,-0.6838330721330831,-23.46327452499303,17.800628870607362,55.08024707359751,1.8532604358511933,-1.143751504866509,2.4148120442217103,5121.350260416667,11.95011111111111,0.13,178.96733353014395,-10.739864583008918,106.87446903351582,1553.0,1435.0,1200.0,1528.0,1471.0,990.0,160.0,294.53,1649331540.8350618,1649331541.9885795,c306eeb7-cc2c-4ccd-a5aa-b2c502d1a318
-0.2925282776390363,-0.2040021408808575,-0.5326563935839387,-0.0888878257608764,-0.5192421911199883,0.710123004638417,-0.6616400879182751,-0.6907315901796427,-23.480546794127942,17.737248843216484,56.17815344497967,1.8844456125139128,-1.119370848206469,2.405400909001607,5146.631293402777,11.944333333333333,0.13,178.97553431060743,-10.731169183013062,106.89983635609326,1553.0,1435.0,1200.0,1528.0,1471.0,990.0,160.0,294.53,1649331542.0970562,1649331543.201081,c306eeb7-cc2c-4ccd-a5aa-b2c502d1a318
-0.2815091628543485,-0.2176722349157076,-0.5373433991096269,-0.0539709554623236,-0.5135179549741994,0.6915732303442517,-0.66687124789803,-0.6944440740393684,-23.541546360243967,17.38827063421739,56.17417663689571,1.761419748307924,-1.1747770895939331,2.4101882854122807,5154.884331597223,11.94788888888889,0.13,178.9671346957481,-10.72811020690228,106.96026000404072,1553.0,1435.0,1200.0,1528.0,1471.0,990.0,160.0,294.53,1649331543.3093336,1649331544.4378457,c306eeb7-cc2c-4ccd-a5aa-b2c502d1a318
-0.2103221129532812,-0.1795015660220971,-0.3036647196798193,-0.1026079852608222,-0.310462596674846,0.6852750054462117,-0.4222528328135009,-0.4583854586646532,-21.68535572712989,17.550777450276108,56.05850650282545,1.8706088551497169,-1.022921355564144,1.4720657238302988,5185.3759765625,11.947555555555557,0.12,178.9906366177722,-10.697896485653777,106.97252550597024,1553.0,1435.0,1200.0,1446.0,1471.0,990.0,160.0,294.53,1649331545.3429365,1649331546.4856763,199ce515-9884-41e8-9a00-54273a684db2
-0.2120445923063965,-0.1729666633641168,-0.2993782438915031,-0.1130743479733481,-0.3118432098157524,0.6861165219215468,-0.4189393600766473,-0.4502069678735334,-21.4629680366005,17.75600652815358,55.74407704107622,1.8977451536915693,-0.9956348688965392,1.4637123213861734,5169.73828125,11.955,0.13,178.9815008603024,-10.736633049757858,107.00852591526558,1553.0,1435.0,1200.0,1446.0,1471.0,990.0,160.0,294.53,1649331546.5936117,1649331547.914551,199ce515-9884-41e8-9a00-54273a684db2
-0.2143719117585363,-0.1752808341454186,-0.3085165894720009,-0.1051325352185428,-0.3176549348289752,0.6816591143328629,-0.4305233642523625,-0.4522318665907843,-21.73345859629912,17.727714925865072,55.74969983518196,1.8690361410549736,-1.004007394650123,1.500197826563097,5169.73828125,11.950777777777777,0.13,178.95102303840596,-10.704349591463362,107.06794476649516,1553.0,1435.0,1200.0,1446.0,1471.0,990.0,160.0,294.53,1649331548.0225728,1649331549.0720634,199ce515-9884-41e8-9a00-54273a684db2
-0.160488549610431,-0.1521785729562815,-0.1147310836091799,-0.1116279911950054,-0.1407523552400586,0.655480062642143,-0.23001886242521,-0.2428388426219178,-20.246844325941662,17.586966516077442,55.90748961750004,1.8343501362895969,-0.9161979359477423,0.7136818163207903,5164.893500434027,11.951333333333334,0.1255555555555555,178.9704526498649,-10.741820768159958,107.07191462422274,1553.0,1435.0,1200.0,1354.0,1471.0,990.0,160.0,294.53,1649331550.8702004,1649331552.2159984,6679edb5-5ef8-48b2-a265-d5695d6631be
-0.1655770954256131,-0.151613178955846,-0.1135608496295671,-0.1091034416956346,-0.1394769316452373,0.651075249828489,-0.2295586579601696,-0.2615757369502631,-20.2078847499502,17.568579761580374,55.69695756489136,1.8186796016586624,-0.9127241220321232,0.7095226553997845,5155.574327256944,11.950111111111111,0.12,178.95948184823808,-10.74340546691114,107.084865421799,1553.0,1435.0,1200.0,1354.0,1471.0,990.0,160.0,294.53,1649331552.3246183,1649331553.4425745,6679edb5-5ef8-48b2-a265-d5695d6631be
-0.1548609071153236,-0.1441184215344141,-0.1139290132621738,-0.1212922838828892,-0.1438422992479372,0.6572814338531434,-0.2308209329475014,-0.2490055819977174,-20.238088697001416,17.713458268142773,56.01952815720728,1.8610990682698807,-0.8857795590403285,0.7189418697902396,5167.662272135417,11.948,0.1233333333333333,178.96568214218462,-10.755556373444591,107.0931291917848,1553.0,1435.0,1200.0,1354.0,1471.0,990.0,160.0,294.53,1649331553.550587,1649331554.668937,6679edb5-5ef8-48b2-a265-d5695d6631be
-0.1064605529352756,-0.1288264867947801,0.1084943372040273,-0.1078543157746533,0.062355562490583,0.6155080298969697,-0.007201041338794,-0.020034169064194,-18.83271060581292,17.893423311076212,55.678068872842594,1.7498370970360184,-0.8228970770024603,-0.1810861542726201,5161.782823350694,11.944555555555556,0.12,178.99705244213257,-10.73625976094697,107.04342135173518,1553.0,1435.0,1200.0,1252.0,1471.0,990.0,160.0,294.53,1649331555.991752,1649331557.0663657,1c30b8d6-0361-43b1-a0b6-4a3494749c58
-0.083174210680915,-0.1132452806839369,0.1119261466987625,-0.1147968277537105,0.0594628491555459,0.6048707356390438,-0.0073193797701499,-0.0390340361331696,-18.52943814361761,17.983923021673135,55.43758459306562,1.7424794223888795,-0.7633992975625354,-0.1799954034841296,5148.691840277777,11.947777777777778,0.13,178.99504133087697,-10.749469062210558,107.04474185497472,1553.0,1435.0,1200.0,1252.0,1471.0,990.0,160.0,294.53,1649331557.175028,1649331558.2192533,1c30b8d6-0361-43b1-a0b6-4a3494749c58
-0.0872240092822382,-0.1023581595524868,0.1033531970503883,-0.1240009155338861,0.0472477105150918,0.6006368558720078,-0.0185746637679911,-0.0437544178639443,-18.48515270467068,18.02973356005281,55.07040539474983,1.7535680658644184,-0.7190345976520893,-0.1349160078254464,5132.283203125,11.946000000000002,0.1299999999999999,178.9908377288978,-10.726075028716217,107.0400561175311,1553.0,1435.0,1200.0,1252.0,1471.0,990.0,160.0,294.53,1649331558.327575,1649331559.3819685,1c30b8d6-0361-43b1-a0b6-4a3494749c58
-0.3516342051881408,-0.2356222301338773,-0.7923179536023744,-0.0402629336193552,-0.7587129053417776,0.6978719609452917,-0.9452221991594852,-0.9624925160501224,-25.06012356453744,18.4936475473426,54.30635036401642,1.7382213893698533,-1.232630903462273,3.481821694874415,5112.182942708333,11.928666666666668,0.12,179.0939348809597,-10.72488114010842,107.082972700489,1553.0,1435.0,1200.0,1604.0,1471.0,990.0,160.0,294.53,1649331561.5211973,1649331562.663139,6c303bf9-c360-4bd3-a5f4-cb3c4a8463f5
-0.3773753113285182,-0.2546246270786859,-0.8030265600147951,-0.0020305692176098,-0.7562475234268491,0.6869610727073516,-0.9606466404112844,-0.9845292387419096,-25.79561043090573,18.418011890066108,55.01703107504993,1.626168765788004,-1.3103819689992195,3.513576866762944,5104.066460503473,11.924555555555555,0.12,179.07461455252744,-10.757605335331858,107.01332450261248,1553.0,1435.0,1200.0,1604.0,1471.0,990.0,160.0,294.53,1649331562.770962,1649331563.8880432,6c303bf9-c360-4bd3-a5f4-cb3c4a8463f5
-0.3970730735620906,-0.2508595481548867,-0.8092190937391629,-0.0266742614481915,-0.7693785258304077,0.7069966495852833,-0.9600084231483408,-0.9817563791069436,-25.2656813899764,18.48645359745086,55.13859588093169,1.727213006586154,-1.2984460140777714,3.539747642016415,5120.32666015625,11.928333333333336,0.1144444444444444,179.11574746952903,-10.73652234377506,106.940696824438,1553.0,1435.0,1200.0,1604.0,1471.0,990.0,160.0,294.53,1649331563.9964898,1649331565.1161788,6c303bf9-c360-4bd3-a5f4-cb3c4a8463f5
-0.4430146279888546,-0.2675715430448482,-1.0105914883763725,0.0400159271410106,-0.953013312135715,0.6709034818384704,-1.1918332489578831,-1.2157901934042226,-26.80269743823125,19.266641340213287,54.74111613460276,1.4899780158202085,-1.3676883752215538,4.391033662974762,5102.377170138889,11.89488888888889,0.1111111111111111,179.1218157131517,-10.73716390723835,106.83012137414488,1553.0,1435.0,1200.0,1668.0,1471.0,990.0,160.0,294.53,1649331566.288745,1649331567.369201,7714cb82-daf9-4ad8-99ed-e4bf6a5a0539
-0.4538097099509318,-0.265494048817494,-1.0145886945905334,0.0319557764272535,-0.9580098197015088,0.6746245625155955,-1.1954359943382016,-1.2231140228070123,-26.861536578852128,19.267684153597585,54.47556021892007,1.5162574356901468,-1.356387451211428,4.408181846792539,5106.09228515625,11.904666666666666,0.1166666666666666,179.1308998647478,-10.786755823799565,106.70791562951496,1553.0,1435.0,1200.0,1676.0,1471.0,990.0,160.0,294.53,1649331567.4771326,1649331568.8000486,7714cb82-daf9-4ad8-99ed-e4bf6a5a0539
-0.4510221858309275,-0.276420616945455,-1.0290654184575645,0.0369785785395594,-0.9678976450339508,0.6820930212593747,-1.206572948977041,-1.2284523981490134,-26.943999475552424,19.147554501679043,54.5760181943372,1.520167154405781,-1.3992136282459129,4.456094687750406,5105.078125,11.886777777777777,0.1111111111111111,179.13157833020534,-10.76305952597533,106.5805659935302,1553.0,1435.0,1200.0,1676.0,1471.0,990.0,160.0,294.53,1649331568.9105265,1649331570.0280974,7714cb82-daf9-4ad8-99ed-e4bf6a5a0539
-0.5151878393159292,-0.2919492292216543,-1.209715491040925,0.1222741704899562,-1.1323616499068936,0.6234103956118765,-1.4256041374240096,-1.4429078393613972,-28.44203418638268,20.239522721747807,53.69301053490023,1.193242293909584,-1.4609620148477285,5.234328020835508,5106.599365234375,11.843,0.1,179.135917777058,-10.76238200915516,106.32499473407655,1553.0,1435.0,1200.0,1747.0,1471.0,990.0,160.0,294.53,1649331571.9649408,1649331573.1039455,0b251066-acd0-4438-bfcb-8e7284668fc6
-0.5091657348756082,-0.2982343069220045,-1.229017792765009,0.1299398596533581,-1.1489684653335626,0.6271709223423769,-1.4434074911290895,-1.4726370742000936,-28.377560725322432,20.201880633517863,54.21256051064549,1.1833053967977194,-1.4917640749539591,5.308706482761652,5108.12060546875,11.852,0.1,179.1629380054146,-10.796740422001262,106.15079075929538,1553.0,1435.0,1200.0,1747.0,1471.0,990.0,160.0,294.53,1649331573.212279,1649331574.2654145,0b251066-acd0-4438-bfcb-8e7284668fc6
-0.516121397102878,-0.2973138980957092,-1.2062573805100223,0.1270602956827004,-1.1279568326727063,0.6255010380988785,-1.420607626661639,-1.439594365434256,-28.35358556113091,20.25300192087951,53.90128512740212,1.187483189913889,-1.483924554988722,5.216243663299663,5107.107584635417,11.838666666666668,0.0933333333333333,179.17951259780048,-10.806244061048906,105.98728513748418,1553.0,1435.0,1200.0,1747.0,1471.0,990.0,160.0,294.53,1649331574.3733892,1649331575.5617588,0b251066-acd0-4438-bfcb-8e7284668fc6
-0.276893969929766,-0.179882878157846,-0.5810496786938122,-0.0678954261463207,-0.5401177753674858,0.6889829374456178,-0.6909202223699321,-0.7216618861402033,-23.436678951119248,14.583020075965893,59.01746491349292,1.7667426070180126,-1.0600901639181124,2.5499205835955494,7859.689887152777,11.649222222222225,7.075555555555555,-179.14600976101167,-11.145420725356766,95.28260361779992,1553.0,1435.0,1350.0,1528.0,1471.0,990.0,160.0,294.53,1649331580.522163,1649331581.5023134,f592bbb8-b66c-48a2-8495-89bfc5e51706
-0.2875975157854818,-0.1753657948906048,-0.5773999028969514,-0.0698727878340923,-0.5389525980888276,0.6903367473060542,-0.6887845700403497,-0.7089627695820702,-23.41862292478957,14.723972380252707,59.60038800958092,1.775463376628276,-1.0479653617820457,2.5416239790378814,7869.310438368056,11.645888888888887,7.113333333333334,-178.7348521046345,-11.071476528219778,91.22614060935098,1553.0,1435.0,1350.0,1528.0,1471.0,990.0,160.0,294.53,1649331581.6101828,1649331582.726299,f592bbb8-b66c-48a2-8495-89bfc5e51706
-0.2895824634757474,-0.1647583361210614,-0.5766286811095055,-0.0858029393602961,-0.5400778232649859,0.6853680577581039,-0.6836009471007127,-0.7173197812749913,-23.060085294205823,14.264024720647056,58.31355323688918,1.7971972896149266,-0.997310965642658,2.534493306241233,7870.9150390625,11.644111111111112,7.151111111111111,-178.39693228999766,-11.11816191469794,87.29078444398547,1553.0,1435.0,1350.0,1528.0,1471.0,990.0,160.0,294.53,1649331582.8341217,1649331583.9590044,f592bbb8-b66c-48a2-8495-89bfc5e51706
-0.0782303005985385,0.1812723690458203,-0.5451668757941353,-0.2998647463994807,-0.5989845060585846,0.5574828389047519,-0.7152979148518986,-0.734547613903299,-22.42851420753799,13.66715611500018,60.31224643703709,1.99093951239174,0.3066700697490024,2.660468618637585,7870.9150390625,11.631555555555556,7.136666666666667,-178.37700938709864,-10.941623153585478,82.05838901561287,1637.0,1435.0,1350.0,1528.0,1535.0,990.0,160.0,294.53,1649331584.867036,1649331586.0098066,69d96a8f-3b0b-47fc-9898-78a8381f4441
-0.0630961505556617,0.1896217908631907,-0.537027830172057,-0.3097657162807201,-0.5911084340494551,0.5561942667928271,-0.706067526043117,-0.7301953938460212,-22.51818861181703,13.40952200590964,60.0665741555143,2.0089911622077428,0.3425281826905753,2.626124597345422,7873.326497395833,11.629666666666669,7.139999999999999,-178.51556356896188,-10.87008043198792,79.27481144453617,1637.0,1435.0,1350.0,1528.0,1535.0,990.0,160.0,294.53,1649331586.1401012,1649331587.234703,69d96a8f-3b0b-47fc-9898-78a8381f4441
-0.0585204041131184,0.1886487873305939,-0.5431025295425022,-0.3152355754613993,-0.599641940817669,0.5532884050597603,-0.712444646388861,-0.7309054241109919,-22.32440442481559,13.518600433149627,58.752426946231154,2.015108643045456,0.3494447276774549,2.653179254159852,7878.1494140625,11.616333333333332,7.133333333333332,-178.70678002714578,-10.867773156140792,76.8948403762542,1637.0,1435.0,1350.0,1528.0,1535.0,990.0,160.0,294.53,1649331587.3432748,1649331588.3107598,69d96a8f-3b0b-47fc-9898-78a8381f4441
0.1211959775872403,0.5137108332499702,-0.4999747943020727,-0.5270742657437333,-0.6423620692993138,0.442287121420128,-0.7229767565529079,-0.7362306481195969,-21.54848502215248,12.770367374265994,60.649112805509965,2.2414103887733874,1.5751262460979816,2.708573179472325,7885.396484375,11.594666666666669,7.16888888888889,-179.23100615286313,-11.041399885073368,71.8652249163303,1723.0,1435.0,1350.0,1528.0,1599.0,990.0,160.0,294.53,1649331590.3989832,1649331591.5357249,98fb27bc-b666-483f-a4a8-5286343d60f2
0.1318727187335809,0.5140658480290206,-0.5100992930088805,-0.5456796754887616,-0.6548401866098214,0.4548835714100397,-0.7327725390335948,-0.7485904275733058,-21.78955116995355,12.936351328233572,59.97671074264034,2.312053203746953,1.5857751567357097,2.752011492374243,7892.65771484375,11.603111111111112,7.187777777777778,-179.5310472561829,-11.06218490962762,70.0777287417723,1723.0,1435.0,1350.0,1528.0,1599.0,990.0,160.0,294.53,1649331591.6437778,1649331592.766044,98fb27bc-b666-483f-a4a8-5286343d60f2
0.1186319819183993,0.5105025516620485,-0.4930585781493519,-0.5280078233053411,-0.632513692295326,0.4494531602939119,-0.7143906540733631,-0.7382423995368899,-21.85189871790396,12.661889861223464,61.16103599404813,2.259173455723628,1.5612551172050169,2.6736649608587992,7885.396484375,11.599333333333334,7.156666666666666,-179.7587445136337,-11.05457465593615,68.70985662252264,1723.0,1435.0,1350.0,1528.0,1599.0,990.0,160.0,294.53,1649331592.874861,1649331593.9897106,98fb27bc-b666-483f-a4a8-5286343d60f2
0.2859754321113931,0.7977094962986438,-0.4505619817883267,-0.7569398554078383,-0.6789417557372297,0.3630530838596142,-0.722779526036453,-0.7519959417046703,-21.201078287611555,12.855368888045886,59.04212136322324,2.584824005218197,2.6835130919345147,2.721050046416883,7885.396484375,11.526777777777776,7.139999999999999,179.74943420688504,-11.05893468822008,66.73815555841875,1813.0,1435.0,1350.0,1528.0,1662.0,990.0,160.0,294.53,1649331594.9271345,1649331596.0421178,44bf7356-70b4-4ee3-93f8-7cc30d416bd3
0.294245961562413,0.7950140138148882,-0.4593847591836706,-0.7456319701605032,-0.6867915304650206,0.3572808069891215,-0.7325490114684082,-0.759004199741533,-21.02562392629219,12.883599087186749,59.2533626130331,2.5462149280159734,2.668338264093326,2.757859851137108,7885.396484375,11.5319,7.159000000000001,179.5355781001143,-11.036121903824109,65.68046168158203,1813.0,1435.0,1350.0,1528.0,1662.0,990.0,160.0,294.53,1649331596.1504414,1649331597.2733772,44bf7356-70b4-4ee3-93f8-7cc30d416bd3
0.282701406925162,0.7804452597327227,-0.4575965360393046,-0.7460264311230448,-0.678599889598724,0.3751498839026083,-0.7223324700875289,-0.7542706664251237,-21.1799506523734,12.562617727302294,59.76327455219303,2.585223753173401,2.610426015299982,2.728695535825907,7885.396484375,11.535199999999998,7.128,179.3346516932244,-11.174117423645114,64.70344615100348,1813.0,1435.0,1350.0,1528.0,1662.0,990.0,160.0,294.53,1649331597.3819096,1649331598.4394858,44bf7356-70b4-4ee3-93f8-7cc30d416bd3
-0.518632798741437,-0.5747120044429015,-0.62119266148127,0.1682551593339432,-0.485761050577254,0.8387728712463149,-0.6638601952448172,-0.7008869389258815,-23.956107545424608,16.005142345148446,56.16580425080945,1.577355254401945,-2.5435847815996766,2.441403646026677,7889.430501302083,11.63211111111111,7.188888888888887,179.6072023476087,-11.339638767089632,63.443129627741946,1470.0,1435.0,1350.0,1528.0,1403.0,990.0,160.0,294.53,1649331599.410602,1649331600.547633,e702fd5a-e998-4c20-8786-fd23d165eb69
-0.512097895001865,-0.5868877008956714,-0.6199698318702862,0.1841124865911139,-0.4794233768230887,0.8346441809939873,-0.6624532841635314,-0.6952724439199952,-24.064910632469235,15.96556960448915,55.97002610176207,1.5320198703078935,-2.588621314406286,2.427431315244425,7885.396484375,11.629555555555555,7.194444444444445,179.3599722669515,-11.410329517451974,62.84504259524997,1470.0,1435.0,1350.0,1528.0,1403.0,990.0,160.0,294.53,1649331600.6558216,1649331601.7747562,e702fd5a-e998-4c20-8786-fd23d165eb69
-0.4792271573632187,-0.5665648676119823,-0.6080717757328183,0.1585984535866479,-0.4772927825521523,0.8374757019777922,-0.6499706157083535,-0.6642445424962296,-23.67279787835454,16.0125812247033,55.95462524127262,1.5970350975729142,-2.511140719491103,2.39300690182693,7885.396484375,11.621666666666666,7.1933333333333325,179.18587378064748,-11.488470676106456,62.30154547024435,1470.0,1435.0,1350.0,1528.0,1403.0,990.0,160.0,294.53,1649331601.8837926,1649331603.0058346,e702fd5a-e998-4c20-8786-fd23d165eb69
-0.7007817479653461,-0.9308840428764124,-0.6319351498945119,0.4087710966193216,-0.4052910112718834,0.9433970391315802,-0.6252556095309569,-0.6522367438973287,-25.14407369276298,17.335801369046948,53.011958411145336,1.2771001635769863,-3.873356997301981,2.2446659240355213,7885.396484375,11.522333333333334,7.144444444444444,178.95540953767292,-11.630100245507242,61.26868729959465,1385.0,1435.0,1350.0,1528.0,1331.0,990.0,160.0,294.53,1649331604.942379,1649331606.0766962,3d1fb3bd-c0e1-4494-bd83-20e0ebdb7042
-0.7084211434558502,-0.9418369131168112,-0.6285690824164244,0.4316235294268767,-0.4030031373645133,0.9353500370480852,-0.6236120219984598,-0.6583903363585936,-24.64642197259434,17.702175142798787,53.34590064634124,1.210368067129351,-3.9235129175586807,2.23416504125653,7885.396484375,11.535222222222224,7.142222222222222,178.87122973288226,-11.716246860187674,60.84334941159064,1385.0,1435.0,1350.0,1528.0,1331.0,990.0,160.0,294.53,1649331606.1844597,1649331607.3059206,3d1fb3bd-c0e1-4494-bd83-20e0ebdb7042
-0.7076322213620103,-0.9312390576678004,-0.6245324314940615,0.407508822487108,-0.4001893160217584,0.9422399533805386,-0.6176688101257894,-0.6284901912126386,-24.94797295382844,17.442202005928117,52.6883606980168,1.2784684959828987,-3.872581922751392,2.2164075633737768,7885.396484375,11.532666666666666,7.187777777777778,178.7531949571055,-11.878249935245222,60.47520449205667,1385.0,1435.0,1350.0,1528.0,1331.0,990.0,160.0,294.53,1649331607.4133804,1649331608.5340457,3d1fb3bd-c0e1-4494-bd83-20e0ebdb7042
-0.936406498265244,-1.3455284947145023,-0.6495544095485556,0.7075883410057467,-0.3283711243778525,1.0582114469599402,-0.5967229301010428,-0.6212058106554376,-25.936469415800254,20.130434413689727,50.70853643002579,0.8779275635292655,-5.440362610993226,2.0707889435676763,7878.1494140625,11.483,7.16,178.7324812700826,-12.126414328862664,59.92288428046322,1297.0,1435.0,1350.0,1528.0,1253.0,990.0,160.0,294.53,1649331610.469674,1649331611.6075635,c318acd7-0c70-44bc-a14f-7cd228b0b28b
-0.933921393265431,-1.3484212108179792,-0.642730233747286,0.7180678508627159,-0.3212050836499662,1.0488758729785914,-0.5898330105547971,-0.6140660660045516,-25.64737354367328,20.102207354891103,50.4020840270421,0.8335594265696079,-5.451400239058516,2.0414400557400056,7870.9150390625,11.486,7.15,178.71408529391803,-12.068640319994463,59.65744719220847,1297.0,1435.0,1350.0,1528.0,1253.0,990.0,160.0,294.53,1649331611.7169898,1649331612.832812,c318acd7-0c70-44bc-a14f-7cd228b0b28b
-0.9277940974751137,-1.318415857636663,-0.646701141814773,0.6418185685406782,-0.3336437526391234,1.077500583800029,-0.5815887769786439,-0.6095823590222791,-25.61547590098881,19.34398541921824,48.69579947513003,1.0644026688637729,-5.314841602920188,2.0529457466096943,7870.9150390625,11.489,7.141111111111112,178.67102474575066,-12.027269959055436,59.47633486053677,1297.0,1435.0,1350.0,1528.0,1253.0,990.0,160.0,294.53,1649331612.9412508,1649331614.0718534,c318acd7-0c70-44bc-a14f-7cd228b0b28b
-0.246546775106944,-0.1415149794577575,-0.5695971602667379,-0.0932198160431599,-0.535752406410501,0.667537415927193,-0.6839251131474078,-0.7086446725959312,-23.368396712991853,14.129548504838786,58.07468103942136,1.773125503272787,-0.9044783190546712,2.521728829041173,7870.921875,11.6285,7.18,178.2732034131829,-11.939384112593851,59.275608881753485,1553.0,1435.0,1350.0,1528.0,1471.0,990.0,160.0,294.53,1649331614.9735515,1649331616.1129253,abbd4355-a6e5-4b1a-9426-eeca0b3f0a9a
-0.262088535940278,-0.141436087225828,-0.5750275740907141,-0.1131269432625433,-0.5431156789545558,0.6839864333337722,-0.6820711465377067,-0.7048972926877585,-23.133247011823507,13.946949194626532,57.80542449035895,1.8535888195040893,-0.9013567055881888,2.536215094598563,7883.786024305556,11.639111111111111,7.194444444444445,178.26145928236,-11.920423602321634,59.32622779314741,1553.0,1435.0,1350.0,1528.0,1471.0,990.0,160.0,294.53,1649331616.2214134,1649331617.340484,abbd4355-a6e5-4b1a-9426-eeca0b3f0a9a
-0.2604186513481948,-0.1414229385266016,-0.5829956866559349,-0.1099449586308782,-0.5526747841248095,0.6825269281957196,-0.6940890595150951,-0.7257774298931094,-23.22090995932425,14.245309005388178,57.93616267639419,1.8446891563967804,-0.9027375086999,2.577237431737119,7892.65771484375,11.626111111111111,7.16888888888889,178.22181990005686,-11.874377123122086,59.37365283219444,1553.0,1435.0,1350.0,1528.0,1471.0,990.0,160.0,294.53,1649331617.4488823,1649331618.5663214,abbd4355-a6e5-4b1a-9426-eeca0b3f0a9a
-0.2367772926031536,-0.1649591065940178,-0.6427433818339352,-0.5562249347000998,-0.6464118696683618,1.1425734780148178,-0.6207850513404201,-0.6448866195022772,-23.44244001111617,12.8160174415485,61.70519095997296,3.8732127765835513,-0.9717146240766552,2.6809707930537794,7892.65771484375,11.616,7.186,178.25448186466787,-11.726830845434536,59.408258668643214,1553.0,1522.0,1350.0,1528.0,1471.0,990.0,160.0,294.53,1649331619.3065653,1649331620.412924,699b913d-2e8a-4861-86b5-23ff6edbc8b1
-0.2651815143250182,-0.1540370907301111,-0.6326370884870072,-0.5703324775322086,-0.6441548447232849,1.1401611981132214,-0.6132680408109032,-0.6369104155597397,-23.204442818582795,13.092544359789391,61.100466325270766,3.90197498322237,-0.9246929351954852,2.653815935256742,7889.75322265625,11.6142,7.182,178.24629929804223,-11.710520695206004,59.40310597393336,1553.0,1522.0,1350.0,1528.0,1471.0,990.0,160.0,294.53,1649331620.521301,1649331621.5791333,699b913d-2e8a-4861-86b5-23ff6edbc8b1
-0.2319254231201697,-0.1609224565612124,-0.6364845998773938,-0.5518464192163144,-0.6418624186949888,1.13310641772915,-0.6214030402490899,-0.6335261426826889,-23.700066887388733,13.112165783335197,61.51445114759794,3.844176930727648,-0.9531980834379492,2.667078847308431,7892.65771484375,11.609333333333334,7.188888888888889,178.26367074583126,-11.653160956283717,59.45641802891701,1553.0,1522.0,1350.0,1528.0,1471.0,990.0,160.0,294.53,1649331621.6875982,1649331622.7271025,699b913d-2e8a-4861-86b5-23ff6edbc8b1
-0.2327669398499477,-0.164761876188988,-0.6810981426775926,-1.0443836605085712,-0.7351919007891331,1.6140068538580818,-0.5261144094878271,-0.5495585414255537,-23.18200726479085,11.798678376025288,65.07398149447125,6.025767230074758,-0.9450216276578728,2.7204780310163184,7888.623697916667,11.59822222222222,7.190000000000001,178.32461121142595,-11.548062274203788,59.48356120067865,1553.0,1613.0,1350.0,1528.0,1471.0,990.0,160.0,294.53,1649331625.0102825,1649331626.1465578,6315c75c-ee88-40cf-825e-f730779cc4ec
-0.2391177609094602,-0.1666815859811438,-0.6958772829762,-1.0403864556699152,-0.7480118849948982,1.6117978725898416,-0.5441149795195426,-0.5688345361656412,-23.47071789768585,11.88652126950194,64.89020394897814,6.011458433275484,-0.9499770383182408,2.783019490435596,7892.65771484375,11.5921,7.189000000000002,178.34287544083048,-11.44366161848429,59.49331228230172,1553.0,1613.0,1350.0,1528.0,1471.0,990.0,160.0,294.53,1649331626.2591465,1649331627.374328,6315c75c-ee88-40cf-825e-f730779cc4ec
-0.2338319844373265,-0.161921757576368,-0.6805458975353482,-1.0384798917496854,-0.733837584495173,1.605972999001481,-0.5309005363666008,-0.5454035525233658,-23.50681734159569,11.918906874243037,65.08431733122698,5.995059283459728,-0.9328519683719878,2.7248285629518825,7892.65771484375,11.591888888888889,7.171111111111112,178.3672513235044,-11.426278388618906,59.529438822423714,1553.0,1613.0,1350.0,1528.0,1471.0,990.0,160.0,294.53,1649331627.4825313,1649331628.6054862,6315c75c-ee88-40cf-825e-f730779cc4ec
-0.2263503753711084,-0.1836960004214456,-0.7339033279598133,-1.4638405872988012,-0.8228542982061923,2.036684955249415,-0.4606075881901057,-0.4942156645566286,-23.57835387305675,10.802724248134504,67.67620454886641,7.912757072797218,-0.9880146309737216,2.816421830779814,7892.65771484375,11.535899999999998,7.132000000000001,178.51199912090703,-11.359075445897112,59.59607452742131,1553.0,1710.0,1350.0,1528.0,1471.0,990.0,160.0,294.53,1649331630.3354852,1649331631.4729626,fadf1582-01d0-4432-8c10-f99b8055c89e
-0.240958578522034,-0.1866676060498706,-0.7392154032289906,-1.461828834484484,-0.8306514786365412,2.041352744561739,-0.4672476813959445,-0.4902579054087848,-23.468149494112613,11.128293576498615,68.13839810376624,7.920731080100744,-1.0046152937546369,2.843990300415616,7892.65771484375,11.547444444444444,7.1511111111111125,178.57039480979896,-11.346193377099382,59.63117221338133,1553.0,1710.0,1350.0,1528.0,1471.0,990.0,160.0,294.53,1649331631.5817237,1649331632.6998422,fadf1582-01d0-4432-8c10-f99b8055c89e
-0.2347129470715941,-0.1756752949961508,-0.7457240111147475,-1.4803422205421903,-0.8399476121638255,2.04151052897748,-0.4715341572751154,-0.4920724260005936,-23.317160491147103,10.87336595943382,67.22970402671451,7.960764427626181,-0.954539914756467,2.8717232757207865,7892.65771484375,11.546666666666669,7.14777777777778,178.53575512596828,-11.318681659713787,59.684844598789205,1553.0,1710.0,1350.0,1528.0,1471.0,990.0,160.0,294.53,1649331632.8081582,1649331633.9298534,fadf1582-01d0-4432-8c10-f99b8055c89e
-0.2190791454952773,-0.1697846785412758,-0.7446589656686151,-1.7439081718874203,-0.8793411256242939,2.293124108605129,-0.4111027357719501,-0.4435800222957513,-23.103248878655272,11.581138949970336,69.54273917799061,9.125935282911122,-0.921930776048352,2.8394086598974173,7892.65771484375,11.5105,7.132,178.61742992093534,-11.329716902278188,59.747781225114295,1553.0,1814.0,1350.0,1528.0,1471.0,990.0,160.0,294.53,1649331635.8645976,1649331637.0067909,f63356f6-dd9e-4c7b-8f34-a2653d703ed7
-0.2004342923811791,-0.1543481079341624,-0.7530741358383848,-1.7733349963819782,-0.892529276174747,2.301526129115905,-0.4213587211491787,-0.4463938440915148,-23.46314828889265,11.615910551506625,68.96516596576227,9.210733704450494,-0.8532777698224335,2.883973775050775,7892.65771484375,11.50288888888889,7.1511111111111125,178.65446533156288,-11.350563749530806,59.778946391714186,1553.0,1814.0,1350.0,1528.0,1471.0,990.0,160.0,294.53,1649331637.1195445,1649331638.2268574,f63356f6-dd9e-4c7b-8f34-a2653d703ed7
-0.1922163563476626,-0.1645646457535932,-0.7365725143559902,-1.7358874559803834,-0.8668235606473056,2.279935957456245,-0.4032003677046317,-0.4300894569744051,-23.229461155918514,11.13328413428531,69.5126282768982,9.075572412076763,-0.9016747869468976,2.800840299027369,7892.65771484375,11.513666666666667,7.125555555555555,178.6732043350058,-11.277642373222028,59.82335021041835,1553.0,1814.0,1350.0,1528.0,1471.0,990.0,160.0,294.53,1649331638.335157,1649331639.4611676,f63356f6-dd9e-4c7b-8f34-a2653d703ed7
-0.2517799568105664,-0.1351115639328801,-0.5288624879520611,0.3526393167282153,-0.4592664208711483,0.2289889845400085,-0.7749009799390245,-0.7984634543248638,-23.4412486233726,15.955861705918338,54.77553883017143,-0.2045277539751145,-0.9029872438207454,2.4907870585341545,7891.044108072917,11.643333333333334,7.188888888888889,178.67868518235977,-11.987793362927532,59.89568646718824,1553.0,1349.0,1350.0,1528.0,1471.0,990.0,160.0,294.53,1649331640.3708084,1649331641.5087807,5d972e69-e1fa-4e3f-ab5f-817df46f2089
-0.2793659252166303,-0.1440921241534822,-0.5207760375279795,0.3671554766885125,-0.4455654763729306,0.2197717493994001,-0.7650263048206861,-0.7914157505616322,-23.432623266295064,15.67960909284482,54.18735472663347,-0.2595030912998664,-0.932797089290732,2.4453741810567835,7889.75322265625,11.6378,7.204000000000001,178.67492098921718,-11.9443155091746,60.09572130671851,1553.0,1349.0,1350.0,1528.0,1471.0,990.0,160.0,294.53,1649331641.617177,1649331642.7330816,5d972e69-e1fa-4e3f-ab5f-817df46f2089
-0.2912523481569471,-0.1441052727434602,-0.5343980904981328,0.3622247158623042,-0.4591217852273872,0.2290547286728081,-0.7757950918183208,-0.7949396022324668,-23.353560648466097,15.606435758728772,54.765913912325786,-0.2285517473864937,-0.938791470033382,2.4985956840600423,7892.65771484375,11.636111111111113,7.196666666666666,178.70855284069032,-11.876583084496522,60.312890358800665,1553.0,1349.0,1350.0,1528.0,1471.0,990.0,160.0,294.53,1649331642.8439395,1649331643.965807,5d972e69-e1fa-4e3f-ab5f-817df46f2089
-0.2805230105543139,-0.1251711489366963,-0.4807119499300305,0.7416040149020521,-0.3804531189920641,-0.1609093095341827,-0.8451413492793435,-0.8765798977854424,-23.72055510336797,17.60071337630221,51.54894238192144,-1.945443781138908,-0.879940035112006,2.417005365086175,7892.65771484375,11.624666666666666,7.191111111111111,178.65233431254185,-11.98126683258437,60.69687448701989,1553.0,1264.0,1350.0,1528.0,1471.0,990.0,160.0,294.53,1649331645.8602688,1649331646.800481,38700f14-f8ce-4594-8647-5d24b5efed37
-0.2832316423450675,-0.130378032890763,-0.4740587075507766,0.7520572273660875,-0.3712621784147851,-0.1587923686394602,-0.8359504055577647,-0.8624318937837139,-23.60979459067646,17.49719963277665,52.55404096818408,-1.9644055640700484,-0.9100281044212368,2.383331090144612,7890.2373046875,11.615,7.186666666666667,178.73504031429164,-11.922577293776175,60.83041606894226,1553.0,1264.0,1350.0,1528.0,1471.0,990.0,160.0,294.53,1649331646.908184,1649331648.266791,38700f14-f8ce-4594-8647-5d24b5efed37
-0.2778932709243555,-0.1287475945257996,-0.4854717787029459,0.7455223259576899,-0.3878558361636887,-0.1528491581438981,-0.8492437440260264,-0.8736871846320142,-23.439820451811496,17.888871834513292,52.669755396439776,-1.9341770862169527,-0.9060538775951612,2.440677712744103,7885.396484375,11.616,7.195555555555556,178.7101784257128,-11.896386933403758,60.98455598358157,1553.0,1264.0,1350.0,1528.0,1471.0,990.0,160.0,294.53,1649331648.3759143,1649331649.4970274,38700f14-f8ce-4594-8647-5d24b5efed37
-0.2998384480935955,-0.1301413563737527,-0.4494574911560625,1.1714743127405465,-0.31377606873468,-0.5624574204854926,-0.9450714952641442,-0.9731834250818518,-24.565362409743667,19.98905569123562,49.7579153866541,-3.8007799565230846,-0.9276325331953356,2.424935427543996,7885.396484375,11.604444444444445,7.183333333333334,178.70843596856452,-12.066003487519886,61.1892423337186,1553.0,1178.0,1350.0,1528.0,1471.0,990.0,160.0,294.53,1649331650.406392,1649331651.5437105,46890180-5e27-4c9c-aec0-fd422e9c5c39
-0.3077671130754379,-0.1210424580722012,-0.4434616845104225,1.14604473496604,-0.3189172101827695,-0.5508997115305889,-0.9357359148587322,-0.9544070744685788,-23.89015626432194,20.275627144800715,49.39166117976983,-3.7149655776447865,-0.8915230862458126,2.4111890293617124,7878.87412109375,11.608,7.208999999999999,178.71431478827415,-12.117756295693392,61.31013440529811,1553.0,1178.0,1350.0,1528.0,1471.0,990.0,160.0,294.53,1649331651.6528046,1649331652.7729976,46890180-5e27-4c9c-aec0-fd422e9c5c39
-0.3015083327841483,-0.1240798070290524,-0.4511010788077784,1.1315680205205352,-0.323111644877016,-0.5430893829618054,-0.9359725917010768,-0.969580680734218,-23.902702718080853,19.77171366914605,48.16036867332776,-3.6686822903819416,-0.8906237258897834,2.42561927295476,7878.1494140625,11.59988888888889,7.208888888888889,178.72036755013465,-12.168602510091064,61.42490662738127,1553.0,1178.0,1350.0,1528.0,1471.0,990.0,160.0,294.53,1649331652.88077,1649331653.829086,46890180-5e27-4c9c-aec0-fd422e9c5c39
-0.315367060663599,-0.1165456035973447,-0.410063988712068,1.4468474624957446,-0.2651653319534279,-0.8437081418801416,-0.999375643362453,-1.025883431815791,-24.401062499452987,22.185924420465167,47.63386952546765,-5.0376932789015285,-0.8903474369921952,2.382622771485083,7885.396484375,11.561555555555554,7.162222222222223,178.7806265146321,-12.295227197386453,61.70242859700751,1553.0,1088.0,1350.0,1528.0,1471.0,990.0,160.0,294.53,1649331655.9351327,1649331657.0798016,e2815c4c-844c-4b91-91bd-072e8ea56f1a
-0.3139995960529534,-0.1216867441238383,-0.4092487691739426,1.438787311326834,-0.2644947481843705,-0.8384881083031287,-0.9934192798577152,-1.0250682119421324,-24.153735930382524,22.04083572911352,46.63181845780127,-5.008737892988182,-0.9014576059878088,2.370244038825648,7878.1494140625,11.568222222222222,7.156666666666666,178.8019291157435,-12.376606814344909,61.803441023552736,1553.0,1088.0,1350.0,1528.0,1471.0,990.0,160.0,294.53,1649331657.1932125,1649331658.5031707,e2815c4c-844c-4b91-91bd-072e8ea56f1a
-0.3007983030199261,-0.126972520338654,-0.4097352713512984,1.45141006049755,-0.2607736668982454,-0.8502561959483937,-0.994024120249744,-1.0104600008101503,-24.131983601751347,21.83350685027262,45.87364902952786,-5.0651647265365405,-0.9163052900443,2.365202181847225,7878.1494140625,11.560444444444444,7.141111111111111,178.81377114594446,-12.410427918976303,61.86282344710675,1553.0,1088.0,1350.0,1528.0,1471.0,990.0,160.0,294.53,1649331658.611334,1649331659.7425804,e2815c4c-844c-4b91-91bd-072e8ea56f1a
-0.2685313979444776,-0.1436319196707255,-0.5807341099323561,-0.1440526808218962,-0.5524907019967036,0.7168976169337244,-0.6840960464722261,-0.7091969170946918,-23.53221588523449,14.238035535253088,58.09850888245557,1.998796918223528,-0.9059154153592658,2.5591239156883945,7878.954644097223,11.639888888888889,7.21111111111111,178.88220660578835,-11.902373594211276,61.97069034793903,1553.0,1435.0,1350.0,1528.0,1471.0,990.0,160.0,294.53,1649331660.8521004,1649331661.897159,726da81b-cf4c-4a50-b893-f698c70d128a
-0.2541993172591732,-0.1408838420502726,-0.566809636064896,-0.1292078005344122,-0.5367911537063749,0.702881108091376,-0.6738795053709842,-0.7011367630075078,-23.61101635693652,14.193635281723443,58.52563976744867,1.9342409706003425,-0.899782111464206,2.505242020109412,7885.396484375,11.643444444444444,7.194444444444445,178.86432365272148,-11.77020630326816,62.01640100950439,1553.0,1435.0,1350.0,1528.0,1471.0,990.0,160.0,294.53,1649331662.005544,1649331663.0546649,726da81b-cf4c-4a50-b893-f698c70d128a
