raw_voltage_G-,raw_voltage_G0,raw_voltage_G1,raw_voltage_G2,raw_voltage_G3,raw_voltage_G4,raw_voltage_G5,raw_voltage_G6,load_x,load_y,load_z,load_l,load_m,load_n,rpm,voltage,current,roll,pitch,yaw,aileron1_pwm,elevator_pwm,throttle_pwm,rudder_pwm,aileron2_pwm,pbaro,pdiff,Tt,sample_start_time,sample_end_time,uid
-0.2806807949210543,-0.1234355208518495,-0.5398153543007576,-0.0103304309271989,-0.5973803639135358,0.4244837883553701,-0.8228280000863788,-0.8439842637344438,-24.39104425738244,25.358699771062188,36.35487991108084,1.1119187031911006,-0.6450562704536463,2.7297972895028613,5291.00390625,11.9622,0.127,179.87551661510582,-4.253745680171373,103.10149651755388,1553.0,1435.0,1200.0,1528.0,1471.0,988.0,161.0,292.25,1649319677.0634296,1649319678.2416737,739a2ebe-15c1-48d8-8a33-8e2b9ec510b3
-0.2676848240788776,-0.1208619162437213,-0.5405582558328067,-0.013864395994569,-0.5982734640688542,0.4270341294933441,-0.8222186082785241,-0.8485792292804758,-24.36095150509017,25.26027562702465,36.61364915695787,1.1249883597812071,-0.6375238012993201,2.7318655678491925,5300.8203125,11.960888888888888,0.1211111111111111,179.8873038520115,-4.239720019519987,102.65253786223418,1553.0,1435.0,1200.0,1528.0,1471.0,988.0,161.0,292.25,1649319678.353881,1649319679.6687396,739a2ebe-15c1-48d8-8a33-8e2b9ec510b3
-0.2666248367530678,-0.1215421084413765,-0.542957893615593,-0.0126314528387018,-0.6002993754276268,0.426140523944689,-0.8250369821343672,-0.8427877306941848,-24.38354178929475,25.269177259537283,36.53324232771391,1.120114426479546,-0.6395061783829471,2.7417043158198333,5300.8203125,11.959222222222222,0.1255555555555555,179.8766350965279,-4.236804714541121,102.27727360885535,1553.0,1435.0,1200.0,1528.0,1471.0,988.0,161.0,292.25,1649319679.7773626,1649319680.9090965,739a2ebe-15c1-48d8-8a33-8e2b9ec510b3
-0.0410852321976555,0.2902487581312931,-0.5083373669099488,-0.3059657414894254,-0.6729327987576241,0.3044756466095203,-0.850571762965022,-0.8723723125739017,-23.50431534719776,23.924776885310965,38.24252526924544,1.501934218405176,0.9218753438941676,2.8806303413195145,5294.271484375,11.937666666666663,0.1166666666666666,179.73118242360297,-4.173741198479439,101.63723783121088,1637.0,1435.0,1200.0,1528.0,1535.0,988.0,161.0,292.25,1649319682.2203283,1649319683.3595655,6169d4e1-fc4e-4d74-980a-0d769abf4b3c
-0.0400070390948455,0.2914978841977897,-0.5161739919360794,-0.3055186857703701,-0.6795334466996724,0.3048438100594252,-0.8595786244440374,-0.8901362109066894,-23.687280445774714,23.89981039274063,38.46366977407457,1.5011405169017946,0.9253430441462904,2.913475960459977,5300.456325954861,11.930555555555555,0.1111111111111111,179.70619000251995,-4.144943460823242,101.38277078567306,1637.0,1435.0,1200.0,1528.0,1535.0,988.0,161.0,292.25,1649319683.4691002,1649319684.5931995,6169d4e1-fc4e-4d74-980a-0d769abf4b3c
-0.041058934824313,0.2904985833386747,-0.524615457290468,-0.3077802618331514,-0.6880406565353441,0.3078943073969039,-0.8690325420021672,-0.8986171251378462,-23.81864243457243,23.999231508330176,38.39272684795966,1.5132582662144742,0.9228985622295078,2.949656625689285,5306.30078125,11.935333333333334,0.12,179.6891858671263,-4.147559091252273,101.14797772058452,1637.0,1435.0,1200.0,1528.0,1535.0,988.0,161.0,292.25,1649319684.705754,1649319685.812462,6169d4e1-fc4e-4d74-980a-0d769abf4b3c
0.2189039361628358,0.7464164370757027,-0.4817638449438708,-0.6361953281704856,-0.768379223593154,0.1773014629501847,-0.895829599056791,-0.9221533042783993,-22.85265473644189,22.95101476818088,40.40965062209539,1.956615366922427,2.6512884521969107,3.095059465808197,5340.45263671875,11.931111111111113,0.1188888888888888,179.38058729568638,-4.078348499801319,100.71642208370604,1723.0,1435.0,1200.0,1528.0,1599.0,988.0,161.0,292.25,1649319687.5445757,1649319688.6815166,a1248ebb-3f04-43de-905e-417a566619b2
0.2321841187422399,0.7435368728706412,-0.4863001463049806,-0.6348936067983008,-0.772244942027611,0.1790239420892229,-0.901062783055166,-0.92755742149836,-22.957682658645663,23.029993864454653,40.38583286842022,1.957790662425376,2.640996285985546,3.113482661295272,5343.7822265625,11.908,0.11,179.33046342122532,-4.052385001316275,100.53463902745789,1723.0,1435.0,1200.0,1528.0,1599.0,988.0,161.0,292.25,1649319688.7897036,1649319690.118068,a1248ebb-3f04-43de-905e-417a566619b2
0.2268588970173139,0.7355424663213007,-0.4829472279224203,-0.6293054090663346,-0.7679321677445791,0.1771173811869907,-0.8975257817944302,-0.9210619612670098,-22.90696362270276,23.12103748085724,39.758320397547685,1.9415967541805967,2.6157411256324603,3.0961968996819547,5343.7822265625,11.913666666666666,0.12,179.29142297062145,-4.0447056915663815,100.3412731846332,1723.0,1435.0,1200.0,1528.0,1599.0,988.0,161.0,292.25,1649319690.226991,1649319691.3454254,a1248ebb-3f04-43de-905e-417a566619b2
0.393742139000984,1.045812226395246,-0.4611203869367466,-0.8815501073267953,-0.8372652756160012,0.0993691422218865,-0.9269788779092328,-0.95975859669102,-22.56674368654272,23.016387014251794,38.8738333690252,2.3363116751648234,3.8173112134082654,3.2371779967968224,5323.86767578125,11.911,0.11,178.97098236898057,-3.99537251585185,100.128688100176,1813.0,1435.0,1200.0,1528.0,1662.0,988.0,161.0,292.25,1649319692.0105088,1649319692.9894726,f0619b65-c9b6-4e04-9479-1fb3a7856e67
0.3927033920851712,1.0393167708342264,-0.457938401703751,-0.867612482036914,-0.8294286488198304,0.0943989351368593,-0.9234287278943202,-0.9418369132021032,-22.653360600963403,22.86791864372149,39.11505244597873,2.2928721661171574,3.78990762346112,3.2167890092134943,5315.943359375,11.8594,0.11,178.93218962657056,-3.994111150666877,99.9644616657344,1813.0,1435.0,1200.0,1528.0,1662.0,988.0,161.0,292.25,1649319693.0983932,1649319694.2141116,f0619b65-c9b6-4e04-9479-1fb3a7856e67
0.3939788155171087,1.0463250254975376,-0.448024282556531,-0.8710705909933981,-0.823682665924466,0.0885346166384052,-0.9142903790070258,-0.932619672176306,-22.34768497433798,22.92595561939748,38.87605730529301,2.288489069184608,3.817202804179882,3.1831082191985924,5311.3314453125,11.8678,0.108,178.91919314261787,-3.987258507249968,99.85522918241404,1813.0,1435.0,1200.0,1528.0,1662.0,988.0,161.0,292.25,1649319694.3222454,1649319695.4439886,f0619b65-c9b6-4e04-9479-1fb3a7856e67
-0.5583848587022534,-0.615455275553631,-0.5725070685323457,0.3599252119709391,-0.501693733521921,0.5580406470821087,-0.786211392350596,-0.8066171671408711,-25.182688847530184,27.042871815179044,35.27558595725171,0.5857989917473606,-2.5228909876904235,2.532841711888035,5315.064453125,11.890666666666666,0.1133333333333333,179.6619379657974,-4.066444618442848,99.5203163206138,1470.0,1435.0,1200.0,1528.0,1403.0,988.0,161.0,292.25,1649319697.5906093,1649319698.722718,f39e4394-9953-48a3-b153-052e6e400c70
-0.5738725103457938,-0.622788204830669,-0.573012787744228,0.3638192486162701,-0.4998478583994725,0.5623645448605278,-0.7839482983968054,-0.8110927830973592,-25.14844137676958,26.97121353046585,35.38598585212791,0.5862659995827955,-2.5521275119626847,2.5271506779738,5315.064453125,11.955333333333334,0.1266666666666666,179.65088216626086,-4.081397040900868,99.44627707001086,1470.0,1435.0,1200.0,1528.0,1403.0,988.0,161.0,292.25,1649319698.830948,1649319699.9562962,f39e4394-9953-48a3-b153-052e6e400c70
-0.5654816167447395,-0.6129484252049106,-0.5735943648505978,0.360567980892379,-0.5023941546022701,0.557377649420942,-0.786787406691052,-0.8197117575781812,-25.14823951225772,26.94211345880079,35.6090797386936,0.5822076406099279,-2.5168381218242875,2.536942709907094,5312.869683159723,11.954777777777776,0.12,179.6241579127683,-4.0581272978766725,99.35960045162358,1470.0,1435.0,1200.0,1528.0,1403.0,988.0,161.0,292.25,1649319700.0644257,1649319701.1766093,f39e4394-9953-48a3-b153-052e6e400c70
-0.8082197913581857,-1.0504583609403635,-0.605913870519408,0.6828424968684569,-0.4256846425806661,0.6782667510178286,-0.761463006441197,-0.7906268289402224,-25.863608560369,28.92714435047119,33.994926797970145,0.1378215530642091,-4.180091091956905,2.3867554722484834,5306.655381944444,11.948666666666668,0.1277777777777777,179.7411711958092,-4.0764503712582245,99.11141945685192,1385.0,1435.0,1200.0,1528.0,1331.0,988.0,161.0,292.25,1649319703.0457103,1649319703.9870307,054f97f6-ef5d-4994-a16f-a36be1072eca
-0.8033547714279436,-1.0441601311726398,-0.6029291154330284,0.6820930212565289,-0.4241593934354888,0.674059168628721,-0.7615813447211578,-0.7882995077406182,-25.9710211344978,29.00325528890157,34.186533896918725,0.1306868309966722,-4.157124085287631,2.3816973728961583,5300.8203125,11.896666666666668,0.11,179.7146305985143,-4.076156103941482,98.95852035991182,1385.0,1435.0,1200.0,1528.0,1331.0,988.0,161.0,292.25,1649319704.095599,1649319705.074732,054f97f6-ef5d-4994-a16f-a36be1072eca
-0.7957153754299436,-1.0374674403104778,-0.5969859027915867,0.6771491119474402,-0.4210563004332151,0.6732308008465211,-0.7551253319748984,-0.7729155262673258,-25.76728308798013,28.97649703679453,34.4006614937799,0.1402328644669619,-4.134377225486627,2.3613995451776844,5300.8203125,11.9,0.11,179.7088777578494,-4.073599953076474,98.74060378157048,1385.0,1435.0,1200.0,1528.0,1331.0,988.0,161.0,292.25,1649319705.1877124,1649319706.2970874,054f97f6-ef5d-4994-a16f-a36be1072eca
-1.089746692516072,-1.522194565369748,-0.6459385154724231,1.0441686395494048,-0.3501585167246665,0.7970520615551198,-0.748064479102903,-0.7705356110351532,-26.756479727149625,31.569351773356093,32.34385150091125,-0.3955053335911404,-5.975415231382847,2.261418005870844,5302.642686631944,11.875111111111112,0.1111111111111111,179.86438477279657,-4.074854620881512,98.42346534872031,1297.0,1435.0,1200.0,1528.0,1253.0,988.0,161.0,292.25,1649319707.2073047,1649319708.3539116,7ab66391-430d-434c-972d-3ddd6b6f88a8
-1.0721800220227995,-1.5166326602616675,-0.6369448040277214,1.0422489299206437,-0.3434132342921683,0.7935939547531455,-0.7404908268077176,-0.7582415744793926,-26.70054242898188,31.618136925481974,32.438515935710136,-0.3981312897953439,-5.954982286503325,2.229996772226236,5285.567925347223,11.85211111111111,0.1011111111111111,179.86753424891384,-4.071209529162577,98.14991171900188,1297.0,1435.0,1200.0,1528.0,1253.0,988.0,161.0,292.25,1649319708.461097,1649319709.570404,7ab66391-430d-434c-972d-3ddd6b6f88a8
-1.0704706903324053,-1.517894936537148,-0.6443606714496015,1.0415520490946897,-0.3498429480275363,0.7959344224687598,-0.7483537506534702,-0.7636325424285145,-26.846933140698667,31.633464748106253,32.44595214995204,-0.3916401086069408,-5.959130445057794,2.2598010234470225,5287.73974609375,11.849444444444446,0.1055555555555555,179.84694046965635,-4.046401286027838,97.93502941425383,1297.0,1435.0,1200.0,1528.0,1253.0,988.0,161.0,292.25,1649319709.678766,1649319710.8065383,7ab66391-430d-434c-972d-3ddd6b6f88a8
-0.2815880550451904,-0.1294970701916929,-0.5585785492747496,-0.0111062040498415,-0.6089249229606426,0.4368961565787231,-0.8365815430220345,-0.8689667994477273,-24.74906391195661,24.94405480766898,37.05481754375811,1.1378092487437257,-0.672561324685482,2.7908465674529195,5285.211805555556,11.912333333333333,0.1155555555555555,179.383339103012,-3.9279400977466894,97.63885040345475,1553.0,1435.0,1200.0,1528.0,1471.0,988.0,161.0,292.25,1649319711.7119484,1649319712.8544056,e0865837-255d-4f9e-be45-12ecbd938634
-0.2666379854362155,-0.111706883043582,-0.5372908039262434,-0.018903381067586,-0.5947900699122078,0.4246678700842357,-0.8177657495593306,-0.8477053456384275,-24.35615376433072,24.964026525690205,36.92591911037582,1.1292887936091671,-0.6051659367798697,2.717956188638602,5291.00390625,11.9649,0.1299999999999999,179.32282180558192,-3.901656429401114,97.74274319666398,1553.0,1435.0,1200.0,1528.0,1471.0,988.0,161.0,292.25,1649319712.9624794,1649319714.075792,e0865837-255d-4f9e-be45-12ecbd938634
-0.2720289516057204,-0.1153622208186642,-0.5467447192246481,-0.0174438758480455,-0.603034305155119,0.4269951891287008,-0.8276667226136668,-0.8545821173561547,-24.470349069761493,25.020870600524468,36.864114688803824,1.1310650534407285,-0.6182977186466018,2.755548880042141,5294.93046875,11.9622,0.1259999999999999,179.28870364463987,-3.901169095403835,97.83641650905504,1553.0,1435.0,1200.0,1528.0,1471.0,988.0,161.0,292.25,1649319714.1835785,1649319715.308669,e0865837-255d-4f9e-be45-12ecbd938634
-0.2627985656598385,-0.1279192265847005,-0.60726818667544,-0.3729320627601386,-0.6938786798918509,0.7923974235119589,-0.7883389536398439,-0.8105865582762997,-24.809721888219624,24.256134096457505,40.45201197696941,2.7463848226308545,-0.6548732004983002,2.9062885782236925,5324.560546875,11.9556,0.12,179.3041644608451,-3.776747637407214,97.91111418989396,1553.0,1522.0,1200.0,1528.0,1471.0,988.0,161.0,292.25,1649319716.2190373,1649319717.362073,3fea03e2-a4f8-4a26-8701-9bb49250cf0e
-0.2747375833803866,-0.1357164039521639,-0.6204431845999702,-0.3795195607996972,-0.7044765330535222,0.808964779241613,-0.7974115580712283,-0.81993528554362,-25.00563529891736,24.20202458533821,40.77463609900114,2.797411749601768,-0.6856152190340279,2.950938679772908,5401.782172309027,11.936777777777776,0.11,179.27394527544527,-3.764563822642886,97.92708135078968,1553.0,1522.0,1200.0,1528.0,1471.0,988.0,161.0,292.25,1649319717.4709673,1649319718.5812826,3fea03e2-a4f8-4a26-8701-9bb49250cf0e
-0.2645604911751789,-0.1293261371444499,-0.6137636447712417,-0.3816627986160305,-0.7007554506660937,0.8030873125636577,-0.793230270810417,-0.8084959142549631,-24.93057724523878,24.301838962577584,40.58897300039333,2.790041381218105,-0.6598445299062251,2.9313163144831647,5425.6419921875,11.9454,0.1139999999999999,179.2688168658525,-3.768873453822565,97.84631345316237,1553.0,1522.0,1200.0,1528.0,1471.0,988.0,161.0,292.25,1649319718.6906528,1649319719.813917,3fea03e2-a4f8-4a26-8701-9bb49250cf0e
-0.269556996389838,-0.1488256550804647,-0.6673051546561233,-0.8197512036556632,-0.7948475612286857,1.2437395440834558,-0.7209518561744918,-0.7448298987585652,-24.735052412451875,23.355423065801595,43.24810306441568,4.760048279662041,-0.7074034944753688,3.0276220670081058,5424.26728515625,11.9445,0.119,179.24866780780093,-3.607883931405979,97.85367093293632,1553.0,1613.0,1200.0,1528.0,1471.0,988.0,161.0,292.25,1649319721.5431306,1649319722.6889277,f421f6c3-bd59-45e2-9967-a7670db65853
-0.2690047510888203,-0.150587580518073,-0.6594422314681395,-0.8143996817608151,-0.7873528009740824,1.2412807379234965,-0.7142328697581236,-0.7375586665721238,-24.70412852422757,23.46745837167161,43.40821751197989,4.743626597776051,-0.7158082675373967,2.997164698990093,5418.0947265625,11.9238,0.11,179.24484016979005,-3.574126062942649,97.78555072426812,1553.0,1613.0,1200.0,1528.0,1471.0,988.0,161.0,292.25,1649319722.8087091,1649319723.9155664,f421f6c3-bd59-45e2-9967-a7670db65853
-0.2769202672720315,-0.1565570890494885,-0.6710656830943269,-0.8127166479713333,-0.7961361339501106,1.2453305363245533,-0.7248438717924632,-0.7497343647168445,-24.8537911068342,23.42059165689137,43.28858317233632,4.747946661495311,-0.7370228400235187,3.039118050536373,5407.84033203125,11.927222222222222,0.1077777777777777,179.23325100837033,-3.563718908447487,97.66818530703009,1553.0,1613.0,1200.0,1528.0,1471.0,988.0,161.0,292.25,1649319724.0229237,1649319725.1396987,f421f6c3-bd59-45e2-9967-a7670db65853
-0.2664276062650751,-0.1624082593386112,-0.7016364135138663,-1.2093078796191457,-0.8687564190355138,1.634163807448171,-0.6472533855817854,-0.6615328751185351,-24.623321092195408,22.8301583741039,46.018872433245086,6.511434557559978,-0.7379171464506102,3.0692974439825345,5395.360026041667,11.91,0.1066666666666666,179.2472953951237,-3.407158474373252,97.44710574397509,1553.0,1710.0,1200.0,1528.0,1471.0,988.0,161.0,292.25,1649319727.0738506,1649319728.1766798,3afe841a-7249-4dd4-9546-6be126dd47f4
-0.2545148859902794,-0.159936304257944,-0.7000980155418537,-1.2059812567845545,-0.8670339390409733,1.6273133357001717,-0.6476478466995773,-0.6624927310250465,-24.65141534870036,22.812031858533786,45.82969961634089,6.488448728677075,-0.7270826934769467,3.06546524261544,5379.559407552083,11.871222222222222,0.0766666666666666,179.24056082860204,-3.396455876250992,97.2712913623696,1553.0,1710.0,1200.0,1528.0,1471.0,988.0,161.0,292.25,1649319728.284856,1649319729.440976,3afe841a-7249-4dd4-9546-6be126dd47f4
-0.2705037026539449,-0.1745971017964974,-0.7187691716180243,-1.200274718095063,-0.8813134306521906,1.637608766449556,-0.6640574254654087,-0.6863050281077527,-24.82027671355602,22.865273244559315,45.86336360591629,6.498054993451394,-0.7830581476479415,3.1319126285993715,5367.205078125,11.903,0.1022222222222222,179.24654103867536,-3.400863933302523,97.13833793562576,1553.0,1710.0,1200.0,1528.0,1471.0,988.0,161.0,292.25,1649319729.549817,1649319730.6645262,3afe841a-7249-4dd4-9546-6be126dd47f4
-0.2435357232937787,-0.1716517935797715,-0.677850413006319,-1.4288124214587754,-0.8771321430915999,1.8488426169729213,-0.5684006284293143,-0.5909506496322776,-24.27493283403332,23.367126281462944,46.90175456830036,7.494055089869892,-0.7543340688248864,2.93423839834278,5321.8873046875,11.889399999999998,0.098,179.2303792932793,-3.291646941230669,96.78836906016512,1553.0,1814.0,1200.0,1528.0,1471.0,988.0,161.0,292.25,1649319732.601506,1649319733.7380805,dea4e000-c349-4322-a815-aa011eb3b600
-0.2399461287639881,-0.16631342245798,-0.6742476691524675,-1.4252096756491015,-0.8748837152062713,1.8388101594082749,-0.567651152680369,-0.5848890988431859,-24.193913992779404,23.393626145241505,46.706882031400944,7.463748688699338,-0.7333729434319342,2.925646392579807,5310.6728515625,11.85822222222222,0.1,179.22970082782174,-3.319792054311672,96.5673432279316,1553.0,1814.0,1200.0,1528.0,1471.0,988.0,161.0,292.25,1649319733.8471854,1649319734.9685562,dea4e000-c349-4322-a815-aa011eb3b600
-0.2346340548570062,-0.1560705872787947,-0.6647543069692251,-1.4335722550265269,-0.869558490441334,1.839125727951938,-0.5593937689489699,-0.5763161464978536,-24.12611852936467,23.46581921737067,47.1506089147048,7.484377885379131,-0.6977359983124971,2.8955056707780087,5303.007161458333,11.859333333333334,0.0933333333333333,179.22759257609792,-3.284952445152168,96.43908365896738,1553.0,1814.0,1200.0,1528.0,1471.0,988.0,161.0,292.25,1649319735.077293,1649319736.19811,dea4e000-c349-4322-a815-aa011eb3b600
-0.2847275595493339,-0.0919979976937587,-0.4871163771206691,0.4438492876892413,-0.5067382827490781,-0.0404399346281823,-0.906913956071687,-0.937282405331712,-24.636054155326864,26.598010891919323,33.96251337947835,-0.9470102389369388,-0.5567662332751682,2.657957510289212,5300.8203125,11.879555555555555,0.0966666666666666,179.19631941661817,-3.907881349974178,96.24295098240091,1553.0,1349.0,1200.0,1528.0,1471.0,988.0,161.0,292.25,1649319737.109186,1649319738.2462397,d6d5957e-7517-4726-91cc-ec63c59185cf
-0.2807465384055347,-0.0927333132854629,-0.4950440315441628,0.4428919615133916,-0.5136362929509052,-0.0365357831782725,-0.9148952191432508,-0.9411005859575998,-24.78011716909624,26.597076320760944,34.229147249414936,-0.9365085503512546,-0.5612523600021213,2.689701066419741,5303.77255859375,11.958000000000002,0.111,179.15451911424367,-3.925791927361731,96.51849189360388,1553.0,1349.0,1200.0,1528.0,1471.0,988.0,161.0,292.25,1649319738.3547592,1649319739.4831874,d6d5957e-7517-4726-91cc-ec63c59185cf
-0.2855589618613736,-0.0933381533348362,-0.4976737714206013,0.4376324834787495,-0.5170944009407497,-0.0314077914859242,-0.9150924496574708,-0.9455842936683142,-24.647141394092788,26.55973876499495,34.17428111424222,-0.9134414424693992,-0.5634955609875106,2.698188205701783,5306.0736328125,11.959,0.12,179.13071590498612,-3.9371837437463015,96.68362127905375,1553.0,1349.0,1200.0,1528.0,1471.0,988.0,161.0,292.25,1649319739.6128404,1649319740.7100651,d6d5957e-7517-4726-91cc-ec63c59185cf
-0.2789451667777384,-0.0712483426019758,-0.4389122338125776,0.8381154362030834,-0.4315884084394298,-0.4440402264274262,-0.9812435792844448,-1.017178990311942,-24.61793964458906,28.32927658079625,30.96936653974176,-2.729912812090239,-0.4979997910872654,2.5967708845278525,5297.5458984375,11.95,0.12,179.11669079454444,-4.072091975373783,97.10735050572627,1553.0,1264.0,1200.0,1528.0,1471.0,988.0,161.0,292.25,1649319742.6361856,1649319743.7724106,8c263522-e92a-4a5c-aebc-6dfea172e670
-0.2668746619740487,-0.0589411623599317,-0.4457890035423748,0.8321590773420903,-0.4384125833518938,-0.4460256799671706,-0.9902635905465818,-1.0150094528531717,-24.87178246680409,28.15792139935608,31.56352428561741,-2.7224497222751216,-0.4550152518320371,2.6304497859307063,5296.88984375,11.941399999999998,0.11,179.09124560781046,-4.091273238308612,97.24901887439611,1553.0,1264.0,1200.0,1528.0,1471.0,988.0,161.0,292.25,1649319743.8801024,1649319745.2095554,8c263522-e92a-4a5c-aebc-6dfea172e670
-0.2784586649287185,-0.0727341453310129,-0.4492471114082758,0.8218242030265529,-0.4421468138417294,-0.427630649877581,-0.9876207009767206,-1.0091845768042331,-24.75446401732343,28.273916305383214,30.899654264119544,-2.657250705160923,-0.5006386260966499,2.633825350425835,5302.78935546875,11.939400000000004,0.102,179.11406390378966,-4.079519934162218,97.3732873361553,1553.0,1264.0,1200.0,1528.0,1471.0,988.0,161.0,292.25,1649319745.3180606,1649319746.4445903,8c263522-e92a-4a5c-aebc-6dfea172e670
-0.2961694555448703,-0.0549035010471755,-0.395505344127305,1.2174982867938928,-0.3610026530106329,-0.8227116843720725,-1.0590849231274908,-1.0716394081158949,-25.16739530126108,30.28533759123664,28.925971393772915,-4.422106873645077,-0.4586224363295362,2.553526764709798,5308.04287109375,11.9308,0.11,179.11694487758157,-4.211067115076501,97.50596785889633,1553.0,1178.0,1200.0,1528.0,1471.0,988.0,161.0,292.25,1649319747.0300224,1649319748.0759504,a7c5f417-8d82-4a67-b9a4-828fe9a6f3a4
-0.2688338179785965,-0.0471336327423863,-0.3962710030110335,1.212353606620188,-0.3649245052321806,-0.8275352354077928,-1.0605171206327229,-1.08561799907904,-24.94126581768049,30.268969032132112,28.639767022616123,-4.4214193275210105,-0.4279599689655772,2.562607526183421,5313.9658203125,11.9214,0.11,179.10567916356453,-4.217169974477273,97.63299981519371,1553.0,1178.0,1200.0,1528.0,1471.0,988.0,161.0,292.25,1649319748.183897,1649319749.3048408,a7c5f417-8d82-4a67-b9a4-828fe9a6f3a4
-0.2712663271182619,-0.043491443740817,-0.3935492223114095,1.205989637751174,-0.3617425201780241,-0.82725911264551,-1.0575323644357124,-1.0767031769750404,-25.10230454891255,30.136667923851466,28.377847542059108,-4.407307616017697,-0.4098845240531466,2.5502709755663893,5304.1005859375,11.9264,0.102,179.0930788305837,-4.225967983835848,97.7537398012277,1553.0,1178.0,1200.0,1528.0,1471.0,988.0,161.0,292.25,1649319749.412797,1649319750.7465563,a7c5f417-8d82-4a67-b9a4-828fe9a6f3a4
-0.2775908508585847,-0.0438333098728372,-0.3476208179688852,1.4241396610503207,-0.3068598530828713,-1.0364418418010364,-1.079990353440425,-1.1016594204600614,-24.89745271473788,31.84672646328053,27.219517162881697,-5.355920559260681,-0.4262686876385665,2.444567808428457,5294.598779296875,11.905600000000002,0.109,179.12678718017554,-4.279837600442375,97.86932026236266,1553.0,1088.0,1200.0,1528.0,1471.0,988.0,161.0,292.25,1649319751.5530193,1649319752.5811183,f4b4b682-fdc3-42e2-9c49-2a364755ed61
-0.2781299474672695,-0.0366541214905349,-0.3353925282807181,1.4105176109428084,-0.2983000504240208,-1.0302882478919322,-1.0661184691676933,-1.0879321715418075,-24.82225204785386,31.84064835937279,27.411141290602234,-5.310727609687664,-0.3991207067239185,2.397564531649779,5295.5806640625,11.8886,0.104,179.12177382132475,-4.313196415103446,97.94823490199514,1553.0,1088.0,1200.0,1528.0,1471.0,988.0,161.0,292.25,1649319752.689371,1649319753.8164608,f4b4b682-fdc3-42e2-9c49-2a364755ed61
-0.2734358622939096,-0.0367461623652455,-0.3434000857570642,1.4148698296936637,-0.304282708173176,-1.0360868265691685,-1.0763087159960214,-1.0924684748440168,-24.99495881171297,31.796709736662823,27.075323328723066,-5.334405794268208,-0.3963114267208728,2.4305876876000205,5292.96513671875,11.8742,0.092,179.12233662891236,-4.336260341760651,97.99692458851248,1553.0,1088.0,1200.0,1528.0,1471.0,988.0,161.0,292.25,1649319753.925289,1649319755.040287,f4b4b682-fdc3-42e2-9c49-2a364755ed61
-0.2651784799724691,-0.111338719524359,-0.5314001863598119,0.0056715326539259,-0.5872690133073045,0.4019732222133917,-0.8193041477923698,-0.8346092386236242,-24.387398937266145,25.11058205675015,36.98307553509254,1.0241141359267945,-0.6067203086892309,2.70213166622844,5286.437158203125,11.902,0.103,179.18160081430273,-3.86665854009397,98.00145710204572,1553.0,1435.0,1200.0,1528.0,1471.0,988.0,161.0,292.25,1649319756.1553428,1649319757.2888374,1d119e64-063a-4c49-be1f-4febd19ea4fa
-0.2695175502740533,-0.1057373745749682,-0.5370015325503992,0.0035545925582522,-0.5940142966152699,0.400789839647492,-0.8263912984550743,-0.8576720628371618,-24.407381844145416,25.12276579098472,37.26887733608518,1.026067572871434,-0.5881977278040725,2.730088154914085,5300.8203125,11.962,0.12,179.18158442184875,-3.872660910336577,98.06588217837296,1553.0,1435.0,1200.0,1528.0,1471.0,988.0,161.0,292.25,1649319757.3970344,1649319758.4477968,1d119e64-063a-4c49-be1f-4febd19ea4fa
-0.2662698218794342,-0.104238423150256,-0.5333198965147147,0.0018058159376736,-0.5916343817845127,0.3984099258132464,-0.8225387285932528,-0.8380147516103369,-24.279606153678813,25.1224803192508,36.93894716141864,1.0248575550368384,-0.5801072476344407,2.7161330872881404,5306.39951171875,11.9631,0.11,179.17849717634388,-3.871647224886383,98.07092832213176,1553.0,1435.0,1200.0,1528.0,1471.0,988.0,161.0,292.25,1649319758.5553415,1649319759.7574642,1d119e64-063a-4c49-be1f-4febd19ea4fa
-0.1849955299721483,-0.0716701966281137,-0.2804605542661039,-0.0200889552789143,-0.3620372700974857,0.3736596985040361,-0.5588979531491062,-0.5831134762594811,-22.44532665149209,24.903469453507977,37.07214887097857,1.0307131494902044,-0.4533978049938563,1.6886794085753856,5303.371636284723,11.965333333333332,0.12,179.19027849375226,-3.861882444939474,98.08416659478108,1553.0,1435.0,1200.0,1446.0,1471.0,988.0,161.0,292.25,1649319762.0948308,1649319763.235012,14699428-488f-4e57-b0ab-744af0a21c7e
-0.1738739234184435,-0.0584415118934278,-0.2706351896578087,-0.0202708455015937,-0.3555100369717485,0.3594503418257209,-0.5530429465284944,-0.5685189671695716,-22.320330510872022,24.88450200234588,36.93100623967318,0.999597048506254,-0.4027709940131994,1.6595549512527794,5294.635145399306,11.964,0.12,179.18975029245644,-3.888366788037414,98.12633618271671,1553.0,1435.0,1200.0,1446.0,1471.0,988.0,161.0,292.25,1649319763.343523,1649319764.473191,14699428-488f-4e57-b0ab-744af0a21c7e
-0.1794484232610676,-0.0715332310117369,-0.2742149227550225,-0.0192671616662514,-0.3560518730051838,0.3703725246974554,-0.5531727900629133,-0.5739093863612468,-22.43072046454296,24.910041257782183,36.77761530494811,1.0217876240518464,-0.4500821652898992,1.6634780678096217,5291.730034722223,11.964777777777776,0.12,179.1756315325321,-3.886732096096057,98.163875661305,1553.0,1435.0,1200.0,1446.0,1471.0,988.0,161.0,292.25,1649319764.586632,1649319765.6893897,14699428-488f-4e57-b0ab-744af0a21c7e
-0.1206742944062962,-0.0358520509717463,-0.057402764885973,-0.0213095925199094,-0.1613695123045886,0.329090004350695,-0.3346299038296872,-0.3482651043188183,-20.69389607142644,24.938487147564874,37.277892966243286,0.9455659018320348,-0.3189861264779776,0.79782435709887,5307.384765625,11.962666666666664,0.1133333333333333,179.18241770492745,-3.906507912768575,98.15683070063112,1553.0,1435.0,1200.0,1354.0,1471.0,988.0,161.0,292.25,1649319767.5554974,1649319768.7620544,23ce19ed-2752-4236-82d3-88c0f41361fa
-0.1156777895192556,-0.0304610853667978,-0.0578498205668303,-0.0264112868158733,-0.1629342072876246,0.3273543765641489,-0.3366022085737028,-0.3631099849661142,-20.792720119852337,24.936861409852245,37.10556739723087,0.9530636340592789,-0.2959401990419528,0.8036691384862528,5304.1005859375,11.952333333333334,0.11,179.20064672091232,-3.932298422483328,98.1692016910378,1553.0,1435.0,1200.0,1354.0,1471.0,988.0,161.0,292.25,1649319768.870747,1649319769.9989064,23ce19ed-2752-4236-82d3-88c0f41361fa
-0.1122196821919704,-0.0348133039485079,-0.0668698265525353,-0.0259116363963239,-0.1700870986360579,0.3301418999637838,-0.3459377844537957,-0.3685272488013221,-20.98525842301872,24.964759083139576,36.89117281973341,0.9578051887582107,-0.3096336171572085,0.8380280480817868,5308.846137152777,11.95588888888889,0.1155555555555555,179.20812957260304,-3.922614969219412,98.2126416941591,1553.0,1435.0,1200.0,1354.0,1471.0,988.0,161.0,292.25,1649319770.1111782,1649319771.219549,23ce19ed-2752-4236-82d3-88c0f41361fa
-0.0391956549349183,0.0122486202843928,0.1668553719640615,-0.0221845287479606,0.0386144957702675,0.2698397913415549,-0.1172660426340166,-0.1378930615969277,-19.263591303482787,25.10941814647289,37.13110285379779,0.8273926638049752,-0.1330743204698878,-0.0831938682397863,5311.335546875,11.9582,0.1119999999999999,179.19661083802276,-3.922094916718732,98.1380458590298,1553.0,1435.0,1200.0,1252.0,1471.0,988.0,161.0,292.25,1649319772.1296828,1649319773.2664022,95c5418f-8226-42ff-88a3-b66cb81275e1
-0.0406776226018464,0.0077621754806324,0.1669008445449082,-0.0238735883648012,0.038858842400526,0.2729845210222575,-0.1162037374601667,-0.1396741620961581,-19.26887028712993,25.15753062235745,36.736080925143945,0.8385249775232078,-0.146151125417116,-0.0862394092270029,5310.6728515625,11.9533,0.11,179.18774525248008,-3.938708796921918,98.1444259387335,1553.0,1435.0,1200.0,1252.0,1471.0,988.0,161.0,292.25,1649319773.374841,1649319774.4925487,95c5418f-8226-42ff-88a3-b66cb81275e1
-0.0393890503334092,0.0021082359979626,0.1678475506228179,-0.0196791541125679,0.0406865111392613,0.2760218696686166,-0.1132978754694382,-0.135400835541933,-19.14874984129029,25.16526420452816,36.94337180738692,0.8360806048852684,-0.1705005102497382,-0.0944307084767104,5309.576822916667,11.954333333333333,0.11,179.17844253483054,-3.9326642644907466,98.1570834176304,1553.0,1435.0,1200.0,1252.0,1471.0,988.0,161.0,292.25,1649319774.6010358,1649319775.726594,95c5418f-8226-42ff-88a3-b66cb81275e1
-0.3599017022164943,-0.1414360872419373,-0.8070627056576631,0.0566753257633416,-0.8395137038181901,0.3984493718971301,-1.120238541509656,-1.144090294675972,-26.42124000756672,25.841299773477527,36.74875441139023,0.8912002395253631,-0.7268747272663633,3.844675585195921,5312.137044270833,11.951,0.1177777777777777,179.2244006010258,-3.917031479300403,98.31676109786676,1553.0,1435.0,1200.0,1604.0,1471.0,988.0,161.0,292.25,1649319777.6591823,1649319778.5924025,752577e4-99af-43c1-b582-7ef89693406c
-0.3696054417885371,-0.1571224830258855,-0.8174501806258095,0.0642095287416692,-0.8449178206158227,0.4068513881295883,-1.1269575303623265,-1.152137303147014,-26.49773840027443,25.79462766838544,36.679623297792205,0.8922092266568734,-0.7861410282713216,3.873798027610814,5325.705512152777,11.929666666666666,0.1,179.2085879541873,-3.918022331048748,98.23359519671288,1553.0,1435.0,1200.0,1604.0,1471.0,988.0,161.0,292.25,1649319778.7013524,1649319779.826337,752577e4-99af-43c1-b582-7ef89693406c
-0.3745625011635626,-0.1477606106185539,-0.813847436043662,0.0599362024905868,-0.8450624562872823,0.4015787613610388,-1.1263263923215177,-1.1519400720627238,-26.42579219861943,25.90399070362414,36.68928839370498,0.8909426373057968,-0.7508668063546302,3.8692998625470807,5327.17578125,11.932555555555554,0.1,179.20425154297428,-3.916851238197305,98.16936865121754,1553.0,1435.0,1200.0,1604.0,1471.0,988.0,161.0,292.25,1649319779.9347866,1649319781.0569952,752577e4-99af-43c1-b582-7ef89693406c
-0.4341787020495197,-0.182144454134728,-1.0429110042480545,0.1229579028426597,-1.0524701128964224,0.3874307653161738,-1.3801227487288426,-1.3958223089876582,-28.08767433556297,26.72687144651884,36.278708460501264,0.7101358270309527,-0.8866925454126,4.819700506361979,5335.651041666667,11.921555555555557,0.1,179.22187646667254,-3.923034029784113,98.03076210457064,1553.0,1435.0,1200.0,1676.0,1471.0,988.0,161.0,292.25,1649319783.189572,1649319784.3227608,974a8b36-ae41-411e-a9c8-faadacee8f2f
-0.4320617614918823,-0.1846953013908402,-1.041753918222191,0.1107164668478143,-1.050616145502878,0.4022624935141616,-1.3731933789435131,-1.398320563553047,-28.10873586027377,26.547187241900453,36.46268390007308,0.7699635728631571,-0.8961637863663258,4.805634665216999,5337.126953125,11.905333333333331,0.1,179.2307875868097,-3.934035946717189,97.93149365299352,1553.0,1435.0,1200.0,1676.0,1471.0,988.0,161.0,292.25,1649319784.4304812,1649319785.5570984,974a8b36-ae41-411e-a9c8-faadacee8f2f
-0.4401087653434288,-0.192426735537856,-1.040399601650321,0.1097303146711551,-1.047749727843306,0.4111773088329484,-1.3687885613722792,-1.3917462083871894,-28.144068228020064,26.54651625442292,36.54631188474261,0.7922794041486728,-0.9254452224853308,4.792762262007022,5348.4505859375,11.9096,0.1,179.2531702685018,-3.932267373581726,97.87119173419524,1553.0,1435.0,1200.0,1676.0,1471.0,988.0,161.0,292.25,1649319785.6653671,1649319786.7809174,974a8b36-ae41-411e-a9c8-faadacee8f2f
-0.4940710276678487,-0.2008156045665665,-1.229833011677371,0.208200897799531,-1.2201424144500783,0.3400691649322445,-1.6020072481734962,-1.6295800998915295,-29.72620902305849,27.65729305827238,36.52734340685604,0.4074959216396238,-0.9696565274475544,5.616098920212976,5340.45263671875,11.884,0.0866666666666666,179.27445222726365,-3.9473709424342536,97.71918860629226,1553.0,1435.0,1200.0,1747.0,1471.0,988.0,161.0,292.25,1649319787.6943529,1649319788.8313262,0c523d5f-6392-47e9-9706-633307340fb8
-0.4899028898833885,-0.2092044736003815,-1.220471132038868,0.2113960308674748,-1.2099653150314569,0.3428172422676516,-1.5902917453009573,-1.616128966607186,-29.61915757368325,27.69345566556308,36.24808927336096,0.4071790385981855,-0.9992018309434392,5.571474810305845,5343.7822265625,11.866888888888887,0.09,179.2670316061854,-3.9568515295934463,97.57302179914409,1553.0,1435.0,1200.0,1747.0,1471.0,988.0,161.0,292.25,1649319788.9397194,1649319790.0675046,0c523d5f-6392-47e9-9706-633307340fb8
-0.4911257189695753,-0.2026301247955585,-1.2170130222750783,0.1982473351707566,-1.20942621833259,0.34653832303889,-1.58574229109704,-1.6203497050967277,-29.568431733957127,27.65792681905337,36.002718842211564,0.445124126374198,-0.970890829790204,5.559933493456715,5345.263563368056,11.867111111111113,0.09,179.28433171644312,-3.975410813683794,97.46688900745109,1553.0,1435.0,1200.0,1747.0,1471.0,988.0,161.0,292.25,1649319790.18143,1649319791.2891948,0c523d5f-6392-47e9-9706-633307340fb8
-0.2603134617154102,-0.1069470546625689,-0.5725161715915579,-0.0150113671508499,-0.6019824092218363,0.4301771733428638,-0.8305462884314092,-0.8473503305180827,-24.868287379254976,22.20562493479708,38.73160459368672,1.112879779935896,-0.6024517468302844,2.797896009862113,7907.22021484375,11.6664,7.095000000000001,-179.95904299846592,-4.041186052398392,85.85809314649347,1553.0,1435.0,1350.0,1528.0,1471.0,988.0,161.0,292.25,1649319796.0468807,1649319797.2290554,06f8d4fe-296d-4277-ba07-64ee48423c59
-0.2711216914946214,-0.1106812846491519,-0.5730158220300244,-0.0080162604421518,-0.6015485018786754,0.4290858316593382,-0.8298757044753348,-0.851465875187909,-24.698571577098363,22.180399317542143,38.971924327097874,1.0945797785775129,-0.620681884475527,2.797108802984551,7907.22021484375,11.675555555555556,7.058888888888889,-179.77958873316072,-4.008233809490853,80.79981510128158,1553.0,1435.0,1350.0,1528.0,1471.0,988.0,161.0,292.25,1649319797.3372612,1649319798.466725,06f8d4fe-296d-4277-ba07-64ee48423c59
-0.2700434981922362,-0.1104577567728332,-0.5730552683859362,-0.0107380407141569,-0.6024952085700461,0.4326754254321668,-0.8289684441122614,-0.8557917986896478,-24.63550907666788,22.205393272489285,39.159644999038,1.1090111361282695,-0.6216205908893513,2.7974620646722763,7907.22021484375,11.672333333333334,7.120000000000001,-179.7095580446907,-3.937407830869321,76.59730443454,1553.0,1435.0,1350.0,1528.0,1471.0,988.0,161.0,292.25,1649319798.580075,1649319799.681997,06f8d4fe-296d-4277-ba07-64ee48423c59
-0.0302901522797525,0.3101164369421503,-0.5501370839267752,-0.2925803669356091,-0.6838725182098153,0.2911428694300472,-0.876579897367328,-0.8969998345800511,-24.38570976848541,20.90279548985916,40.64530210605079,1.4196044806948942,0.9769846053396062,2.9960724491358857,7910.464789496527,11.654333333333334,7.136666666666667,-179.85510178680457,-3.735912175143936,68.78827022983404,1637.0,1435.0,1350.0,1528.0,1535.0,988.0,161.0,292.25,1649319801.621062,1649319802.7567508,54a9c2ff-ecb9-4eea-82a7-2e88bd9447f9
-0.0288958425762309,0.3088338912769695,-0.5386544339839999,-0.2918423965228051,-0.6746613053907075,0.2864537158915813,-0.8648791954797636,-0.8891358138096209,-24.113940885188995,20.991969329106315,39.98379318441666,1.4085969027874548,0.9767522940029574,2.950286760393855,7914.5205078125,11.634777777777778,7.138888888888889,-179.9808698545416,-3.7453987387186536,66.4216870912352,1637.0,1435.0,1350.0,1528.0,1535.0,988.0,161.0,292.25,1649319802.8681655,1649319803.9873598,54a9c2ff-ecb9-4eea-82a7-2e88bd9447f9
-0.0368382032100141,0.3029372492516761,-0.5494665002725814,-0.2906606573385199,-0.6839908566168478,0.2951137754212937,-0.8752255809865591,-0.909556846685978,-24.2736201501357,21.099682794972622,40.46604433663381,1.425563670798158,0.950663194081578,2.992284196254468,7907.22021484375,11.6368,7.142,179.90830015708406,-3.714068613563936,64.52840206295438,1637.0,1435.0,1350.0,1528.0,1535.0,988.0,161.0,292.25,1649319804.095564,1649319805.2159092,54a9c2ff-ecb9-4eea-82a7-2e88bd9447f9
0.2160112231286019,0.7517285098425404,-0.5092446273362696,-0.604638447217779,-0.7647633307836312,0.1520954130102199,-0.9083077185352824,-0.9325802257161274,-23.35391671752846,20.177996592268777,41.57877480169782,1.8089724258130249,2.6587233546298235,3.148715959036485,7904.791015625,11.625,7.156666666666666,179.41603294183915,-3.6334702469236695,60.60917713480666,1723.0,1435.0,1350.0,1528.0,1599.0,988.0,161.0,292.25,1649319807.1513326,1649319808.288831,69d62318-c6c3-46f1-bbda-c61f79cec12c
0.2226776118112765,0.7411306616813695,-0.5168182782218811,-0.5991817358853389,-0.7710878562704612,0.1610759723293993,-0.9152765313741162,-0.9294771323529264,-23.41705201277366,20.403258411568764,42.03492881228406,1.8180010412961207,2.6142308084516763,3.176848281430909,7907.22021484375,11.6096,7.15,179.26397562776873,-3.611982386417445,59.227268217902726,1723.0,1435.0,1350.0,1528.0,1599.0,988.0,161.0,292.25,1649319808.3965156,1649319809.7177436,69d62318-c6c3-46f1-bbda-c61f79cec12c
0.2184437318073175,0.7454960284174785,-0.5126895865945282,-0.5980377993842412,-0.7677217886754153,0.1538704869317002,-0.9103063214895414,-0.9339476911514052,-23.152371533061764,20.240398976174788,41.8041282888864,1.7984513219140277,2.6308939556556883,3.1600238487964147,7907.22021484375,11.605777777777778,7.132222222222222,179.14674286798257,-3.587754083261482,58.24187303179545,1723.0,1435.0,1350.0,1528.0,1599.0,988.0,161.0,292.25,1649319809.8271077,1649319810.9514048,69d62318-c6c3-46f1-bbda-c61f79cec12c
0.4393944086428613,1.1284517782067338,-0.4894032396565543,-0.8893735869627121,-0.8522810946087641,0.05445319604607,-0.9500548531042174,-0.9725917324260508,-22.71723154974685,19.889167217054585,42.81373088466826,2.2314406757101337,4.092522901099988,3.3457039030727924,7907.22021484375,11.5868,7.138,178.5476636366772,-3.5744691945710776,56.33845268580525,1813.0,1435.0,1350.0,1528.0,1662.0,988.0,161.0,292.25,1649319813.090475,1649319814.227378,72e5109c-3840-4fba-aaf9-dcc3b2bcaa04
0.4376324835020512,1.1227583929460634,-0.4883250460819913,-0.8890317199274841,-0.8516105104602949,0.0598047154813806,-0.9485953468960068,-0.9707114674306524,-22.725783387662275,20.06256080780537,42.83392943971308,2.2438971350474883,4.07107995456164,3.3405082619809114,7907.22021484375,11.559666666666663,7.126666666666667,178.47413619491604,-3.569828038341372,55.78852751798976,1813.0,1435.0,1350.0,1528.0,1662.0,988.0,161.0,292.25,1649319814.335426,1649319815.4563477,72e5109c-3840-4fba-aaf9-dcc3b2bcaa04
0.4334588685091989,1.1152734979252454,-0.4967292566631581,-0.8849583610134558,-0.8553600823026319,0.0642133637856863,-0.9534001024972576,-0.9876963064276448,-22.79405054504079,19.822105684506184,42.90366544955648,2.242579729440628,4.041833779351159,3.3631914721193774,7914.5205078125,11.560333333333334,7.128888888888889,178.42061331476003,-3.594327476291449,55.290427245302645,1813.0,1435.0,1350.0,1528.0,1662.0,988.0,161.0,292.25,1649319815.5655267,1649319816.6821582,72e5109c-3840-4fba-aaf9-dcc3b2bcaa04
-0.5524381062342996,-0.6098321831217011,-0.5853098569771109,0.3456705089545147,-0.4885091279288916,0.5772979223358553,-0.7669065688176643,-0.7856960647458793,-25.30695044104588,23.95104200973717,36.99226372586482,0.6403052696162466,-2.5152453558777768,2.50900813303476,7914.5205078125,11.586888888888888,7.138888888888889,179.09223188712662,-3.6437647649589553,54.34230743713576,1470.0,1435.0,1350.0,1528.0,1403.0,988.0,161.0,292.25,1649319818.6199615,1649319819.7537365,ee1b21a0-54f4-4265-b73a-7db79b37bbc2
-0.5631279993952314,-0.6101346032233557,-0.5878870022986803,0.3479452332903795,-0.491875195130009,0.575575443291786,-0.7701017035050214,-0.8020399017148295,-25.20173278859721,24.02241233350448,36.979410898709865,0.6316991213632749,-2.5174526396555152,2.521664475885871,7914.5205078125,11.659,7.163333333333333,179.07430491728508,-3.600677939536008,54.04904909111676,1470.0,1435.0,1350.0,1528.0,1403.0,988.0,161.0,292.25,1649319819.8610723,1649319820.985514,ee1b21a0-54f4-4265-b73a-7db79b37bbc2
-0.5571058947434965,-0.6117518934197319,-0.5931464826329891,0.3391882022677573,-0.4961616712950928,0.5828729690121593,-0.7730075668379236,-0.8025527007226474,-25.33499939163353,23.917988683657835,36.61595260292111,0.6667722081746733,-2.518610927245634,2.5379739524880005,7912.087076822917,11.651333333333334,7.153333333333332,179.03426634837044,-3.5554663560987545,53.77715747409635,1470.0,1435.0,1350.0,1528.0,1403.0,988.0,161.0,292.25,1649319821.0928257,1649319822.215618,ee1b21a0-54f4-4265-b73a-7db79b37bbc2
-0.8083123800953212,-1.0520838694935344,-0.6170398627358604,0.6610956511198635,-0.4127967261492957,0.7058286071203964,-0.7388160108595598,-0.7624151918937124,-25.922680420481253,26.05490592601801,34.9185629771464,0.2293353618537644,-4.192032343062021,2.354175971908741,7907.22021484375,11.6436,7.175999999999999,179.11976847778448,-3.520928280818359,53.29087555362109,1385.0,1435.0,1350.0,1528.0,1331.0,988.0,161.0,292.25,1649319824.0086453,1649319825.0822887,76e85627-3d7f-4a93-8917-6738138860c2
-0.8000412983947962,-1.0539559164251322,-0.6255317318179883,0.6657754908031263,-0.4170853933762196,0.703341312320825,-0.7459475379635135,-0.7790559706334534,-26.02966322623308,25.775482109109376,34.86064763784948,0.2108512494836188,-4.198902423555148,2.381519115079818,7907.22021484375,11.6036,7.1640000000000015,179.12187764020013,-3.53027462630124,53.1282972438262,1385.0,1435.0,1350.0,1528.0,1331.0,988.0,161.0,292.25,1649319825.1899712,1649319826.3114636,76e85627-3d7f-4a93-8917-6738138860c2
-0.8064184190952044,-1.0567960367185918,-0.627333103964991,0.6691284080212181,-0.4173220701245895,0.7050900887538938,-0.7484852375204294,-0.776728649619114,-26.20256192303829,25.817017886860604,35.136113944627766,0.2073601513589598,-4.211298626733179,2.387846394857983,7907.22021484375,11.604111111111113,7.15,179.13564912295067,-3.490189004972342,52.99972295492321,1385.0,1435.0,1350.0,1528.0,1331.0,988.0,161.0,292.25,1649319826.4204037,1649319827.5357084,76e85627-3d7f-4a93-8917-6738138860c2
-1.091758444462966,-1.5218921446974485,-0.6562207999116386,1.0237092694608392,-0.3337883873606961,0.8245591315873081,-0.7219248600861202,-0.7526796734472389,-26.81307634972531,28.379807199202084,33.71700708835945,-0.3090074138967254,-5.9842375845594935,2.218983322628792,7907.22021484375,11.5874,7.154000000000001,179.285295380244,-3.48388430162363,52.804599211133656,1297.0,1435.0,1350.0,1528.0,1253.0,988.0,161.0,292.25,1649319828.6548822,1649319829.7888515,17608e3c-1ebb-40f2-aedd-612b88233e08
-1.078543995543364,-1.5198277969918093,-0.661835295042739,1.0275749858498084,-0.3386665543065625,0.8199965343884412,-0.7300244602186484,-0.7556907272754951,-26.9342815894878,28.39553021254624,33.809582743863025,-0.3282018772325776,-5.977289275188254,2.2451358783248523,7907.22021484375,11.535,7.13,179.3034213362634,-3.4595806742877264,52.75003248834496,1297.0,1435.0,1350.0,1528.0,1253.0,988.0,161.0,292.25,1649319829.8983114,1649319830.9707804,17608e3c-1ebb-40f2-aedd-612b88233e08
-1.0815419003208782,-1.5334630109285354,-0.6695535826003148,1.020145973036953,-0.3441232642125378,0.8351306824107755,-0.7337060966918945,-0.7540602878833847,-27.11845457264748,28.452722874832567,33.04614471184036,-0.2776549796433634,-6.0199334123124935,2.265386823779839,7907.22021484375,11.538,7.13,179.36029768751996,-3.4179535314382137,52.72311676188269,1297.0,1435.0,1350.0,1528.0,1253.0,988.0,161.0,292.25,1649319831.0788107,1649319832.2563057,17608e3c-1ebb-40f2-aedd-612b88233e08
-0.2650382271567282,-0.1064731537269374,-0.571991867319097,-0.0216503632640071,-0.6002615731120992,0.4386909534416903,-0.8252002450381254,-0.84929250387591,-24.8153315207135,21.943522966928484,39.16405139870628,1.1453715216565576,-0.604035708323591,2.7879795213690977,7907.22021484375,11.587,7.15,178.84575768073756,-3.3036524074234834,52.75378294521821,1553.0,1435.0,1350.0,1528.0,1471.0,988.0,161.0,292.25,1649319834.1852252,1649319835.3211715,5cade215-e26a-4793-833b-fe079031b2a7
-0.2646788294585405,-0.1127456300632017,-0.5820752766422119,-0.0195871133228282,-0.6093325326887978,0.4419058094253484,-0.8348459141895864,-0.8565018281504173,-24.82730456296763,22.02597666165305,38.94071202790831,1.147944426465978,-0.6263889810115498,2.826714577165027,7914.5205078125,11.668,7.169999999999999,178.89433398611467,-3.283346852662588,52.791068264878405,1553.0,1435.0,1350.0,1528.0,1471.0,988.0,161.0,292.25,1649319835.4289377,1649319836.5475016,5cade215-e26a-4793-833b-fe079031b2a7
-0.2689390075913122,-0.1090245488039276,-0.5803659458001881,-0.0165103184290239,-0.6075180122291628,0.4362913165918129,-0.8346355351608756,-0.8583689438857042,-24.83649224323325,21.97903941640017,39.071569967847566,1.1281776112106652,-0.6137986792399719,2.82228822487476,7921.83544921875,11.6675,7.175,178.91744051607682,-3.273881811298537,52.82525336167432,1553.0,1435.0,1350.0,1528.0,1471.0,988.0,161.0,292.25,1649319836.6551883,1649319837.7769976,5cade215-e26a-4793-833b-fe079031b2a7
-0.266873566278243,-0.1208682376692501,-0.6305994604310191,-0.4182205647920473,-0.6923983554404177,0.8366307293841732,-0.773523105417659,-0.7968757488360138,-25.2064981915838,21.0294438034844,41.80113028834293,2.9254062005983594,-0.6335344384662378,2.9183865135154687,7921.83544921875,11.654999999999998,7.169999999999999,178.95204362044996,-3.1679819693733107,52.84552331407415,1553.0,1522.0,1350.0,1528.0,1471.0,988.0,161.0,292.25,1649319838.6929426,1649319839.8335865,e5c8df6a-89cd-4157-a3c7-77b9af00f5f8
-0.2610629375100534,-0.121134498793651,-0.6382333769359011,-0.4224895088935678,-0.6996378111519601,0.8398247665497673,-0.7787666983153213,-0.7910212896721819,-25.11812961192328,20.901012183366376,41.61088396198664,2.940995969905006,-0.6334329115853976,2.945895076638838,7921.83544921875,11.645,7.169999999999999,178.97811035439838,-3.177623464405701,52.91767470039051,1553.0,1522.0,1350.0,1528.0,1471.0,988.0,161.0,292.25,1649319839.9455612,1649319841.0540187,e5c8df6a-89cd-4157-a3c7-77b9af00f5f8
-0.2515301315086181,-0.1048432631622775,-0.6300022902171951,-0.423396769339205,-0.6947070481517469,0.8248089567798079,-0.7741383549867349,-0.7987790234871309,-24.95464458731999,20.79193928187856,41.67661894355772,2.909079566150921,-0.5734389268955051,2.923584641400856,7921.83544921875,11.6495,7.175,179.01490731553292,-3.179406101090392,52.97309109871194,1553.0,1522.0,1350.0,1528.0,1471.0,988.0,161.0,292.25,1649319841.162524,1649319842.2819278,e5c8df6a-89cd-4157-a3c7-77b9af00f5f8
-0.2448905870005255,-0.1183343741732002,-0.6885359241844117,-0.919446314982342,-0.8004094623477315,1.318352369193276,-0.6944939293252285,-0.7248592123566794,-24.93234314724067,19.794451482353505,45.11437901860905,5.128135928468447,-0.5973187411546944,3.033238051353322,7929.16455078125,11.6404,7.154000000000001,179.04857058587623,-3.0116537522444813,53.10589558938638,1553.0,1613.0,1350.0,1528.0,1471.0,988.0,161.0,292.25,1649319844.2206335,1649319845.362662,3b62ef01-4ceb-4911-8c43-3cdfd653385e
-0.2505198732525625,-0.1340580244754078,-0.7040952210028909,-0.9126939075901288,-0.8104901344798155,1.3262826767116551,-0.7091629494857807,-0.7309815769043899,-25.28694960085386,19.858917936226053,44.82042332802752,5.130151860320282,-0.6529934995322626,3.086530485440571,7929.16455078125,11.632666666666664,7.16,179.11514489506226,-3.0303394280367835,53.13817316612909,1553.0,1613.0,1350.0,1528.0,1471.0,988.0,161.0,292.25,1649319845.4705648,1649319846.5837555,3b62ef01-4ceb-4911-8c43-3cdfd653385e
-0.2471121690558319,-0.1277614421316902,-0.6987831456347322,-0.9137118364943628,-0.8090087139949038,1.321001283633616,-0.7046211687946091,-0.7252909279869222,-24.95288766174159,19.92790344909387,44.84873772279531,5.121474554042994,-0.6315295894650593,3.0718034671346315,7929.16455078125,11.629,7.156666666666666,179.15129480960942,-2.9924249056584347,53.16580431696142,1553.0,1613.0,1350.0,1528.0,1471.0,988.0,161.0,292.25,1649319846.691535,1649319847.8116944,3b62ef01-4ceb-4911-8c43-3cdfd653385e
-0.252108674242296,-0.1334285306090313,-0.7602533261698073,-1.376296474890386,-0.9170253096473352,1.780876988445754,-0.6437689799847144,-0.6690276349033347,-25.2429731639934,19.35138202464908,48.88347401558075,7.191968780572164,-0.6334438178729956,3.2170587344426487,7929.16455078125,11.611,7.160000000000001,179.14397740027863,-2.8486715861705667,53.2946427444578,1553.0,1710.0,1350.0,1528.0,1471.0,988.0,161.0,292.25,1649319849.545432,1649319850.8964503,94c402d2-5264-4b85-ab06-b98e207e2514
-0.2471516151666502,-0.138227805072328,-0.7681951420349316,-1.3754155115654887,-0.9232840924289872,1.7816264643781554,-0.6516713491616983,-0.6738137619756586,-25.34930193284757,19.356978490143803,48.37665379321805,7.191173052609319,-0.6468113506200827,3.2462958132814403,7929.16455078125,11.594,7.139999999999999,179.16411279795182,-2.880972511250909,53.34335394607105,1553.0,1710.0,1350.0,1528.0,1471.0,988.0,161.0,292.25,1649319851.013551,1649319852.1228418,94c402d2-5264-4b85-ab06-b98e207e2514
-0.240090764427405,-0.1336257610607895,-0.7714823175267342,-1.3844092285140417,-0.9299899311747496,1.785926089029521,-0.6527100964465293,-0.6774296546916544,-25.040170687772264,19.34766188571306,48.43334933114491,7.221061711361128,-0.6313425619825428,3.26216710564447,7929.16455078125,11.601666666666668,7.143333333333334,179.19124230933514,-2.89050788221907,53.37212953304431,1553.0,1710.0,1350.0,1528.0,1471.0,988.0,161.0,292.25,1649319852.235155,1649319853.3415148,94c402d2-5264-4b85-ab06-b98e207e2514
-0.2250223568334607,-0.131706051295865,-0.7798317435800907,-1.698045453193757,-0.981401364430074,2.080272901241338,-0.5890177905191947,-0.6135664146282291,-25.005601062227328,19.86867939361976,49.69385450641834,8.593241257414917,-0.5974641247276001,3.2519587154664693,7929.16455078125,11.590444444444444,7.1511111111111125,179.15628995462245,-2.8011783282376084,53.496488684537496,1553.0,1814.0,1350.0,1528.0,1471.0,988.0,161.0,292.25,1649319855.007826,1649319856.179389,6e5c91bd-12a7-4724-a06a-f15f79eeb08e
-0.2259953604745743,-0.1319953226092916,-0.770535611267113,-1.6984793613613829,-0.9749847967859232,2.0801940096160827,-0.579484982791919,-0.6093588309029542,-24.76226799794671,20.01983181611708,49.6549447303303,8.595623946137689,-0.5992811512278912,3.2169892274070486,7929.16455078125,11.541999999999998,7.110000000000001,179.15832899376267,-2.758399174377648,53.50502520674415,1553.0,1814.0,1350.0,1528.0,1471.0,988.0,161.0,292.25,1649319856.2988596,1649319857.4420712,6e5c91bd-12a7-4724-a06a-f15f79eeb08e
-0.2232867287534617,-0.1308513859803898,-0.7588595636489122,-1.6720109990686436,-0.9609551291224634,2.061273027535679,-0.5742780974039864,-0.5996287918707948,-24.83801407506739,20.11535865647764,50.65300526054156,8.494735448644562,-0.6058173692421007,3.176237072212672,7929.16455078125,11.531666666666666,7.106666666666666,179.14062150066644,-2.833175701212806,53.519721952454255,1553.0,1814.0,1350.0,1528.0,1471.0,988.0,161.0,292.25,1649319857.5506842,1649319858.672429,6e5c91bd-12a7-4724-a06a-f15f79eeb08e
-0.2765784011510475,-0.0927201645384496,-0.495425344083493,0.5363660347372121,-0.4760836070612438,-0.1257365428505703,-0.9098066708034378,-0.9246515571627189,-24.73352994231586,23.59322809000508,33.84084850277849,-1.3677794814376478,-0.5696750707595899,2.6333666469114645,7892.65771484375,11.587,7.183333333333334,179.15603496089344,-3.605812534244565,53.5527743762128,1553.0,1349.0,1350.0,1528.0,1471.0,988.0,161.0,292.25,1649319860.7074478,1649319861.851553,eac99714-d232-4b07-b824-35b200f1c890
-0.2915674111683276,-0.0974597640876166,-0.4926160736887384,0.5408967716199619,-0.4730068112973045,-0.1192815440094843,-0.906016304134854,-0.9297345427683882,-24.70582427455656,23.71195718083308,34.714699407714846,-1.362414273913814,-0.5957701875055956,2.620619290718309,7892.65771484375,11.663666666666666,7.236666666666666,179.2053716939982,-3.668116144329213,53.75994805357258,1553.0,1349.0,1350.0,1528.0,1471.0,988.0,161.0,292.25,1649319861.959718,1649319863.0699213,eac99714-d232-4b07-b824-35b200f1c890
-0.2962094073222348,-0.0972433163006543,-0.4965824294260458,0.5437293039480463,-0.4773721794128346,-0.1221863947113238,-0.9138433227840352,-0.9464389604239656,-24.89539281433676,23.913487672574387,34.65590936287891,-1.3742976837651295,-0.5936923758337866,2.6428684924550545,7892.65771484375,11.669666666666666,7.203333333333333,179.22450988405257,-3.6644488544954776,53.861289467562834,1553.0,1349.0,1350.0,1528.0,1471.0,988.0,161.0,292.25,1649319863.1793716,1649319864.2426903,eac99714-d232-4b07-b824-35b200f1c890
-0.2918308908788528,-0.0888150015700218,-0.4486554200544833,0.9256857458829288,-0.4010045346680252,-0.5025519389265016,-0.9804678056382278,-0.9946552587964864,-24.89765098196774,25.58407917272308,31.66756214084885,-3.0776465005441254,-0.579539806845789,2.56784911332002,7892.65771484375,11.665,7.21,179.25535046488483,-3.868733124676997,54.04768646837734,1553.0,1264.0,1350.0,1528.0,1471.0,988.0,161.0,292.25,1649319865.0096848,1649319866.1450975,32fd039c-73a9-494d-9575-697c71e97631
-0.283100155359958,-0.0765735647809921,-0.4419232863009352,0.93136598221018,-0.3938384939512688,-0.5135574006123882,-0.978166782733008,-0.9934324294612156,-25.10439744440109,25.4659575345774,32.58847668958496,-3.1155955630083043,-0.5406002984850988,2.54836968638704,7892.65771484375,11.64,7.206666666666667,179.24112090411398,-3.916530219306315,54.19442739087077,1553.0,1264.0,1350.0,1528.0,1471.0,988.0,161.0,292.25,1649319866.2538016,1649319867.3768015,32fd039c-73a9-494d-9575-697c71e97631
-0.2881098093128301,-0.0846994594178142,-0.4461571672163031,0.9268559797462714,-0.3986640662243204,-0.5047740692087348,-0.979455355450894,-0.9946947047353856,-24.97722475795648,25.57493137449385,32.091907244464885,-3.085188342774853,-0.5672876379371822,2.560869253400948,7892.65771484375,11.643,7.21,179.2496571227567,-3.9479544492895977,54.28441778937036,1553.0,1264.0,1350.0,1528.0,1471.0,988.0,161.0,292.25,1649319867.4856863,1649319868.6030266,32fd039c-73a9-494d-9575-697c71e97631
-0.2857167462432988,-0.0693417815076181,-0.3916689587326755,1.3587117456691633,-0.3112646672002939,-0.9422445229825188,-1.059964875030024,-1.0929023823883128,-25.433851653955607,27.518748296120297,28.45422805662032,-5.027614442291425,-0.5238979170802966,2.4815801856211426,7892.65771484375,11.629444444444443,7.183333333333334,179.2328685177768,-4.156314966881407,54.4551106674632,1553.0,1178.0,1350.0,1528.0,1471.0,988.0,161.0,292.25,1649319869.718108,1649319870.85563,4c48e9aa-1e1f-4c3c-a525-223e35f60e96
-0.2903319392974138,-0.0706960972795647,-0.3891575569616064,1.3532813338314196,-0.3116065330902465,-0.9367220671093196,-1.056993267399868,-1.0737578671088233,-25.320627808711937,27.717569779359188,28.357950256192066,-5.001470358489248,-0.5280943061766524,2.474041868240869,7892.65771484375,11.6093,7.183,179.26645498643748,-4.180468635991126,54.57238808909743,1553.0,1178.0,1350.0,1528.0,1471.0,988.0,161.0,292.25,1649319870.964295,1649319872.0837686,4c48e9aa-1e1f-4c3c-a525-223e35f60e96
-0.2871368056180826,-0.071392978215945,-0.4030425830907146,1.3628009902623734,-0.3228092241411932,-0.9430202962800172,-1.0740734357985569,-1.091929377944926,-25.51335631013377,27.718549079847858,28.49342320386684,-5.037857642115945,-0.5325969352241361,2.532600715573643,7892.65771484375,11.617555555555557,7.206666666666667,179.26652010090754,-4.2039378916868895,54.64587671261678,1553.0,1178.0,1350.0,1528.0,1471.0,988.0,161.0,292.25,1649319872.1927035,1649319873.3133614,4c48e9aa-1e1f-4c3c-a525-223e35f60e96
-0.3067415145712036,-0.0730365653212998,-0.3468844910568197,1.6467997071591296,-0.2522533102737396,-1.2109383195485306,-1.1082206244670934,-1.130165814667447,-25.68068366482417,29.935158209257253,27.41422193149903,-6.263302530104297,-0.5593807555572841,2.408312051157774,7907.22021484375,11.601666666666668,7.17,179.29686890811962,-4.349871002015344,54.83415998400707,1553.0,1088.0,1350.0,1528.0,1471.0,988.0,161.0,292.25,1649319875.0416698,1649319876.180649,aa9f511e-8e1b-4394-b51e-0731694c46f2
-0.3103048118177239,-0.0764289291235235,-0.3407703461012054,1.6552937662354814,-0.2430886677279986,-1.210635899181336,-1.101120323122058,-1.1233547852793553,-25.764770860283708,29.821958709588763,28.148849396708805,-6.282154660426784,-0.578680134627599,2.378073690445176,7907.22021484375,11.577000000000002,7.15,179.30192689087303,-4.369436448861426,54.84939699768052,1553.0,1088.0,1350.0,1528.0,1471.0,988.0,161.0,292.25,1649319876.28827,1649319877.4057865,aa9f511e-8e1b-4394-b51e-0731694c46f2
-0.3161822799292047,-0.0724185765489107,-0.3454118369850556,1.6480751307287167,-0.2488740950536351,-1.2126345025454346,-1.1068926054390409,-1.1309021432293105,-25.83491455463775,29.812690413763125,27.43920011994739,-6.270803302574827,-0.5562584451559341,2.399874827087276,7914.5205078125,11.5832,7.159999999999999,179.28377498013478,-4.400009400114778,54.90387595253837,1553.0,1088.0,1350.0,1528.0,1471.0,988.0,161.0,292.25,1649319877.5141509,1649319878.844081,aa9f511e-8e1b-4394-b51e-0731694c46f2
-0.2492766470076932,-0.0996975711531971,-0.5623800409752759,-0.0041166606576233,-0.589259018665268,0.4110534076585344,-0.8218519616710895,-0.8492619497521824,-24.79124518625193,21.83233011578096,38.525664333341375,1.0433663845517418,-0.5746869441554185,2.7552600994527663,7907.22021484375,11.58,7.15888888888889,179.27460856270466,-3.917396467534176,55.00860605104884,1553.0,1396.4444444444443,1350.0,1528.0,1471.0,988.0,161.0,292.25,1649319879.5077405,1649319880.458285,0bdbfc43-c20c-4571-83d3-dd6b084422fb
-0.2689916023426422,-0.0998730556844445,-0.5651791967210805,0.0008459608264852,-0.5925679395233413,0.411269349674578,-0.8268909489540514,-0.8463904757085996,-24.84283718232036,22.00734569306184,39.14916504773263,1.0337514165372903,-0.581291521799876,2.771550733607324,7916.958821614583,11.666333333333334,7.173333333333334,179.29103592656844,-3.8972555677641454,55.02567507323965,1553.0,1435.0,1350.0,1528.0,1471.0,988.0,161.0,292.25,1649319880.5677118,1649319881.710965,0bdbfc43-c20c-4571-83d3-dd6b084422fb
-0.2532000161442566,-0.1047117761755688,-0.5745936661737461,-0.0013761689519114,-0.600509754664027,0.4141883600139426,-0.8368313682724168,-0.8522942429066463,-25.06543227938546,22.06642900940125,38.52558812067087,1.0450348451241955,-0.5926596790202293,2.807689385399283,7925.907172309027,11.66688888888889,7.174444444444443,179.3177950899168,-3.887674994224604,55.04704825297244,1553.0,1435.0,1350.0,1528.0,1471.0,988.0,161.0,292.25,1649319881.818918,1649319882.935611,0bdbfc43-c20c-4571-83d3-dd6b084422fb
