raw_voltage_G-,raw_voltage_G0,raw_voltage_G1,raw_voltage_G2,raw_voltage_G3,raw_voltage_G4,raw_voltage_G5,raw_voltage_G6,load_x,load_y,load_z,load_l,load_m,load_n,rpm,voltage,current,roll,pitch,yaw,aileron1_pwm,elevator_pwm,throttle_pwm,rudder_pwm,aileron2_pwm,pbaro,pdiff,Tt,sample_start_time,sample_end_time,uid
0.0483259037862878,0.2130659152914208,0.0252762390284615,-0.1570041447666169,-0.1315745644286151,0.3166776359331911,-0.1917955981796573,-0.2144113579166017,-13.17260871538598,19.2393217671,53.30909186424779,1.196445214015594,0.4411413111898931,0.5003151304624237,5588.441243489583,11.96,0.11,178.83994594866374,-8.77156267638197,107.51913492050768,1553.0,1435.0,1200.0,1528.0,1471.0,988.0,161.0,292.25,1649321674.0925114,1649321675.0711944,99a21afa-888a-4920-937e-c347bb2fb939
0.072335423072526,0.2012978326612088,0.025079008565167,-0.1527045208000048,-0.1274327248428202,0.3232914297006246,-0.188981776907576,-0.2147663728042695,-13.335591696344157,19.157252314925906,53.18496766304977,1.2009526967729074,0.3987142385859325,0.4892947590638108,5591.27587890625,11.960777777777777,0.11,178.8837138008652,-8.782931146800502,107.07129687155782,1553.0,1435.0,1200.0,1528.0,1471.0,988.0,161.0,292.25,1649321675.179166,1649321676.5042431,99a21afa-888a-4920-937e-c347bb2fb939
0.0587315797092394,0.2128621105119828,0.0297412328731015,-0.1547198114850667,-0.1266650432179794,0.3184436068678303,-0.1864789729268067,-0.2235229002317588,-13.150422717146444,19.205583728412098,53.86839127570516,1.1953596870598426,0.4352640700454935,0.4807857387299383,5588.851019965277,11.959222222222223,0.11,178.91899400465803,-8.78926975207775,106.61081614245428,1553.0,1435.0,1200.0,1528.0,1471.0,988.0,161.0,292.25,1649321676.6126764,1649321677.6584008,99a21afa-888a-4920-937e-c347bb2fb939
0.3032922640220834,0.6180983228567334,0.0918480880088798,-0.3660552932638665,-0.1661161921303869,0.1149503470660524,-0.2087837154337524,-0.2308866764716479,-12.280561299198292,18.38433878800452,53.87920031152537,1.2128921947486344,1.978837019288741,0.5297595790882539,5602.23974609375,11.936,0.1066666666666666,178.69044373247092,-8.788493197514619,105.83126084954384,1637.0,1435.0,1200.0,1528.0,1535.0,988.0,161.0,292.25,1649321679.566842,1649321680.7031052,96d53f2d-7aee-4e9f-9bfb-551326b33945
0.2988480049766066,0.6187163115195614,0.1010390265474376,-0.3660552933091797,-0.1588449625332081,0.1147531166202676,-0.1977125121136803,-0.2224846589909948,-11.97166731465854,18.378469559701127,54.013593710941805,1.2130446437085918,1.9783600084740496,0.4920473585858754,5598.580078125,11.935444444444444,0.1077777777777777,178.69688232412852,-8.811179670842812,105.59533700869272,1637.0,1435.0,1200.0,1528.0,1535.0,988.0,161.0,292.25,1649321680.8124936,1649321681.9319696,96d53f2d-7aee-4e9f-9bfb-551326b33945
0.303555237919098,0.6198208018974022,0.0981857595189135,-0.3608747059646437,-0.1611065384301732,0.1112818608827701,-0.2018149057111545,-0.2365406168416428,-11.974918590185911,18.373724385378274,54.3252416419798,1.1934326446689,1.978944599317221,0.5054762511925547,5605.495822482639,11.93611111111111,0.1088888888888888,178.68356193742716,-8.790079983268045,105.44098004581976,1637.0,1435.0,1200.0,1528.0,1535.0,988.0,161.0,292.25,1649321682.0407484,1649321683.1597626,96d53f2d-7aee-4e9f-9bfb-551326b33945
0.5099240090898983,0.9752694755989402,0.1567237539052243,-0.5589072667154149,-0.1984488391008279,-0.0604401137776849,-0.2178037220013493,-0.2517668090112851,-10.966314253526166,18.07694744866732,53.66303159245239,1.255612954477568,3.338911744559164,0.5404748655981014,5614.063096788194,11.902444444444445,0.0922222222222222,178.3122956214425,-8.787376556449058,105.0083778721785,1723.0,1435.0,1200.0,1528.0,1599.0,988.0,161.0,292.25,1649321685.0960016,1649321686.234479,fd876658-1116-4c42-9e24-c7ec790497c5
0.500890855597754,0.9863669744482436,0.1463362841686,-0.5599986089178609,-0.2093228120039049,-0.0659099716336877,-0.229939969987326,-0.2587882131621147,-10.96390930396254,17.916922606371493,54.20322452107169,1.2442925239659135,3.375202518003669,0.5888867887099528,5634.64853515625,11.901,0.102,178.32389571116488,-8.78990226554039,104.85765426638004,1723.0,1435.0,1200.0,1528.0,1599.0,988.0,161.0,292.25,1649321686.3424847,1649321687.571286,fd876658-1116-4c42-9e24-c7ec790497c5
0.5108707151387124,0.9707989192014814,0.1527528477997874,-0.5655342116454869,-0.2002765080158918,-0.0495792902588234,-0.2185531976998196,-0.2346735015108516,-11.15857740171507,17.967064110999722,53.70093348135537,1.2939505461103775,3.3237316287484493,0.5488091502943068,5652.737358940973,11.906,0.0955555555555555,178.2904162488012,-8.780504816961594,104.77597992675892,1723.0,1435.0,1200.0,1528.0,1599.0,988.0,161.0,292.25,1649321687.679742,1649321688.792354,fd876658-1116-4c42-9e24-c7ec790497c5
0.6440801441099714,1.208895499492287,0.2093053882351166,-0.6733272598809407,-0.2136750309149758,-0.2044577938424094,-0.2310707580111914,-0.2652836710553573,-10.631973732405672,18.75566804442421,50.89649529916371,1.1969343011367055,4.254737195031995,0.5317471912436631,5655.633517795139,11.843222222222222,0.09,178.0535498418446,-8.773690090580953,104.63964935092544,1813.0,1435.0,1200.0,1528.0,1662.0,988.0,161.0,292.25,1649321689.703309,1649321690.8467338,35ad85f1-95ce-4e48-b521-b2fa44affa6b
0.6406483347249261,1.2116304282554926,0.1871366873372629,-0.6760753383084779,-0.2333323338472019,-0.208362956919617,-0.2561847706910539,-0.2812987845685872,-11.009661575248092,18.658583749570663,50.18412814063161,1.192306759219805,4.272913037937283,0.6235743501846263,5630.455132378473,11.849666666666666,0.09,178.05596165753155,-8.770874345095615,104.50215157165384,1813.0,1435.0,1200.0,1528.0,1662.0,988.0,161.0,292.25,1649321690.9764605,1649321692.070058,35ad85f1-95ce-4e48-b521-b2fa44affa6b
0.6441590362806278,1.2053585002911702,0.1938030760525735,-0.6763383123767457,-0.2256271970409999,-0.2021304742935403,-0.243798697333602,-0.2624698485920078,-10.72924706653991,18.487523537719657,50.23596795227652,1.2062525648512916,4.247397425033994,0.5859357370132163,5606.313096788194,11.845666666666666,0.09,178.0647984044977,-8.772302139223362,104.40063674674964,1813.0,1435.0,1200.0,1528.0,1662.0,988.0,161.0,292.25,1649321692.1791656,1649321693.3064556,35ad85f1-95ce-4e48-b521-b2fa44affa6b
-0.2011311732766919,-0.2533315031591314,-0.0427682655253417,0.0571881249998737,-0.0891042730613672,0.5749574546341615,-0.1611722819595313,-0.1815922091402225,-14.376298022472222,20.606392208814903,52.94604385974432,1.298679704120065,-1.3270576000413783,0.4351491657279309,5608.35205078125,11.942777777777778,0.1022222222222222,179.025110859243,-8.769911762741337,104.20247019163034,1470.0,1435.0,1200.0,1528.0,1403.0,988.0,161.0,292.25,1649321695.641813,1649321696.7854557,e300b1d2-f44a-489b-ab0c-750d76cab5c7
-0.1943332966690022,-0.2481772135920404,-0.0330776760253337,0.0581874259027859,-0.0808863374268294,0.5711180356962815,-0.15509758372903,-0.1851949520114021,-14.538014742826844,20.74626580970597,53.30865368081816,1.289184002796422,-1.3093014223514787,0.403070985785765,5619.789333767361,11.94022222222222,0.1022222222222222,179.04957659685,-8.763649807364772,104.1586143058796,1470.0,1435.0,1200.0,1528.0,1403.0,988.0,161.0,292.25,1649321696.9186904,1649321697.8692777,e300b1d2-f44a-489b-ab0c-750d76cab5c7
-0.1814870191840354,-0.2365406160612335,-0.0420056411412152,0.0630392947923348,-0.0903402505777416,0.5535382304846885,-0.1673653184004439,-0.1922163564403637,-14.37131612223513,20.548495293801707,52.98561832849393,1.237012026126692,-1.2651406126476394,0.4467767000319293,5620.60791015625,11.947444444444445,0.11,179.0413849233054,-8.75832178549347,104.12812206469496,1470.0,1435.0,1200.0,1528.0,1403.0,988.0,161.0,292.25,1649321697.978297,1649321699.0330107,e300b1d2-f44a-489b-ab0c-750d76cab5c7
-0.4290507094059134,-0.6436111953037649,-0.0934038969288488,0.2452144760510039,-0.0506706321939584,0.7783677659199886,-0.1369523815974422,-0.152559885715791,-15.411682365890645,22.24195002787083,51.99864721255095,1.3392772395015695,-2.8014511445709904,0.3690323170582806,5627.98828125,11.883777777777777,0.1044444444444444,179.16867536431744,-8.772738322692858,104.07552277789668,1385.0,1435.0,1200.0,1528.0,1331.0,988.0,161.0,292.25,1649321700.1480095,1649321701.2817576,776ba929-567c-483a-bf7a-0804d6af4578
-0.4369136314476936,-0.6613356442139459,-0.1030813378960445,0.2519729055412315,-0.0532346280720479,0.7923974235043039,-0.143000782305816,-0.1752150907678555,-15.808173136733808,22.18106710427358,52.35103806351007,1.354529509834823,-2.869692209389031,0.3924869498655309,5624.705729166667,11.889333333333331,0.1,179.19561059476428,-8.773049286027572,103.89856244233044,1385.0,1435.0,1200.0,1528.0,1331.0,988.0,161.0,292.25,1649321701.3895285,1649321702.5121546,776ba929-567c-483a-bf7a-0804d6af4578
-0.4358748842886417,-0.6559315281182745,-0.1050273450451735,0.2468449142535856,-0.0563245718198906,0.7866514437775275,-0.1458803469864361,-0.1699819091657232,-15.775306947966014,22.10145360535252,51.5983199209068,1.3524569088634957,-2.84247813643528,0.4030510257555875,5613.24560546875,11.892,0.1,179.21078879291989,-8.76405487552805,103.74284475399286,1385.0,1435.0,1200.0,1528.0,1331.0,988.0,161.0,292.25,1649321702.6241395,1649321703.851043,776ba929-567c-483a-bf7a-0804d6af4578
-0.6741293303730937,-1.0808318701238313,-0.1483917481799443,0.443286422393096,-0.0080162603687102,1.0079702809168736,-0.1068813113616795,-0.141028477719029,-16.523889541676006,24.091923859184195,49.55579153470853,1.416999374754773,-4.439613064202795,0.2869256952948702,5604.987487792969,11.839624999999998,0.08125,179.3403521691057,-8.778926663808367,103.5522077235236,1297.0,1435.0,1200.0,1528.0,1253.0,988.0,161.0,292.25,1649321705.0640233,1649321706.197482,b4584b5b-ef25-4031-9840-e7fa917e1674
-0.6899340692594087,-1.0822650791346555,-0.1579902971522923,0.4384214051929504,-0.016089560028858,1.0138214503827552,-0.1171109976462512,-0.141436087491436,-16.862525171640907,24.11230931327841,49.4763658333936,1.440596093187485,-4.441896904998186,0.3249973127980721,5594.92578125,11.833888888888888,0.09,179.38707597539792,-8.787524449017335,103.2792411106188,1297.0,1435.0,1200.0,1528.0,1253.0,988.0,161.0,292.25,1649321706.3059604,1649321707.4306586,b4584b5b-ef25-4031-9840-e7fa917e1674
-0.6729065011715311,-1.0756907263341202,-0.1494173465884367,0.4398283155624254,-0.0074508664430807,1.0089958791595952,-0.1102473778086436,-0.134572467534406,-16.971757312650663,24.029076297968587,49.95101654554159,1.4264745366084637,-4.420303936873596,0.293207950318345,5588.72470703125,11.8432,0.083,179.42028314088665,-8.78534704162818,103.09013859598306,1297.0,1435.0,1200.0,1528.0,1253.0,988.0,161.0,292.25,1649321707.5401974,1649321708.6540887,b4584b5b-ef25-4031-9840-e7fa917e1674
0.065708480189857,0.2135655657320386,0.0265385138616336,-0.1572539701153437,-0.1288527841791656,0.3206090958509909,-0.1915194755456553,-0.2124259047789604,-13.481727009973236,19.24764529425253,53.911982721308895,1.2059018067062417,0.4399706824732473,0.4951832097010534,5595.331814236111,11.949222222222222,0.1,179.01812281681217,-8.824253411824126,102.86065069060484,1553.0,1435.0,1200.0,1528.0,1471.0,988.0,161.0,292.25,1649321709.56769,1649321710.7066562,37d3b513-5363-40ef-887a-6e240dd6b7da
0.0638413653196287,0.2124084805157748,0.0218181318959632,-0.1454069938742535,-0.1320347688320148,0.3112866708259984,-0.1992114635318293,-0.2143324665586727,-13.498915812420105,19.28605893780123,53.92821230427547,1.1582427369110762,0.4338515132210853,0.5168623121361304,5604.275553385417,11.954333333333333,0.1077777777777777,178.95176221665614,-8.818349661924035,103.14044255976523,1553.0,1435.0,1200.0,1528.0,1471.0,988.0,161.0,292.25,1649321710.8150158,1649321711.9150157,37d3b513-5363-40ef-887a-6e240dd6b7da
0.0618559121879826,0.2100548639763373,0.0178077795116389,-0.1549660967443711,-0.1359662292518873,0.3165855950687068,-0.2007367124427369,-0.2317676392583818,-13.520410606208213,19.210929659115337,53.08254541770183,1.1908697673261344,0.4335927004234062,0.5283097456523368,5597.84921875,11.9496,0.11,178.89860968453507,-8.801338734286661,103.35506046030142,1553.0,1435.0,1200.0,1528.0,1471.0,988.0,161.0,292.25,1649321712.023557,1649321713.163386,37d3b513-5363-40ef-887a-6e240dd6b7da
0.0602740229221702,0.1978801832185859,-0.0037373711028101,-0.5076991492350232,-0.1923073859208066,0.6741916670163686,-0.1210768469647164,-0.1442261399478842,-13.333575654918052,18.545728607898955,56.27765420167738,2.7852585696419343,0.4003415646496001,0.5213423289361372,5583.9912109375,11.943333333333332,0.1088888888888888,178.8600950067153,-8.684010465688592,103.65403939331426,1553.0,1522.0,1200.0,1528.0,1471.0,988.0,161.0,292.25,1649321714.0744812,1649321715.2155983,7e5f744c-455b-4403-abe2-0b1994020e93
0.0671548367644883,0.1954072169906231,-0.0058335767541179,-0.5045505413837116,-0.1931104679002848,0.6749138338014288,-0.1219365694660286,-0.1506533241021109,-13.286542741004048,18.476962530129462,56.43712395158391,2.7792677468207363,0.3887984584638398,0.5265319865916839,5590.06103515625,11.941333333333334,0.0966666666666666,178.84461476241643,-8.674975738100223,103.79684119393136,1553.0,1522.0,1200.0,1528.0,1471.0,988.0,161.0,292.25,1649321715.3233926,1649321716.4380352,7e5f744c-455b-4403-abe2-0b1994020e93
0.086220446190261,0.203848679616015,-0.0046764913952351,-0.502433600732665,-0.1933865904845635,0.6640135656763181,-0.1241849965959433,-0.1457883059978832,-13.25133684032096,18.46151361389281,56.33635015774948,2.7499549496825835,0.420915502890458,0.5294609296608406,5599.799967447917,11.935,0.1,178.85129013396525,-8.6746117459357,103.91068906374684,1553.0,1522.0,1200.0,1528.0,1471.0,988.0,161.0,292.25,1649321716.5463178,1649321717.6714373,7e5f744c-455b-4403-abe2-0b1994020e93
0.0979885291653372,0.2053081848639141,-0.031591873326934,-0.9729861929915472,-0.2723445204648743,1.117341130322491,-0.0268977886242328,-0.0516041901450709,-13.070665673346957,17.851111472496278,59.66147729903385,4.825328232714549,0.4518587229570634,0.5362942760780881,5635.802517361111,11.916111111111112,0.0944444444444444,178.8192671714966,-8.51830476405473,104.12521543974816,1553.0,1613.0,1200.0,1528.0,1471.0,988.0,161.0,292.25,1649321719.6026714,1649321720.7434466,7672a72b-8d0a-4171-a176-3d8d7cab8911
0.0960819682311866,0.1964196665574154,-0.0215725664919817,-0.96428175097783,-0.2611286811181897,1.1231265564456714,-0.0138016868317008,-0.0447011239658385,-12.888641832856168,17.897749462952397,60.47226761582605,4.8197227034060806,0.4096112994712543,0.4889669313216789,5649.007649739583,11.914666666666667,0.09,178.83408261071625,-8.51011631587727,104.12039863856349,1553.0,1613.0,1200.0,1528.0,1471.0,988.0,161.0,292.25,1649321720.8531744,1649321721.9785805,7672a72b-8d0a-4171-a176-3d8d7cab8911
0.0952667490900911,0.1967746813595022,-0.0274894799559123,-0.9623488913995518,-0.266572242048362,1.1178276320783966,-0.0217566482330933,-0.0499869001679853,-12.962762501410412,17.918653979628576,59.96849397667396,4.803181596064668,0.4153196391303783,0.5150617945668133,5661.44384765625,11.917111111111112,0.09,178.8727369279591,-8.516715796435316,104.1280105049385,1553.0,1613.0,1200.0,1528.0,1471.0,988.0,161.0,292.25,1649321722.0912392,1649321723.4012,7672a72b-8d0a-4171-a176-3d8d7cab8911
0.1149897931354,0.200758736139239,-0.0531031411121766,-1.3575332661950574,-0.3369835208816225,1.4938672018732948,0.0540324378491822,0.02781393740939,-12.877431186297889,17.51372888313967,62.44501494984178,6.536109886501391,0.454733988110845,0.5387070664499356,5664.354437934027,11.870888888888889,0.0822222222222222,178.8888364427427,-8.399909980390513,104.13679868167056,1553.0,1710.0,1200.0,1528.0,1471.0,988.0,161.0,292.25,1649321724.0095909,1649321725.247584,64b4c8cf-f21e-4108-8f02-1769ee4801b8
0.1089413929999381,0.2020210109244375,-0.0539578063699445,-1.366434942369273,-0.3376935505492363,1.5030844387680984,0.0579901954636697,0.0456830154846764,-12.770428738638302,17.292853896563436,62.77970058463634,6.575502698572049,0.4567826984077466,0.535916361606056,5661.44384765625,11.861555555555556,0.08,178.91918828559443,-8.405919313631523,103.98614671696744,1553.0,1710.0,1200.0,1528.0,1471.0,988.0,161.0,292.25,1649321725.356429,1649321726.4720662,64b4c8cf-f21e-4108-8f02-1769ee4801b8
0.1073635494751542,0.1947629308964864,-0.0406644739889242,-1.3492101333680235,-0.324702636552913,1.492854752203968,0.0669050114619134,0.0536379766817746,-12.71307207295338,17.641052023732364,62.650386870258345,6.51663870315554,0.4290285221687274,0.4863968119421619,5659.20146484375,11.8648,0.09,178.95816346994627,-8.393607005933434,103.86465267804908,1553.0,1710.0,1200.0,1528.0,1471.0,988.0,161.0,292.25,1649321726.579816,1649321727.707305,64b4c8cf-f21e-4108-8f02-1769ee4801b8
0.1134382470146083,0.1847041786617787,-0.0524457062695713,-1.4212782104122617,-0.3506055724590288,1.5700507559127548,0.0647486252735341,0.0427114101800608,-13.019377731754156,18.669190560388014,62.72482628149496,6.858763063372449,0.4009539792261524,0.5384267044590992,5613.61787109375,11.8294,0.0799999999999999,178.9859281889224,-8.343404774024382,103.64902497198962,1553.0,1814.0,1200.0,1528.0,1471.0,988.0,161.0,292.25,1649321729.639455,1649321730.777434,d5e857b9-4865-40b9-a061-3d7e0eb31093
0.1048258511301883,0.1866633343289857,-0.0426762246120939,-1.4081820956749056,-0.3407703460140046,1.5468827506931335,0.0693901150021349,0.0442366590589641,-12.915239604792012,18.692971489382305,61.47394203256084,6.777656959832727,0.4176588199300948,0.5037560894107928,5598.946044921875,11.8361,0.0799999999999999,179.00062265790274,-8.379837429944054,103.465393970116,1553.0,1814.0,1200.0,1528.0,1471.0,988.0,161.0,292.25,1649321730.885391,1649321732.0063016,d5e857b9-4865-40b9-a061-3d7e0eb31093
0.1081130251244226,0.1878335682507957,-0.0522484758363016,-1.4102201453773515,-0.3485149294319897,1.5512349694120575,0.0600150945933116,0.0352823967069113,-13.1346519842775,18.598903717887342,61.91794246151332,6.790894426021321,0.4193081934452293,0.5413356744804945,5594.92578125,11.83477777777778,0.08,179.02624618846505,-8.35355386594859,103.3274941203752,1553.0,1814.0,1200.0,1528.0,1471.0,988.0,161.0,292.25,1649321732.114929,1649321733.2335784,d5e857b9-4865-40b9-a061-3d7e0eb31093
0.0342305013553637,0.2147357996434578,0.0661949818894388,0.308722675188896,-0.0525377471186674,-0.13274479834405,-0.2895693148868062,-0.3059657416524701,-13.55557541794805,21.35906531079989,50.3780045554071,-0.8486030974540992,0.4213821294681428,0.475110069268614,5585.811279296875,11.9495,0.1,179.014429202291,-8.931976262069545,103.2031748116522,1553.0,1349.0,1200.0,1528.0,1471.0,988.0,161.0,292.25,1649321734.14521,1649321735.2080753,a8c7b473-0a3c-49c1-8727-9fcb217080a7
0.0630261461835088,0.2186278135591383,0.06497215312669,0.3046202822090301,-0.0539578063811939,-0.1329551774929056,-0.2908973334232953,-0.3049138460205162,-13.615947439727274,21.281239764452565,50.34465120627887,-0.840434364134137,0.4371287078873064,0.4809795503650182,5585.20458984375,11.953666666666669,0.1033333333333333,178.95897944987908,-8.940813815377503,103.45668183615663,1553.0,1349.0,1200.0,1528.0,1471.0,988.0,161.0,292.25,1649321735.3166163,1649321736.3064415,a8c7b473-0a3c-49c1-8727-9fcb217080a7
0.0568331102601631,0.2133025918263433,0.0574510988849059,0.3049358509116552,-0.0581259432408678,-0.1299178284544495,-0.2961831100708705,-0.3113304107398634,-13.7351463406855,21.11198307207059,50.02954982647563,-0.8359276329946329,0.4202737663008474,0.5033346472383815,5594.92578125,11.956555555555555,0.1,178.9145042936436,-8.926112592098958,103.72425753253154,1553.0,1349.0,1200.0,1528.0,1471.0,988.0,161.0,292.25,1649321736.4141943,1649321737.7407582,a8c7b473-0a3c-49c1-8727-9fcb217080a7
0.0264333244135009,0.2174312822509033,0.0876405052928663,0.6512198854751701,-8.704186061003205e-06,-0.4647362790606938,-0.3702365794841717,-0.3960606239753687,-14.07292284043096,22.70880448229285,48.15261395580572,-2.357821808678937,0.4140907518402488,0.4884587340174146,5602.23974609375,11.9385,0.1,178.85893994583566,-9.03188826924849,104.10116710259044,1553.0,1264.0,1200.0,1528.0,1471.0,988.0,161.0,292.25,1649321738.6503165,1649321739.7880986,1d8a9e04-de85-4535-9965-dd49a2014aa9
0.0235011651260396,0.2196928579023006,0.0912300992985283,0.650049651623401,0.0023054663502994,-0.4625141488935317,-0.3659895498796356,-0.3859098288768728,-13.971415465438044,22.72336818770901,48.659481690912045,-2.349781448374515,0.4177341243093913,0.4754101648472486,5593.304796006944,11.934222222222225,0.1,178.82084266846516,-9.032034596565085,104.2914569317769,1553.0,1264.0,1200.0,1528.0,1471.0,988.0,161.0,292.25,1649321739.8969471,1649321741.22199,1d8a9e04-de85-4535-9965-dd49a2014aa9
0.0399430620263213,0.2306676358414277,0.0912229770869874,0.6401536150745141,-0.0005302691866078,-0.4682130143455396,-0.3678446121046357,-0.3846092033692426,-13.964387049843731,22.66048638408212,48.07648215809528,-2.34077112734203,0.4652304749119218,0.4823730943174693,5587.63134765625,11.933444444444444,0.0977777777777777,178.81903646288464,-9.045489120592626,104.4615369901192,1553.0,1264.0,1200.0,1528.0,1471.0,988.0,161.0,292.25,1649321741.33031,1649321742.4487114,1d8a9e04-de85-4535-9965-dd49a2014aa9
0.0102078330393779,0.225872744837402,0.1238520141613184,1.0232490650087551,0.0620531425541614,-0.8333601107243008,-0.4508644015071171,-0.4800413653561314,-14.348798019354817,24.73318228629516,45.43376948115422,-4.010724790886104,0.4283261893814068,0.4687897671404112,5586.539306640625,11.9138,0.09,178.81279928591655,-9.176828127776016,104.67398091733357,1553.0,1178.0,1200.0,1528.0,1471.0,988.0,161.0,292.25,1649321743.5636766,1649321744.707304,4c759154-7a94-4508-b808-40e2f28ec64a
0.0215683067514163,0.2250049309417459,0.1160153914024147,1.018068479038608,0.055794363195293,-0.830822411035426,-0.4556899740380662,-0.4735722054050588,-14.322147651784306,24.50588985995847,44.94961674106895,-3.9952968302280034,0.4293109546083442,0.4941458555114982,5581.971354166667,11.916222222222222,0.09,178.82025071873707,-9.198287661969934,104.74814918262082,1553.0,1178.0,1200.0,1528.0,1471.0,988.0,161.0,292.25,1649321744.8163512,1649321745.937505,4c759154-7a94-4508-b808-40e2f28ec64a
0.0144680106825298,0.2344062482898587,0.1191184836052968,1.0233937006743243,0.0556891735636391,-0.8401185438656451,-0.4611203869554728,-0.4930454294868505,-14.560872231783751,24.87777181418901,45.62213686759553,-4.025592077857132,0.4598480932037692,0.4996042319212602,5568.674207899306,11.927777777777775,0.0922222222222222,178.82850917635352,-9.204249373614232,104.85621264111924,1553.0,1178.0,1200.0,1528.0,1471.0,988.0,161.0,292.25,1649321746.045884,1649321747.1570914,4c759154-7a94-4508-b808-40e2f28ec64a
0.006881212840854,0.2292125135253007,0.1347391343471976,1.1817828886218231,0.0806453988641409,-0.988251838981642,-0.4941104741975498,-0.5101650370018808,-14.552502573063204,26.03907365387072,44.49406832155175,-4.70745396675582,0.4318160964372987,0.4899896601811864,5565.86083984375,11.887666666666668,0.08,178.85954555594208,-9.268124448958543,105.00082140622672,1553.0,1088.0,1200.0,1528.0,1471.0,988.0,161.0,292.25,1649321749.096176,1649321750.196523,6cb28e7e-e7d4-4118-917a-52ae501005af
0.0128901670927531,0.2415591387029487,0.1334768595298222,1.1692784788390436,0.0768454256879464,-0.989487817333631,-0.4948073550779113,-0.5288361914118194,-14.472884000663589,25.845828262348245,44.39565513134377,-4.683343999847988,0.4798884221580763,0.4992586810667778,5562.24951171875,11.8814,0.0839999999999999,178.87508104888224,-9.26929446036337,104.99849959725488,1553.0,1088.0,1200.0,1528.0,1471.0,988.0,161.0,292.25,1649321750.3050568,1649321751.264127,6cb28e7e-e7d4-4118-917a-52ae501005af
0.008958706873599,0.231960590915842,0.1354228665808874,1.1849254270094114,0.0800931536744922,-0.9969036866019132,-0.4958723997311952,-0.5147276355610788,-14.458455558841749,26.099078844263328,44.05318305397788,-4.733575732080358,0.4450224197130153,0.4920978263525454,5559.443739149306,11.89122222222222,0.09,178.90308877081085,-9.270671824927744,104.9771403814644,1553.0,1088.0,1200.0,1528.0,1471.0,988.0,161.0,292.25,1649321751.3744924,1649321752.3186624,6cb28e7e-e7d4-4118-917a-52ae501005af
0.0616586817664366,0.2140652161537455,0.0366367127207945,-0.1243427809341858,-0.1202009413641706,0.282661960890756,-0.1937284566175282,-0.2206964357069412,-13.270682480958085,19.681494598643223,52.91994993103632,1.0497169091794558,0.4457387735782933,0.4716986288215299,5562.24951171875,11.952,0.1,178.94863399001628,-8.880515482428553,104.90577704719628,1553.0,1435.0,1200.0,1528.0,1471.0,988.0,161.0,292.25,1649321753.9916008,1649321754.942833,8275de88-2b83-4369-9e8d-b6d3b8d0fc82
0.0685804588633352,0.2141516941301741,0.0324468300333593,-0.1233020110189926,-0.1240985186610594,0.2844719293952871,-0.1973898632026989,-0.2237504736899185,-13.24009531215632,19.660247442511555,53.29517616505772,1.0511621600245349,0.4421268918498185,0.4885105276447903,5576.729817708333,11.953666666666669,0.1,178.93026078114897,-8.855600659883638,104.96855786931732,1553.0,1435.0,1200.0,1528.0,1471.0,988.0,161.0,292.25,1649321755.0507443,1649321756.1725826,8275de88-2b83-4369-9e8d-b6d3b8d0fc82
0.0570829354640574,0.2090424144189116,0.034690705635169,-0.1145075555662055,-0.1212791345752523,0.2797560991941472,-0.1981332703268444,-0.2128466629934738,-13.331674344798923,19.86887546870964,53.068240511947295,1.022139400055304,0.4246864876050281,0.481659374769293,5583.9912109375,11.947888888888889,0.0922222222222222,178.9345546934072,-8.858304371293839,105.01935929854406,1553.0,1435.0,1200.0,1528.0,1471.0,988.0,161.0,292.25,1649321756.2801838,1649321757.3993075,8275de88-2b83-4369-9e8d-b6d3b8d0fc82
0.1223793603029036,0.22963327179861,0.1884252595101867,-0.1299441259219748,0.0169531142328425,0.2656475489367955,-0.0365752293508911,-0.0609003190854396,-12.02574355365538,19.7294161852638,53.11856466010889,1.032652580795388,0.5038698011818302,-0.142801661753774,5586.822428385417,11.957555555555556,0.1,178.92243793781958,-8.848115436599475,105.09579518663575,1553.0,1435.0,1200.0,1446.0,1471.0,988.0,161.0,292.25,1649321759.5403144,1649321760.6776638,0f60b7c4-a33a-4923-bdd7-e22fc22296ab
0.108928244291311,0.2302118143907788,0.1833498629651697,-0.1306541555906127,0.0136396427575566,0.2662655376258314,-0.0420319384365537,-0.0538526174903813,-12.227377460286672,19.644490373634664,53.155582196743,1.0347316359760603,0.5069029438700781,-0.1235912428151467,5583.9912109375,11.957444444444445,0.1,178.94758517652372,-8.861092416567542,105.1190868906154,1553.0,1435.0,1200.0,1446.0,1471.0,988.0,161.0,292.25,1649321760.7858388,1649321761.8040905,0f60b7c4-a33a-4923-bdd7-e22fc22296ab
0.1057462598433141,0.2400864847920444,0.1819298038080326,-0.1386485634681369,0.0085247998280251,0.2604801115996696,-0.0458976552881465,-0.0689078750078165,-12.145549788141818,19.688945971849968,52.64106194982629,1.0399476012730802,0.5488149979247818,-0.1087469541394306,5583.9912109375,11.951,0.09,178.9426644046817,-8.861977495247494,105.18448291627864,1553.0,1435.0,1200.0,1446.0,1471.0,988.0,161.0,292.25,1649321761.912173,1649321763.238742,0f60b7c4-a33a-4923-bdd7-e22fc22296ab
0.1759208499014411,0.2584026176835809,0.3906653443081587,-0.1469979862043456,0.1995753534583946,0.2422165734873941,0.1698461523509097,0.1368692230995271,-10.79742825503474,19.755525966004253,53.12902944660129,1.0293326426748133,0.6179069579866792,-0.9569207176865668,5580.35546875,11.95025,0.1,178.9273340450896,-8.86187888439135,105.20010526645775,1553.0,1435.0,1200.0,1354.0,1471.0,988.0,161.0,292.25,1649321764.1510096,1649321765.2872436,aa23f172-2c96-44f2-a0d3-9fc14193067a
0.175684173362214,0.2642669358977252,0.3855767992403413,-0.1472083653720847,0.1932245334049526,0.2364048500416919,0.1621541652811784,0.14352246313489,-10.797345931979612,19.783440248767903,53.04265717203154,1.0166654327380085,0.6403704383564245,-0.9298081544563632,5580.35546875,11.957,0.1,178.92101270501274,-8.872987760189552,105.2320961649828,1553.0,1435.0,1200.0,1354.0,1471.0,988.0,161.0,292.25,1649321765.3948395,1649321766.4386013,aa23f172-2c96-44f2-a0d3-9fc14193067a
0.1832446734319682,0.2785201218085162,0.3879435643978087,-0.1600020477866116,0.1907788760293561,0.2332491630927648,0.1644420383796744,0.1447452913819892,-10.551252498423093,19.69130750390956,52.92241097712593,1.0380453951012527,0.6948761554725854,-0.9313079097911716,5580.35546875,11.949555555555555,0.1,178.9114489223549,-8.869896150952735,105.2540764726418,1553.0,1435.0,1200.0,1354.0,1471.0,988.0,161.0,292.25,1649321766.5462215,1649321767.755706,aa23f172-2c96-44f2-a0d3-9fc14193067a
0.2354318465614825,0.2867643538659412,0.6147980004154217,-0.145446439920802,0.4010265161411368,0.2003116804996764,0.3930847042302316,0.3732959177600605,-9.199026567420972,20.102741618505537,53.03530038091812,0.945918542775952,0.7278220118318626,-1.850377620274083,5580.35546875,11.938555555555554,0.0922222222222222,178.90263797832557,-8.876575696506055,105.2178112037887,1553.0,1435.0,1200.0,1252.0,1471.0,988.0,161.0,292.25,1649321768.5064476,1649321769.5848663,e8397259-9363-48ba-ab71-56a8a3e63fa1
0.2287786066015356,0.2852128078020157,0.6142063091408864,-0.1477080158099105,0.4014472743787932,0.2060839579057865,0.3953857258872604,0.3717575205239808,-9.16821021641438,19.978984722250487,53.35142467941387,0.9632072244658114,0.7192216980123795,-1.853109691170162,5580.35546875,11.939777777777778,0.09,178.88965151198366,-8.875398342647875,105.2290127140275,1553.0,1435.0,1200.0,1252.0,1471.0,988.0,161.0,292.25,1649321769.6959064,1649321770.8221197,e8397259-9363-48ba-ab71-56a8a3e63fa1
0.2456352343084828,0.2893809442601424,0.6156000708039729,-0.1507322162581617,0.4015787613039668,0.202349728331434,0.3952147928223323,0.3796993324066841,-9.193217538625838,19.99683391300355,53.01010434810864,0.9617584952718792,0.7385178566731238,-1.8549736470444844,5581.163899739583,11.939777777777778,0.0988888888888888,178.88132778811516,-8.869779658281892,105.22661911217835,1553.0,1435.0,1200.0,1252.0,1471.0,988.0,161.0,292.25,1649321770.9365823,1649321772.0503738,e8397259-9363-48ba-ab71-56a8a3e63fa1
0.0053954101659495,0.1842834203874547,-0.1818157367696081,-0.0895776260825997,-0.3201926330256117,0.2904854346777932,-0.4258818730600227,-0.4533363577082048,-14.574169947885784,20.138302150265893,52.701448421365455,0.9803354136674948,0.3270799615476333,1.3677002815966606,5583.9912109375,11.9468,0.096,178.98737755506423,-8.87527484903313,105.2868455953318,1553.0,1435.0,1200.0,1604.0,1471.0,988.0,161.0,292.25,1649321774.1843803,1649321775.323767,ddb71f4e-1d6d-47be-8cc1-a20c33d6bd64
-0.0091207507726395,0.1793263620942201,-0.171467711925581,-0.0819513818624136,-0.3090293882040498,0.287684762549164,-0.4156916313356316,-0.4468540482039864,-14.530065543439225,20.19945536589641,52.68926462093415,0.9577799043939716,0.3080018964840875,1.3233369324329645,5591.27587890625,11.947444444444445,0.0911111111111111,179.01050943261734,-8.875924836396397,105.23327854661912,1553.0,1435.0,1200.0,1604.0,1471.0,988.0,161.0,292.25,1649321775.431944,1649321776.4755013,ddb71f4e-1d6d-47be-8cc1-a20c33d6bd64
0.001122083805415,0.1763679055346558,-0.183091160392637,-0.0807811478194097,-0.3168134175598307,0.2896307694799945,-0.4276569474226412,-0.4436457655940719,-14.876945950369285,20.08648178593928,52.61944547970805,0.9579996545302232,0.2990969637243792,1.3661767602461208,5592.898057725694,11.948888888888888,0.0955555555555555,179.02235601627777,-8.864793715051523,105.217314876709,1553.0,1435.0,1200.0,1604.0,1471.0,988.0,161.0,292.25,1649321776.5842388,1649321777.7806656,ddb71f4e-1d6d-47be-8cc1-a20c33d6bd64
-0.0717611417560482,0.1457971877325221,-0.3592705648520201,-0.0342610586856383,-0.4741244506475338,0.2871193686530506,-0.6219421366318799,-0.6493966241869006,-16.457572654117506,20.715351318364533,52.6684487820432,0.8420267361169829,0.1783053690746282,2.092627185655486,5587.63134765625,11.950500000000002,0.1,179.0461212800399,-8.887064353182126,105.18741989762177,1553.0,1435.0,1200.0,1676.0,1471.0,988.0,161.0,292.25,1649321779.7119062,1649321780.8515568,e0de2301-548f-41fd-9a31-23faa7dc0248
-0.0727604426763848,0.1494130790863716,-0.3559833902005913,-0.0430706854635161,-0.4741375993276662,0.2909850851021409,-0.6152494479600921,-0.6413364703678773,-16.078477983444735,20.65394826639088,52.60560227615007,0.8705233163839019,0.1910330298111173,2.0791973022145136,5580.35546875,11.9522,0.091,179.05432433723303,-8.883754102000879,105.16430653747042,1553.0,1435.0,1200.0,1676.0,1471.0,988.0,161.0,292.25,1649321780.959532,1649321782.086028,e0de2301-548f-41fd-9a31-23faa7dc0248
-0.0508810112541217,0.1629036410486929,-0.3538401522897688,-0.0459108039308068,-0.4752289413157301,0.2792695974598473,-0.618589217881221,-0.6359718008663534,-16.146324194762247,20.72226402421276,52.442499474944526,0.8511031035707605,0.2440433219986162,2.0838193313187774,5580.35546875,11.952142857142857,0.0957142857142857,179.05985679046074,-8.88018921892802,105.1772009588821,1553.0,1435.0,1200.0,1676.0,1471.0,988.0,161.0,292.25,1649321782.2000396,1649321783.3117666,e0de2301-548f-41fd-9a31-23faa7dc0248
-0.1201614952425017,0.1348443240178062,-0.5352659041245691,-0.0020204547555849,-0.6381544845694296,0.2764952227069744,-0.8170294222043192,-0.8513606849767388,-17.61089829297021,21.24953834250895,52.4241336541721,0.7395842555651917,0.1324361700246947,2.831292786396028,5580.35546875,11.9332,0.09,179.0639794926438,-8.909464897716193,105.18232321046312,1553.0,1435.0,1200.0,1747.0,1471.0,988.0,161.0,292.25,1649321784.2195635,1649321785.3568318,3bed5bde-bfbc-46ae-900e-31b1a2216c59
-0.1232777364581539,0.1396041519615885,-0.5297697476502966,0.0063684136055726,-0.6322507180233663,0.2671070541138339,-0.8147152506219564,-0.8395794475637952,-17.663046193681254,21.23720918934338,52.88089232918404,0.6998030559710428,0.1459246368425038,2.813727193138573,5580.35546875,11.9324,0.09,179.08070799195897,-8.906772095635914,105.1104873788864,1553.0,1435.0,1200.0,1747.0,1471.0,988.0,161.0,292.25,1649321785.4659126,1649321786.7911594,3bed5bde-bfbc-46ae-900e-31b1a2216c59
-0.1101158906595482,0.1388020815143736,-0.5363572462896365,0.014875620214088,-0.6367344249820523,0.2572849785898104,-0.822657066978133,-0.8403815183841001,-17.631065489151265,21.130016966939724,52.43197082078027,0.6574473009142748,0.145201964030476,2.839531839909489,5579.992431640625,11.9274,0.09,179.10504395597172,-8.912690027664906,105.05445797108696,1553.0,1435.0,1200.0,1747.0,1471.0,988.0,161.0,292.25,1649321786.898958,1649321788.0187886,3bed5bde-bfbc-46ae-900e-31b1a2216c59
0.0578339283316447,0.1984364742001166,-0.0366217555022494,-0.0780275073286572,-0.1600425053801071,0.2687061377990593,-0.2457745419564115,-0.2627287765353333,-13.07840751275853,17.02657055102746,54.36959716255333,0.892960674901389,0.36252080373062,0.7017098809427693,7980.84423828125,11.667555555555555,6.921111111111112,-179.27014617244694,-8.927324286630466,92.56819461353798,1553.0,1435.0,1350.0,1528.0,1471.0,988.0,161.0,292.25,1649321793.1871564,1649321794.3691485,de647269-4be8-4d3e-a032-c2244e66f0e8
0.0316756085070203,0.1932654967519799,-0.0401238603211643,-0.0692659239232694,-0.1596758590613829,0.2694900023216883,-0.2490111444962702,-0.2716041478316832,-13.255814453397353,16.944112192609854,54.88338255992701,0.8742297279528576,0.3385263184113066,0.7106780422361537,7994.905436197917,11.669333333333334,6.933333333333334,-178.88336622012744,-8.836336680512048,87.95828137664293,1553.0,1435.0,1350.0,1528.0,1471.0,988.0,161.0,292.25,1649321794.4774904,1649321795.5970385,de647269-4be8-4d3e-a032-c2244e66f0e8
0.053098880483686,0.1931850874136046,-0.0378112068684281,-0.0723396845947237,-0.1587660703165868,0.2713935288571447,-0.245692109741879,-0.2599715957413576,-13.129637395986745,16.97823086456594,54.76108577894548,0.8858262082438532,0.3389412318506005,0.701425943884822,7999.051323784723,11.672444444444444,6.897777777777779,-178.62754527931415,-8.71015775792374,83.46240573704033,1553.0,1435.0,1350.0,1528.0,1471.0,988.0,161.0,292.25,1649321795.7054374,1649321796.826155,de647269-4be8-4d3e-a032-c2244e66f0e8
0.2810183739332185,0.6095648198211895,0.0125877470221952,-0.2733964163913235,-0.2102563695036487,0.0491148255480028,-0.28411260510205,-0.3087532659553603,-12.073638760642542,16.02429428076977,54.89251926001021,0.8366092951620838,1.9199126286510253,0.8074953501479025,8009.848036024306,11.648444444444443,6.949999999999999,-178.90601816305485,-8.552225001292829,76.01791390653608,1627.6666666666667,1435.0,1350.0,1528.0,1527.888888888889,988.0,161.0,292.25,1649321798.4876716,1649321799.4948883,032295cf-1750-441f-9545-70d72df54494
0.2753118400985317,0.603108810589221,0.0107206321133087,-0.2699909035536565,-0.2105324921528585,0.0506269256243373,-0.2857693411075485,-0.3121850765480946,-12.153050740043913,16.07904492471576,54.64036691400504,0.8325149935927096,1.8979588190438528,0.8115903994241144,8010.67919921875,11.645444444444443,6.997777777777778,-179.12042842584026,-8.497076725841806,73.20530044238772,1637.0,1435.0,1350.0,1528.0,1535.0,988.0,161.0,292.25,1649321799.6073637,1649321800.9299555,032295cf-1750-441f-9545-70d72df54494
0.2662129428382255,0.5859234662523035,0.0079199597724145,-0.2633902572224335,-0.2080736856978447,0.0590026451287597,-0.2843624303625227,-0.3075172880352274,-12.262971644047322,16.01423986716455,54.29755954941941,0.8357678805071188,1.8363282877517075,0.807500573657628,8007.35791015625,11.647111111111112,7.04,-179.33400388772714,-8.489130275061191,70.74199803059199,1637.0,1435.0,1350.0,1528.0,1535.0,988.0,161.0,292.25,1649321801.044236,1649321802.1470954,032295cf-1750-441f-9545-70d72df54494
0.4938431550459348,0.9566772204591572,0.0604095555073367,-0.4667611791405173,-0.2534366928904462,-0.1270514125018204,-0.3097525665357835,-0.324058350765662,-11.210454468995328,15.524174624877578,52.9739651582136,0.8761182958315075,3.259520371014645,0.87603611298141,7993.24951171875,11.613333333333337,7.036666666666666,179.81000736008434,-8.489027253041208,66.18565548517716,1723.0,1435.0,1350.0,1528.0,1599.0,988.0,161.0,292.25,1649321804.087548,1649321805.2234523,879f7c9d-7834-44cb-bdf7-73a9ac33825c
0.4731304202672607,0.9555863844640248,0.0536617456985196,-0.4782157192594787,-0.2613254059788583,-0.1175241700236383,-0.3121754670833049,-0.3272458989471904,-11.040199669172107,15.43450041769761,52.64200361325662,0.9224682462162016,3.2581472210734472,0.8988837660622317,7995.7333984375,11.616,7.005,179.63364049206604,-8.51082092815274,64.76158352593552,1723.0,1435.0,1350.0,1528.0,1599.0,988.0,161.0,292.25,1649321805.3318927,1649321806.4481952,879f7c9d-7834-44cb-bdf7-73a9ac33825c
0.4650343641323733,0.9440939190931188,0.0450518782503417,-0.4589377029938412,-0.2657044280940675,-0.1176632427779648,-0.3244528112709636,-0.3435710188630868,-11.365702259321294,15.695668355272336,53.462714353827785,0.8799388258329485,3.207158450423362,0.9336658338552668,7995.7333984375,11.613444444444449,7.031111111111112,179.4647671004771,-8.506966365441293,63.63408881546707,1723.0,1435.0,1350.0,1528.0,1599.0,988.0,161.0,292.25,1649321806.5566502,1649321807.6693852,879f7c9d-7834-44cb-bdf7-73a9ac33825c
0.6096700093777735,1.1886465077073514,0.0906910028009121,-0.5885707347671173,-0.2892668948611232,-0.2583411570589197,-0.3432160038371251,-0.3608615578876012,-11.076654770923833,16.13750224052503,50.656679869674925,0.8611368231639506,4.166064721443865,0.9547797938383668,7995.7333984375,11.5474,7.016,178.73274537073047,-8.471960716280341,61.201482488057216,1813.0,1435.0,1350.0,1528.0,1662.0,988.0,161.0,292.25,1649321809.618373,1649321810.9533546,aff7c612-2957-4164-a7af-0878850d0ec3
0.6050285200506726,1.189987674675577,0.0890605644756691,-0.5902537683134779,-0.2888987313020113,-0.2566844211322682,-0.342361338418002,-0.3647535722981775,-11.096180963017543,15.881064555211047,50.858773747126186,0.8668974859400058,4.169541468990056,0.9558080988121966,7992.752734375,11.5522,7.023999999999999,178.5491034405542,-8.499278399375264,60.36788112250033,1813.0,1435.0,1350.0,1528.0,1662.0,988.0,161.0,292.25,1649321811.0616024,1649321812.1939342,aff7c612-2957-4164-a7af-0878850d0ec3
0.6075662181809804,1.1939059860687318,0.0964501316881984,-0.5889520471306708,-0.2857561924466423,-0.2603792052699934,-0.3374831712961632,-0.3644117065864659,-10.872362461828564,16.14018271199866,51.09249137028138,0.8578940457361007,4.180894537192343,0.9353749257343044,7988.28173828125,11.5566,7.032000000000001,178.40266145267347,-8.534418356617145,59.69261583624486,1813.0,1435.0,1350.0,1528.0,1662.0,988.0,161.0,292.25,1649321812.306761,1649321813.4143305,aff7c612-2957-4164-a7af-0878850d0ec3
-0.2158182685047846,-0.2578678039235678,-0.1006751263697425,0.126100441072934,-0.114612745236246,0.5205481546869006,-0.2108349120976494,-0.2271524459925024,-14.26268653878229,18.12415981618584,53.21537162174744,1.0017271688694174,-1.3594603096060571,0.6210684613750741,7989.109700520833,11.655888888888889,7.062222222222221,178.97900101106617,-8.57419705580659,58.427849975976,1470.0,1435.0,1350.0,1528.0,1403.0,988.0,161.0,292.25,1649321815.553705,1649321816.6968129,09abac4c-be5d-4970-9b16-81997984b63b
-0.2361658781218854,-0.2665216699976622,-0.0982056999350328,0.1351330895009514,-0.1093568064460125,0.5183669884665625,-0.2064043067588724,-0.2362417367072031,-14.154197687602077,18.044244047930256,52.90945473684451,0.9760493905667652,-1.390931011883534,0.6029446241177199,7995.7333984375,11.658,7.07,178.8452385863606,-8.609047906319104,57.94244816332079,1470.0,1435.0,1350.0,1528.0,1403.0,988.0,161.0,292.25,1649321816.8120346,1649321818.1212616,09abac4c-be5d-4970-9b16-81997984b63b
-0.2057463660802337,-0.2569736924531565,-0.0965201380279257,0.1370533048808002,-0.1104972029574258,0.5070049987980009,-0.208836310046957,-0.2362907907753714,-14.049060156644831,18.116569567543507,52.87127803799295,0.9467961695687525,-1.355654406832471,0.6068250729561754,7995.7333984375,11.655666666666663,7.063333333333333,178.77391775104738,-8.628219108954466,57.5470826632146,1470.0,1435.0,1350.0,1528.0,1403.0,988.0,161.0,292.25,1649321818.2300332,1649321819.355242,09abac4c-be5d-4970-9b16-81997984b63b
-0.4535993307629576,-0.6708421550705853,-0.1518630041924038,0.3210561513762859,-0.0696836477597702,0.7366601053884219,-0.1798039859559745,-0.2140826410458887,-15.366632833414688,19.5841789680384,51.84639177190021,1.0539431668394728,-2.915642016645671,0.5339040817377283,8003.19873046875,11.5904,7.034000000000001,178.7695450639407,-8.613861567514034,57.16909282284746,1393.5,1435.0,1350.0,1528.0,1338.2,988.0,161.0,292.25,1649321819.9865377,1649321820.9917445,54439cee-4b26-4804-a894-f6f73a6c452f
-0.4510879292407758,-0.666516232393305,-0.1515079894015079,0.3208852183422304,-0.070774989632545,0.7329784707939284,-0.1813818296826292,-0.1983042034861817,-15.350653744983353,19.64204660377509,51.89767917286044,1.046473133261498,-2.8999402985104057,0.5377348171533766,8003.19873046875,11.587333333333332,7.02,178.72960803717174,-8.587205530535833,56.93292343669568,1385.0,1435.0,1350.0,1528.0,1331.0,988.0,161.0,292.25,1649321821.0999496,1649321822.2170627,54439cee-4b26-4804-a894-f6f73a6c452f
-0.4493523008965924,-0.6707632628557145,-0.1511003797802042,0.3237779313102819,-0.0702621904370459,0.7336753516286691,-0.1792385919724141,-0.201315255362466,-15.15892824983767,19.644549526465504,51.79267802690097,1.041630526164945,-2.916625880490167,0.5329256640925546,8003.19873046875,11.594,7.02,178.72207661524695,-8.598556735753963,56.703137659178665,1385.0,1435.0,1350.0,1528.0,1331.0,988.0,161.0,292.25,1649321822.3253963,1649321823.6511304,54439cee-4b26-4804-a894-f6f73a6c452f
-0.6870150575852465,-1.106747968977252,-0.2049574443556657,0.5287397916457133,-0.0264112868920451,0.9585048891117772,-0.1533619556234004,-0.1695348533634788,-16.561748891992234,21.7275008321554,49.73210841327296,1.0946005783608894,-4.552256126001518,0.4540702095673504,8003.19873046875,11.537666666666668,7.006666666666667,178.7842768712885,-8.619615631921189,56.25865968384549,1297.0,1435.0,1350.0,1528.0,1253.0,988.0,161.0,292.25,1649321825.590495,1649321826.7347414,7275f7e7-7064-4b64-bd5c-f9d2ae6a5eeb
-0.6942205459080936,-1.1043417558099584,-0.2086916744426738,0.5203377755327789,-0.0315655759397865,0.9638038133104748,-0.1547425688317589,-0.1837354471544819,-16.43702777026873,21.6579918454392,49.70118616334194,1.1248719874564614,-4.543043487059526,0.468436020810544,8003.19873046875,11.546499999999998,7.02,178.79881037547744,-8.638907038771166,56.10502610441028,1297.0,1435.0,1350.0,1528.0,1253.0,988.0,161.0,292.25,1649321826.851587,1649321827.9519494,7275f7e7-7064-4b64-bd5c-f9d2ae6a5eeb
-0.6977181005084272,-1.1060773849593684,-0.2121760793135016,0.5286871968752732,-0.0338665978532837,0.9617657655410956,-0.1591473824305235,-0.1915326242803284,-16.42687366637331,21.687289815905046,50.23158374118309,1.1015683525097004,-4.555574308517532,0.4831975920469267,7998.221842447917,11.553333333333336,7.016666666666668,178.77457800266714,-8.578360150969452,56.00644925691846,1297.0,1435.0,1350.0,1528.0,1253.0,988.0,161.0,292.25,1649321828.0602243,1649321829.1840315,7275f7e7-7064-4b64-bd5c-f9d2ae6a5eeb
0.0464850862954052,0.2065441622557325,-0.0406776227191332,-0.079255899149707,-0.1619875011679378,0.2565880977199209,-0.2511093732360098,-0.2655597927844912,-13.204702778324725,16.677869471305296,53.58462847702803,0.8657985327425038,0.400668815099461,0.7174012154212608,7995.7333984375,11.6648,7.072,178.37880496794045,-8.616849177634363,55.80810830430234,1553.0,1435.0,1350.0,1528.0,1471.0,988.0,161.0,292.25,1649321831.0080109,1649321832.2557182,863527ee-c307-4f47-a479-8ea53b3f28bb
0.0575562885456079,0.2127766440079199,-0.0384554929721168,-0.0836870099916607,-0.1621452855250409,0.2548393212187927,-0.2499128417349797,-0.2667431750569888,-13.139299303774004,16.70693956847214,53.63652641951129,0.8722088505629003,0.4238084598922761,0.713705793388951,8003.19873046875,11.664999999999996,7.07,178.3794060245874,-8.613801376471974,55.89701004653923,1553.0,1435.0,1350.0,1528.0,1471.0,988.0,161.0,292.25,1649321832.3646345,1649321833.4870732,863527ee-c307-4f47-a479-8ea53b3f28bb
0.0441314696446887,0.2046770474721105,-0.0433073621127326,-0.0766524571868495,-0.164367415437634,0.2570877481510564,-0.2536865180496181,-0.27823513794504,-13.168303425428952,16.713130686776047,53.715645490997474,0.8611906015238029,0.3917605204262368,0.7278893512271486,8003.19873046875,11.666222222222222,7.0744444444444445,178.3789825528589,-8.596361493981973,55.94476505961417,1553.0,1435.0,1350.0,1528.0,1471.0,988.0,161.0,292.25,1649321833.5955002,1649321834.9151728,863527ee-c307-4f47-a479-8ea53b3f28bb
0.0586607790220508,0.2048085344264016,-0.0781251111146007,-0.5444699942205827,-0.2458235968049362,0.7190277054220005,-0.1590027467493618,-0.1788967262669401,-13.080734441587724,15.658340696622496,58.402719752978726,2.946578317350244,0.4054656675591769,0.7545054152547741,8025.68017578125,11.651,7.04,178.39202366071416,-8.401179636666226,56.0908977158165,1553.0,1522.0,1350.0,1528.0,1471.0,988.0,161.0,292.25,1649321837.0591905,1649321838.196023,441e41da-4660-46a8-a53e-a074ad4d5352
0.0570960841806977,0.2085296153024462,-0.0752323977646427,-0.5404859381588669,-0.2429440319615952,0.7086928311718029,-0.1584636501448046,-0.193675862714809,-13.06595858432186,15.612632146125138,57.98731148323145,2.914149670217589,0.4226912412098734,0.745801078181384,8025.68017578125,11.649888888888889,7.038888888888888,178.42974148313078,-8.406939573138795,56.13082548388458,1553.0,1522.0,1350.0,1528.0,1471.0,988.0,161.0,292.25,1649321838.3050172,1649321839.4255202,441e41da-4660-46a8-a53e-a074ad4d5352
0.0796177778712734,0.1961228094749098,-0.071933592058167,-0.5312530222898109,-0.237468105095612,0.7125883849184491,-0.1525325762401067,-0.1765289489113517,-12.936344121625387,15.67317375730727,58.055658700902086,2.9027180392223326,0.373708420985154,0.724143370158006,8027.351508246527,11.643888888888888,7.02,178.4357596386995,-8.431769018319082,56.21933069569465,1553.0,1522.0,1350.0,1528.0,1471.0,988.0,161.0,292.25,1649321839.5338576,1649321840.6503613,441e41da-4660-46a8-a53e-a074ad4d5352
0.0880612636275856,0.202021010941601,-0.1069339061430621,-1.0430950864134414,-0.3275690528932125,1.1997440070696557,-0.0524457062067312,-0.0785590183530628,-12.761001596093829,14.774659578671455,61.38613236161351,5.144932081628269,0.4258559692906964,0.7534855535467816,8025.68017578125,11.625111111111112,7.021111111111111,178.47700639218726,-8.258455719178427,56.27255911880647,1553.0,1613.0,1350.0,1528.0,1471.0,988.0,161.0,292.25,1649321841.56331,1649321842.6972342,2dd06031-bcbf-4b0d-b494-6924c322cfca
0.0764246675585743,0.1910418500201385,-0.1079726532067565,-1.0323788917344832,-0.3252943280579821,1.2030574784583998,-0.0532872228177661,-0.0751666547286591,-12.903615283398205,14.87447635895624,61.722800629723416,5.1287966381458565,0.3813193916835384,0.7521009850876459,8025.68017578125,11.625,7.03,178.50519078834236,-8.221648114332442,56.31769983903108,1553.0,1613.0,1350.0,1528.0,1471.0,988.0,161.0,292.25,1649321842.805642,1649321844.134902,2dd06031-bcbf-4b0d-b494-6924c322cfca
0.0929131324944886,0.2066362031278369,-0.1030024457156196,-1.0402155199328158,-0.3257939785968803,1.18888318421271,-0.0517356765862461,-0.0710379636599939,-12.63582926424118,14.86561996481071,60.878392867267365,5.114811585849167,0.4466761293247405,0.7446156634075201,8033.201171875,11.628444444444444,7.031111111111112,178.51654559838255,-8.250372474886928,56.351090357153545,1553.0,1613.0,1350.0,1528.0,1471.0,988.0,161.0,292.25,1649321844.2430232,1649321845.363259,2dd06031-bcbf-4b0d-b494-6924c322cfca
0.1006051197082102,0.1999172196197425,-0.1399108384688204,-1.462289038006349,-0.4079864937898497,1.6031065824223552,0.0216340501827257,0.0063552646070622,-12.759938968150136,14.537227140336864,63.71948062482543,6.994096982709466,0.4467947044197964,0.801953496376963,8010.67919921875,11.5725,7.032500000000001,178.60525647477766,-8.124952059035515,56.38146648512232,1553.0,1710.0,1350.0,1528.0,1471.0,988.0,161.0,292.25,1649321847.005449,1649321848.0396702,4fa66e73-e869-4fae-8ce3-b34322ba2756
0.0923740359514191,0.1854405056367647,-0.1365842180478629,-1.4541499860100475,-0.4003996945088001,1.6101411358894888,0.0278007887825379,0.0117067841169795,-12.88329484578428,14.54271325179146,63.80556923641964,6.991698496793072,0.391817198128182,0.7766579130130371,8003.19873046875,11.57425,7.03,178.61178272052962,-8.142247592117865,56.41219635997185,1553.0,1710.0,1350.0,1528.0,1471.0,988.0,161.0,292.25,1649321848.148867,1649321849.0910285,4fa66e73-e869-4fae-8ce3-b34322ba2756
0.0974494326364278,0.1813775586439083,-0.1365579206395986,-1.4559382106294665,-0.4003865457556965,1.6152822768504205,0.0294575245409542,0.001240421926765,-12.848485797722835,14.584761467546231,63.74223438490122,7.007572601797024,0.3771161909112662,0.7736557798458638,8003.19873046875,11.574666666666666,7.031111111111111,178.65225538591145,-8.17725738682419,56.42863728935024,1553.0,1710.0,1350.0,1528.0,1471.0,988.0,161.0,292.25,1649321849.221532,1649321850.27443,4fa66e73-e869-4fae-8ce3-b34322ba2756
0.1098355043025889,0.1937636300246507,-0.1301150590867629,-1.5740793843879262,-0.4181767355378326,1.7133847169005736,0.0533487056811096,0.0420671237647802,-12.791006509992194,15.373667711882405,64.05508298573744,7.50014879647533,0.4353594253111522,0.7557088839004733,8003.19873046875,11.53722222222222,7.014444444444444,178.6995552048237,-8.106311737596577,56.44801150038594,1553.0,1814.0,1350.0,1528.0,1471.0,988.0,161.0,292.25,1649321851.1892674,1649321852.3223174,958adfac-e267-4ba8-a0fe-24f8492cc313
0.1124257974218718,0.200495762237731,-0.1301545051285768,-1.5647043520101616,-0.4190839956655558,1.6953052559016524,0.046971588017638,0.0292865914559665,-12.813689293040431,15.46388765717872,63.62449009357008,7.438890115289387,0.4634306535681312,0.7663146170388278,7997.392361111111,11.542,7.029999999999999,178.71430234215163,-8.105700815120814,56.45238623654934,1553.0,1814.0,1350.0,1528.0,1471.0,988.0,161.0,292.25,1649321852.431114,1649321853.5554216,958adfac-e267-4ba8-a0fe-24f8492cc313
0.1067718581451406,0.1976950900401802,-0.1444602877011395,-1.5886613058732135,-0.4346783528538469,1.7194725642160913,0.0416858120701439,0.020213990763439,-12.636053743865771,15.27670723452446,63.45985270932334,7.545348301331935,0.4551678752718529,0.8140007725362761,7995.7333984375,11.539888888888887,7.035555555555556,178.75250890254887,-8.128402182055952,56.46309673207783,1553.0,1814.0,1350.0,1528.0,1471.0,988.0,161.0,292.25,1649321853.6631832,1649321854.7812717,958adfac-e267-4ba8-a0fe-24f8492cc313
0.0438553470530399,0.2144728257480381,-0.0064778629097084,0.366682124147197,-0.0895513287737065,-0.1823153871384821,-0.3468450446296204,-0.3675673935357191,-13.316018810566767,18.23831698082352,50.41763092675592,-1.1149166828017634,0.4065530417479791,0.70811403207664,7997.392361111111,11.664111111111112,7.085555555555555,178.76471976296506,-8.805937216063613,56.53952237488576,1553.0,1349.0,1350.0,1528.0,1471.0,988.0,161.0,292.25,1649321855.5050993,1649321856.6240346,9a7c4008-625b-4a31-91b9-7b52edd19113
0.021055507612568,0.2202845492196398,0.0014508011326904,0.3691935249313979,-0.0848835413079662,-0.1832357959698897,-0.3410859146370367,-0.3674359065286351,-13.186851929646854,18.42759990342911,51.47415096420215,-1.1207670605932925,0.418269054344385,0.6849769329345318,8015.67431640625,11.666,7.056666666666666,178.7554944541261,-8.806840793172563,56.71520660344207,1553.0,1349.0,1350.0,1528.0,1471.0,988.0,161.0,292.25,1649321856.732804,1649321857.85787,9a7c4008-625b-4a31-91b9-7b52edd19113
0.0421986113018016,0.2219675822671393,0.0071441866548971,0.3708371118462599,-0.0780462189584303,-0.1838537847452382,-0.3379959705248208,-0.3663708622501692,-13.526162813448344,18.47397459945026,51.870713303596425,-1.125379963360893,0.4236276446010067,0.6640251727259863,8033.201171875,11.668666666666669,7.04,178.7356535134971,-8.797210700761537,56.90326941150415,1553.0,1349.0,1350.0,1528.0,1471.0,988.0,161.0,292.25,1649321857.96725,1649321859.0905645,9a7c4008-625b-4a31-91b9-7b52edd19113
0.0193461770370015,0.2272270605045306,0.0305225688819763,0.759223266018133,-0.0217040534932012,-0.5649293713362128,-0.4296029547668887,-0.4633162204784506,-13.738608362563154,19.99154598707321,48.993917036593736,-2.8471529633428,0.4240436490411809,0.6850595529900061,8033.201171875,11.645333333333332,7.04,178.77120388921716,-8.94830880962673,57.24746275489365,1553.0,1264.0,1350.0,1528.0,1471.0,988.0,161.0,292.25,1649321861.020423,1649321862.1573637,129ab93d-a501-4e7b-9cc7-dfd1e6e83041
0.0231067042029429,0.2256886631237535,0.0288132382985557,0.7551997653482272,-0.0232950458324723,-0.5629833636726572,-0.4300631593328496,-0.4607522235508505,-13.731800287721892,19.95131799797908,48.52195823994607,-2.83412758794059,0.4227948309193661,0.6893459714815591,8033.201171875,11.643,7.033333333333333,178.782314330267,-8.989046903748838,57.33164938987351,1553.0,1264.0,1350.0,1528.0,1471.0,988.0,161.0,292.25,1649321862.2661965,1649321863.3869028,129ab93d-a501-4e7b-9cc7-dfd1e6e83041
0.0188596752792139,0.2265433283410181,0.0298519853257806,0.7617346667699414,-0.0212964439345269,-0.5667175945688556,-0.4314043265828154,-0.4465253309122237,-13.86475770792688,19.99555960693744,48.96435013979359,-2.8569114418283568,0.4222824918981722,0.6877909433794132,8025.68017578125,11.646555555555556,7.032222222222222,178.8023009815983,-9.00203261118085,57.46267442654168,1553.0,1264.0,1350.0,1528.0,1471.0,988.0,161.0,292.25,1649321863.4955816,1649321864.6148355,129ab93d-a501-4e7b-9cc7-dfd1e6e83041
-0.002730484272314,0.2288706474636417,0.0683776654310335,1.2051481212663675,0.0503245055045275,-0.9953915850552808,-0.5295988143931213,-0.5527010804256417,-14.329561208302817,22.415945798518365,46.13938730308743,-4.803152183869619,0.4072283766677743,0.6764006221214918,8025.68017578125,11.632777777777775,7.037777777777778,178.80431361067372,-9.155728848115322,57.660637593805696,1553.0,1178.0,1350.0,1528.0,1471.0,988.0,161.0,292.25,1649321865.525521,1649321866.6606815,d9070e4f-8f95-493d-9ca6-009adaecd3b3
-0.0036508930227528,0.2235980205277105,0.0620531425546028,1.1991523158888544,0.0461563687833308,-0.9870027116293864,-0.5308742382523568,-0.5526353375151628,-14.29016958804108,22.19595514405053,45.786018283623015,-4.772585961199524,0.3906394564799184,0.6914436074226419,8018.171875,11.624888888888888,7.047777777777777,178.85929056221306,-9.159950853659776,57.75614640569971,1553.0,1178.0,1350.0,1528.0,1471.0,988.0,161.0,292.25,1649321866.7690983,1649321867.892846,d9070e4f-8f95-493d-9ca6-009adaecd3b3
0.0102998739341333,0.2282658074565472,0.0692586280716104,1.1906056635155144,0.0524940403880732,-0.9801127905313478,-0.5224722190581892,-0.5414063470790154,-14.415554011064224,22.13673404106693,46.35798119603452,-4.737829974625401,0.4054727035623121,0.6622601037879167,8018.171875,11.629,7.037777777777778,178.8482135131991,-9.166197346246967,57.83823465478455,1553.0,1178.0,1350.0,1528.0,1471.0,988.0,161.0,292.25,1649321868.0015852,1649321869.1212566,d9070e4f-8f95-493d-9ca6-009adaecd3b3
-0.0068328775880687,0.2283052535512275,0.0925975636592005,1.4143964766089878,0.0880086687160585,-1.1991702264965236,-0.572818591590035,-0.6011934872885004,-14.610957762455625,23.84813236689994,44.395663147476064,-5.722802504212803,0.3983507946310918,0.6521171398395367,8018.171875,11.61,7.03,178.86684930489454,-9.266956486610471,57.951573296051926,1553.0,1088.0,1350.0,1528.0,1471.0,988.0,161.0,292.25,1649321870.031167,1649321870.9669044,87b54130-f30b-4fdd-a0d1-c2f4b3e1229a
-0.014235593733053,0.2291599187614798,0.0887186983410011,1.4184331265902856,0.0835512607686039,-1.202615187713719,-0.5785777222921343,-0.6010225540342797,-14.57376792433815,23.9409928265738,44.51490217993716,-5.73918931600092,0.3994949531953845,0.6719702665471885,8018.171875,11.589777777777776,7.024444444444445,178.9332766891225,-9.25460997104829,58.00443213003866,1553.0,1088.0,1350.0,1528.0,1471.0,988.0,161.0,292.25,1649321871.07518,1649321872.2265255,87b54130-f30b-4fdd-a0d1-c2f4b3e1229a
-0.0178251878821285,0.2259516370354622,0.0867069478118836,1.4197348476451686,0.0825125137558621,-1.201997198757413,-0.5798137003322147,-0.6052827336927029,-14.568986862098583,23.91867857367733,44.31413430193029,-5.741014668596846,0.3889193251429593,0.6772396318209344,8018.171875,11.592200000000002,7.019999999999999,178.9484618692492,-9.261559783392514,58.0701276215515,1553.0,1088.0,1350.0,1528.0,1471.0,988.0,161.0,292.25,1649321872.3391488,1649321873.4171264,87b54130-f30b-4fdd-a0d1-c2f4b3e1229a
0.0401211173062281,0.2151757752421743,-0.0359137487590783,-0.1109371786639453,-0.1629251043992761,0.2829800581744801,-0.2390105483617323,-0.2623874159538167,-13.05040453736029,16.606181394593644,54.45595710882311,0.996548541246397,0.4284293951132821,0.6970913320707793,8018.171875,11.664666666666667,7.05,178.99761555328416,-8.822799814759513,58.14256132235354,1553.0,1435.0,1350.0,1528.0,1471.0,988.0,161.0,292.25,1649321875.562236,1649321876.6970165,83761cf7-e362-4a86-aeb4-e18750e5bd38
0.0620268452666062,0.2093448344433527,-0.0424263994269574,-0.1029498510346005,-0.1684435116143451,0.2810052252582863,-0.2472173587130944,-0.25806503464826,-13.077954791368402,16.762132426535832,54.35026918816877,0.9747721901219316,0.4062978917460328,0.7243019651870941,8031.529839409723,11.669888888888888,7.0344444444444445,179.02766079653313,-8.783960133771712,58.117412565829554,1553.0,1435.0,1350.0,1528.0,1471.0,988.0,161.0,292.25,1649321876.8086913,1649321877.9262788,83761cf7-e362-4a86-aeb4-e18750e5bd38
0.0487466620325429,0.2194956274692818,-0.037758612101305,-0.1038045162534553,-0.1667999244015283,0.2765872635809602,-0.2457447045611931,-0.2754870592558905,-13.05508802191739,16.85463092881646,55.04623092648496,0.9677404149444075,0.4384421096450349,0.715784260384634,8029.022840711806,11.667444444444444,7.045555555555556,179.04022986242578,-8.78416769563149,58.1465273855316,1553.0,1435.0,1350.0,1528.0,1471.0,988.0,161.0,292.25,1649321878.0347583,1649321879.2272222,83761cf7-e362-4a86-aeb4-e18750e5bd38
