raw_voltage_G-,raw_voltage_G0,raw_voltage_G1,raw_voltage_G2,raw_voltage_G3,raw_voltage_G4,raw_voltage_G5,raw_voltage_G6,load_x,load_y,load_z,load_l,load_m,load_n,rpm,voltage,current,roll,pitch,yaw,aileron1_pwm,elevator_pwm,throttle_pwm,rudder_pwm,aileron2_pwm,pbaro,pdiff,Tt,sample_start_time,sample_end_time,uid
-0.5489537006786968,-0.4179795048555209,-1.0179547627965733,0.062197778055727,-0.9206149054419598,0.7499008412733934,-1.2001037850552314,-1.2258489534484054,-31.419441226953754,20.969947055770582,47.87271289626236,1.624964772333778,-1.841427983082016,4.337098464814855,4680.998643663194,11.927,0.1444444444444444,-179.80653610616616,-8.866914963107504,108.0486840403182,1553.0,1435.0,1200.0,1528.0,1471.0,988.0,161.0,294.36,1649326839.009834,1649326840.1928363,d85f04d9-303e-40fa-884e-e0cd468f2908
-0.5298617883314609,-0.4260528060253676,-1.0373885484137129,0.055255266639574,-0.9320674261389555,0.7639173501195579,-1.2129763689520423,-1.2369333143455137,-31.843813044877912,20.4589674605737,47.71605995249606,1.6675287364542637,-1.8677016530096493,4.396169671763292,4699.24658203125,11.931,0.15,-179.82121797724207,-8.886495313046899,107.507430253,1553.0,1435.0,1200.0,1528.0,1471.0,988.0,161.0,294.36,1649326840.3014796,1649326841.4177468,d85f04d9-303e-40fa-884e-e0cd468f2908
-0.5232216949247316,-0.413245973178298,-1.0299463812840897,0.0494566915760227,-0.9284909788725564,0.7580661808439629,-1.205770877719225,-1.2196427647564807,-31.55579996549548,20.35176654563093,47.96506912719829,1.667305136886707,-1.82272978679338,4.372990246916214,4699.534288194444,11.932,0.14,-179.88239370490817,-8.878914277386876,107.07383770192908,1553.0,1435.0,1200.0,1528.0,1471.0,988.0,161.0,294.36,1649326841.5256054,1649326842.6576169,d85f04d9-303e-40fa-884e-e0cd468f2908
-0.3124480496187316,-0.0451744768964258,-1.003938243668652,-0.2624566997705995,-1.0026102243916637,0.6971877230811034,-1.221089121879514,-1.2463214920006829,-30.92033661485836,19.055712787574247,49.80067974310223,2.227419123014121,-0.422974502423863,4.505668389638252,4696.671875,11.915333333333333,0.14,179.95195690487503,-8.83224795852015,106.5402162715534,1637.0,1435.0,1200.0,1528.0,1535.0,988.0,161.0,294.36,1649326843.5598252,1649326844.704343,b95f88fa-f6d8-43a2-a282-c774d1a81d30
-0.3275953500566846,-0.0352472109269109,-0.9990600740672676,-0.2709113123585828,-1.013234377598311,0.6920728807323105,-1.227742367531384,-1.2485041769503449,-30.57508548085803,20.24165198512829,49.32691868764119,2.243199828797775,-0.3826155832184057,4.523175774562869,4700.965983072917,11.911111111111111,0.1488888888888889,179.91788792129498,-8.84520008418874,106.24356521879167,1637.0,1435.0,1200.0,1528.0,1535.0,988.0,161.0,294.36,1649326844.8352902,1649326845.9278047,b95f88fa-f6d8-43a2-a282-c774d1a81d30
-0.3143809082726301,-0.0359703892285026,-0.9886331514138184,-0.2755922490813688,-0.9967459023734128,0.6983711056354385,-1.2077300358824237,-1.231976251689006,-30.539092698337683,19.4657916003475,49.6349269664924,2.26335496257442,-0.3870883824958108,4.458661004809202,4709.5751953125,11.916666666666666,0.1455555555555555,179.83000160051472,-8.844136187361771,105.96735995785542,1637.0,1435.0,1200.0,1528.0,1535.0,988.0,161.0,294.36,1649326846.0366628,1649326847.1565807,b95f88fa-f6d8-43a2-a282-c774d1a81d30
-0.118859774344078,0.304817512680084,-0.9832158857292196,-0.5693999297579313,-1.0845003596605012,0.6441458875841484,-1.2464398302685251,-1.2718299852194177,-30.464287699950567,18.601368226034857,50.81499879464943,2.799026943544028,0.9165878285835096,4.666646631501767,4714.2375,11.8922,0.148,179.616170234207,-8.774149458748132,105.64137339439048,1723.0,1435.0,1200.0,1528.0,1599.0,988.0,161.0,294.36,1649326847.9024231,1649326848.9996195,32747406-f997-4577-91ef-ec7ff92ab4e2
-0.1116805856593187,0.3042389700793457,-0.9846885403440808,-0.5710961119457649,-1.083001407154227,0.6464074631191846,-1.2432183964117307,-1.2637040827870856,-30.38627677113225,18.216518544319868,50.844806303162926,2.805354653988811,0.9137105677910003,4.662195428166355,4699.828179253473,11.875999999999998,0.1344444444444444,179.5755603579138,-8.760432598538221,105.44685021395644,1723.0,1435.0,1200.0,1528.0,1599.0,988.0,161.0,294.36,1649326849.1090622,1649326850.2252991,32747406-f997-4577-91ef-ec7ff92ab4e2
-0.1093927123783545,0.301767015350363,-0.9815197025660316,-0.5825617785878294,-1.0829488128894402,0.6578731251280773,-1.2384322676835893,-1.2710279150815382,-30.35545913001048,18.43162820444057,50.65749896268896,2.858552692117525,0.9074974196773348,4.650259337874113,4705.555338541667,11.879666666666669,0.14,179.53021245528433,-8.750577679067014,105.25402334894828,1723.0,1435.0,1200.0,1528.0,1599.0,988.0,161.0,294.36,1649326850.3342333,1649326851.453467,32747406-f997-4577-91ef-ec7ff92ab4e2
0.0451833653280942,0.5771927327773722,-0.9443088694019772,-0.8239324910095992,-1.129192810624184,0.60730324428044,-1.2404045727463695,-1.2675698029428797,-29.96099036463206,18.28261853686901,50.37157943596246,3.290406644994952,1.9723278043477988,4.696474947887245,4714.2404296875,11.8426,0.124,179.2994516303178,-8.699650707168782,104.79094790687004,1813.0,1435.0,1200.0,1528.0,1662.0,988.0,161.0,294.36,1649326853.5966785,1649326854.7338638,46b826c7-7d44-4681-9ea4-b2fcb77edf1f
0.0572275711063197,0.5839643106997925,-0.9311864632060092,-0.8293760543968672,-1.1249720761491593,0.6023198888725955,-1.2343561678302857,-1.25449998855081,-29.837165583081934,18.944123491050583,49.95921646670783,3.296522927009861,2.002017028307519,4.664232361065234,4717.062282986111,11.855666666666666,0.13,179.26779506955265,-8.699508544370307,104.63586239048564,1813.0,1435.0,1200.0,1528.0,1662.0,988.0,161.0,294.36,1649326854.8426616,1649326855.971227,46b826c7-7d44-4681-9ea4-b2fcb77edf1f
0.060462150350895,0.5822286829600379,-0.9316729653686832,-0.8276667231893877,-1.1198572290334194,0.6035821635885156,-1.2311084367911425,-1.260245974552994,-30.025146157400187,18.49143898395106,50.1376382607161,3.2924122864044576,1.99500752733192,4.6534157888268455,4717.3505859375,11.838111111111113,0.1255555555555555,179.22694902049614,-8.697407502290618,104.48743327290236,1813.0,1435.0,1200.0,1528.0,1662.0,988.0,161.0,294.36,1649326856.1025405,1649326857.1881564,46b826c7-7d44-4681-9ea4-b2fcb77edf1f
-0.7784642780281079,-0.8170425707762093,-1.045212028404496,0.410151710586245,-0.8375282503191545,0.80688728545502,-1.183970322177601,-1.2162635461256792,-32.08345754653273,22.291087160586272,45.88315916436584,0.9748714710194862,-3.360370136101449,4.189067024068271,4709.304361979167,11.924444444444443,0.14,179.63695009817386,-8.843225400608699,104.14097192725347,1470.0,1435.0,1200.0,1528.0,1403.0,988.0,161.0,294.36,1649326858.9213772,1649326860.2628496,bbae55aa-3bcf-40fb-9d17-c59b8f600120
-0.7624623075611494,-0.831322061788975,-1.041280565512182,0.4248782491176333,-0.8296916231644624,0.8082153036657008,-1.179092151714066,-1.2088476764374083,-32.13097704712281,22.37649657288981,46.043779032770345,0.9453998759016372,-3.416576617583252,4.164648321367669,4705.956640625,11.921699999999998,0.1489999999999999,179.57415774062224,-8.844730413819565,104.1389537581357,1470.0,1435.0,1200.0,1528.0,1403.0,988.0,161.0,294.36,1649326860.37125,1649326861.4984105,bbae55aa-3bcf-40fb-9d17-c59b8f600120
-0.7839998816107512,-0.828389901107208,-1.0361657190622655,0.4243917473879011,-0.8255234846647588,0.8046125612433349,-1.1762125853023948,-1.206388867122924,-32.221702741643426,22.45005886793172,45.906817012823446,0.939076298346186,-3.4033378068627407,4.147962893507817,4714.755859375,11.923555555555556,0.1444444444444445,179.5478874670365,-8.851606137584044,104.08763801566448,1470.0,1435.0,1200.0,1528.0,1403.0,988.0,161.0,294.36,1649326861.6066291,1649326862.7282195,bbae55aa-3bcf-40fb-9d17-c59b8f600120
-0.9899085754460296,-1.205534200625226,-1.069445092787686,0.7341750020482242,-0.7616207920395364,0.8756418120474738,-1.1734513578694357,-1.207519656631306,-33.21104191751569,24.467626578577683,43.888601725601696,0.4107912698497572,-4.833185008666379,4.05507244489607,4704.925,11.8624,0.1379999999999999,179.61228522260706,-8.857858720423247,103.97124734231195,1385.0,1435.0,1200.0,1528.0,1331.0,988.0,161.0,294.36,1649326864.3862717,1649326865.5932758,9b25ad94-0c16-4ef9-b6e3-3206403dce95
-0.988935571262719,-1.207020004479616,-1.0623447911354882,0.7361210089278112,-0.7562166744280943,0.8759179346442021,-1.168560037552194,-1.1917017612906866,-33.2530157386846,24.720889911087752,44.01890535843556,0.4090541428964693,-4.8394006525594095,4.030956915552989,4693.815700954861,11.861666666666666,0.1355555555555555,179.61955740090735,-8.888127538531055,103.76073605506876,1385.0,1435.0,1200.0,1528.0,1331.0,988.0,161.0,294.36,1649326865.7055483,1649326866.8187602,9b25ad94-0c16-4ef9-b6e3-3206403dce95
-0.9890670583097236,-1.205678836365127,-1.0636596627165325,0.7363708341305812,-0.7555592408708935,0.8731435600090814,-1.1650887809745365,-1.1926616179211271,-32.95274553307711,24.29991913495824,43.855884334039374,0.3995252321177368,-4.835172098245673,4.0272287578290165,4696.671875,11.864666666666668,0.13,179.58864092908425,-8.878260855956277,103.55620679928262,1385.0,1435.0,1200.0,1528.0,1331.0,988.0,161.0,294.36,1649326866.9271786,1649326868.0463066,9b25ad94-0c16-4ef9-b6e3-3206403dce95
-1.2227853044376884,-1.6176673650116686,-1.099621372147459,1.0748839925178808,-0.6977706965580299,0.9476835131201304,-1.177461712609266,-1.2121742993484057,-34.21368457368451,27.99412562605032,41.15726021480752,-0.1749425024005217,-6.391432458175758,3.962068171423391,4687.255696614583,11.806333333333336,0.12,179.69929910055737,-8.915217396871665,103.1829437913306,1297.0,1435.0,1200.0,1528.0,1253.0,988.0,161.0,294.36,1649326869.980193,1649326871.1272266,efacbba8-a9e5-435b-ac80-d6fa51faf652
-1.2175126727661507,-1.613157356494963,-1.0918110412906818,1.0797227123072817,-0.6833597196215144,0.9397548498140594,-1.1629981351858745,-1.1901502141529323,-34.07411119089845,27.12241803776641,41.38711271404301,-0.208957088939409,-6.377657627404298,3.912568203236015,4678.728678385417,11.815666666666663,0.12,179.67378151381817,-8.905371963774307,102.92349450224822,1297.0,1435.0,1200.0,1528.0,1253.0,988.0,161.0,294.36,1649326871.2416365,1649326872.3428717,efacbba8-a9e5-435b-ac80-d6fa51faf652
-1.2281762744421068,-1.6129601258305124,-1.09730720028867,1.0716757106464727,-0.6824524589565075,0.9502869547191504,-1.1617490080750204,-1.1923328996091025,-34.37692745902232,26.49178707857623,41.85099139332463,-0.1716706646262702,-6.3782543425426494,3.9177004842719487,4685.63173828125,11.8231,0.117,179.70229208945165,-8.891167760080739,102.66717298445975,1297.0,1435.0,1200.0,1528.0,1253.0,988.0,161.0,294.36,1649326872.4513204,1649326873.5741827,efacbba8-a9e5-435b-ac80-d6fa51faf652
-0.5293226916860725,-0.4083152110960352,-1.017573450368092,0.0485888774918231,-0.9137775797008,0.7570142852639791,-1.195357102383356,-1.2320551459166689,-32.03130777992473,20.22261622246178,48.48025264404264,1.6665016639928234,-1.804547928175074,4.3222935075595466,4676.740614149306,11.940666666666669,0.15,179.2907566477224,-8.783386682472646,102.38815793548098,1553.0,1435.0,1200.0,1528.0,1471.0,988.0,161.0,294.36,1649326875.509887,1649326876.6519134,19257fbc-f62e-41df-be11-4c84feb96481
-0.5312686992578625,-0.4131013375114213,-1.015193534799851,0.0539009508048792,-0.9126073452265646,0.7546343714674478,-1.1937003650047189,-1.21788083716465,-31.849218273179748,20.4142709912592,48.1830874132139,1.650604239879983,-1.8216537346239912,4.314193688490326,4688.707470703125,11.930600000000002,0.15,179.220235096324,-8.755731853651193,102.5902240732704,1553.0,1435.0,1200.0,1528.0,1471.0,988.0,161.0,294.36,1649326876.7601182,1649326877.8784635,19257fbc-f62e-41df-be11-4c84feb96481
-0.5242209961495059,-0.4049359954260604,-1.0141810850630082,0.0490490818954522,-0.911686935964394,0.7502821534135543,-1.1926879149046936,-1.208400619421644,-31.871614152532544,20.193673803339404,48.07723700287039,1.6503287534838642,-1.789274263629992,4.310989512272869,4681.28173828125,11.929666666666668,0.1433333333333333,179.16770547745526,-8.755691498616848,102.7237251294037,1553.0,1435.0,1200.0,1528.0,1471.0,988.0,161.0,294.36,1649326877.987003,1649326879.0329497,19257fbc-f62e-41df-be11-4c84feb96481
-0.5321380305790521,-0.4240911212486253,-1.0669235746872698,-0.3632657463943494,-1.007906117883763,1.164587428643007,-1.134538265386574,-1.153148742103862,-31.83574194897973,20.006363580543184,50.35342001471145,3.5079222287152936,-1.8341272676563587,4.428523954962466,4660.28369140625,11.91725,0.1425,179.11727477571847,-8.594865445394394,102.88008978843766,1553.0,1522.0,1200.0,1528.0,1471.0,988.0,161.0,294.36,1649326880.0163002,1649326880.964648,38f4c1ff-9ceb-430f-a6a7-805b75e618dc
-0.512729032495624,-0.4246064491017827,-1.0697738093418063,-0.3480547249023352,-0.986503061346648,1.1558142141338934,-1.1185818047288452,-1.150730391569133,-32.03229656340324,17.6423555481615,51.10516133790175,3.438102980334345,-1.843425143589944,4.382502860894877,4652.773111979167,11.918555555555551,0.14,179.0871851362399,-8.615883692449687,102.895590902759,1553.0,1522.0,1200.0,1528.0,1471.0,988.0,161.0,294.36,1649326881.0758162,1649326882.1797483,38f4c1ff-9ceb-430f-a6a7-805b75e618dc
-0.5139124154746664,-0.4214507613743812,-1.0579925699245636,-0.3615978846147997,-0.9957334521906605,1.1602453246733075,-1.122184550835715,-1.1523213851695966,-31.78659501219689,19.555070877685104,50.40934610441489,3.491889338599416,-1.824714659295284,4.3828139195060745,4648.279296875,11.908444444444443,0.1322222222222222,179.0592845723903,-8.591634149302678,102.95278007667952,1553.0,1522.0,1200.0,1528.0,1471.0,988.0,161.0,294.36,1649326882.289376,1649326883.406473,38f4c1ff-9ceb-430f-a6a7-805b75e618dc
-0.5240763603809947,-0.4358354381745693,-1.1139271628474363,-0.7679716139316166,-1.085986162949344,1.5709448674140096,-1.0577164464418063,-1.0769004077979032,-31.59313011749492,18.250254747497603,53.63920887550311,5.320642910883106,-1.8621962119936768,4.490120119170627,4663.740776909723,11.916111111111112,0.14,179.04881465130256,-8.437799980492464,103.05423191206134,1553.0,1613.0,1200.0,1528.0,1471.0,988.0,161.0,294.36,1649326884.5213134,1649326885.6651776,20790219-1b29-4649-a7a0-7e19c28cc869
-0.5177255384449512,-0.4415551223115453,-1.115597048693409,-0.7618574676140288,-1.0868671265023366,1.5701559455554552,-1.0623316423449152,-1.0796484878063053,-31.79490998065928,18.48911176822494,53.504819387951656,5.306455351587391,-1.8818838594188216,4.499100158842776,4683.27099609375,11.905444444444443,0.1377777777777778,179.05560234151775,-8.44734516985756,103.04001980621835,1553.0,1613.0,1200.0,1528.0,1471.0,988.0,161.0,294.36,1649326885.78588,1649326886.8919327,20790219-1b29-4649-a7a0-7e19c28cc869
-0.5137809284477179,-0.4414499326751961,-1.1101929303854348,-0.7638034757041529,-1.078110088598262,1.5707344882368297,-1.0515760012936772,-1.0751384812229374,-31.708324058920333,18.0165666204341,53.4144701633293,5.309310844811083,-1.880727231822092,4.464615335874138,4680.998643663194,11.911111111111111,0.14,179.05048728873928,-8.4387119056104,103.04833366425808,1553.0,1613.0,1200.0,1528.0,1471.0,988.0,161.0,294.36,1649326887.0051606,1649326888.0567024,20790219-1b29-4649-a7a0-7e19c28cc869
-0.5093235193139652,-0.4616989295488957,-1.1478771223690103,-1.1023431529030872,-1.1587379537883535,1.9157563520018288,-1.0058448059242684,-1.0228460818700278,-31.777286762127016,18.81237340783189,55.34572217578437,6.851955826675159,-1.933995818299247,4.557620168062432,4682.560546875,11.8585,0.12,179.08572954703675,-8.3047143136972,103.00754111835008,1553.0,1710.0,1200.0,1528.0,1471.0,988.0,161.0,294.36,1649326889.0276248,1649326890.1637516,dfeb0113-b937-415b-8ca3-13e7bd0bbbe0
-0.5167525346427451,-0.4560055427616328,-1.1499546185037228,-1.0970179275281362,-1.14572073483503,1.910878184462544,-0.9908421349058482,-1.0233720295936457,-31.50393013950976,16.929447818924473,56.212823019307606,6.816671764101326,-1.9230812847582623,4.524284008521575,4684.123860677083,11.863555555555555,0.13,179.10120827351582,-8.32156306228728,102.87546840655423,1553.0,1710.0,1200.0,1528.0,1471.0,988.0,161.0,294.36,1649326890.2717466,1649326891.5946765,dfeb0113-b937-415b-8ca3-13e7bd0bbbe0
-0.506308421266304,-0.464042938081472,-1.1651848656789734,-1.1023239353733862,-1.152112017024652,1.9245568783107927,-1.0003329698142716,-1.0360999769149133,-32.07295562447641,16.419156513348945,56.25722155256853,6.854958166407259,-1.949913372012852,4.566117666780958,4686.39990234375,11.872,0.13,179.09589286852176,-8.338317136866369,102.80271399042516,1553.0,1710.0,1200.0,1528.0,1471.0,988.0,161.0,294.36,1649326891.703891,1649326893.028257,dfeb0113-b937-415b-8ca3-13e7bd0bbbe0
-0.4910994215968652,-0.446275505309902,-1.1299948817823324,-1.3199016616023769,-1.167008489823001,2.108397975228624,-0.9316335191753692,-0.9539468700704858,-31.487898788945262,18.23761574165141,56.75922295890968,7.773057238402275,-1.862814638533164,4.441238962884245,4679.23720703125,11.8184,0.102,179.1220251722862,-8.214297123238216,102.5845345256918,1553.0,1814.0,1200.0,1528.0,1471.0,988.0,161.0,294.36,1649326894.9715602,1649326896.0801108,6fa936c5-1c17-4c0d-b9cf-4bd5d0e48dc1
-0.4844856257045654,-0.440805646437138,-1.127338843839076,-1.3393091571162627,-1.1677185206658525,2.122493384850029,-0.9220349662637244,-0.937300610867895,-31.147232235596256,18.02819394686076,57.03207774628929,7.847469008961941,-1.844574496247946,4.426119995598261,4681.28173828125,11.831888888888887,0.1122222222222222,179.13580545839167,-8.226167233105791,102.42523523793544,1553.0,1814.0,1200.0,1528.0,1471.0,988.0,161.0,294.36,1649326896.1898396,1649326897.3328216,6fa936c5-1c17-4c0d-b9cf-4bd5d0e48dc1
-0.4881804103017007,-0.4479322413808856,-1.1335450328905272,-1.3291320552538697,-1.1657067683830462,2.124058079632084,-0.9268473915176164,-0.9576022098834754,-31.6128590520994,17.697555897293014,57.55780522001088,7.825376591621502,-1.874319543180266,4.438469986528691,4681.28173828125,11.823999999999998,0.115,179.16601842073027,-8.249250616315756,102.28371865124716,1553.0,1814.0,1200.0,1528.0,1471.0,988.0,161.0,294.36,1649326897.4422562,1649326898.7727842,6fa936c5-1c17-4c0d-b9cf-4bd5d0e48dc1
-0.5105726457162709,-0.3757458840691855,-0.9577468452282089,0.4357785173708921,-0.8289158497005029,0.3459203342345707,-1.2530141842407776,-1.276247950892146,-31.451486108526325,21.45158551662591,45.25396110879374,-0.1197827703123463,-1.701760246409642,4.209936413073359,4686.39990234375,11.941,0.15,179.13916894710297,-8.78023806012901,102.13074631950096,1553.0,1349.0,1200.0,1528.0,1471.0,988.0,161.0,294.36,1649326899.4020958,1649326900.409682,9a711a63-b32a-4eb1-bf9b-8f44491a4d1c
-0.5342666028329384,-0.3784150699879586,-0.9555115653909556,0.4276920699171808,-0.8311905751577345,0.353401941922384,-1.2545262849037413,-1.2771552111572608,-31.638103426796224,22.00172935552913,44.884568074071495,-0.0811241044142824,-1.706029914141712,4.210869482043521,4686.116916232639,11.94211111111111,0.1444444444444445,179.06650484125288,-8.82032728627997,102.41927324169993,1553.0,1349.0,1200.0,1528.0,1471.0,988.0,161.0,294.36,1649326900.5180027,1649326901.634104,9a711a63-b32a-4eb1-bf9b-8f44491a4d1c
-0.5278267741867589,-0.3680953643823332,-0.95105061491694,0.4291328634836065,-0.8279711660622713,0.3428066220990939,-1.2505123894279653,-1.2807291315412217,-31.390986066595683,21.784118787275588,45.03823346706454,-0.1092548335168842,-1.6703339948067475,4.19642900849284,4686.39990234375,11.93811111111111,0.14,179.01760372243524,-8.823946337902692,102.65082803821196,1553.0,1349.0,1200.0,1528.0,1471.0,988.0,161.0,294.36,1649326901.7432292,1649326902.8758795,9a711a63-b32a-4eb1-bf9b-8f44491a4d1c
-0.5306244129416704,-0.3559176465634437,-0.9201415521512204,0.7788674163669086,-0.7695757556598626,-0.0081214500201191,-1.3286718503546142,-1.3432011748608246,-31.80283581423657,23.33887840876595,42.432329260443446,-1.675529490632134,-1.6397230861865864,4.185980805828956,4674.7578125,11.927888888888887,0.14,179.0031586312506,-8.952480252798576,103.01240611031392,1553.0,1264.0,1200.0,1528.0,1471.0,988.0,161.0,294.36,1649326903.9788487,1649326905.11744,22fdb1bb-36b7-48a7-9b6e-dedd65820d2f
-0.5313738888812053,-0.35420831574349,-0.9233892819395584,0.77692140951303,-0.7656837399314038,-0.003322175786904,-1.3247140891622646,-1.346067593323837,-31.94092625555637,22.57581910390364,43.11018077614504,-1.6655367512777142,-1.6383217016726277,4.180834164227078,4675.323567708333,11.925666666666666,0.14,178.98804873498668,-8.955751154501105,103.15933638082932,1553.0,1264.0,1200.0,1528.0,1471.0,988.0,161.0,294.36,1649326905.2255652,1649326906.3440647,22fdb1bb-36b7-48a7-9b6e-dedd65820d2f
-0.5301510597358317,-0.361689925259231,-0.9298189978341844,0.7837455822008315,-0.7743224370307025,-0.0025069564775685,-1.3370607263635064,-1.366053629998592,-32.10851572873028,23.19189285588048,42.99853097546352,-1.675436793777256,-1.6654439428949814,4.21757081295363,4677.309624565973,11.930555555555555,0.14,178.98362277240452,-8.962205208948074,103.28061170191224,1553.0,1264.0,1200.0,1528.0,1471.0,988.0,161.0,294.36,1649326906.4525335,1649326907.5697744,22fdb1bb-36b7-48a7-9b6e-dedd65820d2f
-0.5304403312264641,-0.32773998578504,-0.8835750076357773,1.17068538954514,-0.7032800016381293,-0.4083941040538111,-1.4153086974179514,-1.431849773689156,-32.16250179400417,24.83800114888722,40.53835892521112,-3.447565262027086,-1.5606055185850534,4.172498704560167,4708.138020833333,11.92411111111111,0.1355555555555555,179.00086672332907,-9.086956906591064,103.61927904280826,1553.0,1178.0,1200.0,1528.0,1471.0,988.0,161.0,294.36,1649326909.516908,1649326910.8488834,479396ad-16b9-45a9-9a11-39aeb6ee85ac
-0.5216307023460809,-0.3266354951232177,-0.8822995839754573,1.1585754408326858,-0.7049761845232687,-0.3993740968299756,-1.4124159803562526,-1.4421320670608635,-32.110578895396635,24.94597168792849,40.4037709493987,-3.3991950841883867,-1.554063974700674,4.168781447056742,4721.971245659723,11.912777777777778,0.13,178.97909208025507,-9.08656473989622,103.74313693430736,1553.0,1178.0,1200.0,1528.0,1471.0,988.0,161.0,294.36,1649326910.9576511,1649326912.0803213,479396ad-16b9-45a9-9a11-39aeb6ee85ac
-0.5284548774819323,-0.3300410080308822,-0.8797092889684263,1.1639532570423252,-0.7091706197339773,-0.4041076275889963,-1.4193059039477058,-1.4441043718352469,-32.1457812878256,25.858784578644592,39.933422003848925,-3.4158755656249364,-1.5629013066035873,4.179345792194874,4703.3744140625,11.909400000000002,0.1299999999999999,178.9858967700522,-9.100828015239731,103.8135601309817,1553.0,1178.0,1200.0,1528.0,1471.0,988.0,161.0,294.36,1649326912.188923,1649326913.227524,479396ad-16b9-45a9-9a11-39aeb6ee85ac
-0.5458683076686894,-0.3237690788661545,-0.8151891096409256,1.4373723077610263,-0.6352668275782657,-0.6755979402010018,-1.4474522352771912,-1.480007939345632,-32.23100788524214,28.24187762267396,38.11731613810254,-4.624038851202036,-1.552211531932142,4.030369571611225,4675.8575439453125,11.88475,0.12625,179.0327460620977,-9.209669875772576,103.94369282240756,1553.0,1088.0,1200.0,1528.0,1471.0,988.0,161.0,294.36,1649326915.4494345,1649326916.5885916,b1ef3261-a525-4d4b-9979-a2163bba52a2
-0.5292832455667301,-0.3221386402681138,-0.820750505372875,1.4298067502811975,-0.6338285623268379,-0.6696587735238307,-1.4430524761354664,-1.4710592287428736,-32.21483643703195,27.32819399606527,38.20473659357628,-4.599938470474339,-1.5464222349687529,4.030367625725281,4657.87890625,11.8804,0.12,179.03990990600863,-9.198968100593248,103.96272599830344,1553.0,1088.0,1200.0,1528.0,1471.0,988.0,161.0,294.36,1649326916.697983,1649326917.8158576,b1ef3261-a525-4d4b-9979-a2163bba52a2
-0.53204447259692,-0.3204293095233283,-0.8168321918945921,1.4258358430302918,-0.635906056963679,-0.6688698504391962,-1.442842095345422,-1.476752620124383,-32.08085380203205,27.81654649042165,38.04456984164859,-4.585733895605271,-1.538794361688807,4.027395997700613,4642.68408203125,11.87377777777778,0.13,179.06336750769415,-9.229769901129291,103.94394829045528,1553.0,1088.0,1200.0,1528.0,1471.0,988.0,161.0,294.36,1649326917.923776,1649326919.0418484,b1ef3261-a525-4d4b-9979-a2163bba52a2
-0.5160162074220899,-0.3676725831168997,-1.0083036133240315,0.0203323290649743,-0.9206675000503042,0.7353057898285094,-1.1931086727908262,-1.20987327447166,-31.3588650824796,20.34567481230388,47.39633980666352,1.6829026813513177,-1.6431973235728226,4.319401727658845,4649.961588541667,11.930666666666667,0.14,179.09097057885987,-8.793801392864578,103.92136464941956,1553.0,1435.0,1200.0,1528.0,1471.0,988.0,161.0,294.36,1649326920.979645,1649326922.1141813,c9d3c86b-153b-4eef-9f94-8ef607cd2869
-0.5214992152522994,-0.3913533895054705,-1.013313270059121,0.036202805731122,-0.9112793259145718,0.7473499944203303,-1.1899135373321386,-1.223968688540101,-31.86188609592442,19.77054980022509,47.88986543007975,1.669931152387898,-1.7351099260487004,4.306748332046453,4659.230143229167,11.935,0.14,179.09456477618312,-8.75560982093802,103.94525589222638,1553.0,1435.0,1200.0,1528.0,1471.0,988.0,161.0,294.36,1649326922.2224293,1649326923.3504057,c9d3c86b-153b-4eef-9f94-8ef607cd2869
-0.5239833080527608,-0.3884126324676357,-1.0058326684568075,0.0356202172740781,-0.9119964358825516,0.7443981123955621,-1.1872468783721095,-1.215895887980866,-31.51115186817437,20.38853860212079,47.83337805071426,1.669248808873443,-1.7255056235700232,4.29399412020924,4663.45556640625,11.935333333333334,0.14,179.11748081975844,-8.760272848002632,103.95798584701946,1553.0,1435.0,1200.0,1528.0,1471.0,988.0,161.0,294.36,1649326923.4641666,1649326924.5741093,c9d3c86b-153b-4eef-9f94-8ef607cd2869
-0.4318513823276724,-0.3547342637032997,-0.7519696435772296,0.006171183065388,-0.6793230675741843,0.7249840642556701,-0.919615603879684,-0.9466098933517236,-29.84139333685727,19.903992122812586,47.914236460728645,1.7023346264626058,-1.592014899947274,3.255288910989147,4682.81630859375,11.950399999999998,0.146,179.11583975297384,-8.761530513501803,103.90973739072248,1553.0,1435.0,1200.0,1446.0,1471.0,988.0,161.0,294.36,1649326926.5068405,1649326927.6531498,6e3db2e4-2943-46c1-9bb4-63d49f10890f
-0.4273150811155787,-0.350463675968639,-0.7368300092779672,-0.0025025737135029,-0.6723328891893442,0.7298934582499782,-0.9061606448706097,-0.9362930915696902,-29.53541008984141,20.38530842625491,48.17406850159213,1.7370725600348358,-1.578430298465804,3.206797652243764,4683.33193359375,11.9469,0.14,179.12254016854962,-8.764865182609332,103.96684323633517,1553.0,1435.0,1200.0,1446.0,1471.0,988.0,161.0,294.36,1649326927.7629845,1649326928.8726656,6e3db2e4-2943-46c1-9bb4-63d49f10890f
-0.4391094642172645,-0.3599937431042049,-0.7447115604945372,0.0130873974378128,-0.6709736424265497,0.7228013808871577,-0.9110820955131124,-0.938839008921655,-29.700284588064264,19.88222208679812,47.83707808106224,1.6821043792947572,-1.6124478051646962,3.2212962631947706,4694.10009765625,11.9476,0.146,179.14529152867496,-8.764032241040052,104.00305963139022,1553.0,1435.0,1200.0,1446.0,1471.0,988.0,161.0,294.36,1649326928.9816196,1649326930.09928,6e3db2e4-2943-46c1-9bb4-63d49f10890f
-0.3465163271264815,-0.3156300346120164,-0.4635660449368116,-0.018587812455437,-0.4217794789604169,0.6929538433001639,-0.6227310586320948,-0.6433745199131657,-27.61142874473144,20.015764186591085,47.80688135956692,1.7024155897639432,-1.4388484131672028,2.0945557531685526,4695.64404296875,11.9478,0.14,179.1223338968367,-8.784295704760186,103.99563384972456,1553.0,1435.0,1200.0,1354.0,1471.0,988.0,161.0,294.36,1649326932.0365589,1649326933.173009,5b88718a-759e-4a62-80b3-df13eae4418b
-0.3472921003080017,-0.314538692667436,-0.4575570894037508,-0.0126708989894227,-0.4130224454518635,0.6870895253433226,-0.6148681357662384,-0.6452810806299649,-27.53567144054285,19.70486556902256,47.95644265651861,1.674190773773698,-1.4369698025128537,2.063817815357769,4694.357275390625,11.9488,0.14,179.13809524136542,-8.755765748464949,104.01307200569454,1553.0,1435.0,1200.0,1354.0,1471.0,988.0,161.0,294.36,1649326933.2815936,1649326934.4080591,5b88718a-759e-4a62-80b3-df13eae4418b
-0.336323557208242,-0.3210255523801316,-0.4739929636029185,-0.0150528361157826,-0.4242175511405098,0.697619101427067,-0.6252535864988206,-0.6404504503238606,-27.61756966385104,19.322835282094964,48.13960327084044,1.6998622533924328,-1.4630983211478918,2.1158085838242573,4699.24658203125,11.9466,0.14,179.1574547295489,-8.775164254104066,104.02400782157464,1553.0,1435.0,1200.0,1354.0,1471.0,988.0,161.0,294.36,1649326934.5166156,1649326935.6273582,5b88718a-759e-4a62-80b3-df13eae4418b
-0.2782351370930854,-0.2849278243883625,-0.2564082989525122,-0.0154452740324155,-0.2389599767259612,0.6486953360411362,-0.4200307023077495,-0.4449737844977632,-26.018498978920853,20.57500063073792,47.765856332314925,1.6106896370176975,-1.321851952554118,1.279137169096356,4690.504736328125,11.9368,0.143,179.13774553567993,-8.79281235301364,104.0112346848078,1553.0,1435.0,1200.0,1252.0,1471.0,988.0,161.0,294.36,1649326936.4869423,1649326937.5314262,d6c8c51b-7bab-405e-9e89-232b523d20b2
-0.2763154271627062,-0.2885437163920564,-0.2514512394571973,-0.0100280110417321,-0.2283489775403592,0.6473015743684765,-0.4106951259342619,-0.4369004832805936,-26.067446129025853,20.10749198438864,47.83408530294462,1.5924715448820803,-1.3360326802876694,1.2444995662753755,4694.10009765625,11.9442,0.14,179.13026101438743,-8.762717941889012,104.00369142388844,1553.0,1435.0,1200.0,1252.0,1471.0,988.0,161.0,294.36,1649326937.639992,1649326938.7030306,d6c8c51b-7bab-405e-9e89-232b523d20b2
-0.2828108839824575,-0.288990772102257,-0.2576048301281007,-0.0121975460393615,-0.2367378467276184,0.650049651621621,-0.4202542300872899,-0.4410817695781802,-26.21245584364838,20.44125824946696,47.81474674632369,1.605370873104328,-1.3366289989399962,1.277584873903794,4686.9126953125,11.9262,0.1159999999999999,179.13544786004312,-8.769688320691737,103.99755313288136,1553.0,1435.0,1200.0,1252.0,1471.0,988.0,161.0,294.36,1649326938.8113258,1649326939.9311926,d6c8c51b-7bab-405e-9e89-232b523d20b2
-0.5985900442441295,-0.4345468656358725,-1.2710673593302924,0.1243385157067771,-1.1464044670538072,0.7180547020168138,-1.482222483745886,-1.5128458325070862,-33.6270322858634,21.15646827014148,47.121679137380085,1.4006301556503902,-1.9049781593185928,5.387189819479446,4691.53076171875,11.8614,0.11,179.1750547610022,-8.809782214138629,104.04042623030152,1553.0,1435.0,1200.0,1604.0,1471.0,988.0,161.0,294.36,1649326942.072282,1649326943.208444,4fa9ec46-db04-4c52-8170-93768f42d196
-0.596591441734105,-0.4334423749242303,-1.2787987997618953,0.118513643559495,-1.1519269241302823,0.7239584660482147,-1.4860487594729974,-1.5098084806124856,-33.65223102936491,20.846353687005767,47.31154053276299,1.4246130056175412,-1.902118258870592,5.411158219297588,4691.53076171875,11.866,0.1133333333333333,179.22488326772717,-8.814963595643,103.83019528437823,1553.0,1435.0,1200.0,1604.0,1471.0,988.0,161.0,294.36,1649326943.316531,1649326944.467096,4fa9ec46-db04-4c52-8170-93768f42d196
-0.591647530321477,-0.4324825198818524,-1.2734604240457983,0.1254430063443118,-1.1495075618589263,0.7150305021613766,-1.4854307694148468,-1.5023926064830482,-33.550819103101354,21.16917868166018,47.10177715038068,1.3913432059917237,-1.897886113412776,5.399525754056555,4685.54638671875,11.862000000000002,0.1166666666666666,179.2352606018061,-8.807193117097249,103.6864994878898,1553.0,1435.0,1200.0,1604.0,1471.0,988.0,161.0,294.36,1649326944.5799153,1649326945.5105488,4fa9ec46-db04-4c52-8170-93768f42d196
-0.6629792319215356,-0.4519557433706989,-1.460119501151344,0.1806149342211402,-1.3218608199670523,0.6930064380770797,-1.6981769401622442,-1.7177159291784738,-34.884359144304774,22.074321372620744,46.93929583840576,1.2134065950508088,-1.978654689508468,6.188213468993288,4687.539442274306,11.806222222222225,0.1,179.25770156777915,-8.831229216832693,103.3595975272941,1553.0,1435.0,1200.0,1676.0,1471.0,988.0,161.0,294.36,1649326947.600931,1649326948.7458966,27990e89-492b-4bfd-b1a3-e6dcb49b4ef9
-0.6597840975052714,-0.4481031745221155,-1.445261457794951,0.179773417591192,-1.3094878847607436,0.6887199635264752,-1.6860275280281445,-1.7109180440070306,-34.918156710004816,22.233864306894407,46.85869597318597,1.2074401695725447,-1.962203413377449,6.134065750057111,4692.558984375,11.8162,0.102,179.30314539662092,-8.833420986591856,103.10713825380832,1553.0,1435.0,1200.0,1676.0,1471.0,988.0,161.0,294.36,1649326948.8579714,1649326949.9671764,27990e89-492b-4bfd-b1a3-e6dcb49b4ef9
-0.6638733435268473,-0.4547827138123915,-1.4590018609016016,0.1777090724287809,-1.313406199877197,0.7017766176244963,-1.6889333936357236,-1.718504852105171,-35.0602941627546,21.379825073341063,47.46076148673848,1.2351155863490892,-1.9922172115092365,6.162543600714261,4698.102267795139,11.804444444444446,0.1055555555555555,179.30387061092884,-8.848477816080438,102.9064888490347,1553.0,1435.0,1200.0,1676.0,1471.0,988.0,161.0,294.36,1649326950.0756824,1649326951.203611,27990e89-492b-4bfd-b1a3-e6dcb49b4ef9
-0.6726040810289036,-0.4528630036132097,-1.4513361619343226,0.1822716698234735,-1.316851161179507,0.6949918910188941,-1.6944952992186426,-1.717781674031535,-35.03196350160313,22.60473571482982,47.35419190671911,1.2180763522674427,-1.984328140320765,6.164344609168524,4688.394097222223,11.606,0.03,179.33555509957856,-8.864330874871516,102.49958336487084,1553.0,1435.0,1200.0,1747.0,1471.0,988.0,161.0,294.36,1649326952.9263997,1649326954.063819,a65a3a58-e14d-4fcd-aa95-6fefec3fa303
-0.6624927299151885,-0.4529024497003541,-1.457897368566083,0.1839678516252213,-1.3134719429492685,0.6910735799177491,-1.693456550434283,-1.713600381192605,-35.17073867901058,21.612483200180986,47.00534820056422,1.1984152837806794,-1.9810436873249204,6.167034957749027,4681.28173828125,11.6222,0.04,179.3962968825594,-8.89756986714452,101.91057448858668,1553.0,1435.0,1200.0,1747.0,1471.0,988.0,161.0,294.36,1649326954.1722925,1649326955.291775,a65a3a58-e14d-4fcd-aa95-6fefec3fa303
-0.6576408592116223,-0.4468408993514338,-1.4435389769884452,0.1806280828195165,-1.3076733630449515,0.6876549192291858,-1.6841341131354035,-1.708038475589713,-34.88893897798841,22.18790645680293,47.009221405745706,1.2029387674586491,-1.9590068239657967,6.126962382245474,4674.6443359375,11.6208,0.033,179.43619611561496,-8.896201524121675,101.38835461710153,1553.0,1435.0,1200.0,1747.0,1471.0,988.0,161.0,294.36,1649326955.3999395,1649326956.520943,a65a3a58-e14d-4fcd-aa95-6fefec3fa303
-0.4782789337615987,-0.349484898655685,-1.0284003978035925,-0.0164309211227714,-0.9131216619801176,0.7761825540114847,-1.1768416996638502,-1.2011035921943185,-32.01109220671082,16.849812865508813,50.9568347984907,1.8337511858591105,-1.5987296963819166,4.3212362300202365,7735.9443359375,11.619333333333334,7.273333333333334,-179.58054032472864,-9.87108984920147,91.41898568819693,1553.0,1435.0,1350.0,1528.0,1471.0,988.0,161.0,294.36,1649326960.4584675,1649326961.6127727,9abc916f-099b-4b4a-9725-0cc7f4520869
-0.4804226774740443,-0.348449185779623,-1.0424508004594872,-0.0138937282949069,-0.9241782046889966,0.7733581131383541,-1.1897031578478134,-1.2091632441518327,-32.023935605867926,16.57630124228493,50.93147512156758,1.8191577393244576,-1.5957372207175848,4.373974935031215,7735.9443359375,11.619333333333335,7.306666666666666,-179.25184430111096,-10.196554624159315,87.19196147252417,1553.0,1435.0,1350.0,1528.0,1471.0,988.0,161.0,294.36,1649326961.7216644,1649326962.671234,9abc916f-099b-4b4a-9725-0cc7f4520869
-0.4766752981260601,-0.3503294496406191,-1.044252173130635,-0.0176805528682613,-0.9260716181947914,0.7770923425299863,-1.192977185994953,-1.2104386687355388,-32.268641558297,16.721367669019358,50.68487879070136,1.8368006787422289,-1.5985173057851674,4.382831635945291,7742.9326171875,11.621333333333332,7.35,-179.16534223200244,-10.50597737175905,83.71827676590753,1553.0,1435.0,1350.0,1528.0,1471.0,988.0,161.0,294.36,1649326962.780101,1649326963.894128,9abc916f-099b-4b4a-9725-0cc7f4520869
-0.289082812967276,0.0117725279225899,-1.0249761715859331,-0.3313295816055401,-1.0058185085770734,0.728310684098817,-1.211424821878316,-1.235131941101556,-31.605162558570328,15.41608360049766,53.14306574640046,2.427729901237472,-0.2270807562734252,4.536971002688359,7742.9326171875,11.60288888888889,7.268888888888889,-179.0720539904986,-11.341042845282765,77.98966961215335,1637.0,1435.0,1350.0,1528.0,1535.0,988.0,161.0,294.36,1649326965.0147457,1649326966.1478107,4c5eee3e-2b7b-4ddc-91c1-543590ce06b3
-0.2726600891453054,0.0201219501486906,-1.0142468281059431,-0.3219151132202992,-0.9961936567295324,0.7163848177430586,-1.2052054830829846,-1.2365388527137116,-31.60304824303531,15.467033644596167,53.90726788064781,2.380689039252593,-0.2030314906818202,4.50253255240537,7749.155707465277,11.6,7.35,-179.2383782037073,-11.605563265232664,75.33189881321888,1637.0,1435.0,1350.0,1528.0,1535.0,988.0,161.0,294.36,1649326966.256057,1649326967.3731923,4c5eee3e-2b7b-4ddc-91c1-543590ce06b3
-0.2822191926167218,0.0189780135531389,-1.0311297654768936,-0.3410333207099774,-1.0150226022005118,0.7325708612607559,-1.214488470617993,-1.24809656812932,-31.25556435461007,15.28826883227933,53.44607079641066,2.458262918293664,-0.204413235231935,4.56376840290972,7753.050347222223,11.59911111111111,7.325555555555557,-179.49256597039903,-11.708588700308276,73.23244133741963,1637.0,1435.0,1350.0,1528.0,1535.0,988.0,161.0,294.36,1649326967.4820223,1649326968.6068957,4c5eee3e-2b7b-4ddc-91c1-543590ce06b3
-0.0523799626978759,0.3867733305555764,-1.004871801845123,-0.6101609020482972,-1.086433219465193,0.6245017372954309,-1.24767580802025,-1.2775891189448825,-30.922719091459243,14.469185580197122,54.064326571594826,2.818646822807985,1.2019935283415466,4.7160759119623945,7756.9462890625,11.557,7.307777777777777,179.9515850390202,-11.614454748575945,70.4396726084498,1723.0,1435.0,1350.0,1528.0,1599.0,988.0,161.0,294.36,1649326969.5156872,1649326970.6529906,789f0fc9-400e-4e06-8ff8-b9d18c21be2b
-0.0609923590406525,0.3963587293660625,-0.9918545844905782,-0.6095955074707259,-1.0790567957168775,0.6261453241687502,-1.2422322430854562,-1.2758797860372657,-31.16512840996989,15.0300178108726,55.77172885019991,2.8255809325775734,1.2252927733427588,4.683707812845224,7756.9462890625,11.5504,7.31,179.715233931891,-11.846585576680749,68.78893131625469,1723.0,1435.0,1350.0,1528.0,1599.0,988.0,161.0,294.36,1649326970.7624395,1649326971.8889282,789f0fc9-400e-4e06-8ff8-b9d18c21be2b
-0.065344577677388,0.3862999775292559,-1.0065679847218405,-0.6158674377414416,-1.0909169280905122,0.6352836671751266,-1.2509103901077427,-1.2810472284998753,-31.06958757465032,14.813746588994611,54.76134996788933,2.8579846629693093,1.195680876205995,4.72973198081078,7760.0693359375,11.567333333333332,7.309999999999999,179.5490971694295,-12.163118532233714,67.43292771316182,1723.0,1435.0,1350.0,1528.0,1599.0,988.0,161.0,294.36,1649326972.022792,1649326973.112676,789f0fc9-400e-4e06-8ff8-b9d18c21be2b
0.1239440550969043,0.7163190742578425,-0.98275568116046,-0.8860601130551526,-1.161538628824501,0.5693561105553983,-1.2740915621559603,-1.299994517313485,-30.58886281645885,14.348528791626787,55.99277929270219,3.317865108692493,2.453904744974636,4.866294758065281,7756.9462890625,11.509799999999998,7.279999999999999,179.1795708820814,-12.529239249316154,65.58730268243548,1813.0,1435.0,1350.0,1528.0,1662.0,988.0,161.0,294.36,1649326974.021466,1649326975.1544793,e467b775-db0a-4a21-a86d-55f29008e086
0.119670728865116,0.7094423067859809,-0.98059929352695,-0.8907804982337022,-1.1600396759415774,0.5820971959760013,-1.2691476476095678,-1.2839399441908024,-30.576709213195656,14.4935199184757,56.2536094883595,3.358260294373008,2.42643527713823,4.853718047337707,7756.9462890625,11.510333333333334,7.27,178.93015149812223,-12.529170662833238,64.74948754550664,1813.0,1435.0,1350.0,1528.0,1662.0,988.0,161.0,294.36,1649326975.2637205,1649326976.3886368,e467b775-db0a-4a21-a86d-55f29008e086
0.1255613446987982,0.7132948744129931,-0.966845749226583,-0.8675861861735263,-1.1465754010979927,0.5579298945834003,-1.2616002897118097,-1.293025701821,-30.35895134474996,14.593996519617374,56.47041468075768,3.253127535882564,2.435439861591826,4.806972155351891,7756.9462890625,11.512199999999998,7.290000000000001,178.6870623334858,-12.834326724067695,63.7685844989255,1813.0,1435.0,1350.0,1528.0,1662.0,988.0,161.0,294.36,1649326976.4971602,1649326977.7408364,e467b775-db0a-4a21-a86d-55f29008e086
-0.741358640981301,-0.7900614333311906,-1.0610430694060782,0.3536254695500371,-0.8281795226437701,0.8423624647569724,-1.1585144254862372,-1.1910706230318824,-32.35515846124912,18.351833615835247,47.369903399033454,1.1552964468745055,-3.264539231233974,4.16796214808064,7758.35166015625,11.6128,7.353999999999999,178.7197898679128,-13.504965581688868,62.26758349296132,1470.0,1435.0,1350.0,1528.0,1403.0,988.0,161.0,294.36,1649326979.4042385,1649326980.4820564,468c1c57-ec6b-4695-9e1e-734d545697d9
-0.7473018542868344,-0.8013561686408672,-1.0373622524244968,0.3795021018600957,-0.8033021780815787,0.8391673318133434,-1.1420916919318451,-1.1663116086717191,-32.71583387929008,18.97160134934316,48.877782072807975,1.0950916853813093,-3.319387093407508,4.078896633192036,7756.9462890625,11.6148,7.347999999999999,178.59851302901006,-13.614717842405051,61.74829787074359,1470.0,1435.0,1350.0,1528.0,1403.0,988.0,161.0,294.36,1649326980.5911644,1649326981.7077029,468c1c57-ec6b-4695-9e1e-734d545697d9
-0.7558222130501332,-0.807470315282607,-1.0498272240504791,0.3761360358407269,-0.8115990086476149,0.8462150323698523,-1.1486265983482322,-1.1648915481875894,-32.68597523797004,18.603949662934525,48.51872533213682,1.1154217443472871,-3.3397298950647185,4.115388686826751,7756.9462890625,11.618899999999998,7.359,178.49899990487867,-13.702090476041496,61.32422850065043,1470.0,1435.0,1350.0,1528.0,1403.0,988.0,161.0,294.36,1649326981.8158228,1649326982.9443338,468c1c57-ec6b-4695-9e1e-734d545697d9
-0.9652339360376652,-1.1735450402947054,-1.0547136119040943,0.7182924742988916,-0.7200106290584797,0.8651058722447305,-1.129359909455837,-1.147398290996809,-33.38042378863788,20.63084817708925,45.04036556119612,0.3983400948026523,-4.719391111551063,3.922352566573275,7756.9462890625,11.565,7.340000000000001,178.53471086593515,-13.516840207070391,60.86530194314702,1385.0,1435.0,1350.0,1528.0,1331.0,988.0,161.0,294.36,1649326983.879947,1649326984.989481,b3d25ed4-b6c9-469e-a9f3-75177e8ae530
-0.9705799800012294,-1.1804464677274789,-1.0635281746894316,0.7089163590498851,-0.730550408906101,0.8803358962380007,-1.133952642149902,-1.1504279713902488,-33.2026587597955,20.7633650893264,44.96263928954181,0.4542308677162829,-4.745247100051371,3.9543054376938898,7754.1412109375,11.56,7.35,178.492948357274,-13.36843283225598,60.493075757910994,1385.0,1435.0,1350.0,1528.0,1331.0,988.0,161.0,294.36,1649326985.0983512,1649326986.2204683,b3d25ed4-b6c9-469e-a9f3-75177e8ae530
-0.9703433033713328,-1.183063060384179,-1.04957739822609,0.7235245591532395,-0.7120107394278713,0.8747871468632878,-1.1216717503614633,-1.1421179885618111,-33.50919348870714,20.654101136160644,45.82508526724323,0.4087630752691795,-4.7614512031879,3.893410279419304,7750.63486328125,11.5554,7.340999999999999,178.40573230572434,-13.433754114779678,60.10842409253689,1385.0,1435.0,1350.0,1528.0,1331.0,988.0,161.0,294.36,1649326986.3287246,1649326987.4465132,b3d25ed4-b6c9-469e-a9f3-75177e8ae530
-1.1942637357778958,-1.5940603682004235,-1.0470740878966682,1.1024724846409166,-0.6060109694764806,0.9034088219524172,-1.096761022075572,-1.13782544181241,-34.51385201007898,23.512094087826632,42.33080258083483,-0.3637259759704294,-6.311309960838655,3.6569429052459537,7749.93359375,11.4922,7.31,178.56885361555825,-13.12831565368216,59.62495325025104,1297.0,1435.0,1350.0,1528.0,1253.0,988.0,161.0,294.36,1649326989.5862937,1649326990.7211835,93e8879f-63c7-468c-a802-7c6835cd9bb5
-1.1937661077688182,-1.603926959950459,-1.0660790241535738,1.0997218785441034,-0.6272542126364266,0.9232663859258754,-1.1119548575824458,-1.1256689573894278,-34.22205641032562,23.83147367491433,43.281682896349295,-0.3114293396243943,-6.359669301172451,3.733611711906257,7751.3361328125,11.4884,7.281999999999999,178.53272464692452,-13.066498343580042,59.44331119946372,1297.0,1435.0,1350.0,1528.0,1253.0,988.0,161.0,294.36,1649326990.8302052,1649326991.8966649,93e8879f-63c7-468c-a802-7c6835cd9bb5
-1.221891192287063,-1.604702733981927,-1.078636038248311,1.0745815726560657,-0.6322375703234191,0.9303009378692922,-1.1091015883770663,-1.1391595306352535,-34.06531378510621,22.571775451528776,40.86108002354457,-0.2481942965027137,-6.3399566706713015,3.7503516394782737,7749.93359375,11.4995,7.3199999999999985,178.57496117071406,-13.001952372904505,59.28024999529451,1297.0,1435.0,1350.0,1528.0,1253.0,988.0,161.0,294.36,1649326992.0136516,1649326993.1871183,93e8879f-63c7-468c-a802-7c6835cd9bb5
-0.5023152623171131,-0.3650296946630548,-1.043305466449018,-0.0138016874085557,-0.918747790157718,0.7916347992191394,-1.183181399356994,-1.2129632204591478,-32.24325681770757,16.361868330507484,51.25757497126115,1.8584977947508667,-1.6593312731253704,4.356847052939632,7751.3361328125,11.6134,7.366,178.2250874625558,-12.836516482715604,58.97793489432706,1553.0,1435.0,1350.0,1528.0,1471.0,988.0,161.0,294.36,1649326994.909294,1649326996.044989,40febf66-5b46-4cbd-a7ee-40411c44049e
-0.4954779384677755,-0.3711701369201008,-1.044633485381848,-0.006135997612143,-0.9188924255125857,0.788268733305772,-1.186139857951982,-1.204666386150575,-32.29326883432864,16.493595848450237,50.90962373401703,1.834368348063356,-1.6799495749472462,4.361810928955551,7763.97314453125,11.5945,7.33,178.11101374115174,-12.928878740295476,58.95154714148764,1553.0,1435.0,1350.0,1528.0,1471.0,988.0,161.0,294.36,1649326996.1535504,1649326997.2734575,40febf66-5b46-4cbd-a7ee-40411c44049e
-0.5003298087240523,-0.3634781482462862,-1.0423587593939994,-0.0138937283682361,-0.9172751351742708,0.7898465767157914,-1.1825502611710192,-1.215606110292942,-32.30133465664409,16.299593245437148,51.214591673015406,1.8542852658100373,-1.652649717928901,4.3527634211112325,7757.72705078125,11.606333333333332,7.378888888888889,177.92819613891731,-12.97363573669797,58.99347691389244,1553.0,1435.0,1350.0,1528.0,1471.0,988.0,161.0,294.36,1649326997.3819726,1649326998.506152,40febf66-5b46-4cbd-a7ee-40411c44049e
-0.4927824550766913,-0.3863700326668284,-1.1057355194979812,-0.4656961349741561,-1.0171132460567989,1.2476710043020691,-1.1146371932490535,-1.147798229896157,-32.48810693633351,15.036223269356444,53.99824135062952,3.891052363101196,-1.7102703191938533,4.476024921928907,7756.9462890625,11.596,7.356666666666667,177.94356710018943,-13.03287890028389,59.135383959728266,1553.0,1522.0,1350.0,1528.0,1471.0,988.0,161.0,294.36,1649327000.4469802,1649327001.5802948,b30442a4-01f9-4cbf-9c62-d4f6764ec4c4
-0.487338893461048,-0.3779154193603395,-1.1110475965434,-0.4676684398958404,-1.0280266709049384,1.2445679120283386,-1.1241568561732158,-1.1409477538529,-32.294333145878994,15.36375295350948,54.41423931170451,3.890598918264057,-1.6837072113385056,4.513277849058806,7762.41162109375,11.593222222222222,7.360000000000001,177.920734536704,-13.089370730862896,59.257698987384856,1553.0,1522.0,1350.0,1528.0,1471.0,988.0,161.0,294.36,1649327001.6879566,1649327002.8110218,b30442a4-01f9-4cbf-9c62-d4f6764ec4c4
-0.4980287862252035,-0.3727348320915745,-1.1067742678444228,-0.4850641697460048,-1.0289602296570464,1.251247449724258,-1.1159652126519086,-1.142367816072098,-31.896159435595937,15.345090702238574,53.85463566793095,3.9450495312659006,-1.6597229055372915,4.497032381853885,7759.054345703125,11.6009,7.354000000000001,177.80507727388635,-13.091468576034597,59.31474723173549,1553.0,1522.0,1350.0,1528.0,1471.0,988.0,161.0,294.36,1649327002.9192734,1649327004.0518534,b30442a4-01f9-4cbf-9c62-d4f6764ec4c4
-0.4851430606497561,-0.3897623969635229,-1.168520591731162,-0.9398777576178304,-1.1281935094367097,1.712687835369214,-1.0492355317304878,-1.0779654529530174,-32.37181960242448,14.2077768045637,57.57616608268654,5.997655566938473,-1.7011402392256811,4.620684724788305,7763.97314453125,11.592,7.33888888888889,177.84683037206463,-13.259657876746283,59.5196625449917,1553.0,1613.0,1350.0,1528.0,1471.0,988.0,161.0,294.36,1649327005.96827,1649327007.1308355,d8aa0756-85bc-4354-81d9-6b86221755b4
-0.4766621494556374,-0.3868828318997814,-1.168507442942748,-0.9350784803587788,-1.1260765675563718,1.7079937499127826,-1.0501953871841685,-1.0855522561101243,-32.50034199368676,14.05661417460799,57.93685054529424,5.975272716161657,-1.6932198306873434,4.620021462782892,7768.66552734375,11.579,7.33,177.855821936652,-13.407927433521444,59.55366246777013,1553.0,1613.0,1350.0,1528.0,1471.0,988.0,161.0,294.36,1649327007.242829,1649327008.33935,d8aa0756-85bc-4354-81d9-6b86221755b4
-0.4856821573289464,-0.3941146162390949,-1.1751606885719437,-0.936222417396968,-1.1311782657638418,1.712372266369352,-1.0532327380988884,-1.0708257069003912,-32.37166334504692,13.957909782851983,57.36576496604303,5.98668039761925,-1.7164752687324587,4.63880376239027,7771.01171875,11.5868,7.339,177.76855215428083,-13.432293222693575,59.62750159383038,1553.0,1613.0,1350.0,1528.0,1471.0,988.0,161.0,294.36,1649327008.4470415,1649327009.5651455,d8aa0756-85bc-4354-81d9-6b86221755b4
-0.4848669379370623,-0.4084598467108561,-1.2313056677458325,-1.3373237035397672,-1.2237714585589836,2.1143674863744626,-0.9972061065787384,-1.014299422576571,-32.474231294108925,13.13063946369684,60.016793893732,7.786894802643319,-1.747237825379517,4.760435013176799,7763.97314453125,11.52911111111111,7.304444444444444,177.90864510187308,-13.138281241190668,59.88049764429393,1553.0,1710.0,1350.0,1528.0,1471.0,988.0,161.0,294.36,1649327011.4999175,1649327012.8411877,63144b1f-5cb3-47b8-82e8-f654dc472171
-0.4811458559907436,-0.4177428282222631,-1.2274267992907568,-1.315746671096131,-1.219406087969865,2.1084374213687065,-1.0005721752957064,-1.0286709576399204,-32.692820072259835,13.6936441405549,60.70125152859548,7.7288210982493135,-1.7889750099262482,4.753641843485,7763.97314453125,11.528,7.306666666666666,178.0382790566803,-13.2834275991041,59.86980915715279,1553.0,1710.0,1350.0,1528.0,1471.0,988.0,161.0,294.36,1649327012.952553,1649327014.072794,63144b1f-5cb3-47b8-82e8-f654dc472171
-0.4772932870438156,-0.4040813299695418,-1.2241264735710178,-1.3228075275256037,-1.2188538422936586,2.105768234729727,-0.9966275639796572,-1.0263041904141967,-32.488565372659416,13.492270334843502,61.329263016005626,7.737782969836438,-1.743672649436356,4.745477046690294,7763.97314453125,11.522888888888888,7.300000000000001,178.07734622091297,-13.244121093659276,59.96321578860224,1553.0,1710.0,1350.0,1528.0,1471.0,988.0,161.0,294.36,1649327014.181182,1649327015.3002963,63144b1f-5cb3-47b8-82e8-f654dc472171
-0.4521135278126273,-0.3864094787562157,-1.2322129290998525,-1.6205206382646782,-1.2698971256369018,2.375106280612855,-0.943191230674114,-0.9644526852015284,-32.72692540043238,14.052544905142852,63.27519821245591,9.01809104451861,-1.6568004639611789,4.7518164716005495,7763.97314453125,11.4916,7.292,178.09727823073086,-13.305898693800469,60.1349074680247,1553.0,1814.0,1350.0,1528.0,1471.0,988.0,161.0,294.36,1649327016.8983164,1649327017.96165,b3e0b234-5328-4a57-8bbf-df3ed2b40d0e
-0.4588325131214542,-0.3900122222149578,-1.2299513512495963,-1.6135123748434197,-1.2627573768722116,2.367703560382376,-0.9379843432620858,-0.9587987422490905,-32.68558004137169,13.63989289751245,62.67229590205719,8.982949016038205,-1.6659885602660478,4.730569047960568,7763.97314453125,11.488499999999998,7.285000000000001,178.14700883807774,-13.48682494076277,60.1813773430618,1553.0,1814.0,1350.0,1528.0,1471.0,988.0,161.0,294.36,1649327018.0704994,1649327019.191842,b3e0b234-5328-4a57-8bbf-df3ed2b40d0e
-0.4723493760335495,-0.4002591043776111,-1.2296767455241,-1.6177280546484527,-1.262042795059903,2.377769905117608,-0.9313275591251016,-0.9530608501325392,-32.38430756957484,13.566097595341189,62.15044689325176,9.014671920228391,-1.7013925988880476,4.717971716392605,7763.97314453125,11.49,7.29,178.18257363308598,-13.45923951425238,60.16017643587808,1553.0,1814.0,1350.0,1528.0,1471.0,988.0,161.0,294.36,1649327019.3005955,1649327020.4165604,b3e0b234-5328-4a57-8bbf-df3ed2b40d0e
-0.5114273111973312,-0.3558124569694072,-0.9877784857457668,0.4295460358223619,-0.8277850613254825,0.3477611516832944,-1.2567221188934412,-1.2881869768676122,-32.08540105676421,17.942377475019658,47.39074107893916,-0.1263240771528998,-1.6426453160207857,4.260979950763059,7763.97314453125,11.622666666666667,7.360000000000001,178.14492107692138,-14.309002416505102,60.43032407793042,1553.0,1349.0,1350.0,1528.0,1471.0,988.0,161.0,294.36,1649327022.561676,1649327023.6974456,5d0a7a1e-28e8-44f7-81aa-33a0355db195
-0.5100992925565918,-0.3480810222210101,-0.9833868187524452,0.4286913706224396,-0.825299956674746,0.3467355534203076,-1.25292214237047,-1.2831904677595258,-31.987120791391177,17.91943171534257,48.24075291490772,-0.1264492840254653,-1.6214937253522566,4.248403490446214,7763.97314453125,11.623666666666669,7.367777777777778,178.16928512060076,-14.076887259889894,60.7135181402074,1553.0,1349.0,1350.0,1528.0,1471.0,988.0,161.0,294.36,1649327023.8059697,1649327025.0943806,5d0a7a1e-28e8-44f7-81aa-33a0355db195
-0.4927167115513836,-0.3514076429540542,-0.98788367557301,0.4327806148328493,-0.8310590884079442,0.3481424638055684,-1.2629414576734548,-1.276208504742027,-32.286388501736475,18.37965791213885,48.4527354331183,-0.1298019724926511,-1.6345119731923397,4.276176862656171,7763.97314453125,11.616888888888887,7.362222222222223,178.22355780374568,-13.865311241018826,60.85662578151732,1553.0,1349.0,1350.0,1528.0,1471.0,988.0,161.0,294.36,1649327025.2026284,1649327026.3599322,5d0a7a1e-28e8-44f7-81aa-33a0355db195
-0.5137951728810713,-0.3382463436358247,-0.939388515494293,0.8183595219577015,-0.7536767839384879,-0.0439483610336537,-1.3322061137847323,-1.3526277021005475,-32.36767095674386,19.98727367417469,44.92453012409197,-1.8681854733574657,-1.5976748245882326,4.202573686841028,7756.9462890625,11.602333333333332,7.35222222222222,178.30597997318995,-13.813584605750767,61.15974122887352,1553.0,1264.0,1350.0,1528.0,1471.0,988.0,161.0,294.36,1649327028.4995155,1649327029.6380775,5a0234e2-623b-413a-8be0-350d8c0deee5
-0.5107830249199823,-0.3301199001665547,-0.9253615882768246,0.8245591316767841,-0.7420555232207444,-0.0524457062388715,-1.3219660094055663,-1.3584405286931849,-32.30841627545481,20.102079604514994,45.75128970913419,-1.899643815963681,-1.5748147853832009,4.155243187533981,7756.9462890625,11.594333333333331,7.346666666666668,178.31774307676056,-13.831308092873302,61.17160906201136,1553.0,1264.0,1350.0,1528.0,1471.0,988.0,161.0,294.36,1649327029.7458403,1649327030.862037,5a0234e2-623b-413a-8be0-350d8c0deee5
-0.5066543332132923,-0.3222175324364035,-0.9227449957955256,0.8229681395632801,-0.7421344150266216,-0.0558117725690244,-1.3217556296080275,-1.3406766214614274,-32.26290137643589,20.184902759471512,46.17461767416622,-1.902849202535288,-1.5488870223158333,4.153021543058844,7763.97314453125,11.602,7.358888888888888,178.27092288891,-13.73837767739097,61.3688239441063,1553.0,1264.0,1350.0,1528.0,1471.0,988.0,161.0,294.36,1649327030.9708135,1649327032.1559474,5a0234e2-623b-413a-8be0-350d8c0deee5
-0.5119138131177978,-0.3110148415200182,-0.8797618845311458,1.2313271753749142,-0.6666214228802404,-0.4734538669781755,-1.4044741594861938,-1.4266428842710916,-32.536060749697164,21.85428469887885,41.65117114366864,-3.750156447877447,-1.512370098963006,4.10703292943214,7763.97314453125,11.576,7.346666666666666,178.43380165113737,-13.861494113910174,61.43365154624861,1553.0,1178.0,1350.0,1528.0,1471.0,988.0,161.0,294.36,1649327033.8771908,1649327035.1732247,ae3adc4f-7a28-4148-a83d-64e4948da5df
-0.5085608946713276,-0.3036384218586045,-0.8800380069274177,1.2298676701640403,-0.6766801788346849,-0.470390219986246,-1.4120609645242632,-1.438437277281825,-32.34035650588217,22.673917908736875,42.88117302022664,-3.734265457378856,-1.4968145704486011,4.134326725392867,7758.5078125,11.578444444444443,7.355555555555556,178.4474134592433,-14.02015068086563,61.46247873909561,1553.0,1178.0,1350.0,1528.0,1471.0,988.0,161.0,294.36,1649327035.2862518,1649327036.3946154,ae3adc4f-7a28-4148-a83d-64e4948da5df
-0.5239317246829281,-0.3101338787285123,-0.885205447518534,1.223174983815263,-0.678941755867238,-0.4679708592552931,-1.4105357145925472,-1.4347950849194415,-32.14065272033673,22.275047314042787,41.43483159825053,-3.716763264885771,-1.5092813895078012,4.139698025946529,7756.9462890625,11.58522222222222,7.351111111111113,178.51394709085832,-14.016723253994623,61.59821357065146,1553.0,1178.0,1350.0,1528.0,1471.0,988.0,161.0,294.36,1649327036.5020936,1649327037.6232927,ae3adc4f-7a28-4148-a83d-64e4948da5df
-0.5269296283109272,-0.3067152171815079,-0.8269698424141012,1.5645677497545172,-0.5996419412853092,-0.7982399266903273,-1.461999766836323,-1.476778919195154,-32.62690239922187,24.59385838999104,39.65243570789963,-5.2112778627130885,-1.515522048973521,4.0251824969905865,7756.9462890625,11.5614,7.340000000000001,178.46771217432865,-13.903511900891528,61.79784816109636,1553.0,1088.0,1350.0,1528.0,1471.0,988.0,161.0,294.36,1649327039.5614326,1649327040.692419,9ccc9111-3dfc-4f89-bdb7-f7cfde5cbeff
-0.516200289240093,-0.2905817645992838,-0.8154252810665398,1.5507616169217815,-0.5946980294773457,-0.7955312939215353,-1.450310562593005,-1.4842210877338275,-32.35756743925693,24.61992228009468,40.56457891303455,-5.1730193500522885,-1.4625702454693117,3.9893645151278654,7756.9462890625,11.543,7.330000000000001,178.54477856477175,-13.807759308162392,61.82034953629805,1553.0,1088.0,1350.0,1528.0,1471.0,988.0,161.0,294.36,1649327040.8002872,1649327041.9308474,9ccc9111-3dfc-4f89-bdb7-f7cfde5cbeff
-0.5297960448339372,-0.288491121596013,-0.8185678216290521,1.536245454700472,-0.603323577572699,-0.7857618085030748,-1.4546233404572042,-1.4886916513747566,-32.34971663795951,24.99301948805116,40.31127592768708,-5.1160407035202695,-1.4509452537374978,4.011157720568204,7756.9462890625,11.54125,7.32375,178.56389114161675,-13.70566793702968,61.85567612845901,1553.0,1088.0,1350.0,1528.0,1471.0,988.0,161.0,294.36,1649327042.0391006,1649327043.1487916,9ccc9111-3dfc-4f89-bdb7-f7cfde5cbeff
-0.4845513691351211,-0.3505266801350556,-1.0362446116140351,-0.0248597411389981,-0.9196813479815462,0.7833774187442066,-1.1798284790622728,-1.20671758489157,-31.92644117496069,16.583302570841116,50.69237369008013,1.8667754965941128,-1.600356270402271,4.344711443692914,7760.85009765625,11.612111111111112,7.354444444444444,178.64168225307628,-13.055856700152937,61.91267396221903,1553.0,1435.0,1350.0,1528.0,1471.0,988.0,161.0,294.36,1649327044.066644,1649327045.2024348,86e7f646-7c90-46b8-b190-d5fe9c533d77
-0.482894633032045,-0.3612691668958328,-1.037086128850517,-0.026608517716285,-0.9126599402207364,0.7933572782618709,-1.1718735116070584,-1.1923591966825915,-32.07055391438969,15.991219932637309,50.42129247368951,1.889063741088292,-1.637072623820317,4.323413643049372,7771.01171875,11.608222222222222,7.35,178.70758295382817,-13.006947897372465,61.900319667830296,1553.0,1435.0,1350.0,1528.0,1471.0,988.0,161.0,294.36,1649327045.3110435,1649327046.4344077,86e7f646-7c90-46b8-b190-d5fe9c533d77
-0.5058259650877448,-0.3562726613978788,-1.0365601806833231,-0.0126840480708103,-0.9142640821325048,0.779998204116221,-1.17948661273555,-1.2122137443157408,-32.132205105506536,16.355667136026728,51.00923897068008,1.8301387674277296,-1.6247821705040555,4.337084276309965,7767.101399739583,11.608444444444444,7.344444444444444,178.75055395062645,-12.946927894632188,61.84162253992301,1553.0,1435.0,1350.0,1528.0,1471.0,988.0,161.0,294.36,1649327046.5425968,1649327047.6591332,86e7f646-7c90-46b8-b190-d5fe9c533d77
