raw_voltage_G-,raw_voltage_G0,raw_voltage_G1,raw_voltage_G2,raw_voltage_G3,raw_voltage_G4,raw_voltage_G5,raw_voltage_G6,load_x,load_y,load_z,load_l,load_m,load_n,rpm,voltage,current,roll,pitch,yaw,aileron1_pwm,elevator_pwm,throttle_pwm,rudder_pwm,aileron2_pwm,pbaro,pdiff,Tt,sample_start_time,sample_end_time,uid
0.621319753124799,0.8273598036349648,0.903898357901716,-0.6400741955237664,0.4826404668204014,0.0871671520702439,0.7181467428642354,0.6930327354606205,4.720242741646798,15.996585251771824,49.84290416900731,1.801099492519616,2.764317635492284,-2.750441571200751,5013.71640625,11.9468,0.14,179.3953392900378,-9.210960034473768,109.67811764670556,1553.0,1435.0,1200.0,1528.0,1471.0,988.0,161.0,292.25,1649326168.9951365,1649326169.9725854,37bc3999-9cf8-410e-af91-965b205ab4f1
0.6351258828369138,0.8248221054986203,0.8981918242330064,-0.6442949279857325,0.4770259740097041,0.0949643289778449,0.7127557779312969,0.6924410442594858,4.565259621464642,16.092899116210056,50.00219034123765,1.8284434340231124,2.754644439794085,-2.727607532910252,5031.164225260417,11.947666666666665,0.14,179.33419361520404,-9.17393187143584,108.85920209855612,1553.0,1435.0,1200.0,1528.0,1471.0,988.0,161.0,292.25,1649326170.0813448,1649326171.2015035,37bc3999-9cf8-410e-af91-965b205ab4f1
0.6210041844452632,0.8244802394122592,0.90400354746739,-0.6404686562758124,0.4837449572046094,0.0923608871914925,0.7189882593425331,0.698699823004761,4.5986200450360215,16.015408939534726,50.13239671218838,1.8137752628852324,2.7518681235950893,-2.753323813945763,5042.015625,11.945,0.14,179.20173347990027,-9.109868965889351,107.9269609623897,1553.0,1435.0,1200.0,1528.0,1471.0,988.0,161.0,292.25,1649326171.3093026,1649326172.4312088,37bc3999-9cf8-410e-af91-965b205ab4f1
0.8123439938762211,1.1478592531869822,0.940925083634085,-0.6795334474852038,0.4510178550965936,-0.197396943449322,0.6469597082924267,0.630392352639504,5.0077485829488735,16.04082527756349,48.73389716510991,1.2527612763303269,3.981385964529027,-2.6194335343215447,5042.015625,11.919444444444444,0.13,178.7980374257364,-9.040120497041256,106.32898280564191,1637.0,1435.0,1200.0,1528.0,1535.0,988.0,161.0,292.25,1649326174.5703924,1649326175.7078018,048110a2-b2dd-4458-bd0f-a33b0562a509
0.8101613104993288,1.143651670601716,0.9696944289533084,-0.673248368064163,0.4762633496468741,-0.2021304747918724,0.6694702740875619,0.6491949864377651,4.82551610749556,16.629204694130667,48.48913426413641,1.2331490118086086,3.970124069536804,-2.7262529919930136,5033.13330078125,11.925888888888888,0.1322222222222222,178.701437301395,-9.01465261890105,105.8738417666495,1637.0,1435.0,1200.0,1528.0,1535.0,988.0,161.0,292.25,1649326175.8161752,1649326176.9433491,048110a2-b2dd-4458-bd0f-a33b0562a509
0.8115156260916118,1.1530529880290958,0.9484198398793332,-0.6996904058085751,0.4551991401624354,-0.182985970838748,0.660949919750587,0.640622037342634,5.257959398342711,15.8593168427108,48.95076104604075,1.3299442820536256,4.000126440529275,-2.6542568090701586,5016.95166015625,11.926999999999998,0.1299999999999999,178.58083513340026,-8.995450917573766,105.42204031070628,1637.0,1435.0,1200.0,1528.0,1535.0,988.0,161.0,292.25,1649326177.0564072,1649326178.1687915,048110a2-b2dd-4458-bd0f-a33b0562a509
1.007169727699633,1.51235781061034,1.0094454639125985,-0.7392047831304682,0.43564399596607,-0.5064727806714671,0.5997751106090636,0.5695583981160308,5.906163239709001,16.13008589342061,47.8328645527791,0.697142701403018,5.361796398518037,-2.581811808975332,5021.667643229167,11.882,0.1255555555555555,178.1962370470657,-8.944521754323173,104.6995425208474,1723.0,1435.0,1200.0,1528.0,1599.0,988.0,161.0,292.25,1649326180.0998523,1649326181.2466934,cd62a709-2630-46d2-b4bb-32d39eee1221
0.9986610046240056,1.502689977945259,0.9970174178298902,-0.7469336911888985,0.4230242831059702,-0.4897056599615483,0.5909725650918003,0.5680543897231031,5.908899377103362,16.28626772997321,47.77446114536611,0.7526637654106108,5.326200781151417,-2.536531695633786,5012.5302734375,11.882555555555555,0.1211111111111111,178.09667110280463,-8.947030900205768,104.38430955899368,1723.0,1435.0,1200.0,1528.0,1599.0,988.0,161.0,292.25,1649326181.354139,1649326182.4659908,cd62a709-2630-46d2-b4bb-32d39eee1221
1.0058007462143357,1.5013488107866315,1.0058270437657924,-0.7393863362942196,0.4337536183260558,-0.4962142660413547,0.6000057185386338,0.5684619992623741,5.9456153722019245,16.1542227170188,47.72050742640074,0.7205862745497386,5.32101591552685,-2.5761075460672664,5014.159505208333,11.888222222222222,0.12,178.057858932301,-8.90249911031841,104.09700144610665,1723.0,1435.0,1200.0,1528.0,1599.0,988.0,161.0,292.25,1649326182.5905297,1649326183.7023933,cd62a709-2630-46d2-b4bb-32d39eee1221
1.144256510543157,1.7462433149593255,1.0570412126148574,-0.7550990351623115,0.4277052185562361,-0.7378084918777296,0.5516579670166614,0.5238879231092093,5.647739591613214,17.14220574461285,45.43257118025141,0.2217207191210768,6.267103443863041,-2.5431893007383546,5010.1876953125,11.8348,0.11,177.8051401116267,-8.915027916040438,103.79364329936196,1813.0,1435.0,1200.0,1528.0,1662.0,988.0,161.0,292.25,1649326184.6058407,1649326185.5448525,84d50235-9ab6-436d-8b93-7957b7af6689
1.1102539833823162,1.713844920673675,1.0519395185729374,-0.7368354878502688,0.4325702358138391,-0.72985352717606,0.5562863076973293,0.5329999688071716,5.836438766591403,16.855682297446684,44.44266245336528,0.1961822591593635,6.150450823897034,-2.554357925649258,5003.75146484375,11.8363,0.11,177.77644512088568,-8.91002599775651,103.56129870530889,1813.0,1435.0,1200.0,1528.0,1662.0,988.0,161.0,292.25,1649326185.653486,1649326186.766805,84d50235-9ab6-436d-8b93-7957b7af6689
1.1284123321347013,1.7227860360082408,1.056646751572856,-0.7412403034014067,0.4318602062793463,-0.7286175496618548,0.5594945892878,0.5363265886615491,6.085409385496627,17.062278734432187,45.31329706419528,0.2107639015400725,6.175351121414831,-2.5620146983505445,5004.076171875,11.83888888888889,0.11,177.73695387779657,-8.921864688753903,103.36987468526524,1813.0,1435.0,1200.0,1528.0,1662.0,988.0,161.0,292.25,1649326186.8757455,1649326187.9974773,84d50235-9ab6-436d-8b93-7957b7af6689
0.4158198096839002,0.4025952566006734,0.8670981945055349,-0.5989561851424132,0.5277607196159859,0.4757095873343638,0.8206479005205416,0.8022397274777993,4.378446825210168,16.743330953122342,51.53916438151555,2.584670273491729,1.1511947884608704,-2.956863227763108,5007.974609375,11.943888888888887,0.14,178.24007016551914,-8.713434446314317,102.89605611453248,1470.0,1435.0,1200.0,1528.0,1403.0,988.0,161.0,292.25,1649326190.1359158,1649326191.269421,2befedaa-4d3b-4702-93a1-c10284ae84e1
0.4088236924081825,0.4010528135376118,0.8635187151457966,-0.5974329586194539,0.5262941343843001,0.4742910454718291,0.8192076127268804,0.7921344496275229,4.441458385905431,16.530934415331622,51.30509252338994,2.576454764198319,1.146620218014758,-2.9483079790577693,5030.836046006944,11.943888888888887,0.1377777777777778,178.16128621017276,-8.684888429588156,102.84302197235704,1470.0,1435.0,1200.0,1528.0,1403.0,988.0,161.0,292.25,1649326191.3786707,1649326192.5008056,2befedaa-4d3b-4702-93a1-c10284ae84e1
0.3929006225329788,0.4007898396102818,0.8658328854901886,-0.5921734787120848,0.5287266429584581,0.4708329386255144,0.8210089839522904,0.7902936323709591,4.525840851064872,16.540616182380877,51.480529036937966,2.557069691704718,1.1429810938684388,-2.9570236108080685,5033.13330078125,11.943555555555555,0.14,178.13279673223474,-8.663647679634277,102.81384188640294,1470.0,1435.0,1200.0,1528.0,1403.0,988.0,161.0,292.25,1649326192.6087818,1649326193.732236,2befedaa-4d3b-4702-93a1-c10284ae84e1
0.1951442430386305,0.0135738992656338,0.8350780876367918,-0.5209995649980246,0.5751152389636753,0.7813525197073965,0.8989150024194191,0.8813877920471914,3.6526855295290543,17.704807764018135,51.17742931572791,3.099996083061065,-0.3111407422879411,-3.136950980311864,5050.92919921875,11.896,0.12,178.3621393063656,-8.605508160781746,102.78373289472172,1385.0,1435.0,1200.0,1528.0,1331.0,988.0,161.0,292.25,1649326195.414739,1649326196.3899448,8c79c050-6348-46e6-b555-0bc6b4b46aed
0.2027047430887687,0.0196617457172381,0.846478006270915,-0.5218805276715772,0.5833989168051014,0.7755539452071349,0.9092498768350756,0.8977842148040736,3.869552296492094,17.750505199010018,51.16774899533493,3.0899313436400204,-0.2889248155308574,-3.177639494529489,5053.90673828125,11.899333333333333,0.1233333333333333,178.37984771015374,-8.595162985510113,102.56619819984596,1385.0,1435.0,1200.0,1528.0,1331.0,988.0,161.0,292.25,1649326196.4981964,1649326197.6239908,8c79c050-6348-46e6-b555-0bc6b4b46aed
0.1905421995523779,0.0135607505457252,0.8282802122903766,-0.5154771108316902,0.5683568097391278,0.7796300406556513,0.8911441235729839,0.8700141705337612,3.727339968425056,17.757525675724438,51.59627223068716,3.083783468776285,-0.3165406252334268,-3.106747284650672,5052.583930121527,11.904777777777776,0.13,178.40252849165765,-8.580343087694741,102.39982465749326,1385.0,1435.0,1200.0,1528.0,1331.0,988.0,161.0,292.25,1649326197.7331047,1649326198.8497145,8c79c050-6348-46e6-b555-0bc6b4b46aed
-0.0363911475549072,-0.3966786126429235,0.7690190438199471,-0.4281960440736871,0.5903808738167767,1.0920824860518794,0.940136161968336,0.9146408419557364,2.863106312101001,19.233848540377974,50.245269196892416,3.595206651472049,-1.8515748935563072,-3.1777090610729264,5067.852756076389,11.84477777777778,0.11,178.80537001326533,-8.518691144061528,102.1283876275076,1297.0,1435.0,1200.0,1528.0,1253.0,988.0,161.0,292.25,1649326199.974645,1649326201.110301,ba4a2b35-ece0-4b33-ad94-f6c86c8a80a9
-0.0356548205321031,-0.403515936066598,0.7765795434365308,-0.4317987877808482,0.5994666220616098,1.1041792860542885,0.952877247596265,0.941214355063522,2.8833270607402097,19.129351757396503,50.62002517345073,3.630270340879669,-1.879762485679396,-3.2188038805034647,5065.522026909723,11.84488888888889,0.1111111111111111,178.85361846956232,-8.530071757038586,101.70769502704908,1297.0,1435.0,1200.0,1528.0,1253.0,988.0,161.0,292.25,1649326201.218509,1649326202.331323,ba4a2b35-ece0-4b33-ad94-f6c86c8a80a9
-0.0437675663627943,-0.3998737464366229,0.7845082065249467,-0.4189525088675035,0.6049890739565892,1.0862576139520397,0.9547706597136976,0.9250283110676932,3.058486856744222,19.365906346231544,50.29550700435424,3.5630192771980704,-1.8655406068888587,-3.239708070105058,5056.226019965277,11.84811111111111,0.11,178.90248771416387,-8.547406777152077,101.39342284513866,1297.0,1435.0,1200.0,1528.0,1253.0,988.0,161.0,292.25,1649326202.4398994,1649326203.5623152,ba4a2b35-ece0-4b33-ad94-f6c86c8a80a9
0.6251723207474345,0.8155259780899875,0.8993357606548112,-0.6257289626073281,0.4796162669740164,0.0887581444076708,0.7107966223710642,0.6896140747793292,4.594086054104653,16.364566578961234,50.24873752992785,1.7745287277937047,2.715180401145019,-2.7306111462943417,5059.877278645833,11.949333333333332,0.1333333333333333,178.04244091861457,-8.635073488377792,100.87885005344825,1553.0,1435.0,1200.0,1528.0,1471.0,988.0,161.0,292.25,1649326205.5013227,1649326206.639384,6e2c14a5-1089-493f-a169-0e0366e90e07
0.6213723479029144,0.8098325931227821,0.909170984671271,-0.6195096270193549,0.4897276134691822,0.0876668026545054,0.7213155783613092,0.6951496753641538,4.715785204358706,16.43780058938207,50.19157323019051,1.7590743933447583,2.6933310444763467,-2.773426353858539,5063.7599609375,11.9507,0.1299999999999999,177.9487858200613,-8.606415124526157,101.2318012171735,1553.0,1435.0,1200.0,1528.0,1471.0,988.0,161.0,292.25,1649326206.7732904,1649326207.8677108,6e2c14a5-1089-493f-a169-0e0366e90e07
0.623094826943478,0.816919739778767,0.8885012358630587,-0.6285427843635926,0.4690315674077704,0.0914010323182429,0.7007773168070129,0.680147014402429,4.604548422084868,16.296218740175092,50.37064276010087,1.78584706811138,2.718911793282217,-2.686809118794611,5066.520182291667,11.948555555555554,0.13,177.89180640883927,-8.592391825981856,101.54170776983943,1553.0,1435.0,1200.0,1528.0,1471.0,988.0,161.0,292.25,1649326207.999169,1649326209.0902042,6e2c14a5-1089-493f-a169-0e0366e90e07
0.6377030270532714,0.8269784914786193,0.8868707976756695,-0.998192259375636,0.4260353343517416,0.4374878478317087,0.7960790581585232,0.768059189044606,4.787661254317201,15.598494416338134,52.94833223654726,3.3931855929963466,2.777892771720106,-2.7596875949326485,5075.858561197917,11.93,0.1244444444444444,177.8264673014191,-8.48658479636676,102.08911555759984,1553.0,1522.0,1200.0,1528.0,1471.0,988.0,161.0,292.25,1649326211.0254717,1649326212.1658227,82d73f26-b8c0-427a-82d6-5b744b693cd3
0.6521676029519695,0.825844163665858,0.8780722977305643,-0.9993341737735189,0.4184116197707786,0.439373674157087,0.7883956687602705,0.7609730538704528,4.771604444038649,15.509893912759132,52.846691058006975,3.398949440880029,2.7742341556311803,-2.726636474489754,5078.193359375,11.930888888888887,0.1288888888888889,177.8295499934645,-8.48283388414756,102.21859014132642,1553.0,1522.0,1200.0,1528.0,1471.0,988.0,161.0,292.25,1649326212.274062,1649326213.387865,82d73f26-b8c0-427a-82d6-5b744b693cd3
0.6380580418175961,0.8261238262899446,0.8910126367072279,-0.9904082273488,0.4305979315085625,0.4300851323988358,0.7979987676486482,0.7774210599312278,4.7915077179442775,15.659558983534115,52.818558863775344,3.3595841237493698,2.7751154366075674,-2.7745216264623287,5070.85009765625,11.928666666666668,0.1266666666666666,177.84638261521908,-8.474757564908975,102.33518526500808,1553.0,1522.0,1200.0,1528.0,1471.0,988.0,161.0,292.25,1649326213.4962432,1649326214.620123,82d73f26-b8c0-427a-82d6-5b744b693cd3
0.6822902516770941,0.8381417335854561,0.8984285007218541,-1.423092732758786,0.3797387785417918,0.8387728709713695,0.9092104307824468,0.8782715511199821,4.970400391816392,15.94144347095008,56.400480152725095,5.256889212925875,2.840924889998034,-2.8709782252307456,5062.8623046875,11.915555555555557,0.12,177.86332452000033,-8.356293246124459,102.5041937425606,1553.0,1613.0,1200.0,1528.0,1471.0,988.0,161.0,292.25,1649326216.5551193,1649326217.68908,f81757f4-4eee-4b4b-bbeb-4e1444468b6d
0.6839995820233098,0.8505015069666656,0.900782117180298,-1.433427618501543,0.3795546967883359,0.8379445031627532,0.9113405194402404,0.9004796974511153,4.991576497554366,15.805730609365511,56.67004790916248,5.27761189763035,2.8861618541363008,-2.8751129037232745,5066.520182291667,11.909444444444444,0.12,177.8943851847059,-8.336276617851828,102.53735810553052,1553.0,1613.0,1200.0,1528.0,1471.0,988.0,161.0,292.25,1649326217.7978332,1649326218.7405436,f81757f4-4eee-4b4b-bbeb-4e1444468b6d
0.6846833141608208,0.8406794317327001,0.9035827892365365,-1.4299958053051234,0.3823948149835005,0.8422046803933427,0.9153245740529972,0.893931647045909,5.083622501029043,15.990746050779787,56.38036863939705,5.280809856471585,2.8509971970676475,-2.890049829068551,5062.8623046875,11.913555555555556,0.1211111111111111,177.92487059570138,-8.340333181036385,102.5629622079992,1553.0,1613.0,1200.0,1528.0,1471.0,988.0,161.0,292.25,1649326218.8493109,1649326219.8006947,f81757f4-4eee-4b4b-bbeb-4e1444468b6d
0.7114014623381978,0.854577602445653,0.8986257311670814,-1.798948691708481,0.3245405556863299,1.185280441642807,0.9922444413836906,0.9706674323563876,5.0924569960058905,16.62617754134712,59.05723803969177,6.8884108972287095,2.924458755737615,-2.912043181852456,5065.8544921875,11.872,0.11,177.95395354118733,-8.247945537920097,102.5698591812411,1553.0,1710.0,1200.0,1528.0,1471.0,988.0,161.0,292.25,1649326222.0850508,1649326223.2218502,5e427840-5821-4c3a-84dd-a8f47b7e1500
0.7065627425881282,0.8538544242393943,0.8965876833736453,-1.7878511753296733,0.3243827713818035,1.1749455667301765,0.9896015535834802,0.9674985967911186,5.245249859139583,16.49684780407115,58.922839794705,6.839250439872006,2.920358399198559,-2.905307107747262,5062.8623046875,11.862000000000002,0.11,178.03607973576754,-8.258894843423814,102.45767332412365,1553.0,1710.0,1200.0,1528.0,1471.0,988.0,161.0,292.25,1649326223.3299644,1649326224.4518712,5e427840-5821-4c3a-84dd-a8f47b7e1500
0.706260322603404,0.855077252845498,0.8960748842909271,-1.7860892487781026,0.3240146078810371,1.172683991026429,0.987261085801152,0.9610425874256698,5.1370645325312605,16.54482053984023,58.99128490565538,6.830442838568505,2.924855205788158,-2.9006097253036445,5062.8623046875,11.8735,0.1149999999999999,178.04624305725252,-8.235363987959474,102.37638041262214,1553.0,1710.0,1200.0,1528.0,1471.0,988.0,161.0,292.25,1649326224.561343,1649326225.688243,5e427840-5821-4c3a-84dd-a8f47b7e1500
0.6966091804953604,0.8305812339098894,0.8606260022658277,-1.982162923373284,0.2627679844745115,1.3886776254269213,0.9957682917807726,0.9794507609721848,4.608751830776938,17.71398731085176,60.50156905678841,7.764063785565761,2.845247322728925,-2.784383730445453,5061.3681640625,11.828500000000002,0.1,178.0923468341501,-8.149619500666429,102.19058902191404,1553.0,1814.0,1200.0,1528.0,1471.0,988.0,161.0,292.25,1649326226.5908475,1649326227.73154,c45baa1f-d086-474c-bb7f-57ad2d9a8f11
0.714598618091621,0.8304967788333326,0.870499155107165,-1.9825669953182723,0.2706405130927858,1.3856245995246534,1.0060445029347322,0.9915809380394596,4.829695315406549,17.769478891429042,60.07888329537969,7.759018032282549,2.847789630661953,-2.8236739149473284,5050.92919921875,11.832125,0.1,178.11532359051802,-8.180705078961328,101.97601009140163,1553.0,1814.0,1200.0,1528.0,1471.0,988.0,161.0,292.25,1649326227.8436787,1649326228.9575033,c45baa1f-d086-474c-bb7f-57ad2d9a8f11
0.6986735256054639,0.8334476494473226,0.8724729765458268,-1.984503394923282,0.2704599713644199,1.387928149517161,1.0092982992881965,0.9874188702156448,5.0650879373411,17.783270402751533,60.58229407645958,7.76895090574391,2.853093197302492,-2.829542210125549,5044.9833984375,11.834,0.1,178.1429790264674,-8.163717011113334,101.82429007483978,1553.0,1814.0,1200.0,1528.0,1471.0,988.0,161.0,292.25,1649326229.0656118,1649326230.1815069,c45baa1f-d086-474c-bb7f-57ad2d9a8f11
0.5995586629421785,0.8099509313822983,0.9257777867195408,-0.151034636274821,0.5503168001868979,-0.3628733083022697,0.6037136505379538,0.5878957704697578,4.3752783522839085,18.016559443450863,47.08168054681149,-0.2994886414652123,2.6671480679154,-2.7122981828881594,5041.687771267361,11.949999999999998,0.13,178.15236598311674,-8.767398822309202,101.67365032858612,1553.0,1349.0,1200.0,1528.0,1471.0,988.0,161.0,292.25,1649326232.121599,1649326233.262882,32fcc910-3b02-4fd3-b8c5-99df4226c519
0.5916168511765898,0.8061246611220386,0.9207023903424372,-0.1482076663363104,0.5466483142915086,-0.3607037729629742,0.5988880794878216,0.5759962014789647,4.309389090819688,18.03419046249808,47.18915494872323,-0.3011422350808662,2.651641518605365,-2.6938525863910594,5042.345377604167,11.946888888888887,0.1288888888888889,178.1104134434147,-8.752340437055308,102.04453567179706,1553.0,1349.0,1200.0,1528.0,1471.0,988.0,161.0,292.25,1649326233.3742905,1649326234.4859765,32fcc910-3b02-4fd3-b8c5-99df4226c519
0.5819105856842948,0.7985859074054632,0.9273040467774496,-0.1467168064124325,0.5550442617682377,-0.3539857995582818,0.6093458434611451,0.5810002913807316,4.373579698393902,17.958371010052282,47.35540617526489,-0.2895241511384634,2.6216724700779386,-2.729765209954192,5044.9833984375,11.947333333333331,0.13,178.05372894458284,-8.747496694568907,102.29051355110649,1553.0,1349.0,1200.0,1528.0,1471.0,988.0,161.0,292.25,1649326234.5939062,1649326235.715407,32fcc910-3b02-4fd3-b8c5-99df4226c519
0.5526178218332286,0.7759747034346879,0.9366386089583176,0.2272007629200901,0.6033849331728636,-0.6923665794562885,0.5155385018314584,0.4912528620600931,3.77795486272842,19.464628210984383,44.71140135874101,-1.8836487031823128,2.519096192338787,-2.678990601258327,5038.393391927083,11.942444444444444,0.13,178.01338074042587,-8.862285517806312,102.74830773913648,1553.0,1264.0,1200.0,1528.0,1471.0,988.0,161.0,292.25,1649326237.0357018,1649326238.1726882,3c0e0564-de91-47bb-9ee1-b312b9591651
0.5457147569444333,0.7571983669704272,0.9460530747686918,0.2280422795642742,0.6147717030206311,-0.6810981422422561,0.5307120959235863,0.5027053753989393,3.908512153205156,19.539283771543225,43.90166203795672,-1.8593249551933195,2.4554206457740584,-2.7322826757985657,5045.64404296875,11.942555555555556,0.1288888888888889,178.00324018623812,-8.85764108403444,102.97450766733924,1553.0,1264.0,1200.0,1528.0,1471.0,988.0,161.0,292.25,1649326238.281277,1649326239.4073591,3c0e0564-de91-47bb-9ee1-b312b9591651
0.5458199465125506,0.7560018357281304,0.9309189265197576,0.2293834464134137,0.6020174688965523,-0.6784026587442591,0.5130796958894193,0.4850729753091821,3.5142020565788665,19.59723287912974,44.168838684844,-1.8568185117553968,2.450232208315948,-2.6692323829439606,5048.949327256944,11.937111111111111,0.1255555555555555,177.99769255481226,-8.881797850445224,103.1615971734446,1553.0,1264.0,1200.0,1528.0,1471.0,988.0,161.0,292.25,1649326239.5228014,1649326240.630793,3c0e0564-de91-47bb-9ee1-b312b9591651
0.5402974946062729,0.7924631669974184,0.9512205119686086,0.6061198617245317,0.647064897865489,-1.0714436949026136,0.410178007982175,0.3776744334060671,3.3155680253475657,21.22717396639241,42.35475817796303,-3.57843245411908,2.5593987401070293,-2.6074032107048186,5059.8740234375,11.925333333333334,0.12,177.98246578642258,-9.01182188494503,103.3831191809758,1553.0,1178.0,1200.0,1528.0,1471.0,988.0,161.0,292.25,1649326241.53988,1649326242.6851628,af637557-7a12-4284-89b6-30d50a48edc6
0.54764761511347,0.8006811013819727,0.950694564137074,0.5997032985722776,0.6466835857133497,-1.0726007808243467,0.4106645097205529,0.382920762552865,3.287746923535346,20.96846353668936,42.4980101161261,-3.568290766910438,2.5899005495334944,-2.605632722087384,5059.8740234375,11.912,0.11,178.0162858475529,-9.020565950038725,103.49165468143684,1553.0,1178.0,1200.0,1528.0,1471.0,988.0,161.0,292.25,1649326242.8046834,1649326243.907732,af637557-7a12-4284-89b6-30d50a48edc6
0.5378518373377699,0.7883081793651653,0.9479990816316416,0.5828466715721581,0.6418185685751425,-1.050576700159633,0.4116112157485922,0.3945047632430249,3.178628821413639,21.30663714450529,41.689138372164805,-3.478851585773866,2.5533461578258168,-2.5996809304051585,5057.487109375,11.9188,0.12,178.0251377727172,-9.040946893012585,103.59856353440156,1553.0,1178.0,1200.0,1528.0,1471.0,988.0,161.0,292.25,1649326244.0161426,1649326245.143644,af637557-7a12-4284-89b6-30d50a48edc6
0.5169848583153003,0.7925420591557288,0.9520620284911924,0.8935634835594296,0.6700488166662901,-1.351800429366392,0.3175323010109047,0.3013199594675833,2.6813372827930864,23.00826388613778,39.76861700466,-4.8457163963619445,2.551797558421097,-2.510239643006445,5046.46875,11.8935,0.1149999999999999,178.0333818110454,-9.154753554020086,103.71685967875052,1553.0,1088.0,1200.0,1528.0,1471.0,988.0,161.0,292.25,1649326246.0468647,1649326247.1801517,f9258737-df7b-4eb0-950b-b8935d29128b
0.5171294939659477,0.7892154393324198,0.9471181191104014,0.8557083902771714,0.6609104736607886,-1.312130775670597,0.3219108165868297,0.3030950334899643,2.6013826657978267,23.096556395998647,39.98625104793715,-4.670847998792151,2.542306577727832,-2.4978075057901794,5042.345377604167,11.878222222222222,0.11,178.07326783906854,-9.142719424748694,103.73256228365236,1553.0,1088.0,1200.0,1528.0,1471.0,988.0,161.0,292.25,1649326247.2883856,1649326248.4086268,f9258737-df7b-4eb0-950b-b8935d29128b
0.5196803408095586,0.7900306584050973,0.9496558172471324,0.8988229616266044,0.6688128393394953,-1.3519319165139172,0.3170720967324427,0.2971649718199313,2.859296577301391,22.908532649146974,40.07763048622829,-4.85851806444184,2.537578161195424,-2.504277578697737,5025.920572916667,11.879777777777775,0.11,178.09581657024847,-9.150683899639622,103.73415827118842,1553.0,1088.0,1200.0,1528.0,1471.0,988.0,161.0,292.25,1649326248.5177124,1649326249.6416557,f9258737-df7b-4eb0-950b-b8935d29128b
0.609354440699271,0.8074395306319783,0.9013080649324334,-0.5843105558193606,0.483731808521162,0.0592656189445552,0.701369008078859,0.6843677454823393,4.608042358783148,16.848482804217806,50.317004544181806,1.618149361139611,2.679181226623021,-2.726190080647662,5033.463650173611,11.952888888888888,0.13,178.1060345332468,-8.754366441917863,103.78028481538324,1553.0,1435.0,1200.0,1528.0,1471.0,988.0,161.0,292.25,1649326251.5762568,1649326252.7147677,f0623c45-b639-4f85-b119-29485632c713
0.6201363705750537,0.8071371106587786,0.8954437468975996,-0.5838766486167991,0.4794584826257722,0.0574510988317214,0.697095682212564,0.6798445944829585,4.669306528451864,16.66058491016649,50.03680480567154,1.6115416754623957,2.6796683819524,-2.706599664828813,5053.311474609375,11.9482,0.1299999999999999,178.11695190761617,-8.699658134999504,103.8566183265284,1553.0,1435.0,1200.0,1528.0,1471.0,988.0,161.0,292.25,1649326252.823259,1649326253.9451396,f0623c45-b639-4f85-b119-29485632c713
0.6231605704184786,0.8129093877618468,0.9001509797532468,-0.5829036447639873,0.482561574663703,0.0532040699803131,0.6999358003290433,0.6843940428724593,4.711461474256129,16.69636388366592,50.392634918529296,1.6003526892674438,2.6980450775977705,-2.720062747822263,5063.863389756944,11.952666666666667,0.13,178.14144982300323,-8.720676059518082,103.93806294412045,1553.0,1435.0,1200.0,1528.0,1471.0,988.0,161.0,292.25,1649326254.0533445,1649326255.1710825,f0623c45-b639-4f85-b119-29485632c713
0.700724722022303,0.8573914232000622,1.1515671854372391,-0.5758164952243963,0.7092713737600161,-0.0124473710585602,0.9453824912868012,0.925225541554957,6.378975874384765,16.878560594270024,50.08547334861076,1.4513553358090243,2.870868820523105,-3.71491883993494,5080.869140625,11.923600000000002,0.12,178.1289566481014,-8.718095803777128,103.96379423988964,1553.0,1435.0,1200.0,1446.0,1471.0,988.0,161.0,292.25,1649326256.0813797,1649326257.2258978,538e787b-589c-475a-8d84-aa61f970d2cf
0.698910202116538,0.851908417336728,1.1555512402497627,-0.577841395171696,0.7141889856763316,-0.0058335767876634,0.953324303216796,0.939071117631507,6.48460457297443,16.78827250626196,50.04334376035962,1.470431396585396,2.850430339540008,-3.738984652667576,5078.193359375,11.922,0.12,178.14022646023193,-8.73555097830177,103.93926733414408,1553.0,1435.0,1200.0,1446.0,1471.0,988.0,161.0,292.25,1649326257.3589103,1649326258.4469671,538e787b-589c-475a-8d84-aa61f970d2cf
0.696017489223737,0.8530129077385885,1.15285575762217,-0.5778676926009543,0.7136498891857912,-0.0061622942348605,0.9488800442215708,0.9265272623857947,6.135732379668009,16.73748255856428,50.1219539079037,1.4691180529447274,2.856176859125099,-3.728227310388391,5071.85009765625,11.921666666666669,0.1144444444444444,178.15611044460172,-8.711319838720026,103.90184852223112,1553.0,1435.0,1200.0,1446.0,1471.0,988.0,161.0,292.25,1649326258.5621502,1649326259.6838446,538e787b-589c-475a-8d84-aa61f970d2cf
0.7789068624217238,0.8875808272101255,1.4331596671135136,-0.5602484342817424,0.9661705785373867,-0.0695390120144581,1.224174284460141,1.2125508372753502,8.1984135881764,17.30644913417102,50.35497537865247,1.3057618335097143,2.9847732749826084,-4.840340208614256,5061.37841796875,11.895499999999998,0.11,178.15751366902117,-8.712095824100732,103.78076634371972,1553.0,1435.0,1200.0,1354.0,1471.0,988.0,161.0,292.25,1649326260.5868976,1649326261.7248907,763fd579-8161-48e2-8fde-3c72d98ba848
0.7878085289418558,0.8847801551288772,1.432147217659726,-0.5582629805081357,0.9682612211363368,-0.0691839972488676,1.2249369089872513,1.2005197805681938,8.098899598646717,17.10623611419154,50.27726945126901,1.3006407727114766,2.975350061877428,-4.843311965904888,5059.210611979167,11.898,0.1177777777777777,178.156568826186,-8.737971711180109,103.70910134276328,1553.0,1435.0,1200.0,1354.0,1471.0,988.0,161.0,292.25,1649326261.8333502,1649326262.9546669,763fd579-8161-48e2-8fde-3c72d98ba848
0.788978762802329,0.8981392293996767,1.4314766337138085,-0.5665598109210201,0.9627650663899152,-0.0755611155793259,1.2220047495150816,1.199730858589755,8.302504566327332,17.129717181955396,50.13024966862346,1.3052274749959667,3.026296083543265,-4.829268062066644,5053.9140625,11.902,0.11,178.1880582749895,-8.711387191974342,103.6361575786122,1553.0,1435.0,1200.0,1354.0,1471.0,988.0,161.0,292.25,1649326263.0625026,1649326264.1829464,763fd579-8161-48e2-8fde-3c72d98ba848
0.858246088364503,0.9173100269730136,1.685548921219137,-0.5245628623956353,1.1966409149523043,-0.149193818648109,1.4653213803099578,1.4355921759771335,9.891601636999326,17.85839504304691,49.728670705350254,1.0632476272673483,3.101458638851006,-5.837641215246294,5044.323893229167,11.862888888888888,0.1,178.20911726602046,-8.76369164227344,103.38774701359344,1553.0,1435.0,1200.0,1252.0,1471.0,988.0,161.0,292.25,1649326266.5256202,1649326267.664238,cf383c2d-f0e3-42a0-959c-6ab6a34839e4
0.8550115093746397,0.9155349531317596,1.6631303902137151,-0.5303219931845924,1.1762604362500944,-0.1428298492598124,1.4419824428912995,1.4217991929025906,9.521978091403565,17.870538644647098,49.45803098279027,1.0892745118932845,3.099103873228219,-5.747004131743293,5036.419759114583,11.863,0.1,178.24815862731623,-8.786692304303457,103.2648415540286,1553.0,1435.0,1200.0,1252.0,1471.0,988.0,161.0,292.25,1649326267.772889,1649326268.8992417,cf383c2d-f0e3-42a0-959c-6ab6a34839e4
0.85818034489157,0.9167446330876876,1.6750036649523468,-0.5297960450011613,1.1864901216377484,-0.143894893734443,1.4553809651770495,1.4331465183274452,9.780962044969352,17.850341347376972,49.64002153529713,1.0863115002695358,3.1008825104037685,-5.79560148672625,5038.163134765625,11.8618,0.11,178.26210435578162,-8.759101271346125,103.14609013962595,1553.0,1435.0,1200.0,1252.0,1471.0,988.0,161.0,292.25,1649326269.0318997,1649326270.1223414,cf383c2d-f0e3-42a0-959c-6ab6a34839e4
0.5171952374475346,0.7632862127523825,0.5850162062922428,-0.5373433991189974,0.199312379580619,0.0731243446822887,0.368956848472727,0.3443293421245609,2.457754509000204,17.06224112011272,49.79688170910592,1.5278478658853356,2.507578229613201,-1.441631638794871,5016.441731770833,11.942333333333332,0.12,178.31167786877756,-8.762112161027874,103.05031290129756,1553.0,1435.0,1200.0,1604.0,1471.0,988.0,161.0,292.25,1649326272.0738337,1649326273.1932435,487f9d2e-19db-4ed9-b8f5-a6e921994cde
0.526254688323901,0.7676778768868557,0.5850030576004422,-0.5438651540445215,0.1968798708943872,0.0748731212856219,0.3689568484751463,0.3469064863227414,2.538399740944771,17.103431991949268,49.80248958818415,1.546802974919644,2.524231983245373,-1.4377789413881852,5028.872395833333,11.944111111111113,0.1211111111111111,178.29375848803508,-8.76368841690633,103.17244123711686,1553.0,1435.0,1200.0,1604.0,1471.0,988.0,161.0,292.25,1649326273.3010616,1649326274.425151,487f9d2e-19db-4ed9-b8f5-a6e921994cde
0.5321225463413046,0.770088639543719,0.5982832395235933,-0.5485106913572836,0.2091197894000898,0.0806924305470027,0.385122663534573,0.3635411031269177,2.642349118482397,17.01271088402368,50.4709264021926,1.5705776752264535,2.528026061406451,-1.4942655096855333,5053.90673828125,11.950555555555557,0.13,178.26204971426827,-8.745303350071687,103.26180515548758,1553.0,1435.0,1200.0,1604.0,1471.0,988.0,161.0,292.25,1649326274.5408256,1649326275.6599035,487f9d2e-19db-4ed9-b8f5-a6e921994cde
0.4624966659676255,0.7510842238019505,0.3881276461115066,-0.5135705498132485,0.0166901402772839,0.076003909076303,0.1568946869086272,0.1358173274267091,1.1690375228601928,17.397896804002823,50.04678333357262,1.4725054026319284,2.453316763614107,-0.624535958385723,5076.189561631944,11.952333333333334,0.1222222222222222,178.22865767832596,-8.745108974271558,103.4026497274525,1553.0,1435.0,1200.0,1676.0,1471.0,988.0,161.0,292.25,1649326276.4140167,1649326277.4948776,f32e0efe-3b43-4a9c-b227-92f7fe17318a
0.4561195488503735,0.7503741942661741,0.3919276190331404,-0.5086529358809035,0.0195302586834832,0.0743471733839988,0.160050373911022,0.1350678517437629,1.3015540483104024,17.5023362189657,50.38071845955116,1.4586910555271453,2.44639334888657,-0.637599110987201,5084.559733072917,11.952222222222224,0.1244444444444444,178.22855750221814,-8.752287123634286,103.45845009624178,1553.0,1435.0,1200.0,1676.0,1471.0,988.0,161.0,292.25,1649326277.603772,1649326278.726791,f32e0efe-3b43-4a9c-b227-92f7fe17318a
0.4572371879358959,0.7450884188851213,0.3866418435768929,-0.5113221218711229,0.0176894412641808,0.0803429788946457,0.1564344825705705,0.1327536811763643,1.0054982163071997,17.37934533662691,50.11635321907163,1.4769157746614443,2.4309984084426173,-0.6239309066285927,5080.869140625,11.953,0.1222222222222222,178.23480181293934,-8.742877304823995,103.55133156203506,1553.0,1435.0,1200.0,1676.0,1471.0,988.0,161.0,292.25,1649326278.8351018,1649326280.159323,f32e0efe-3b43-4a9c-b227-92f7fe17318a
0.3915989016979077,0.7107045815070034,0.2197586012755503,-0.4650912942712467,-0.1307330478755503,0.0766613439308048,-0.026345543490709,-0.0465156445170263,-0.3660306873499637,17.971934932118575,49.50980657785536,1.3591888258231082,2.300859802921919,0.0601330049450548,5058.87890625,11.944,0.12,178.18111197260362,-8.747868655287458,103.7506918824393,1553.0,1435.0,1200.0,1747.0,1471.0,988.0,161.0,292.25,1649326282.0926049,1649326283.2071407,236025d4-db22-410b-abc9-0e658f6cb77b
0.4012500439769789,0.7207896305545678,0.2314872378099353,-0.4675895470273217,-0.1213974728510704,0.0715333525575856,-0.0154189765441874,-0.0460422912268586,-0.2432117869833613,17.889553003910233,49.9458325863833,1.3534702076632683,2.3350008232700463,0.0178061530327901,5071.516764322917,11.955333333333334,0.12,178.1724194185199,-8.737792608441872,103.8100545743357,1553.0,1435.0,1200.0,1747.0,1471.0,988.0,161.0,292.25,1649326283.316519,1649326284.455219,236025d4-db22-410b-abc9-0e658f6cb77b
0.4069697263655812,0.7204214670956101,0.2338540029736679,-0.4700615026207331,-0.1199511162402905,0.0720330029590112,-0.0138805790968513,-0.0347870067696665,-0.2952467365863632,17.986728745235222,49.65630791786236,1.3608588088751965,2.337010365842516,0.0098688082329419,5063.861002604167,11.955666666666666,0.12,178.16948699063622,-8.728123147579382,103.83288410218152,1553.0,1435.0,1200.0,1747.0,1471.0,988.0,161.0,292.25,1649326284.5662258,1649326285.687338,236025d4-db22-410b-abc9-0e658f6cb77b
0.599825682595122,0.7647406607028763,0.8515473340074469,-0.6181103022050334,0.4657469221836745,0.1499506583532976,0.7194029489609275,0.7054830324481577,5.860163670619713,13.176876477931168,52.75041052473084,1.872375610853915,2.489549720236244,-2.659189439314521,7778.06396484375,11.636333333333331,7.279999999999999,99.9533981253168,-8.92672474780332,90.930520156244,1553.0,1435.0,1350.0,1528.0,1471.0,988.0,161.0,292.25,1649326290.442694,1649326291.6265917,a37abb29-fde0-465c-9170-f1ef95177147
0.5874482091498323,0.7740079620857716,0.8522553406353803,-0.6211572609250973,0.4663537850638287,0.1442739617683598,0.7210465358264355,0.6911079687859213,5.979025510858795,12.878713054387768,52.84735291371612,1.864626485870968,2.5230222350848828,-2.6618843651159074,7785.1279296875,11.636333333333331,7.260000000000001,-179.66072219212512,-8.826621590191351,85.76919664073495,1553.0,1435.0,1350.0,1528.0,1471.0,988.0,161.0,292.25,1649326291.7352333,1649326292.8554504,a37abb29-fde0-465c-9170-f1ef95177147
0.6090783181062832,0.7715435932083213,0.8545513051154577,-0.6177608502992422,0.4703990316322534,0.1437065450204514,0.7233930721694647,0.6958202588008956,5.876977585647462,12.83530414057146,52.88695231030065,1.855471459243732,2.513877300019833,-2.674130863398929,7787.25107421875,11.635099999999998,7.263,-179.39323285969778,-8.711162649505379,80.58271389574516,1553.0,1435.0,1350.0,1528.0,1471.0,988.0,161.0,292.25,1649326292.963993,1649326294.083604,a37abb29-fde0-465c-9170-f1ef95177147
0.7782362789712458,1.0948831581904828,0.8928797513586343,-0.6581799569061372,0.4414719024458681,-0.1485758303139056,0.6548226278957404,0.6306421778495495,6.251274286497864,12.584968213142012,50.96933639013333,1.28998126344081,3.748345889726538,-2.5529176656300474,7792.205078125,11.6126,7.254,-179.54338227425995,-8.567665326930557,75.18457907013881,1637.0,1435.0,1350.0,1528.0,1535.0,988.0,161.0,292.25,1649326294.994769,1649326296.1354256,9e8ddd45-d5f6-43fe-b53e-8c864d646256
0.7826542404953807,1.1103065781474242,0.8873967455044831,-0.6704345460308722,0.4287439655090066,-0.1538221601029565,0.644855917111936,0.6233709495314231,6.419115287869593,12.815470131996864,50.70467845166348,1.307132717440792,3.808515929255577,-2.512509060024163,7792.205078125,11.609444444444446,7.264444444444444,-179.6740729352228,-8.447033257885462,71.90201155629009,1637.0,1435.0,1350.0,1528.0,1535.0,988.0,161.0,292.25,1649326296.2476091,1649326297.3602664,9e8ddd45-d5f6-43fe-b53e-8c864d646256
0.7773684650967784,1.1019045616254424,0.8864763368706597,-0.657298993548292,0.4327674662180944,-0.1565570891678134,0.6445929432122499,0.6289722935826542,6.303053907718943,12.692730324321412,50.86252225552692,1.2704636301389416,3.774748048931373,-2.517069812525107,7792.205078125,11.6121,7.273000000000001,-179.80768737249628,-8.385574874224229,69.10227853876954,1637.0,1435.0,1350.0,1528.0,1535.0,988.0,161.0,292.25,1649326297.4680033,1649326298.591935,9e8ddd45-d5f6-43fe-b53e-8c864d646256
0.9705359452993992,1.4513969097420196,0.931431725678554,-0.7149428999398967,0.4013026386866866,-0.4590954871877754,0.5796383900363379,0.5559838877297101,7.078531878745454,12.421297756657736,48.912510306251846,0.7211686158082985,5.107293635500325,-2.403324705310981,7796.144422743056,11.577222222222224,7.265555555555555,179.51938584653996,-8.406900109823589,63.92964096668232,1723.0,1435.0,1350.0,1528.0,1599.0,988.0,161.0,292.25,1649326300.453942,1649326301.6681309,159f605d-fbd8-4e08-9cf6-13e6e2e96833
0.9549678900799784,1.4443229106830833,0.9350476168465056,-0.7092100665046263,0.4061676559210084,-0.4522450151933049,0.5827414820498354,0.5593499536504294,6.889862686756131,12.619812067965691,49.67550420252708,0.7251533503588853,5.074861556972158,-2.4192410020275075,7792.205078125,11.582400000000002,7.261,179.3519716869217,-8.368844411229649,61.96478618063848,1723.0,1435.0,1350.0,1528.0,1599.0,988.0,161.0,292.25,1649326301.8007576,1649326302.899339,159f605d-fbd8-4e08-9cf6-13e6e2e96833
0.947525728581314,1.3967640737980542,0.9473679442936768,-0.6831098946871806,0.4272581629687857,-0.4351648549572774,0.6000846107328871,0.5774688553432575,6.681907288186263,13.082153300773903,49.00591072192496,0.7081261273688227,4.901468844707518,-2.496259277079365,7790.632378472223,11.584555555555555,7.272222222222222,179.22017043719987,-8.365000314360149,60.51004756374263,1723.0,1435.0,1350.0,1528.0,1599.0,988.0,161.0,292.25,1649326303.0320735,1649326304.1187851,159f605d-fbd8-4e08-9cf6-13e6e2e96833
1.109741184258646,1.6894540845716428,0.9891676466785104,-0.7115768332641591,0.4030645638033182,-0.7161394320216484,0.5364054808546893,0.5210478050459472,7.111983692128213,13.448529163727848,46.0163320724501,0.1452032047168762,6.0288479054066855,-2.398519024325688,7785.1279296875,11.527,7.243333333333333,178.56581554741538,-8.258275003756637,57.79631626602837,1813.0,1435.0,1350.0,1528.0,1662.0,988.0,161.0,292.25,1649326306.0562632,1649326307.193856,02a0b766-81df-4bea-bb4f-a91cddc9d8a2
1.0969869495551103,1.673754538576861,0.979411314722896,-0.7049498872408817,0.4004479734814262,-0.7126813233779612,0.531474720225819,0.509213979504428,6.99570226727836,13.159778872482743,45.13671916033706,0.1354265607004234,5.977144745733516,-2.377680794169332,7785.1279296875,11.535,7.26,178.39383138411443,-8.252401894844073,56.91321037238615,1813.0,1435.0,1350.0,1528.0,1662.0,988.0,161.0,292.25,1649326307.3027833,1649326308.420389,02a0b766-81df-4bea-bb4f-a91cddc9d8a2
1.092490095564686,1.682919181295435,0.97286326446772,-0.7141408294002377,0.389968463402218,-0.7116425760711035,0.5228623249804912,0.4905033862596928,7.026359439188452,13.283299669040428,45.29767289630894,0.1590271524064274,6.010592800221364,-2.3409933027504626,7785.1279296875,11.540555555555557,7.267777777777777,178.20475201623094,-8.214873705040652,56.51334946944124,1813.0,1435.0,1350.0,1528.0,1662.0,988.0,161.0,292.25,1649326308.5284946,1649326309.6485186,02a0b766-81df-4bea-bb4f-a91cddc9d8a2
0.3765567943686196,0.3411868040563467,0.8138692425310851,-0.5695445655014467,0.5169191148105705,0.5206270468410842,0.822902396017393,0.8073737872432811,5.460058243256192,13.243266910431675,53.060250249456296,2.5941945261259995,0.8926840395810557,-2.8755838701472363,7789.059678819444,11.621333333333334,7.305555555555555,178.44202064543865,-8.065698104699342,55.01980452564803,1470.0,1435.0,1350.0,1528.0,1403.0,988.0,161.0,292.25,1649326311.581496,1649326312.7213514,e0ef7ca7-a19c-47b8-9dd5-cc3517f66e4a
0.3778908812087951,0.3404676715537962,0.8126701826786398,-0.571773775922461,0.5131960112474169,0.5275584320104629,0.8214696939690516,0.797346895753948,5.5323194796833945,13.478976705419964,53.63991426261334,2.6164304464410573,0.8845403076759744,-2.866173757190066,7792.205078125,11.635000000000002,7.3,178.2863925084702,-7.986867191802423,54.77975297380848,1470.0,1435.0,1350.0,1528.0,1403.0,988.0,161.0,292.25,1649326312.8298235,1649326313.9465275,e0ef7ca7-a19c-47b8-9dd5-cc3517f66e4a
0.3605811296018696,0.3489576829759736,0.8107792992223463,-0.5669805689570705,0.5117122315467606,0.5144208627783385,0.8162623050443559,0.7839033665750661,5.50082846104455,13.341527816234516,53.55687519505359,2.575061866298716,0.916629521899651,-2.8531745116199083,7792.205078125,11.625555555555556,7.315555555555556,178.19097780140476,-8.006627023935009,54.354772911825975,1470.0,1435.0,1350.0,1528.0,1403.0,988.0,161.0,292.25,1649326314.0552456,1649326315.1789806,e0ef7ca7-a19c-47b8-9dd5-cc3517f66e4a
0.1553825870010201,-0.0534976018878257,0.7732660723021754,-0.487325745284217,0.5546032747364583,0.8344600989668699,0.8924852905028868,0.8587983336870947,4.823412016478428,14.48882467487928,53.56104583820723,3.119948327564119,-0.6002307592161116,-3.0179217288702875,7792.205078125,11.57088888888889,7.273333333333334,178.39449163573423,-7.957096484212585,53.62689520963082,1385.0,1435.0,1350.0,1528.0,1331.0,988.0,161.0,292.25,1649326316.0917163,1649326317.2270927,7290385c-0373-40e0-8ab2-5e34ce890d7f
0.1613257975419336,-0.0478568109987131,0.783088147475178,-0.4898108494806402,0.5644384985945059,0.8308705052101434,0.9015710388766816,0.88919811684584,4.710068142439713,14.371330618782665,53.58595179160508,3.117144924524607,-0.5775662404826187,-3.0569775667686985,7797.877734375,11.5704,7.272,178.3087026383751,-8.00465693175991,53.37890986183338,1385.0,1435.0,1350.0,1528.0,1331.0,988.0,161.0,292.25,1649326317.3358662,1649326318.46292,7290385c-0373-40e0-8ab2-5e34ce890d7f
0.1570261739988147,-0.0439384993966439,0.7832985265847409,-0.4870890687182196,0.5638205099452172,0.8272809114717943,0.9012686188529112,0.8776272650890428,4.847662807036897,14.341121857282255,53.97677685832437,3.1028807369148432,-0.5676302084542251,-3.0548342053681563,7792.205078125,11.575,7.275,178.25726858184925,-7.975063771142996,53.14953879063548,1385.0,1435.0,1350.0,1528.0,1331.0,988.0,161.0,292.25,1649326318.5732906,1649326319.6848686,7290385c-0373-40e0-8ab2-5e34ce890d7f
-0.0909845366128842,-0.490520878747971,0.7010797368050953,-0.3840953080527438,0.5719332547427988,1.16476847599996,0.9328123386984748,0.9125633481009484,3.644556950600835,16.064243935798554,53.02239603849709,3.635502756996605,-2.2434754564578028,-3.054750419355692,7799.2958984375,11.500444444444444,7.241111111111111,178.60744175585705,-7.969677692663748,52.340465886589456,1297.0,1435.0,1350.0,1528.0,1253.0,988.0,161.0,292.25,1649326321.6171837,1649326322.7527883,8fe12777-71db-4f80-a695-e32ab955b6bb
-0.0868952918517038,-0.489745105489988,0.69801609086484,-0.3889340293944822,0.5661346802672423,1.170304077049041,0.9294857187323976,0.8991253815569636,3.7186323263858414,16.256396764469464,53.25651854122857,3.660052824874248,-2.2427603540739955,-3.0375854755878686,7799.2958984375,11.50511111111111,7.246666666666666,178.61092970579324,-7.925972165938483,52.01824412339502,1297.0,1435.0,1350.0,1528.0,1253.0,988.0,161.0,292.25,1649326322.8608234,1649326323.9862664,8fe12777-71db-4f80-a695-e32ab955b6bb
-0.089906343435838,-0.4831576069873274,0.7023420115150022,-0.4031609214501892,0.5701187348496555,1.170737983925286,0.9369410289375568,0.9202290373405078,3.736330288453366,15.926843119241166,52.42313972654586,3.691027068768532,-2.2087719897280027,-3.059878811711153,7795.356553819444,11.507333333333332,7.25,178.63810626959082,-7.957089843750891,51.53754072197888,1297.0,1435.0,1350.0,1528.0,1253.0,988.0,161.0,292.25,1649326324.0943234,1649326325.215374,8fe12777-71db-4f80-a695-e32ab955b6bb
0.5842272845986646,0.7528067028336832,0.8411133387224905,-0.611252243468519,0.4650606614516496,0.1501362573119982,0.7147149334794801,0.6896798182581659,5.633483580041107,12.587371561950713,51.96282599176888,1.852655483089776,2.451859019141925,-2.639768583775551,7799.2958984375,11.6344,7.31,177.63200847654525,-8.101693087788822,51.65837223254774,1553.0,1435.0,1350.0,1528.0,1471.0,988.0,161.0,292.25,1649326326.9207258,1649326328.0820105,c076c1b5-f488-4560-af8e-588dee50f735
0.576798271931096,0.7473368457189502,0.8389701014184809,-0.6053090308681626,0.4627333424301417,0.1470594624172035,0.710086592847876,0.6843677454847757,5.605326131068814,12.82277767340648,51.513051218027066,1.8337030288128644,2.4346657491277552,-2.628447868393555,7799.2958984375,11.6338,7.318,177.61145233921917,-8.13784579132989,51.70689662848717,1553.0,1435.0,1350.0,1528.0,1471.0,988.0,161.0,292.25,1649326328.1898727,1649326329.3130558,c076c1b5-f488-4560-af8e-588dee50f735
0.5853975184508371,0.7512157107426564,0.8433354681742747,-0.602639844446972,0.4664807205409609,0.142865028502496,0.7117564771084391,0.6821719134204858,5.511469935951422,12.892165281645502,51.82918722589315,1.8189370391928952,2.4470255206750187,-2.6410354527919013,7799.2958984375,11.6332,7.31,177.54087189641194,-8.156586635129297,51.98925596575659,1553.0,1435.0,1350.0,1528.0,1471.0,988.0,161.0,292.25,1649326329.4204152,1649326330.5384896,c076c1b5-f488-4560-af8e-588dee50f735
0.6137724022101667,0.7577243147632778,0.8347493703054579,-1.0702603118030842,0.4084686775383677,0.5892632347611965,0.8304628956813503,0.80099667007359,5.784313098598855,11.815681399172302,55.41436574266773,3.870035787829051,2.4947417985546894,-2.716953208659589,7799.2958984375,11.6201,7.306999999999999,177.6300809971615,-8.107628351422836,51.88662144517448,1553.0,1522.0,1350.0,1528.0,1471.0,988.0,161.0,292.25,1649326332.478442,1649326333.6119654,efc7ed56-8b14-4cbd-8149-88cc4da6b971
0.6062119026022511,0.7532800558560792,0.8332635677209106,-1.072009089605888,0.4067593472116209,0.5958244335562553,0.8297134200414291,0.7980645111165365,5.7437418449146245,11.940561592526024,55.48919052591102,3.8894698596652377,2.477820346663332,-2.7120598139429,7799.2958984375,11.62977777777778,7.325555555555557,177.65360432044497,-8.136520051611988,51.75786441076571,1553.0,1522.0,1350.0,1528.0,1471.0,988.0,161.0,292.25,1649326333.7235937,1649326334.8457136,efc7ed56-8b14-4cbd-8149-88cc4da6b971
0.6026829951599117,0.755890577529963,0.8435064012375583,-1.071057832371687,0.4156428079057115,0.5894963712076443,0.8395744356551701,0.8152367068008614,5.906060544965079,11.91998562090266,55.15473475637942,3.8735060724094055,2.489958683260535,-2.7521870513939635,7799.2958984375,11.62077777777778,7.307777777777777,177.65640318018487,-8.167162841549604,51.65225033399466,1553.0,1522.0,1350.0,1528.0,1471.0,988.0,161.0,292.25,1649326334.958411,1649326336.0693474,efc7ed56-8b14-4cbd-8149-88cc4da6b971
0.6489977560278554,0.7649166509280368,0.8513430234893697,-1.554369463860192,0.3595555312827714,1.0527152915430285,0.9646716272346088,0.9330227178922172,6.007248651366215,12.26101874482839,59.49895390504218,6.008047855442076,2.5446016474361115,-2.8616757084405537,7799.2958984375,11.606666666666667,7.297777777777778,177.58977847938093,-7.975254447257324,52.30764796599241,1553.0,1613.0,1350.0,1528.0,1471.0,988.0,161.0,292.25,1649326336.9795597,1649326338.1170409,2387fc96-ab71-4df9-ba3b-255ffbe8d0b8
0.6510095063574536,0.7643775544332206,0.8455444489633617,-1.5569334622538324,0.3553479487716031,1.05305715763718,0.9618972525532834,0.9427396035904516,6.107263960224775,12.012817056434391,59.10650551588969,6.012653523733062,2.545293959253897,-2.844560031453615,7799.2958984375,11.59511111111111,7.29,177.68439025976397,-8.01380337088671,52.052481964429525,1553.0,1613.0,1350.0,1528.0,1471.0,988.0,161.0,292.25,1649326338.2253869,1649326339.5470345,2387fc96-ab71-4df9-ba3b-255ffbe8d0b8
0.6490634995026489,0.7612350163247676,0.8463991141510836,-1.554159084299944,0.35511127225673,1.0506115002430272,0.9600432865254032,0.9394655784883552,6.058692081600925,12.26046053094762,58.677981350109775,6.002490944137915,2.537366105164117,-2.843858941563456,7799.2958984375,11.608333333333333,7.296666666666665,177.74927553905923,-8.074131396185798,51.905970232728265,1553.0,1613.0,1350.0,1528.0,1471.0,988.0,161.0,292.25,1649326339.6556466,1649326340.6974547,2387fc96-ab71-4df9-ba3b-255ffbe8d0b8
0.6708903331425649,0.7671387803799864,0.868423178467828,-1.9735505120144228,0.3180056539538284,1.4563934146874218,1.0786050731703636,1.0603941300619448,5.882813214128915,13.121749181773389,62.81443411223771,7.867758475663031,2.577139237265176,-2.9897529843059645,7799.2958984375,11.555888888888887,7.279999999999999,177.79595608748676,-7.988229150495673,51.77233037197284,1553.0,1710.0,1350.0,1528.0,1471.0,988.0,161.0,292.25,1649326341.4854984,1649326342.620248,0d6d4614-49ee-4223-9ec6-59fc869b3172
0.686497834065704,0.7631810231892752,0.8549589146287443,-1.9676993321564256,0.309524745532253,1.450160932253085,1.0701899079358497,1.0581194053858454,6.149432600770584,12.601434580863078,62.06416166682149,7.836449380086058,2.565475028577601,-2.9489527828323205,7799.2958984375,11.548666666666668,7.283333333333333,177.86861108641793,-8.02272018284816,51.51023779968167,1553.0,1710.0,1350.0,1528.0,1471.0,988.0,161.0,292.25,1649326342.7280262,1649326343.8470714,0d6d4614-49ee-4223-9ec6-59fc869b3172
0.6724024330637299,0.7699788985053208,0.8707636461682694,-1.9817947590970704,0.3190706983781399,1.4567615782653975,1.0867309669449303,1.0664425300343607,6.357694946951419,12.797656158650868,62.22517697337926,7.885295990179908,2.5908108020444667,-3.0060580867263287,7797.720160590277,11.53677777777778,7.254444444444443,177.89290986384518,-8.038549620568356,51.45989361367436,1553.0,1710.0,1350.0,1528.0,1471.0,988.0,161.0,292.25,1649326343.9549134,1649326345.082796,0d6d4614-49ee-4223-9ec6-59fc869b3172
0.6760183241781472,0.7436289137325172,0.8602446900747697,-2.2402065869791232,0.2718405843623603,1.732384586214363,1.1390364784090945,1.126545217462296,6.316574619216298,14.020148224523282,64.05482303684033,9.095422694329107,2.507227185149172,-3.005266437734786,7799.2958984375,11.517444444444443,7.260000000000001,177.83931109269835,-7.947009907492029,52.25245851967888,1553.0,1814.0,1350.0,1528.0,1471.0,988.0,161.0,292.25,1649326347.015004,1649326348.1521597,e294fc0c-a8f4-48b7-b4f6-da8cece0ac40
0.6728231913022893,0.7428925868107021,0.8482136341232134,-2.23271181603514,0.2625050104529186,1.726809538483834,1.1256511064150128,1.105481007136993,6.230369440520326,13.922766742315684,64.04460658570498,9.064698808737838,2.5034790756804104,-2.957151585690937,7799.2958984375,11.5187,7.258,177.8928930160452,-7.9356519574620945,52.229429322636335,1553.0,1814.0,1350.0,1528.0,1471.0,988.0,161.0,292.25,1649326348.2604258,1649326349.3807554,e294fc0c-a8f4-48b7-b4f6-da8cece0ac40
0.6722840948096228,0.7401182121724689,0.8518295252308167,-2.240140843787014,0.2643458279074326,1.738275203477557,1.126321689652294,1.1011024914812328,5.789368746492587,14.331670367928687,64.32936913790778,9.109935878440076,2.49482177044654,-2.9660179004414093,7799.2958984375,11.528111111111112,7.267777777777777,177.86473761024862,-7.950609417184626,52.55640838847867,1553.0,1814.0,1350.0,1528.0,1471.0,988.0,161.0,292.25,1649326349.4897945,1649326350.606043,e294fc0c-a8f4-48b7-b4f6-da8cece0ac40
0.5667526689546462,0.7365943619138009,0.8711318096114469,-0.1533356584122166,0.5396006137479548,-0.2737119850905262,0.6191107723645422,0.5921296502481215,5.324527336467754,14.253513188403836,49.12549406400697,-0.1208037706562451,2.363938736112347,-2.648941540915439,7795.356553819444,11.636111111111113,7.313333333333334,177.97234799953205,-8.696486470253792,52.39939258474384,1553.0,1349.0,1350.0,1528.0,1471.0,988.0,161.0,292.25,1649326352.5490162,1649326353.6824028,b5bc2e6f-e076-405c-83be-8beaddbb6aa1
0.552341699236252,0.7334781212023295,0.8506066965573964,-0.1587003270942901,0.5216394963385924,-0.2729493606062297,0.6004264768061852,0.5890002608465935,5.24805012907549,14.051100270434096,47.95017818784065,-0.1095783555306006,2.3625649106457645,-2.571949596615162,7797.720160590277,11.645,7.327777777777778,177.9830820212677,-8.703876545208267,52.44523985009258,1553.0,1349.0,1350.0,1528.0,1471.0,988.0,161.0,292.25,1649326353.793502,1649326354.7710588,b5bc2e6f-e076-405c-83be-8beaddbb6aa1
0.5724197565000407,0.7431029659313154,0.8641892985950704,-0.1660241514078271,0.52944982117441,-0.2720552490913593,0.613995930017226,0.5998479342295658,5.569687726019676,14.170574273332162,48.560218911748194,-0.0893209355747093,2.3927454931227863,-2.618285438747929,7798.409545898437,11.644875,7.346249999999999,177.96228466442744,-8.701328564482736,52.69497860231371,1553.0,1349.0,1350.0,1528.0,1471.0,988.0,161.0,292.25,1649326354.8796933,1649326355.936345,b5bc2e6f-e076-405c-83be-8beaddbb6aa1
0.5219682137489464,0.7008430602753164,0.8757207042270002,0.2508684150426822,0.5880404061177984,-0.6339863463923718,0.5146312418906777,0.4902798586212655,4.68951653729132,15.934363152903211,45.44288301447598,-1.8317093482257512,2.217536202065959,-2.57952660877498,7792.205078125,11.625,7.333333333333333,177.97115651097687,-8.813586458751596,53.24350568732435,1553.0,1264.0,1350.0,1528.0,1471.0,988.0,161.0,292.25,1649326358.0744536,1649326359.2120097,4770847d-5956-4a4a-bd76-f89de4893b0a
0.5057032779845132,0.6917836094436839,0.8735643182468781,0.256088447066819,0.5911434981194642,-0.632710922665013,0.5123565176283126,0.49205493241368,4.267844344953728,15.858904166726264,45.03197868902538,-1.8415037740734133,2.189403399355593,-2.579468902947613,7785.1279296875,11.627,7.3199999999999985,178.00235226164605,-8.834297299862369,53.37262472175913,1553.0,1264.0,1350.0,1528.0,1471.0,988.0,161.0,292.25,1649326359.320256,1649326360.437205,4770847d-5956-4a4a-bd76-f89de4893b0a
0.5097530760453168,0.7086270877021348,0.859902824016153,0.2499874523862475,0.572682730363517,-0.6342098744020607,0.4954998905921184,0.4636537508437496,4.407359045121149,15.928710499179571,46.24655265753747,-1.8310634278550244,2.2407107753974045,-2.507935770050283,7794.568684895833,11.625666666666667,7.319999999999999,178.0153523883663,-8.828206763261225,53.56079984848756,1553.0,1264.0,1350.0,1528.0,1471.0,988.0,161.0,292.25,1649326360.5450535,1649326361.6674414,4770847d-5956-4a4a-bd76-f89de4893b0a
0.5060714414439442,0.735739696740784,0.874695106031488,0.6710481174868191,0.6178747950266638,-1.0680118826528957,0.3721388327006966,0.3383861315885078,3.847223721449925,17.94126892815159,43.03623592519071,-3.742399813641951,2.3239473031837448,-2.412785691395197,7799.2958984375,11.60688888888889,7.303333333333334,178.0369054297472,-8.976685115124765,53.67803207703681,1553.0,1178.0,1350.0,1528.0,1471.0,988.0,161.0,292.25,1649326362.5797374,1649326363.7177124,d4afe1d5-b982-465e-8831-52ea8407048f
0.5056506832003125,0.7542399105902315,0.8751947564199266,0.6529818105999189,0.6119447335990712,-1.068958589366735,0.3748737613209447,0.3529417374539042,4.330358029302683,17.73654615019129,43.12586559671395,-3.704848795750365,2.3913730140497207,-2.40665534251663,7799.2958984375,11.607,7.302222222222222,178.09027197446227,-8.988095040997008,53.5627589744145,1553.0,1178.0,1350.0,1528.0,1471.0,988.0,161.0,292.25,1649326363.8273995,1649326364.976161,d4afe1d5-b982-465e-8831-52ea8407048f
0.5090036004437553,0.740591565189051,0.8737878460384307,0.6621727483819381,0.6186111219487404,-1.0683931949388812,0.3765173482378695,0.3461175647543639,4.01066442472341,17.432903467271405,42.51494245656308,-3.726652031896768,2.3466347884310075,-2.418689014550776,7799.2958984375,11.605777777777778,7.309999999999999,178.07580411598033,-8.998053931125579,53.79789924078585,1553.0,1178.0,1350.0,1528.0,1471.0,988.0,161.0,292.25,1649326365.0851688,1649326366.181118,d4afe1d5-b982-465e-8831-52ea8407048f
0.4770522714378764,0.7367127001703028,0.8825054308925039,1.0052616497881663,0.652376970630777,-1.3907074599944045,0.2765872635411708,0.2479231068493622,3.4086950494743395,19.699158894221902,40.69296914543092,-5.209995816470708,2.310844876404394,-2.335665125861654,7799.2958984375,11.582555555555556,7.279999999999999,178.15055370625694,-9.17033625115652,53.4785867587229,1553.0,1088.0,1350.0,1528.0,1471.0,988.0,161.0,292.25,1649326367.08593,1649326368.2234402,a0f88405-904a-4014-b49b-c92d79f30dea
0.4784723305134591,0.7474420352778672,0.8831760143753467,0.9922312926725628,0.6484455108346958,-1.385106109599244,0.2784017834891451,0.2593493236281399,3.606734131230423,19.69732888282925,41.28617260508447,-5.167800033925556,2.34607398344896,-2.3316479993706443,7799.2958984375,11.573888888888888,7.291111111111111,178.20813371877998,-9.166841850486149,53.474051513114006,1553.0,1088.0,1350.0,1528.0,1471.0,988.0,161.0,292.25,1649326368.3320558,1649326369.452966,a0f88405-904a-4014-b49b-c92d79f30dea
0.4923310551161449,0.7493748934453387,0.8710923635823609,0.9801344931668872,0.6380580418043987,-1.38093796946486,0.2681983957133769,0.241085785132055,3.384810233948375,19.458019180815903,40.48314760990701,-5.1335740662816365,2.3627305671832137,-2.287562860104845,7792.205078125,11.570555555555554,7.2844444444444445,178.1899897007048,-9.176993408867556,53.529436378728775,1553.0,1088.0,1350.0,1528.0,1471.0,988.0,161.0,292.25,1649326369.5620987,1649326370.6780329,a0f88405-904a-4014-b49b-c92d79f30dea
0.5758647145846063,0.7430766685407749,0.8361431319603638,-0.6259130445964817,0.4589202208550318,0.1769595967344819,0.7120983431758643,0.6974112508922826,5.278509325542284,12.955337301371255,52.46946223454031,1.948096165688838,2.4148838052751205,-2.6218952543854623,7794.568684895833,11.629333333333332,7.316666666666666,178.20286840183982,-8.66888861659366,53.59338895774743,1553.0,1435.0,1350.0,1528.0,1471.0,988.0,161.0,292.25,1649326371.5911007,1649326372.7309072,58a52781-9bb9-441e-bb1c-d740bf479e37
0.5720647417327397,0.7449832293173594,0.8342891659397454,-0.6261891672611744,0.4553700731842781,0.1715028880811261,0.7114277597301867,0.6942424154024313,5.644588432371785,12.883978167815595,51.91268700920675,1.935987236093988,2.424293489062582,-2.6138496115582392,7799.2958984375,11.620555555555557,7.283333333333333,178.24543414074734,-8.6422900575546,53.27524216130281,1553.0,1435.0,1350.0,1528.0,1471.0,988.0,161.0,292.25,1649326372.843239,1649326373.9584892,58a52781-9bb9-441e-bb1c-d740bf479e37
0.6005969041284748,0.7498472350246114,0.8389675728190918,-0.6246214374680186,0.4617390987954594,0.1664244571326157,0.7154330545132233,0.6916642597509269,5.502844768141001,12.684654293366666,52.10994838478536,1.919910615188008,2.4418915565249453,-2.633741132162968,7806.3994140625,11.637333333333334,7.305555555555555,178.2558706697991,-8.650212507809385,53.30118511704529,1553.0,1435.0,1350.0,1528.0,1471.0,988.0,161.0,292.25,1649326374.0667298,1649326375.1930065,58a52781-9bb9-441e-bb1c-d740bf479e37
0.6700356679699757,0.7872168376645099,1.1175778070229634,-0.6258604499372662,0.7136498891963761,0.1185267922093658,0.9940589612708588,0.977741430675891,7.315873933026149,12.969071656256745,52.47603218802721,1.8318024305072087,2.58379329639549,-3.747154721191962,7806.3994140625,11.6086,7.292,178.21673277516305,-8.631975314570274,53.52013085311256,1553.0,1435.0,1350.0,1446.0,1471.0,988.0,161.0,292.25,1649326377.121585,1649326378.2651749,1c71eecd-d657-4301-9196-d447f393a0a9
