raw_voltage_G-,raw_voltage_G0,raw_voltage_G1,raw_voltage_G2,raw_voltage_G3,raw_voltage_G4,raw_voltage_G5,raw_voltage_G6,load_x,load_y,load_z,load_l,load_m,load_n,rpm,voltage,current,roll,pitch,yaw,aileron1_pwm,elevator_pwm,throttle_pwm,rudder_pwm,aileron2_pwm,pbaro,pdiff,Tt,sample_start_time,sample_end_time,uid
0.0214894145891488,0.1457708903265639,-0.06270168970095,-0.1289842710386485,-0.1919533824836748,0.3546379193562493,-0.2759867098135176,-0.290923631116446,-15.062072593701403,19.32478571900417,52.34663168401055,1.2136223768487835,0.2016217453467535,0.8117361558850428,5549.845974392361,11.951666666666666,0.12,179.65264890852615,-9.47462715509611,108.35329529910264,1553.0,1435.0,1200.0,1528.0,1471.0,988.0,161.0,292.25,1649322939.0567791,1649322940.0263512,7bc519c3-1cb8-4512-954d-a52811abd228
0.0191337750527894,0.1395202025762806,-0.0707830811455423,-0.1268294018972396,-0.1969726450155811,0.3572069721254654,-0.2848034177008005,-0.3052724005584313,-15.376830925104702,19.35009979219254,52.05975707397508,1.2140957645197088,0.1821710120918656,0.840768953900302,5541.870930989583,11.951333333333334,0.12,179.80249415199737,-9.506852367055185,108.1998384033803,1553.0,1435.0,1200.0,1528.0,1471.0,988.0,161.0,292.25,1649322940.1350164,1649322941.4631774,7bc519c3-1cb8-4512-954d-a52811abd228
0.0041725813921479,0.1468096373115358,-0.06517364473957,-0.1292077989048763,-0.1940571741224769,0.353415090688683,-0.2797340887720594,-0.3057685112471309,-15.18474208185001,19.337054296013783,52.26483466454519,1.211262197067456,0.2069818878580295,0.823224152266883,5529.95263671875,11.95422222222222,0.12,179.9186680806802,-9.49306638912542,108.08013174907676,1553.0,1435.0,1200.0,1528.0,1471.0,988.0,161.0,292.25,1649322941.572128,1649322942.691333,7bc519c3-1cb8-4512-954d-a52811abd228
0.2219281361602747,0.5168139252943846,-0.0103830257411488,-0.333065208726101,-0.2328195347113233,0.1831920786561584,-0.2961436640421549,-0.3193642652870072,-14.230270928914528,18.452011073315145,53.071099530956815,1.286070860020141,1.609379144997703,0.86984898707177,5529.160210503473,11.934333333333331,0.12,179.8367528630543,-9.505487088131089,107.88014077453914,1637.0,1435.0,1200.0,1528.0,1535.0,988.0,161.0,292.25,1649322943.600253,1649322944.7207124,52c71f41-d061-4f29-bec0-e09322c3afba
0.2174312822518567,0.5201536938306355,-0.016155303526928,-0.334038212482004,-0.2379869729500083,0.1801284325316649,-0.3038356524742631,-0.3164978494502544,-14.402004415626998,18.41656633593743,52.9229973835281,1.2807488532547753,1.624186685405912,0.8957883731000916,5528.882861328125,11.9431,0.12,179.8737749168675,-9.485753400444828,107.73043388034417,1637.0,1435.0,1200.0,1528.0,1535.0,988.0,161.0,292.25,1649322944.854164,1649322945.8185437,52c71f41-d061-4f29-bec0-e09322c3afba
0.2229931805107112,0.5204824112099278,-0.0137622407128363,-0.342479676805361,-0.2389731252245808,0.1862820221609731,-0.3006668161550283,-0.3246894881919208,-14.276558777491932,18.58971375002206,52.75729804934044,1.3149223725217885,1.6271942598940743,0.8891065116138981,5538.1708984375,11.944,0.12,179.88368825342883,-9.466736019361395,107.61855128362583,1637.0,1435.0,1200.0,1528.0,1535.0,988.0,161.0,292.25,1649322945.927665,1649322947.1975834,52c71f41-d061-4f29-bec0-e09322c3afba
0.4219592388813357,0.865885480216482,0.0410941207238578,-0.5488222138854674,-0.2781430962907855,0.0347170030981789,-0.3137234735274042,-0.3379565247442332,-13.306709956753838,18.22385883423769,52.47141696427514,1.4405425570651136,2.947211756288409,0.9266818257985936,5539.483235677083,11.911,0.11,179.57000361956904,-9.4020977557547,107.37232911121714,1723.0,1435.0,1200.0,1528.0,1599.0,988.0,161.0,292.25,1649322949.1299026,1649322950.2780087,74c4253f-856d-43d2-b549-5b8346bfe89f
0.429467143822284,0.8695802635508766,0.0369128353232688,-0.555251928116771,-0.2825479101210504,0.0359003857701911,-0.3166556331833436,-0.3377067000717054,-13.291493036762985,18.083826052680973,52.28693786045908,1.4565473944026446,2.963120961606302,0.9427542792528611,5537.09716796875,11.913,0.12,179.5043655016452,-9.369480187373302,107.2233763457975,1723.0,1435.0,1200.0,1528.0,1599.0,988.0,161.0,292.25,1649322950.3913767,1649322951.5050838,74c4253f-856d-43d2-b549-5b8346bfe89f
0.407903283739054,0.853893870284687,0.0358872369788541,-0.538618822663369,-0.2788005312099007,0.0361896570852744,-0.3186016406162704,-0.3340908074446805,-13.51117225885385,18.2424573711438,52.30826599610933,1.4205705520310716,2.903543035934458,0.939878051760177,5529.95263671875,11.913222222222222,0.1155555555555555,179.48390529053145,-9.341048481452,107.1495852587344,1723.0,1435.0,1200.0,1528.0,1599.0,988.0,161.0,292.25,1649322951.6150095,1649322952.7270317,74c4253f-856d-43d2-b549-5b8346bfe89f
0.5632682647833633,1.0965135964169794,0.0772398866261851,-0.6719466462297156,-0.3063470537927802,-0.0991761748190674,-0.3387454465121145,-0.3595598368494894,-13.119346302804695,18.59307202874787,49.48323334500365,1.421270619330666,3.854822458306134,0.9740433215751972,5527.575358072917,11.860666666666669,0.11,179.15906756488488,-9.272986120691517,106.9020751403212,1813.0,1435.0,1200.0,1528.0,1662.0,988.0,161.0,292.25,1649322954.6616094,1649322955.8011062,e7acf6bc-1a4b-46de-a203-d29ec94bfbee
0.5554184938649801,1.103035349461298,0.0790675554173763,-0.6779293051732895,-0.3064259459524819,-0.0974799928704891,-0.3379828219311161,-0.3509342907121891,-13.188145402933996,18.626055619460683,49.85933153847341,1.4389125578879285,3.877289608937215,0.9717791265716466,5522.826171875,11.861444444444444,0.11,179.13427397819774,-9.250027673025118,106.70609045118678,1813.0,1435.0,1200.0,1528.0,1662.0,988.0,161.0,292.25,1649322955.9095404,1649322957.026023,e7acf6bc-1a4b-46de-a203-d29ec94bfbee
0.56873812189745,1.0989724025085124,0.087456423527734,-0.6788628629467424,-0.2991021210956853,-0.0934433429089213,-0.3275822015885812,-0.3454644315571314,-13.028022806180555,18.699049316331635,49.815672884702416,1.4510645628041985,3.86195271315796,0.935081234831917,5524.6064453125,11.867,0.105,179.10561905789984,-9.219678344062467,106.54122144772624,1813.0,1435.0,1200.0,1528.0,1662.0,988.0,161.0,292.25,1649322957.1352327,1649322958.256914,e7acf6bc-1a4b-46de-a203-d29ec94bfbee
-0.258227875941074,-0.3239966525287466,-0.1320888808064352,0.1096322052131348,-0.1476271008358158,0.5921261102480531,-0.2528925391252098,-0.2792025782057833,-16.326721307783504,20.775299627566305,51.72103219976745,1.2144540396163794,-1.579549585197095,0.7559515793247252,5529.95263671875,11.949777777777776,0.1188888888888888,179.93821152862537,-9.193386432058018,106.22436176248522,1470.0,1435.0,1200.0,1528.0,1403.0,988.0,161.0,292.25,1649322959.9825466,1649322961.3361242,45ec437c-e339-4eeb-a528-2cbef32455b0
-0.2558954992078664,-0.3196666849886906,-0.1269330743775274,0.1117026191204853,-0.1416727639002994,0.5878037296340528,-0.2505965742205017,-0.2695701455727944,-16.586053893158525,20.76308967917485,52.01076681360779,1.2001621541924077,-1.5639702613132875,0.7383190395558803,5537.09716796875,11.953666666666669,0.12,179.89408091748794,-9.160479149819327,106.13673422998347,1470.0,1435.0,1200.0,1528.0,1403.0,988.0,161.0,292.25,1649322961.449894,1649322962.5567255,45ec437c-e339-4eeb-a528-2cbef32455b0
-0.2730939961207785,-0.3251496922378047,-0.1335337203565506,0.1112818608236373,-0.1474450419834862,0.5916299998709936,-0.2553038080487901,-0.278879423510409,-16.52377962614058,20.760168158815063,51.69225242543936,1.2093419609690552,-1.582519340057712,0.7608089747996343,5537.09716796875,11.947888888888889,0.12,179.8576699379325,-9.12984394898079,105.99661214025078,1470.0,1435.0,1200.0,1528.0,1403.0,988.0,161.0,292.25,1649322962.6658103,1649322963.7902272,45ec437c-e339-4eeb-a528-2cbef32455b0
-0.5018419091368415,-0.7286044003434433,-0.1975284303694472,0.31611224196904,-0.1164667115673084,0.7881635437090801,-0.2475197789741269,-0.2626013358478188,-17.895975765309387,22.473211783691504,50.0184395492725,1.1961438392278558,-3.100419640999021,0.7437188745967457,5526.38671875,11.8979,0.102,179.92901338876106,-9.103152840878476,105.85248019823833,1393.5,1435.0,1200.0,1528.0,1338.2,988.0,161.0,292.25,1649322964.4628468,1649322965.426801,081e3b65-a4a4-43cb-af91-78db7c0519aa
-0.4957146151308278,-0.7294985120784696,-0.1950038803248889,0.3093932586375514,-0.11444181211189,0.7976831989068282,-0.2418921361862371,-0.2543965478895849,-17.862408545411142,22.433868290142936,50.39909753013754,1.232634624710299,-3.1063978197997737,0.7299164903974307,5518.204638671875,11.9029,0.117,179.93704569122502,-9.087395509085892,105.55696523360857,1385.0,1435.0,1200.0,1528.0,1331.0,988.0,161.0,292.25,1649322965.5566494,1649322966.6539488,081e3b65-a4a4-43cb-af91-78db7c0519aa
-0.4969505928502354,-0.7174017065945907,-0.1990010844277711,0.3119704029415942,-0.1198722240540374,0.7832722291594004,-0.2510173325415753,-0.2657307263534943,-17.892627811449962,22.40123163605329,50.32286558846125,1.193995095535551,-3.06070917467388,0.7571249267970681,5515.71875,11.901333333333334,0.11,179.9086732371947,-9.05794406540788,105.3382570363424,1385.0,1435.0,1200.0,1528.0,1331.0,988.0,161.0,292.25,1649322966.7622044,1649322967.882269,081e3b65-a4a4-43cb-af91-78db7c0519aa
-0.7415690202566836,-1.1456418415688072,-0.2647445730483476,0.5189045677877425,-0.0897354104507858,1.0002125506547423,-0.2376451068167782,-0.2601688263316899,-18.951388859462487,24.38543954630228,48.38307730932527,1.2237339878835227,-4.671796264296102,0.7323605532700218,5526.38671875,11.843222222222222,0.1,-179.99643813238978,-9.034154611392465,104.96820952966964,1297.0,1435.0,1200.0,1528.0,1253.0,988.0,161.0,292.25,1649322968.9965866,1649322970.036225,019ebce0-84fa-4e33-b955-71101bf3a53c
-0.7333905277683467,-1.1418944603946737,-0.2565792317297025,0.5189045677819877,-0.0839105377943081,0.993730243843232,-0.2303475796223613,-0.243890738175022,-18.74334311239,24.41676493849973,48.04179045171523,1.209831940084288,-4.655670815992024,0.703011196643491,5524.6064453125,11.847,0.1,179.9957498011034,-9.025569917379404,104.62632668749438,1297.0,1435.0,1200.0,1528.0,1253.0,988.0,161.0,292.25,1649322970.1450834,1649322971.3629887,019ebce0-84fa-4e33-b955-71101bf3a53c
-0.7394257819276023,-1.1487186388616468,-0.2707535281053585,0.5307778394014836,-0.0931277743288683,0.9912319917253316,-0.2468754927536687,-0.2687812239745113,-19.09122371169542,24.417571894579726,48.17393376843707,1.1765803564542432,-4.682335018822354,0.7576399025812095,5526.0306640625,11.8454,0.1,-144.0006077958877,-9.019626457518388,104.28500984032834,1297.0,1435.0,1200.0,1528.0,1253.0,988.0,161.0,292.25,1649322971.470885,1649322972.5913608,019ebce0-84fa-4e33-b955-71101bf3a53c
-0.0007581797954787,0.1297820761146853,-0.0632407863184305,-0.1147179346950842,-0.186522970474668,0.3641970208244798,-0.2753292749683598,-0.3031913669880064,-15.407709021243466,19.408403869764943,53.346675487116165,1.2034344942833557,0.1334476885032323,0.8034634230142305,5554.249294704861,11.957666666666666,0.12,179.49475466657307,-8.978327585892673,103.76068824374455,1553.0,1435.0,1200.0,1528.0,1471.0,988.0,161.0,292.25,1649322974.5269945,1649322975.8700044,0501a1b1-61a0-42d3-bf56-4a717ebd475f
-0.0061491453668556,0.1350941492710402,-0.0743382864724815,-0.1144023660461322,-0.1954114900452033,0.3636447756106895,-0.288793541840208,-0.3212445293573357,-15.767876183705525,19.30526541365293,53.95762767338495,1.200161471624199,0.1497613886267023,0.8511649483469483,5573.09912109375,11.9584,0.12,179.40080070929812,-8.959756434348643,103.9517444201559,1553.0,1435.0,1200.0,1528.0,1471.0,988.0,161.0,292.25,1649322975.9785988,1649322977.0408013,0501a1b1-61a0-42d3-bf56-4a717ebd475f
-0.0067934315046901,0.1277703256324943,-0.0705909078453405,-0.1189781125650507,-0.192216356500574,0.3678129120243216,-0.2814960143457702,-0.3037041661328705,-15.557002904567558,19.31272097273248,52.972941548190086,1.2200347955812116,0.1303283987875595,0.8291441390424211,5573.09912109375,11.956,0.1166666666666666,179.3365204329813,-8.926584254606643,104.06781984233272,1553.0,1435.0,1200.0,1528.0,1471.0,988.0,161.0,292.25,1649322977.1497624,1649322978.0948117,0501a1b1-61a0-42d3-bf56-4a717ebd475f
0.0013324629386537,0.1205516915370498,-0.0941139265348528,-0.4677604801051825,-0.2494263400177191,0.7156616395093589,-0.2052861618187518,-0.2357516943742386,-15.369608370501972,18.475020802551857,55.9697524250441,2.7823124344628423,0.1168042743679804,0.8313940597309832,5583.9912109375,11.939555555555556,0.1111111111111111,179.27400750605773,-8.816148348872781,104.22283629791552,1553.0,1522.0,1200.0,1528.0,1471.0,988.0,161.0,292.25,1649322979.0323246,1649322980.173652,179a425b-436d-4c97-803b-2d7697c1c935
0.0164929099548544,0.1204202045925343,-0.1048827094503381,-0.4733092311989826,-0.258748766918452,0.7204740618687865,-0.2147926702907918,-0.2326486016908316,-15.519197964565278,18.358656785035325,55.83342280488806,2.8042385771388068,0.1185766758932086,0.8719921247178603,5584.800130208333,11.938555555555556,0.1177777777777777,179.220243292551,-8.79947225228672,104.30050465569744,1553.0,1522.0,1200.0,1528.0,1471.0,988.0,161.0,292.25,1649322980.2843297,1649322981.3961065,179a425b-436d-4c97-803b-2d7697c1c935
0.0199641658004905,0.1241675829198429,-0.100846059380147,-0.4829472279093037,-0.2580124397081083,0.72376123561173,-0.2090992840912277,-0.231478367480448,-15.3082700885648,18.37784369699656,55.59727989004867,2.833762978461496,0.134674527223313,0.8575561530280078,5582.7822265625,11.943555555555555,0.1177777777777777,179.20016708985062,-8.787433190100927,104.36380381328549,1553.0,1522.0,1200.0,1528.0,1471.0,988.0,161.0,292.25,1649322981.507016,1649322982.6276228,179a425b-436d-4c97-803b-2d7697c1c935
0.0299440263085182,0.1244568542488088,-0.1298126390327396,-0.932895794413128,-0.3348665804266978,1.160166432409846,-0.1155726000625704,-0.1411468161017158,-15.009238097822545,17.545944988227095,59.03051480883925,4.823138156709342,0.1567621852664851,0.8700394704852705,5602.23974609375,11.919,0.11,179.1369180203165,-8.630332767911373,104.4853477884758,1553.0,1613.0,1200.0,1528.0,1471.0,988.0,161.0,292.25,1649322984.5629222,1649322985.697482,b8594674-964b-4147-b5ee-716df7b9ef1b
0.0264596217943669,0.120630583704766,-0.1306541556594729,-0.9261110633404848,-0.3346824986886584,1.1586280350035687,-0.1170321054622333,-0.1322714460441215,-15.004908574485745,17.606544468522475,59.15732393806675,4.804758694142803,0.1403691294039748,0.8727673687147234,5603.460774739583,11.914666666666667,0.11,179.11048670604836,-8.611254626603447,104.4584429144252,1553.0,1613.0,1200.0,1528.0,1471.0,988.0,161.0,292.25,1649322985.8075373,1649322986.9308026,b8594674-964b-4147-b5ee-716df7b9ef1b
0.0253419825968485,0.1162126218785556,-0.1332970437562288,-0.922429426246875,-0.3340513611159711,1.161310368940615,-0.1202666849204352,-0.1326659067056901,-15.333056818327364,17.588043121676822,59.38441411971679,4.802098157547174,0.1234877973971327,0.8797117449876113,5601.833116319444,11.923222222222222,0.1088888888888889,179.0872428133929,-8.601862357584771,104.42031224501874,1553.0,1613.0,1200.0,1528.0,1471.0,988.0,161.0,292.25,1649322987.0396807,1649322988.1581986,b8594674-964b-4147-b5ee-716df7b9ef1b
0.0412650538608977,0.1220900889711011,-0.1621058394095148,-1.3132484147927015,-0.409630081080352,1.5303285400092446,-0.0479882980943484,-0.0704857186811786,-14.87245548756228,17.209428433185188,61.66994736755386,6.509574961007044,0.1683006634422963,0.9199987111518512,5607.941134982639,11.88111111111111,0.0955555555555555,179.06776766733944,-8.443749834169456,104.29777409784928,1553.0,1710.0,1200.0,1528.0,1471.0,988.0,161.0,292.25,1649322990.0917003,1649322991.2339735,0fb298cf-77c1-4693-8c6f-f637a4190c0c
0.036636712755175,0.1060486798508489,-0.1594235052064244,-1.2982851847745025,-0.4018592000840282,1.5333658891386923,-0.044582785659032,-0.0654497677795493,-15.07013253527885,17.2954071238933,61.849433104606526,6.483279540082621,0.1062731680760429,0.8991792575271425,5616.515570746527,11.866444444444443,0.0911111111111111,179.09877976181093,-8.433897286291712,104.11318519989004,1553.0,1710.0,1200.0,1528.0,1471.0,988.0,161.0,292.25,1649322991.3422806,1649322992.6668274,0fb298cf-77c1-4693-8c6f-f637a4190c0c
0.0446048227133727,0.1239046090181252,-0.1625660438636967,-1.306818696461233,-0.4091961740838783,1.5236358529425589,-0.0506048887535967,-0.0823195457446524,-14.923811178180236,17.19174683987482,61.801515859479615,6.479886723384202,0.1734825012418613,0.9241933328655666,5615.289333767361,11.879888888888887,0.0955555555555555,179.0826878361264,-8.414457239821516,104.00241850430012,1553.0,1710.0,1200.0,1528.0,1471.0,988.0,161.0,292.25,1649322992.7763789,1649322993.8908718,0fb298cf-77c1-4693-8c6f-f637a4190c0c
0.0464587888821477,0.1118341060812508,-0.1371101662280057,-1.4135730673789677,-0.4058169587483984,1.639291800363241,-0.0011131949235594,-0.0129996169016911,-14.636696512928475,18.231617123039506,62.86083631449262,6.989067132210758,0.1315650693857767,0.8132974472593876,5605.90283203125,11.8419,0.09,179.08133636936262,-8.325581395385234,103.68564093311112,1553.0,1814.0,1200.0,1528.0,1471.0,988.0,161.0,292.25,1649322996.0323713,1649322997.1689975,6ba30c86-ed1a-4e74-b285-22037f13ba89
0.0500089368805206,0.1124652435132899,-0.1430665257339759,-1.4225667844751544,-0.4112999658026839,1.6435651271475626,-0.0079110707932881,-0.0292119594103933,-14.963836720186686,18.24637646049544,62.33169735060659,7.018509723010011,0.141667349690436,0.8375797731123151,5599.31201171875,11.8518,0.09,179.10620372209277,-8.339371888828948,103.46323153222474,1553.0,1814.0,1200.0,1528.0,1471.0,988.0,161.0,292.25,1649322997.2875197,1649322998.411553,6ba30c86-ed1a-4e74-b285-22037f13ba89
0.047484387201154,0.1142271687404262,-0.1572145241958036,-1.4243944566308289,-0.4243434754804638,1.6393838416244253,-0.0230715180601019,-0.0459633988766553,-15.050837469620896,18.145089896146505,61.632726400791,7.011705466033249,0.1544127724918402,0.8954080899330489,5591.27587890625,11.857111111111111,0.09,179.08660229343073,-8.359536732206568,103.3246148161851,1553.0,1814.0,1200.0,1528.0,1471.0,988.0,161.0,292.25,1649322998.5202923,1649322999.6294491,6ba30c86-ed1a-4e74-b285-22037f13ba89
-0.00043755388241,0.153402191104259,-0.0282394614241253,0.3358150562650407,-0.1168793782698229,-0.0969034730760216,-0.3782729630233464,-0.4022693382991042,-15.46389657737958,21.06083724190352,49.78553309552534,-0.8369108663555589,0.2007741446742091,0.8085337430627175,5583.9912109375,11.954666666666668,0.1133333333333333,179.0758394331186,-8.90664721701059,103.0206106853269,1553.0,1349.0,1200.0,1528.0,1471.0,988.0,161.0,292.25,1649323001.5623522,1649323002.6980553,9a7349c5-31f4-41ce-a8b5-f81e7d7e7a86
-0.0285150781963842,0.1462047973042697,-0.0261220155931683,0.338162604099863,-0.1129297120129383,-0.0906163730326012,-0.3742863787436367,-0.3948640922656655,-15.536860624297624,21.080074866104304,50.00759999120741,-0.8278467721482926,0.1721733178860273,0.7939957794190221,5573.904893663194,11.955555555555556,0.1122222222222222,179.04975114612878,-8.913758677165172,103.2949391620612,1553.0,1349.0,1200.0,1528.0,1471.0,988.0,161.0,292.25,1649323002.8067932,1649323003.9275634,9a7349c5-31f4-41ce-a8b5-f81e7d7e7a86
4.389068204910085e-05,0.1512144504322393,-0.0260299747079785,0.3339681702924712,-0.1131137937529415,-0.0894987338133036,-0.3740234048065464,-0.3932862486516321,-15.597327766268275,20.986460860824355,50.317833428012094,-0.8164706527107374,0.1891616152507766,0.7947497077580173,5576.72509765625,11.951,0.1133333333333333,178.98389597997135,-8.908919677865695,103.56671163022612,1553.0,1349.0,1200.0,1528.0,1471.0,988.0,161.0,292.25,1649323004.0358274,1649323005.159619,9a7349c5-31f4-41ce-a8b5-f81e7d7e7a86
-0.0302638548682159,0.1579071366128478,-0.0035851496526065,0.6821193186438582,-0.0624650132132162,-0.4289718171902285,-0.4571757772049005,-0.4745057638418267,-15.933321678150389,22.54385761815029,48.31644834736144,-2.353702080835696,0.1929640018131605,0.8137262383865134,5575.114637586806,11.940333333333331,0.1,178.8895574071551,-9.008655333354824,103.9051808956362,1553.0,1264.0,1200.0,1528.0,1471.0,988.0,161.0,292.25,1649323006.0664055,1649323007.200717,0074e569-90ab-4367-beb5-ac74bd878021
-0.0280943199340047,0.1574732296485614,-0.0044924097021095,0.6796473639907156,-0.0645951020758008,-0.428892924991227,-0.4578200634129104,-0.4889824814599944,-15.832219104142716,22.594731053320203,47.93673724677876,-2.34766624049505,0.1942340754817176,0.8182216159319938,5565.86083984375,11.9422,0.108,178.8678355842107,-9.016701087496871,104.08888915453842,1553.0,1264.0,1200.0,1528.0,1471.0,988.0,161.0,292.25,1649323007.3102882,1649323008.4339838,0074e569-90ab-4367-beb5-ac74bd878021
-0.0271476137720885,0.1596559131632408,-0.0025595513415203,0.67774080322074,-0.0624387158339604,-0.4281434491483796,-0.4570442901942615,-0.4798835814677947,-16.019626898629305,22.60405718078233,48.1089423052243,-2.3415901525780907,0.2025780724500369,0.8119006871267678,5565.86083984375,11.942,0.11,178.83639576811518,-9.012506326818109,104.27595164345108,1553.0,1264.0,1200.0,1528.0,1471.0,988.0,161.0,292.25,1649323008.5423155,1649323009.8673856,0074e569-90ab-4367-beb5-ac74bd878021
-0.043583484607078,0.1641790645299626,0.0238298824398327,1.0444710594950268,-0.0076875429332474,-0.7879050461834437,-0.5435232877688965,-0.5761583615014841,-16.36640608607647,24.42873663785908,45.35295943723696,-3.964479947221212,0.2029748153211311,0.8233679361761571,5562.24951171875,11.916666666666666,0.1033333333333333,178.8105457788364,-9.13166836839909,104.5281973596888,1553.0,1178.0,1200.0,1528.0,1471.0,988.0,161.0,292.25,1649323011.186389,1649323012.320031,ceff2679-168e-43ff-985e-94981e80c0d8
-0.0429786445408022,0.1676108741353093,0.023750990228422,1.0447603307794286,-0.0076086508143143,-0.7904427457117797,-0.5463371096258485,-0.5774600828918511,-16.585655242297648,24.473265029192152,45.49749936564718,-3.9706310902063007,0.2160770640951341,0.8278243488161499,5558.64208984375,11.911,0.1,178.82660431248502,-9.149557108154047,104.63283130431394,1553.0,1178.0,1200.0,1528.0,1471.0,988.0,161.0,292.25,1649323012.4284582,1649323013.557536,ceff2679-168e-43ff-985e-94981e80c0d8
-0.0417800902473001,0.174882608630618,0.0179832639983796,1.0300282289599194,-0.0161274889844645,-0.7842264438840002,-0.5501922072923934,-0.573771367104302,-16.498816379440452,24.39093005939163,45.429092429308895,-3.924230412376946,0.2447889520818933,0.853526944304267,5558.64208984375,11.917666666666667,0.1044444444444444,178.82790660188675,-9.142380286883656,104.73148124431629,1553.0,1178.0,1200.0,1528.0,1471.0,988.0,161.0,292.25,1649323013.666112,1649323014.7819157,ceff2679-168e-43ff-985e-94981e80c0d8
-0.0545757950370624,0.1525293200090251,0.051757713319681,1.2112491162631598,0.0291682530584816,-0.9353020074687244,-0.5674013273631714,-0.5804579869183005,-16.52574487165658,25.95423029676856,44.60720052735405,-4.660606819276689,0.148280991970969,0.7673609003351213,5559.042914496527,11.896888888888888,0.0911111111111111,178.84163376429868,-9.20216218164036,104.8583641507078,1553.0,1088.0,1200.0,1528.0,1471.0,988.0,161.0,292.25,1649323016.511152,1649323017.6453545,3d90cbdd-5e60-428f-9955-f15f8f8a108c
-0.0436097819723042,0.1691098254564765,0.0405024292920566,1.1990997211132162,0.0151911887843183,-0.9420735899216518,-0.5821410204691257,-0.6063083321491481,-16.647089627012942,25.841650862066547,44.26577576958309,-4.649839657980988,0.2151332719485557,0.8241060522948936,5552.241916232639,11.889888888888889,0.0988888888888888,178.88710005687372,-9.219397879419672,104.82843274394496,1553.0,1088.0,1200.0,1528.0,1471.0,988.0,161.0,292.25,1649323017.7541397,1649323019.0827,3d90cbdd-5e60-428f-9955-f15f8f8a108c
-0.0454374508165205,0.1728046089846832,0.0515210368251179,1.2202296756593336,0.0253288337615821,-0.963650613199255,-0.5762241051697443,-0.6007727288673892,-16.338460563350942,25.93891835391966,44.54130821638081,-4.744597382362078,0.2224631397083366,0.7880510759040442,5555.03955078125,11.882,0.09,178.9144238491934,-9.227697697626102,104.79304249821548,1553.0,1088.0,1200.0,1528.0,1471.0,988.0,161.0,292.25,1649323019.192392,1649323020.3106723,3d90cbdd-5e60-428f-9955-f15f8f8a108c
0.0045933396490465,0.1393280293505467,-0.0650421577793509,-0.0948371048322073,-0.1897838474554776,0.3338103859856753,-0.2875707128219448,-0.3123691579813384,-15.3395194095643,19.60003537003109,52.90265696662534,1.0914495850609156,0.170144809579994,0.8284616889572431,5558.248101128473,11.96122222222222,0.1077777777777777,178.93559288216102,-8.842567994901085,104.81224671343186,1553.0,1435.0,1200.0,1528.0,1471.0,988.0,161.0,292.25,1649323021.6317246,1649323022.771258,5e577012-a019-4db5-af87-8c4514d88e44
0.0045538935799909,0.138933568457295,-0.0622020392439843,-0.0927990567646658,-0.1867202008966356,0.3317065947309895,-0.2841126052393979,-0.3078328566923545,-15.24711816759224,19.54751960837403,52.839857586652535,1.081954535553268,0.1684961678429504,0.8154616278786806,5575.919325086806,11.957444444444445,0.11,178.94044383429153,-8.804275962275486,104.88939977138642,1553.0,1435.0,1200.0,1528.0,1471.0,988.0,161.0,292.25,1649323022.8789778,1649323023.9982564,5e577012-a019-4db5-af87-8c4514d88e44
0.0036992282968138,0.1396435980446043,-0.0550754456208984,-0.0881707154669233,-0.1805534618225069,0.3283010826243959,-0.2783666242299866,-0.297655764541586,-15.176966341604729,19.643838060074845,53.10837415114504,1.064932970293226,0.168166411227799,0.7896816644007356,5583.9912109375,11.956333333333331,0.1044444444444444,178.93728676907514,-8.81414084243923,104.9621268667588,1553.0,1435.0,1200.0,1528.0,1471.0,988.0,161.0,292.25,1649323024.1071365,1649323025.22494,5e577012-a019-4db5-af87-8c4514d88e44
0.054216519682245,0.1723181072472714,0.092623861068085,-0.1144418120774641,-0.0477516215674828,0.3116285369067075,-0.1239877662335643,-0.14577515749523,-14.17110351823233,19.22491222247988,53.013222638502135,1.091797178837037,0.2970305403856532,0.1921321716717688,5587.63134765625,11.955,0.11,178.91851285577653,-8.819476643137087,105.01770335712528,1553.0,1435.0,1200.0,1446.0,1471.0,988.0,161.0,292.25,1649323025.9814403,1649323027.0709522,62c303ed-3fa8-4499-b857-f9b12761c07f
0.0438684957255314,0.1550012748323607,0.0913615862679276,-0.0969803424574235,-0.0459633987976128,0.313311569912891,-0.1255393124860054,-0.1393191471996025,-14.172043855155978,19.495208069515765,53.11206681440338,1.0579346353063963,0.2289871742144933,0.1917118226349098,5594.92578125,11.958111111111114,0.11,178.91625585771078,-8.8064944456634,105.09457334168422,1553.0,1435.0,1200.0,1446.0,1471.0,988.0,161.0,292.25,1649323027.1793346,1649323028.3059127,62c303ed-3fa8-4499-b857-f9b12761c07f
0.0486151750592295,0.1614309870924645,0.0875879104669198,-0.1035415422278091,-0.0519855019039976,0.3103925595434255,-0.1302070999869282,-0.1623425165696405,-14.09431689345413,19.48118357682819,52.70130929669232,1.065868463164522,0.2567612609689655,0.2119052567210481,5594.92578125,11.959666666666667,0.1188888888888888,178.92402102388718,-8.81912944185428,105.15805311983034,1553.0,1435.0,1200.0,1446.0,1471.0,988.0,161.0,292.25,1649323028.420225,1649323029.5349808,62c303ed-3fa8-4499-b857-f9b12761c07f
0.1085600807788073,0.1823242647157021,0.2999393466353203,-0.1098003220102095,0.1411688466977738,0.288434238189368,0.0890605644266013,0.0585292918887017,-12.530709144747552,19.55478883237986,53.322852698742345,1.0425912368076486,0.3327819870784726,-0.6484136624998712,5586.41796875,11.958333333333334,0.11,178.8772903874058,-8.826428921938513,105.21895715774944,1553.0,1435.0,1200.0,1354.0,1471.0,988.0,161.0,292.25,1649323030.6447177,1649323031.7795076,59bf0581-50cf-4e21-ba61-595b4647cd71
0.1157261201235662,0.1917255821867533,0.2986113284265819,-0.1120224517996788,0.1381446466877431,0.2829775295847557,0.0852211452105831,0.0561888240425411,-12.548134986457786,19.53159391238104,53.54610239432886,1.035148791561556,0.3663763320483171,-0.6355875589987869,5587.63134765625,11.956555555555555,0.11,178.8853302789688,-8.81629586198611,105.27731581183782,1553.0,1435.0,1200.0,1354.0,1471.0,988.0,161.0,292.25,1649323031.8874788,1649323033.2109978,59bf0581-50cf-4e21-ba61-595b4647cd71
0.1134776930938665,0.1903581178293454,0.2946272736864564,-0.1165719009655226,0.1340159561318477,0.2839636817403018,0.0810398598040421,0.0618427630614261,-12.62836449172753,19.56553026355441,52.86926389045462,1.0475055612086988,0.3681222988761923,-0.619810177429392,5594.92578125,11.951333333333332,0.1033333333333333,178.8981725524282,-8.816269300139336,105.29779575460915,1553.0,1435.0,1200.0,1354.0,1471.0,988.0,161.0,292.25,1649323033.3202465,1649323034.4412897,59bf0581-50cf-4e21-ba61-595b4647cd71
0.1718316055119395,0.2199032370364224,0.5163668696506234,-0.1122196822744394,0.3351252554681349,0.2452144760832036,0.3027663161553117,0.2738523348327548,-11.13927921902098,19.779605580626484,53.74216313096395,0.9639623785678476,0.4741834830323141,-1.5058772578484636,5589.090234375,11.9466,0.102,178.88462418919056,-8.823756781180476,105.30207691718093,1553.0,1435.0,1200.0,1252.0,1471.0,988.0,161.0,292.25,1649323036.5820968,1649323037.929959,7784c79c-bd7c-450e-8e7f-bcf986bf311d
0.1788530090559344,0.2237689535462582,0.5087537752102833,-0.1210293093509205,0.3272360382429359,0.2445964873653122,0.2951269240770864,0.2720115173718793,-11.229262192410165,19.67444538648475,52.983024671704655,0.9812035286115032,0.4966476132709895,-1.4745774634277782,5585.448583984375,11.947,0.11,178.91564281028724,-8.82576784500422,105.3198647788364,1553.0,1435.0,1200.0,1252.0,1471.0,988.0,161.0,292.25,1649323038.039527,1649323039.1506948,7784c79c-bd7c-450e-8e7f-bcf986bf311d
0.1767492177192592,0.215603613564403,0.5119489081109483,-0.114126243373269,0.3317065946701473,0.2487777725531766,0.2997289675087272,0.2784806756247329,-11.176093469386682,19.763337508357736,53.3721533962017,0.9758649751906636,0.4615516174009136,-1.491952119332534,5576.72509765625,11.9476,0.1169999999999999,178.90088550356657,-8.834274333351285,105.30712920811,1553.0,1435.0,1200.0,1252.0,1471.0,988.0,161.0,292.25,1649323039.2600062,1649323040.3809807,7784c79c-bd7c-450e-8e7f-bcf986bf311d
-0.0732732418592154,0.1032348588982372,-0.2865188170745826,-0.0491453833222484,-0.3896309102009574,0.337137005903139,-0.524220996420102,-0.5436021800642572,-16.782586040798748,20.075047796581263,52.567760217384645,0.9871966833038978,0.0282973160169022,1.7338541437105162,5571.893717447917,11.949,0.11,179.00524259785732,-8.826818242721206,105.37329211223502,1553.0,1435.0,1200.0,1604.0,1471.0,988.0,161.0,292.25,1649323042.5234568,1649323043.6652462,827e55db-010f-4ce1-8540-e1bcbec3a999
-0.0775202709215264,0.1165413392500455,-0.2780510554445234,-0.0600850990181261,-0.3847395941847584,0.3322588399288616,-0.5164106686295129,-0.5386977150346672,-16.67719701300543,19.95352676957948,52.35938637125918,1.0005480059632492,0.0811872652911034,1.705873108334654,5573.904893663194,11.947888888888889,0.11,178.99117544380675,-8.827224164658126,105.36489629192528,1553.0,1435.0,1200.0,1604.0,1471.0,988.0,161.0,292.25,1649323043.7789671,1649323044.896027,827e55db-010f-4ce1-8540-e1bcbec3a999
-0.058759609173295,0.1040440094201526,-0.2849298474025955,-0.0471659987835474,-0.3868828320771503,0.3346392595081611,-0.5240591661918891,-0.5392054572195882,-16.955359339263367,20.0524076477008,52.59242422121568,0.9769649047883106,0.0321930165623178,1.7277533261688105,5573.09912109375,11.950666666666669,0.11,178.9838914265119,-8.832628741566378,105.3263049642048,1553.0,1435.0,1200.0,1604.0,1471.0,988.0,161.0,292.25,1649323045.026307,1649323046.1213236,827e55db-010f-4ce1-8540-e1bcbec3a999
-0.1393059982670626,0.0755700023050959,-0.4718891718217648,-0.0120923562837531,-0.55669828529878,0.3397535962649121,-0.7262376343643454,-0.750773112027137,-18.38989374935452,20.617291901172138,52.44735571790741,0.9030300849240324,-0.0793237620567818,2.497175832896446,5569.47802734375,11.943555555555555,0.1011111111111111,179.01731989012973,-8.843674770137843,105.28738806413388,1553.0,1435.0,1200.0,1676.0,1471.0,988.0,161.0,292.25,1649323047.02688,1649323048.1661425,0256e5b6-16bf-4a77-92d4-0b7eb74c2c5c
-0.1346908055566685,0.0741367944149298,-0.4683653202867678,-0.0122895867015842,-0.553384812808314,0.3409764249316089,-0.7219117114347262,-0.7568083675218021,-18.338249056860096,20.627416721071,52.42557865898918,0.9064879558821496,-0.084623833548766,2.481526272230274,5563.052029079861,11.934333333333337,0.1022222222222222,179.04507018981758,-8.847862624736443,105.20335624677524,1553.0,1435.0,1200.0,1676.0,1471.0,988.0,161.0,292.25,1649323048.2742665,1649323049.3986156,0256e5b6-16bf-4a77-92d4-0b7eb74c2c5c
-0.1329814749457701,0.0799879641932702,-0.4739929637248465,-0.0081740446806796,-0.5579737092409054,0.3365058685232891,-0.7301427987461192,-0.7477094643675237,-18.50142057149521,20.56405755437309,53.091681274019045,0.8864821738099787,-0.068291700628744,2.508762377679897,5565.46630859375,11.934222222222225,0.1,179.04211044117724,-8.86577498556228,105.14739043562602,1553.0,1435.0,1200.0,1676.0,1471.0,988.0,161.0,292.25,1649323049.5074005,1649323050.576723,0256e5b6-16bf-4a77-92d4-0b7eb74c2c5c
-0.1998031548172629,0.0578061137490824,-0.668080928049138,0.0467743575529819,-0.7342451935478342,0.3203987167258878,-0.946636190083186,-0.9702512629797152,-19.900796800316268,21.19638221508892,53.32415812817715,0.7201972395885033,-0.1627018644089475,3.31854177145133,5585.609049479167,11.924444444444443,0.1,179.10515156939664,-8.871982109698006,105.04057690174577,1553.0,1435.0,1200.0,1747.0,1471.0,988.0,161.0,292.25,1649323052.5573342,1649323053.7044497,60ab490f-08a1-4abc-8da2-49928f74ff4e
-0.2061539758079947,0.0524677430784752,-0.6691065268372259,0.0443418487551078,-0.7353365359011039,0.3220028575568732,-0.9478721683910062,-0.9725785845710024,-19.97236067989982,21.31878619070029,52.4809014136552,0.7298790214439055,-0.1745071732978636,3.321229098672091,5586.41796875,11.923333333333334,0.1,179.0988480637026,-8.870368098051635,104.98090685133668,1553.0,1435.0,1200.0,1747.0,1471.0,988.0,161.0,292.25,1649323053.8208218,1649323054.9234288,60ab490f-08a1-4abc-8da2-49928f74ff4e
-0.1934128877975022,0.0603701094923944,-0.6678048054514174,0.0472477106206651,-0.7347842904180695,0.3090382439078485,-0.9480956963954102,-0.9720394873310912,-19.783438387824813,21.15483500459676,52.12432114806018,0.6932071136094962,-0.1433233103929045,3.3196989345769765,5582.779296875,11.926,0.1,179.1025910073678,-8.892236087044294,104.90616409124924,1553.0,1435.0,1200.0,1747.0,1471.0,988.0,161.0,292.25,1649323055.03139,1649323056.151799,60ab490f-08a1-4abc-8da2-49928f74ff4e
-0.0187572281803541,0.1284196689368278,-0.1420262615176926,-0.0318427100845794,-0.2303880370744893,0.3080763662654708,-0.3483217445553483,-0.370623960374644,-15.367755310966183,16.89548944446551,55.47205871306328,0.8701551940090971,0.0939769223957129,1.0791469878573106,8003.19873046875,11.672666666666666,6.97,-179.3030160783727,-8.916607909550192,92.86412621970712,1553.0,1435.0,1350.0,1528.0,1471.0,988.0,161.0,292.25,1649323061.0101264,1649323062.1946995,34273300-2a75-4c93-9690-d7788c0df453
-0.0347126657722193,0.1264726504987024,-0.1444537133635225,-0.0367734714063202,-0.2333844230724909,0.3081775100773489,-0.3495354706016807,-0.3725077641869211,-15.27862358792935,16.876679238321394,54.556060896999874,0.881158352423474,0.0946149083290665,1.08676444030908,8003.19873046875,11.671555555555557,6.954444444444444,-178.88444994347574,-8.79849050745727,87.80402534878773,1553.0,1435.0,1350.0,1528.0,1471.0,988.0,161.0,292.25,1649323062.302707,1649323063.4272816,34273300-2a75-4c93-9690-d7788c0df453
-0.0112220136049072,0.1200373752617975,-0.1483603935441544,-0.0344218774775769,-0.2353187987438468,0.3092648060534542,-0.3522537111716323,-0.3745306408843537,-15.307222904075015,16.847491839856517,54.09736831212305,0.8778215041007414,0.0742088240753813,1.0971815438520425,7995.7333984375,11.664666666666667,6.986666666666666,-178.7259060746416,-8.675735312054169,83.44351950507534,1553.0,1435.0,1350.0,1528.0,1471.0,988.0,161.0,292.25,1649323063.536311,1649323064.6522725,34273300-2a75-4c93-9690-d7788c0df453
0.1905947943531654,0.5144077141074215,-0.1062501738678486,-0.2464810318726472,-0.2892143001129797,0.120183528043351,-0.3866724527582058,-0.3989007427896783,-14.393510968392563,15.66327675431693,54.42902634043822,0.9260434338453442,1.57268936538439,1.209645530830437,7995.7333984375,11.640777777777778,7.04,-178.92096261695886,-8.53370797899797,77.8748032852416,1637.0,1435.0,1350.0,1528.0,1535.0,988.0,161.0,292.25,1649323065.5622463,1649323066.6986878,56cd0adc-47e7-423e-8eca-df09ad6574e9
0.2035857057214222,0.5217315372390311,-0.1021346316742113,-0.2430360729795017,-0.2888987313535285,0.1173171123279759,-0.3885658653906318,-0.4120888878897577,-14.49188864392578,16.03910072547899,55.49655286745437,0.9146481898816032,1.5912361162854003,1.2085005920034444,8000.710286458333,11.640666666666666,7.036666666666666,-178.97629170269536,-8.471223795787138,74.95648581349812,1637.0,1435.0,1350.0,1528.0,1535.0,988.0,161.0,292.25,1649323066.8075848,1649323067.929858,56cd0adc-47e7-423e-8eca-df09ad6574e9
0.1987075396082315,0.5190755008466794,-0.1046723302204724,-0.2494394888254225,-0.2902136011551877,0.1206437324203647,-0.3847790401585189,-0.3990716760642566,-14.192331210322044,15.693290061943197,54.7690717755584,0.9341841304844132,1.586223473916557,1.2073068628714478,8003.19873046875,11.646,7.026666666666666,-179.15189131279695,-8.459557263502326,72.21717469843227,1637.0,1435.0,1350.0,1528.0,1535.0,988.0,161.0,292.25,1649323068.0377638,1649323069.1589992,56cd0adc-47e7-423e-8eca-df09ad6574e9
0.4069828750708755,0.881558724792585,-0.061597199198051,-0.4597134762537997,-0.3444914276917594,-0.0456872760857259,-0.4196362408833738,-0.4382416503378137,-13.590632321375477,15.530829950972354,54.11898094440084,1.0360098816130392,2.9758762204290234,1.3137356752443945,8003.19873046875,11.608888888888888,7.024444444444445,-179.88372331506662,-8.403150905151684,67.45300695150182,1723.0,1435.0,1350.0,1528.0,1599.0,988.0,161.0,292.25,1649323071.0935624,1649323072.2295582,ad90e6fc-f599-4bf7-afb7-83fe3ad8f3b0
0.4139516835326667,0.8781006179748547,-0.058217984189388,-0.4646310899018838,-0.342045769893491,-0.0376797197803413,-0.4136798803030695,-0.4461045734149562,-13.505551753589156,15.5821457859612,54.16674206055952,1.0656557433915177,2.962701290432016,1.2969620219345983,8003.19873046875,11.61588888888889,7.04,179.9059654466438,-8.384720872905005,65.88667230226883,1723.0,1435.0,1350.0,1528.0,1599.0,988.0,161.0,292.25,1649323072.3388717,1649323073.453348,ad90e6fc-f599-4bf7-afb7-83fe3ad8f3b0
0.4061545072964176,0.8757601502392993,-0.0637141394275751,-0.4567287216888114,-0.3450568218187329,-0.042926049782912,-0.4207670290308724,-0.4474720371817539,-13.624216964119082,15.546692913225804,54.08205311156133,1.0354588066100512,2.9541916137770623,1.3182438484584489,8003.19873046875,11.6124,7.048,179.68845822430671,-8.410086203343926,64.52988148192861,1723.0,1435.0,1350.0,1528.0,1599.0,988.0,161.0,292.25,1649323073.562685,1649323074.6864555,ad90e6fc-f599-4bf7-afb7-83fe3ad8f3b0
0.5439659805180941,1.1229556233904976,-0.0109878657849896,-0.6110024178888771,-0.368500951318162,-0.1616719323014604,-0.4236860401958426,-0.4532180185738343,-12.729975684185838,16.003076039158188,51.62105034412914,1.1223332902487797,3.919152215794898,1.307984955873274,7995.7333984375,11.539666666666667,7.02,179.089809446701,-8.386065281806635,62.0735309884521,1813.0,1435.0,1350.0,1528.0,1662.0,988.0,161.0,292.25,1649323076.6212428,1649323077.7580128,ecf8dafe-6c78-4951-8e99-0c925267ab11
0.5669498993761725,1.1383921921884892,-0.0007976260015144,-0.6150653663118106,-0.3619923455168288,-0.1753334288639976,-0.4180058022741212,-0.4375447691875442,-12.701877014744491,15.981653695268635,51.35862945863999,1.10113680692476,3.9803215678245056,1.2786326552370757,7995.7333984375,11.541555555555554,7.015555555555555,178.90131140380677,-8.401478552306154,61.10805339287448,1813.0,1435.0,1350.0,1528.0,1662.0,988.0,161.0,292.25,1649323077.8662798,1649323079.190932,ecf8dafe-6c78-4951-8e99-0c925267ab11
0.5529991339844823,1.1218248355603506,-0.0103304309628273,-0.603915268186402,-0.3642670703255991,-0.1691009462755222,-0.4247773823111345,-0.4439350371623843,-12.981293198208649,15.865887684066124,51.33668567828085,1.088603892019831,3.9183769257764887,1.3022807358324164,7995.7333984375,11.5425,7.01,178.69312344335523,-8.403964219413478,60.24436466456875,1813.0,1435.0,1350.0,1528.0,1662.0,988.0,161.0,292.25,1649323079.298703,1649323080.625539,ecf8dafe-6c78-4951-8e99-0c925267ab11
-0.2712400296997326,-0.3342880375322546,-0.1975284302810745,0.1831789298073213,-0.1771216518448958,0.5468060986358243,-0.3053740500286798,-0.3195351984073908,-16.149207993335633,18.07937410080626,53.04925198611039,0.9258815435467244,-1.6444263257368812,0.9625515624972226,7995.7333984375,11.646,7.071111111111112,179.3777975428654,-8.473189182720809,59.2977026464437,1470.0,1435.0,1350.0,1528.0,1403.0,988.0,161.0,292.25,1649323081.549184,1649323082.6819584,df3e90f0-5c48-4a6e-afe3-ffe8ac4d0eb7
-0.2875707126565723,-0.3318818257133079,-0.1945173785196668,0.1919096637860062,-0.1748863732517478,0.5400345207060173,-0.3065705815299896,-0.3310797553432802,-16.20143237494616,18.262506162407863,53.56942166395768,0.8923910714371653,-1.6405231376470537,0.9580959178322368,8009.016872829861,11.653777777777778,7.067777777777778,179.1985399870083,-8.525056880367979,58.77414891490462,1470.0,1435.0,1350.0,1528.0,1403.0,988.0,161.0,292.25,1649323082.7944305,1649323083.9028175,df3e90f0-5c48-4a6e-afe3-ffe8ac4d0eb7
-0.295696608094478,-0.3373516842573314,-0.2018017569658206,0.1901214411609016,-0.179185997325441,0.5472005594887994,-0.3084113993044124,-0.3331572496283752,-16.103406706250734,17.9839422618596,53.55984935203927,0.9103663801084309,-1.661893741791418,0.9759943490494132,8009.848036024306,11.656222222222222,7.059999999999999,179.03632754767995,-8.52645725887531,58.36636537197744,1470.0,1435.0,1350.0,1528.0,1403.0,988.0,161.0,292.25,1649323084.0110428,1649323085.1315975,df3e90f0-5c48-4a6e-afe3-ffe8ac4d0eb7
-0.5238002377122442,-0.7556907260294946,-0.2450478236182858,0.4001981483145789,-0.1246452010367459,0.7564488913487746,-0.2731465909435238,-0.3064127980862395,-17.34877024832182,19.6407157092876,52.49239806319931,0.9147262825946127,-3.241222736953598,0.858613864716801,8004.861056857639,11.600222222222222,7.035555555555555,178.90329064084628,-8.580490411080588,57.517369063595325,1385.0,1435.0,1350.0,1528.0,1331.0,988.0,161.0,292.25,1649323087.0709703,1649323088.2028935,0570326b-6597-40b9-bdef-4b5a15029138
-0.5258645835989829,-0.7663280258987065,-0.2475986710089152,0.4071801054401847,-0.1255393124749222,0.7660868847830494,-0.2741195946014343,-0.3065311358219105,-17.37347121109887,19.808449985307224,53.27888901368831,0.9217324090224568,-3.28893339481894,0.8644913774642827,8033.201171875,11.604,7.01,178.81174333867088,-8.547524977370212,57.21111248813085,1385.0,1435.0,1350.0,1528.0,1331.0,988.0,161.0,292.25,1649323088.31086,1649323089.6332643,0570326b-6597-40b9-bdef-4b5a15029138
-0.5283759852799457,-0.7629882556168791,-0.2454159872068983,0.4089157332195618,-0.1242901862935489,0.7594073477253168,-0.2735804980054757,-0.2899506272451258,-17.303865165089636,19.81513526146327,53.031914428955446,0.9029561156666264,-3.2747861597046404,0.8591641537164745,8045.770670572917,11.597333333333331,7.016666666666667,178.7211841371954,-8.560002310027748,56.95569870248308,1385.0,1435.0,1350.0,1528.0,1331.0,988.0,161.0,292.25,1649323089.7414792,1649323090.8671389,0570326b-6597-40b9-bdef-4b5a15029138
-0.7831715134853332,-1.209715489311603,-0.3061498233366763,0.6312864638994673,-0.082976980301816,0.9708909600857284,-0.2533315031934265,-0.2814828659052294,-18.41769793958698,21.71396931364505,49.809924037018334,0.8850633249482105,-4.945041634760608,0.798643869402749,8046.609483506944,11.54022222222222,6.983333333333333,178.8012688641237,-8.552302125512206,56.65917628495073,1297.0,1435.0,1350.0,1528.0,1253.0,988.0,161.0,292.25,1649323091.478325,1649323092.712148,5bf0d550-8e38-47ef-a23e-1b44f218f20d
-0.7679584650521518,-1.1921225193535094,-0.2974322364419597,0.6294587952967597,-0.0781777059877935,0.9579394952158768,-0.2505176818570342,-0.2716344911681507,-18.459281732947662,21.757546781378064,50.22388942165159,0.8608504408430988,-4.881653533180902,0.7788673938523213,8033.201171875,11.525333333333332,6.98,178.7802561665971,-8.553602138184232,56.44243616874844,1297.0,1435.0,1350.0,1528.0,1253.0,988.0,161.0,292.25,1649323092.8252742,1649323093.9337227,5bf0d550-8e38-47ef-a23e-1b44f218f20d
-0.779305795006019,-1.2062442306207353,-0.3041249237844169,0.625369551161645,-0.0818198949778508,0.9720348965648172,-0.2525688787035107,-0.2799576167236777,-18.59123143868248,21.751362303975515,49.69278258628155,0.9012236922037542,-4.92889835439476,0.7932881236016417,8025.68017578125,11.530333333333331,6.986666666666667,178.76566232907055,-8.521227610700803,56.27536063473104,1297.0,1435.0,1350.0,1528.0,1253.0,988.0,161.0,292.25,1649323094.042122,1649323095.1670291,5bf0d550-8e38-47ef-a23e-1b44f218f20d
-0.0103567282348723,0.1330429527165769,-0.1396215671290648,-0.033485285809388,-0.2291641967979394,0.3009123501500914,-0.3455301747611436,-0.3737078364594407,-15.146450347708942,16.762466547672876,54.90336166283113,0.8570206001997931,0.115143478033951,1.070179886882083,8030.380798339844,11.657625,7.05,178.3214382091015,-8.511870749572513,56.08608983182324,1553.0,1435.0,1350.0,1528.0,1471.0,988.0,161.0,292.25,1649323096.0768845,1649323097.422704,fe4d265d-9dfd-4eb5-a152-4f02ffd5de2e
-0.002059900745898,0.1429965155271382,-0.1367945972189475,-0.032564876930866,-0.2266659442021457,0.2941933667885656,-0.3454907286538745,-0.361597884586165,-15.265616742934288,16.669047661178773,55.46757856446026,0.8393973637757539,0.148382489037232,1.0648307779795514,8033.201171875,11.669444444444444,7.04,178.3028244257934,-8.535516651035685,56.12040185630124,1553.0,1435.0,1350.0,1528.0,1471.0,988.0,161.0,292.25,1649323097.5354004,1649323098.6580384,fe4d265d-9dfd-4eb5-a152-4f02ffd5de2e
-0.0183642844403266,0.1363432753918603,-0.1459855365394328,-0.0328278509312272,-0.2333586313246634,0.2987296667122088,-0.3522228622745625,-0.3694213602600116,-15.307038404458332,16.574241869581996,55.09157877422723,0.8490173267023556,0.1265025557262364,1.0947321254475395,8033.201171875,11.670666666666667,7.043333333333333,178.31233204911806,-8.525120439072756,56.15285284395787,1553.0,1435.0,1350.0,1528.0,1471.0,988.0,161.0,292.25,1649323098.7891188,1649323099.875,fe4d265d-9dfd-4eb5-a152-4f02ffd5de2e
-0.0206258602371887,0.1224976985638939,-0.1879693272131821,-0.4986862215915149,-0.3179573544368825,0.7634439970880283,-0.2617598185440921,-0.2864136273147443,-15.294980891892669,15.441961381795531,58.44095427156036,2.9350982676216546,0.0994788393912923,1.1378242076694414,8025.68017578125,11.644222222222222,7.04,178.35316747343586,-8.384568996059711,56.220361674804366,1553.0,1522.0,1350.0,1528.0,1471.0,988.0,161.0,292.25,1649323101.5008042,1649323102.5392275,e1432b39-7a16-4396-b39d-6135695a3253
0.0050403953339569,0.1287170317400587,-0.1988695974137641,-0.5006322291476455,-0.3304880638886495,0.759157522518527,-0.2765126576455011,-0.2909367794705196,-15.39912306546104,15.558471077869363,58.34359217851236,2.9300173567673005,0.123955682706301,1.191232164205264,8025.68017578125,11.644666666666666,7.053333333333333,178.36978001131715,-8.384768684229195,56.21525155494033,1553.0,1522.0,1350.0,1528.0,1471.0,988.0,161.0,292.25,1649323102.6479962,1649323103.772761,e1432b39-7a16-4396-b39d-6135695a3253
-0.0129075753593345,0.1310049048369715,-0.1854053312664488,-0.4995540357405755,-0.3171289865261403,0.7560544304982667,-0.2624435508985,-0.2902924933119698,-15.337810292915048,15.461615208366757,58.469050754041376,2.9206913779113948,0.1317098762931137,1.135197794552243,8025.68017578125,11.646,7.04,178.35369719255152,-8.38069333802442,56.25317162684738,1553.0,1522.0,1350.0,1528.0,1471.0,988.0,161.0,292.25,1649323103.8810844,1649323104.990679,e1432b39-7a16-4396-b39d-6135695a3253
0.0147178359314131,0.1263371177862069,-0.2304264717492319,-1.003464890177764,-0.4152051295341817,1.2426219049195115,-0.1698767194662852,-0.1806323545517213,-14.910346865959504,14.54094166653628,61.21415089705879,5.143080639909767,0.1460201001089285,1.1979197511946689,8031.529839409723,11.627666666666666,7.0377777777777775,178.52178359456605,-8.27664992017126,56.30147358629286,1553.0,1613.0,1350.0,1528.0,1471.0,988.0,161.0,292.25,1649323107.111458,1649323108.0699494,7679092b-bf0f-43e9-aff0-e60b952b8c45
0.014218185440381,0.117014692342533,-0.2295455090389523,-0.99859986955986,-0.4132854195532253,1.2438184362774478,-0.1688642697904964,-0.1967263599020171,-14.922585496960792,14.687722711824836,60.72846319073372,5.135728424357916,0.1149059460967614,1.190823497434861,8022.343153211806,11.627333333333333,7.054444444444444,178.52672258024586,-8.294165655706545,56.31386089326258,1553.0,1613.0,1350.0,1528.0,1471.0,988.0,161.0,292.25,1649323108.178518,1649323109.2995713,7679092b-bf0f-43e9-aff0-e60b952b8c45
0.0089455581903331,0.1140825331358426,-0.2335690105034083,-0.987134199190738,-0.4120888878800061,1.2371257499472177,-0.1753991723770813,-0.1896918069201858,-15.306776299847522,14.561561331998435,60.83239172882567,5.093611813708441,0.1040377807944907,1.2036579899504294,8010.67919921875,11.623333333333331,7.050000000000001,178.5440697429179,-8.289432998657894,56.374675000357605,1553.0,1613.0,1350.0,1528.0,1471.0,988.0,161.0,292.25,1649323109.4068787,1649323110.5319912,7679092b-bf0f-43e9-aff0-e60b952b8c45
0.0323502377561761,0.1117289165521392,-0.2787084903566728,-1.4392656460582538,-0.5072723223282436,1.6745040141856615,-0.1015560889577714,-0.1232908855903709,-15.082978546214145,14.081966747648964,63.60858511819846,7.091485204645135,0.1218182927455572,1.289714330733112,8018.171875,11.570333333333334,7.029999999999999,178.61239288409544,-8.159734441644785,56.42150619240179,1553.0,1710.0,1350.0,1528.0,1471.0,988.0,161.0,292.25,1649323111.6423872,1649323112.575925,d59a1a6e-9eaa-4e74-8bbe-1f79fb8f0da1
0.0268409339758522,0.1241412855597636,-0.2764337656007363,-1.443801951159951,-0.5079955008267716,1.6645110032895507,-0.0996626766222812,-0.1161642917025673,-14.770357625486575,13.89769774773033,63.33985218067486,7.078268620248779,0.1692409389923349,1.2862801598366531,8010.67919921875,11.562444444444443,7.02,178.640548441674,-8.14419595101048,56.39640221156237,1553.0,1710.0,1350.0,1528.0,1471.0,988.0,161.0,292.25,1649323112.6857443,1649323114.0066743,d59a1a6e-9eaa-4e74-8bbe-1f79fb8f0da1
0.0426719643826384,0.1169620975582722,-0.2625092943886916,-1.427103088952554,-0.4918357488650822,1.6623809141310806,-0.0907084139675334,-0.1082487759319123,-15.162168137294934,14.229161302643782,64.3086194999687,7.038661340936215,0.1353339685218296,1.2327744986191231,8010.67919921875,11.566,7.03,178.6542511292414,-8.134852951845975,56.427630453061965,1553.0,1710.0,1350.0,1528.0,1471.0,988.0,161.0,292.25,1649323114.1155374,1649323115.080248,d59a1a6e-9eaa-4e74-8bbe-1f79fb8f0da1
0.0524940404542737,0.1321751387862975,-0.276801929219142,-1.6520118071642735,-0.5452194702440097,1.8617940874995496,-0.0614657122667628,-0.0949554432196125,-14.85684810939777,15.089874217396645,65.37910243065437,7.999426756520104,0.2075430767119865,1.2845709609658824,8010.67919921875,11.52,7.01,178.7156425770488,-8.074449569164635,56.52148080964813,1553.0,1814.0,1350.0,1528.0,1471.0,988.0,161.0,292.25,1649323117.171786,1649323118.3072052,dc85ba85-1734-43c0-bfae-6e8e01dee02b
0.0423563956657111,0.1358436249458237,-0.285572110749266,-1.6719452603871496,-0.5541868837505207,1.875232060394599,-0.0686580493352635,-0.0931672205280576,-15.243308182416376,15.012696983318206,65.13269927144528,8.0734065366862,0.2281182077358307,1.318662973696798,8010.67919921875,11.5265,7.01,178.7533943986293,-8.084545897877506,56.50372687126556,1553.0,1814.0,1350.0,1528.0,1471.0,988.0,161.0,292.25,1649323118.4149065,1649323119.5486753,dc85ba85-1734-43c0-bfae-6e8e01dee02b
0.0620693256710621,0.1392294141379704,-0.2914789104142753,-1.6767708324559516,-0.5593836543515335,1.8793961499690803,-0.073134674881249,-0.0978769824393032,-15.31333744159928,14.859100941170617,65.5265810305032,8.092364320449526,0.2380387282553383,1.3411035129875697,8010.67919921875,11.5274,7.022,178.75414298736231,-8.067183557007334,56.54340344015416,1553.0,1814.0,1350.0,1528.0,1471.0,988.0,161.0,292.25,1649323119.6684124,1649323120.7676923,dc85ba85-1734-43c0-bfae-6e8e01dee02b
-0.0347607091287437,0.1361460449554412,-0.1076044896839703,0.4072984436974313,-0.1561363309113768,-0.1347434003544241,-0.4405558211970433,-0.4681286441521895,-15.394335587378592,18.12040123884673,50.84921184605364,-1.1064310262374435,0.112251088972083,1.060158378570482,8010.67919921875,11.667599999999998,7.080000000000001,178.79609400924454,-8.775841296605543,56.65563027840663,1553.0,1349.0,1350.0,1528.0,1471.0,988.0,161.0,292.25,1649323122.4952438,1649323123.6311045,9e89b80e-473a-4028-b656-9a225e50569f
-0.0295801226632206,0.147467072111163,-0.09933395922442,0.4006189065466736,-0.1506270266701931,-0.1384381842510955,-0.4338368358844437,-0.4656829864657903,-15.387406542517688,18.07201475557589,51.08460584367028,-1.0995342312463765,0.153922371713303,1.0334824456518188,8010.67919921875,11.666900000000002,7.090000000000001,178.79539186579785,-8.802631689096543,56.846678182699975,1553.0,1349.0,1350.0,1528.0,1471.0,988.0,161.0,292.25,1649323123.7392056,1649323124.8619578,9e89b80e-473a-4028-b656-9a225e50569f
-0.039665172956508,0.1399986128516644,-0.1029761483035303,0.3986991970359883,-0.1539273497191131,-0.1316271590914561,-0.435401531117127,-0.4582013760981359,-15.35262075670874,18.15236708406853,50.74027426505759,-1.079584623537552,0.1287235302450446,1.043755284791216,8009.18310546875,11.6596,7.078,178.8081697836971,-8.792895595944149,57.02572885971618,1553.0,1349.0,1350.0,1528.0,1471.0,988.0,161.0,292.25,1649323124.9707634,1649323126.0881317,9e89b80e-473a-4028-b656-9a225e50569f
-0.0547598767683948,0.1493736330292143,-0.0673037335961846,0.7955399616479402,-0.086698061486926,-0.5217621892491551,-0.5188563266277227,-0.5423530535900739,-15.569147688195445,19.826967537477504,48.33217843062723,-2.839061148128004,0.1401912218077553,1.022761781562305,8003.19873046875,11.658600000000002,7.079000000000001,178.83509302336748,-8.935383075050181,57.33844838784631,1553.0,1264.0,1350.0,1528.0,1471.0,988.0,161.0,292.25,1649323128.0266068,1649323129.1642978,46ef55c3-f6db-43f0-932f-d56c5996b575
-0.0489476049678658,0.1487348255425151,-0.0687117399863906,0.8115523328870506,-0.0847367143040089,-0.5277793629562696,-0.5239854153726194,-0.5485570493385697,-15.829844711885968,19.853491829220328,49.45913039241972,-2.888548389502174,0.1275920320927988,1.030771723811889,8009.18310546875,11.659200000000002,7.056,178.84695432988013,-8.963534894997494,57.519988668815,1553.0,1264.0,1350.0,1528.0,1471.0,988.0,161.0,292.25,1649323129.2726622,1649323130.3912451,46ef55c3-f6db-43f0-932f-d56c5996b575
-0.0391918199117204,0.160076671450638,-0.0700649599079556,0.8011150083377278,-0.0886440686267776,-0.5272977918472518,-0.5240632117186644,-0.540288708033059,-15.673748956675007,19.67152762133236,49.73677846892005,-2.8650729985956294,0.1677614398845012,1.0399053250084942,8028.69169921875,11.646,7.042,178.84348732585744,-8.960783694799813,57.7033136782138,1553.0,1264.0,1350.0,1528.0,1471.0,988.0,161.0,292.25,1649323130.4989483,1649323131.6256237,46ef55c3-f6db-43f0-932f-d56c5996b575
-0.0677376404858696,0.1569472818369685,-0.0282126582815479,1.2339306169603608,-0.0133677798612623,-0.9394175514483332,-0.6157096523429477,-0.6390091510896037,-16.36238868371157,22.151391070969183,47.15610782282276,-4.749721836071797,0.1331771719306292,1.0090891468933287,8055.8515625,11.6262,7.018000000000001,178.8998500468884,-9.122694182848612,58.03203292447469,1553.0,1178.0,1350.0,1528.0,1471.0,988.0,161.0,292.25,1649323133.5550137,1649323134.8987234,8dbbfc96-5cfe-4718-b001-68a6b511d151
-0.0440831350500392,0.1648364993271142,-0.0238078449844403,1.228158339412914,-0.0099359701421302,-0.9413767082760424,-0.6104370234565312,-0.6309358482453967,-16.29619476824695,21.963047544975005,47.25997812431141,-4.7420828229605725,0.1623641684078959,0.9920776273594418,8055.8515625,11.620099999999995,7.011,178.88007528320335,-9.125138109911006,58.19124736610335,1553.0,1178.0,1350.0,1528.0,1471.0,988.0,161.0,292.25,1649323135.0074627,1649323136.1314857,8dbbfc96-5cfe-4718-b001-68a6b511d151
-0.05984842243306,0.1617991506075944,-0.0250964172683006,1.2204926495396144,-0.0112508398028586,-0.933461188539686,-0.608017662549127,-0.6248085540658441,-16.22015401606169,21.881296166724777,46.963794481866834,-4.70761871343393,0.1539198698545565,0.9914145943065736,8055.8515625,11.6214,7.013,178.90189363948804,-9.153421154867749,58.313115699388206,1553.0,1178.0,1350.0,1528.0,1471.0,988.0,161.0,292.25,1649323136.2396529,1649323137.2900698,8dbbfc96-5cfe-4718-b001-68a6b511d151
-0.0752455463840104,0.1500310678115036,0.0147441332480424,1.451002449089107,0.0402394554510162,-1.1481926907448716,-0.6439662103382812,-0.6671342216047325,-16.579589726977236,24.04123698399944,44.96578493993355,-5.694319825856385,0.1042163296916706,0.914800301356686,8025.68017578125,11.595333333333334,7.035555555555556,178.94489408199075,-9.243912471851973,58.48105259615095,1553.0,1088.0,1350.0,1528.0,1471.0,988.0,161.0,292.25,1649323139.085542,1649323140.234896,a12f6c70-679b-4bfa-835c-a796ed723606
-0.0705514616171557,0.1607998497100309,0.0041725812188062,1.4403783019334364,0.0275378147152394,-1.1486923416677857,-0.652039512918719,-0.6759044055813273,-16.28974119081933,23.766280296224444,44.93398289150595,-5.673685416017936,0.1434694100439157,0.9594858085843117,8018.171875,11.594666666666669,7.031111111111112,178.96358755083915,-9.24164048531556,58.54707548139801,1553.0,1088.0,1350.0,1528.0,1471.0,988.0,161.0,292.25,1649323140.3515809,1649323141.4478614,a12f6c70-679b-4bfa-835c-a796ed723606
-0.0733389853428848,0.1534365800488419,0.0058424657161079,1.4363153545569765,0.0306277584325216,-1.1410266459150882,-0.6470298577218375,-0.6604415336017361,-16.327145084612695,23.71988232431438,44.49297466431975,-5.647608116358988,0.120631363018954,0.944312576807752,8018.171875,11.5942,7.031999999999999,179.01306453049483,-9.27233047944944,58.586380639777744,1553.0,1088.0,1350.0,1528.0,1471.0,988.0,161.0,292.25,1649323141.5572977,1649323142.6901646,a12f6c70-679b-4bfa-835c-a796ed723606
-0.0006924363070531,0.1433778276965157,-0.1471031758980647,-0.0764815241197383,-0.2413398910154749,0.3287349895737849,-0.3455170261116789,-0.3673570146132255,-15.241758100759007,16.556896101245375,54.64408630233201,1.0147061744334671,0.1616940353694755,1.0974687177910318,8014.00927734375,11.670333333333335,7.065555555555555,179.05127655504344,-8.795519375168315,58.641586326763296,1553.0,1435.0,1350.0,1528.0,1471.0,988.0,161.0,292.25,1649323143.590392,1649323144.7352865,9d36d1fc-e6a0-4ac8-a253-9407ca23d03b
-0.009620401236505,0.1439826677085387,-0.1480104359367179,-0.0730628629535662,-0.2412215526447458,0.3304574686622824,-0.3452672008149693,-0.369040048359214,-15.198621874677253,16.462723474624646,55.41862208864077,1.010340874868454,0.1563125315003752,1.099452925635368,8025.68017578125,11.67325,7.05,179.03862002478388,-8.764368008870779,58.63970375587331,1553.0,1435.0,1350.0,1528.0,1471.0,988.0,161.0,292.25,1649323144.8524487,1649323145.9536884,9d36d1fc-e6a0-4ac8-a253-9407ca23d03b
-0.020805390523056,0.137484683344932,-0.1479684613190096,-0.0685073451823059,-0.2409828532478299,0.3273189762236436,-0.348030956096411,-0.3640116821807658,-15.327393299158418,16.707220863732616,54.65142439419462,0.994447908100657,0.139098131430487,1.1009868135461478,8029.022840711806,11.66777777777778,7.066666666666666,179.02693072520185,-8.779434374536672,58.61086868933603,1553.0,1435.0,1350.0,1528.0,1471.0,988.0,161.0,292.25,1649323146.0617497,1649323147.1857636,9d36d1fc-e6a0-4ac8-a253-9407ca23d03b
