raw_voltage_G-,raw_voltage_G0,raw_voltage_G1,raw_voltage_G2,raw_voltage_G3,raw_voltage_G4,raw_voltage_G5,raw_voltage_G6,load_x,load_y,load_z,load_l,load_m,load_n,rpm,voltage,current,roll,pitch,yaw,aileron1_pwm,elevator_pwm,throttle_pwm,rudder_pwm,aileron2_pwm,pbaro,pdiff,Tt,sample_start_time,sample_end_time,uid
0.1810225438615322,0.3833678184877168,0.1772225706972196,-0.198527731267035,-0.0317891037988318,0.1803519603709387,-0.062925217605384,-0.0894329904783162,-9.724082587128263,18.40953089746192,53.28778895195446,0.9875678897029916,1.0703889346085895,-0.0032351951379709,5608.10419921875,11.9576,0.106,-179.98719977030038,-9.523197180493757,109.48612512725003,1553.0,1435.0,1200.0,1528.0,1471.0,988.0,161.0,292.25,1649323571.1714642,1649323572.368829,e187f9ab-73e6-4fcb-a50c-7b5289b3e75d
0.2113434361805752,0.3844460115052961,0.1819561011809991,-0.1991720174019599,-0.0281337661181346,0.1783928047055141,-0.0590857981457967,-0.072918227207075,-9.706605584405793,18.47192336392209,53.10739225589532,0.9852481036172068,1.0762884315379406,-0.020275741805245,5616.92431640625,11.958222222222222,0.1122222222222222,-179.97764752307316,-9.504734913548742,108.84979996370863,1553.0,1435.0,1200.0,1528.0,1471.0,988.0,161.0,292.25,1649323572.4773948,1649323573.5921743,e187f9ab-73e6-4fcb-a50c-7b5289b3e75d
0.2089372248679026,0.3872203861954534,0.1734488950227802,-0.2019332439311735,-0.036101876264246,0.1786689273161849,-0.067855978891608,-0.0813465421388136,-9.79532098611086,18.39252154908399,53.10653999205943,0.9911024793137518,1.087128790806127,0.0149410734559047,5620.60791015625,11.958666666666668,0.11,179.990667381451,-9.477414915778596,108.42412208406591,1553.0,1435.0,1200.0,1528.0,1471.0,988.0,161.0,292.25,1649323573.7063196,1649323574.729968,e187f9ab-73e6-4fcb-a50c-7b5289b3e75d
0.4135966687613535,0.7738314661411378,0.2100154178528138,-0.3727742782578485,-0.0918917967376967,-0.0451087333760863,-0.1202535361981814,-0.1403841918761117,-8.982487639429724,17.594285961371735,52.72645307185096,0.8704974537173914,2.5581098373551416,0.161329719291682,5613.24560546875,11.934666666666669,0.12,179.57520822371654,-9.451890403986525,107.52584444300234,1637.0,1435.0,1200.0,1528.0,1535.0,988.0,161.0,292.25,1649323576.5430148,1649323577.6806767,314d87e5-7351-483c-ac43-ce3d930314d5
0.4089946254283291,0.7747387260974535,0.2110936108933009,-0.3709071630531333,-0.0915104845339512,-0.0478173648981219,-0.1195303578787662,-0.1440526785759059,-8.874459375946975,17.611574957438712,52.7183416113973,0.8604204258905823,2.5606586710318875,0.1584941707761779,5613.24560546875,11.9343,0.113,179.52349276339692,-9.421242007601965,107.24127963764992,1637.0,1435.0,1200.0,1528.0,1535.0,988.0,161.0,292.25,1649323577.7893922,1649323578.9071467,314d87e5-7351-483c-ac43-ce3d930314d5
0.4100070749720464,0.7663630073774406,0.2114091795925449,-0.3632151743686126,-0.0890122321196152,-0.0459371012781655,-0.1208978223689744,-0.1431848642050493,-9.120045522437852,17.795146735670823,52.82089082431622,0.8484197452148661,2.5291500109070744,0.155559816172056,5610.798014322917,11.934,0.1166666666666666,179.44918212661094,-9.394612437606796,106.96976459172576,1637.0,1435.0,1200.0,1528.0,1535.0,988.0,161.0,292.25,1649323579.019024,1649323580.1391666,314d87e5-7351-483c-ac43-ce3d930314d5
0.6234933335433488,1.1384164666972043,0.2710577313548873,-0.5299887239755168,-0.1250214560606972,-0.2630574938280746,-0.1500671955938503,-0.1766300930033367,-8.118650405581935,17.54694846839352,52.06281106564692,0.7384294987790097,3.94851848768124,0.2081182923468074,5602.23974609375,11.902888888888889,0.11,178.98884255475025,-9.366199419841974,106.52452353248032,1723.0,1435.0,1200.0,1528.0,1599.0,988.0,161.0,292.25,1649323582.073064,1649323583.2134387,79d61661-c2d6-4ba9-bda0-86d0909f4443
0.613824996989673,1.1395492774185638,0.2615846019804246,-0.5479675483828541,-0.1353350917793588,-0.2508332506270689,-0.1532962121834256,-0.1827492944694435,-7.956297335183471,17.297968232343315,51.55838827677645,0.804333926312153,3.957697617632188,0.2391598966086503,5602.23974609375,11.904333333333334,0.1011111111111111,178.89664866133342,-9.33605694126106,106.32645260000942,1723.0,1435.0,1200.0,1528.0,1599.0,988.0,161.0,292.25,1649323583.3324215,1649323584.4525173,79d61661-c2d6-4ba9-bda0-86d0909f4443
0.6369535514375891,1.1431914661469285,0.2746807026805725,-0.5391710679441265,-0.1220154616080191,-0.2593141606762895,-0.1436450684637161,-0.177016462783952,-8.062036581414892,17.34551243574323,52.098827334522014,0.7664336816401908,3.9670645327015386,0.1906120959011906,5603.053765190973,11.90788888888889,0.11,178.79734074644102,-9.298085832662714,106.20791239023409,1723.0,1435.0,1200.0,1528.0,1599.0,988.0,161.0,292.25,1649323584.5613616,1649323585.6680524,79d61661-c2d6-4ba9-bda0-86d0909f4443
0.7585789799427864,1.3664694764344432,0.3195177540641198,-0.6295946805496002,-0.140752355115229,-0.4193075234882437,-0.1637099804922129,-0.1709023190892075,-7.287089030244826,17.853305130013815,48.70518034790102,0.6163286757109026,4.843069866469951,0.2053536567528681,5598.580078125,11.844333333333331,0.1,178.5994337385102,-9.241679948630765,105.88348675266748,1813.0,1435.0,1200.0,1528.0,1662.0,988.0,161.0,292.25,1649323587.6043148,1649323588.7397232,baad60a8-f427-449a-8acc-07c389fed15e
0.7434448320099502,1.3552273407465631,0.3195177540727817,-0.6181421622949176,-0.1376098164344047,-0.4201358916026161,-0.16679992437503,-0.1833146885117875,-7.633055529248902,18.09799771054564,48.50781896749433,0.5900496320637986,4.803696996945511,0.2035922144369262,5591.640869140625,11.8431,0.1,178.5680613136145,-9.235937097117494,105.640562650936,1813.0,1435.0,1200.0,1528.0,1662.0,988.0,161.0,292.25,1649323588.8474762,1649323589.8980448,baad60a8-f427-449a-8acc-07c389fed15e
0.7483492952439602,1.3540571067841651,0.320477608827698,-0.6180632698280016,-0.1371364633676618,-0.4167435271503925,-0.1639335084079584,-0.1898627402574477,-7.472703717565789,18.085350494639343,48.85121631684904,0.5975941768446646,4.795180377176266,0.1980186906973977,5583.9912109375,11.8401,0.099,178.5305786014873,-9.224066825981566,105.47261444641563,1813.0,1435.0,1200.0,1528.0,1662.0,988.0,161.0,292.25,1649323590.0082562,1649323590.9480438,baad60a8-f427-449a-8acc-07c389fed15e
-0.070235892893293,-0.0765209699834997,0.108652121583763,-0.0344582891675656,0.0033968082043672,0.475329792388514,-0.022308893507242,-0.0626227983493855,-10.861995335377935,19.66888203860585,52.52455900230767,1.2845615809256736,-0.6641813808333051,-0.0721167144466791,5586.013509114583,11.948444444444446,0.1144444444444444,179.43950298964714,-9.12963401552755,105.04030065853932,1470.0,1435.0,1200.0,1528.0,1403.0,988.0,161.0,292.25,1649323593.133338,1649323594.2763774,f37091c7-adc0-4b7b-be50-256f1ddec99c
-0.0888544476471905,-0.087855146705888,0.1110320355554772,-0.0294091896092769,0.0069864023250931,0.4838501468012206,-0.0162473444330116,-0.0502630232632801,-10.694768215926349,19.741611708152963,52.84854588057443,1.293054884228264,-0.711216059557578,-0.0896634247640139,5602.646755642361,11.942111111111112,0.12,179.42312116037778,-9.113955411151524,104.92641787886804,1470.0,1435.0,1200.0,1528.0,1403.0,988.0,161.0,292.25,1649323594.3895304,1649323595.4989948,f37091c7-adc0-4b7b-be50-256f1ddec99c
-0.0780462187978932,-0.0850939203494194,0.1154368487178837,-0.0181013105639641,0.0125483009076357,0.4744093837341032,-0.015445273933022,-0.0429786449828584,-10.794789645004489,19.760191216202024,53.39136331457094,1.2467111004744504,-0.7060755172258638,-0.1032638738228575,5611.20458984375,11.948666666666668,0.1155555555555555,179.38825076793515,-9.074392583885349,104.8361736250043,1470.0,1435.0,1200.0,1528.0,1403.0,988.0,161.0,292.25,1649323595.606847,1649323596.7347844,f37091c7-adc0-4b7b-be50-256f1ddec99c
-0.2967510326019119,-0.4771537085899213,0.0516641553862614,0.1086207670393338,0.0359615777061243,0.7309459859819113,0.0132168615867851,-0.0022707858951612,-11.998032609496962,20.93655895395709,51.69671503041622,1.5410761499596743,-2.172627308966031,-0.1390757518749168,5620.60791015625,11.89075,0.11,179.49620001049246,-9.029139331550972,104.65626511417383,1385.0,1435.0,1200.0,1528.0,1331.0,988.0,161.0,292.25,1649323597.4702327,1649323598.5700572,27fe9838-4f06-45b1-8a48-5e912dad72e8
-0.2961831099643272,-0.4825264694227481,0.0702447802708193,0.1220900889440034,0.0534933413066695,0.7258124320280447,0.0287211974648368,0.0215025622832839,-11.93631611940371,21.265380657365466,52.108462293363736,1.5023585698418132,-2.1973394211319914,-0.2104000212741397,5621.837076822917,11.889333333333331,0.1066666666666666,179.48981264525364,-9.00424094414875,104.44159511447248,1385.0,1435.0,1200.0,1528.0,1331.0,988.0,161.0,292.25,1649323598.6786811,1649323599.8001645,27fe9838-4f06-45b1-8a48-5e912dad72e8
-0.2910156716023258,-0.4708241269080838,0.0738738203251843,0.1049310406214446,0.0544006012526964,0.7320843595351962,0.0359529803859415,0.0183731730755151,-11.801019698178605,21.00069373828678,52.427969543668205,1.5537041338930613,-2.154899682253854,-0.2249596233859149,5625.116048177083,11.89177777777778,0.11,179.46063255929948,-8.973886445112349,104.19605892072944,1385.0,1435.0,1200.0,1528.0,1331.0,988.0,161.0,292.25,1649323599.9079962,1649323601.0334313,27fe9838-4f06-45b1-8a48-5e912dad72e8
-0.5446409271208177,-0.908636436058408,0.0020687898554985,0.2861200677493385,0.0799485180559544,0.9808971171864458,0.0522179177897534,0.0401079679860383,-13.153585108141275,22.86093693938099,50.30660100560468,1.7118389291323488,-3.795416022858261,-0.2411244696924918,5627.993326822917,11.835666666666665,0.0933333333333333,179.58831763346356,-8.91951500881568,103.80357348372326,1297.0,1435.0,1200.0,1528.0,1253.0,988.0,161.0,292.25,1649323602.1436737,1649323603.2809515,7c10976f-b50a-4bc7-ba2b-9b57a69985dc
-0.5414852391233221,-0.9008392549002836,0.0039227560601099,0.2691845479999036,0.0776474962359275,0.9856700935926528,0.0569645970942176,0.0421591651493158,-12.899865492395875,22.769098772871853,49.87966722930465,1.7603099968617602,-3.761982615624888,-0.2468678753736265,5618.15380859375,11.850333333333332,0.0966666666666666,179.60114928218428,-8.892135910936467,103.41285023552297,1297.0,1435.0,1200.0,1528.0,1253.0,988.0,161.0,292.25,1649323603.3896365,1649323604.7203767,7c10976f-b50a-4bc7-ba2b-9b57a69985dc
-0.5371067221180568,-0.9111872845354924,-0.0021913877910618,0.2900120815938514,0.0784232693113163,0.9797663293969152,0.0469321418933661,0.016637545340627,-13.394355528110555,22.816021914418585,50.26512446709395,1.699880783470519,-3.803661560675989,-0.2261970850357815,5613.24560546875,11.852,0.1,179.58768014914102,-8.869014297639897,103.1217452963673,1297.0,1435.0,1200.0,1528.0,1253.0,988.0,161.0,292.25,1649323604.8352711,1649323605.9400892,7c10976f-b50a-4bc7-ba2b-9b57a69985dc
0.1806675290490523,0.3695222423947812,0.1612863514071615,-0.1920059772631203,-0.0429260498161205,0.1834419038743998,-0.0804524304342958,-0.0955734319573458,-10.160833817104765,18.55072412301021,52.524483303905846,0.9796008709823344,1.0265051384702324,0.0555534784837461,5623.475965711806,11.959,0.12,179.04161563191738,-8.892534718093005,102.64267886362222,1553.0,1435.0,1200.0,1528.0,1471.0,988.0,161.0,292.25,1649323608.083493,1649323609.22036,b585cbae-6cfa-4f25-8060-8458c024818b
0.1897664265286247,0.3833020750139741,0.1659935845183923,-0.1991194226189262,-0.0430969828763008,0.1822453725678724,-0.0781251110839182,-0.0973353575839334,-10.058616657861029,18.64324849251502,53.367511072401406,0.9939918763141568,1.0711684871029432,0.0488837270896727,5613.654351128473,11.952333333333334,0.12,178.8876844175027,-8.871456659450606,102.93123007093824,1553.0,1435.0,1200.0,1528.0,1471.0,988.0,161.0,292.25,1649323609.3291378,1649323610.4500237,b585cbae-6cfa-4f25-8060-8458c024818b
0.1843360151870333,0.3735062970633098,0.1597348052865696,-0.1952668542205672,-0.045411153504387,0.1837969186644839,-0.0816226644751944,-0.103725624373023,-10.098461595406585,18.49605558491901,52.692770081875786,0.9873729376056808,1.039816985898506,0.0634762600182814,5611.61279296875,11.954555555555556,0.12,178.8035410403876,-8.859997594161833,103.15727669933962,1553.0,1435.0,1200.0,1528.0,1471.0,988.0,161.0,292.25,1649323610.5587444,1649323611.8795693,b585cbae-6cfa-4f25-8060-8458c024818b
0.2144070822642708,0.3719678997160491,0.1394332188448202,-0.6126985999643334,-0.1085511958369876,0.5915116616166913,0.0159538132702067,-0.0055969002829465,-9.6716046434019,17.479902880464344,56.09996533622103,2.8381970640512297,1.050918523342415,0.0398953448828851,5613.24560546875,11.94177777777778,0.1144444444444444,178.68940706153683,-8.757666277060626,103.59638273089055,1553.0,1522.0,1200.0,1528.0,1471.0,988.0,161.0,292.25,1649323613.6125438,1649323614.7507677,ebaa98c9-4fb1-4cf2-a09e-5aa07ebf040b
0.1963013283123333,0.3757941700355885,0.1393674754073782,-0.6092930865336783,-0.1104183107599963,0.5815318021285275,0.0110887956473137,-0.020560117043323,-9.706488556046306,17.66184877318751,55.63929882292954,2.8092008584467494,1.0691787651415805,0.0491988272731215,5609.57177734375,11.941,0.11,178.6512612139323,-8.659678391089114,103.6804889214202,1553.0,1522.0,1200.0,1528.0,1471.0,988.0,161.0,292.25,1649323614.8589432,1649323615.9771802,ebaa98c9-4fb1-4cf2-a09e-5aa07ebf040b
0.2228222474787487,0.3748211665859698,0.1419183224099263,-0.6075443093088682,-0.1078017200399693,0.5828203742348285,0.0152832297993445,0.0011352321359115,-9.566165947392452,17.61249992330326,55.941505612200416,2.8080703230556474,1.0618033518137238,0.0366280909672137,5609.57177734375,11.939333333333332,0.11,178.64023880643168,-8.649630329046381,103.73194908444688,1553.0,1522.0,1200.0,1528.0,1471.0,988.0,161.0,292.25,1649323616.0924976,1649323617.208564,ebaa98c9-4fb1-4cf2-a09e-5aa07ebf040b
0.23277581004879,0.3851165949606299,0.1115316860421828,-1.0648693419270223,-0.187561717520015,1.0103238973883015,0.10253797795253,0.0752544333544324,-9.553239113905722,16.79572825211887,58.50969232035637,4.793829410242493,1.131930498291982,0.0636545899369362,5616.92431640625,11.9282,0.11,178.61698732467713,-8.479978675347017,103.90932211522096,1553.0,1613.0,1200.0,1528.0,1471.0,988.0,161.0,292.25,1649323618.9664297,1649323620.0756729,70f03070-18f9-449d-b478-4a4e824011d8
0.2234007900665341,0.3671028824788009,0.1256270881413847,-1.0432923167121329,-0.1698635707908824,1.007063020939941,0.1173039635816706,0.0925055226079135,-9.443884832065276,16.962665869684923,58.47008985144254,4.739686542833815,1.0621849480445211,-0.0027264953605413,5609.57177734375,11.924333333333337,0.11,178.63328263821697,-8.468541903036787,103.88646010603108,1553.0,1613.0,1200.0,1528.0,1471.0,988.0,161.0,292.25,1649323620.184037,1649323621.508025,70f03070-18f9-449d-b478-4a4e824011d8
0.216971077910823,0.3613043078615439,0.1190001453461375,-1.0418065131380636,-0.1740843026875268,1.0068526418164627,0.1104008981506544,0.0866412041443717,-9.627234610962187,16.955907008657345,57.77638522864157,4.735284527062309,1.047279597274108,0.0200915842702884,5589.45849609375,11.9255,0.11,178.64141891133826,-8.457174381255639,103.86216512315336,1553.0,1613.0,1200.0,1528.0,1471.0,988.0,161.0,292.25,1649323621.6164317,1649323622.7362378,70f03070-18f9-449d-b478-4a4e824011d8
0.2498822629853622,0.3748343152819538,0.1016964614106547,-1.4138360402876526,-0.2368956309538233,1.3547671363656313,0.1865318473116298,0.1636925626236186,-9.35519228576752,16.61375319791956,60.64676021925597,6.353767022779369,1.1153618751510843,0.0235896853502407,5587.226888020833,11.887333333333332,0.1,178.64651954482846,-8.313432575854026,103.77314271424112,1553.0,1710.0,1200.0,1528.0,1471.0,988.0,161.0,292.25,1649323623.6463902,1649323625.0031092,af0dd06a-c71e-464b-8e01-a18f72e3b80d
0.2336173265720529,0.3633292069316761,0.1048258510119753,-1.400779371573463,-0.2302686873873754,1.3588826784363786,0.1897532777225045,0.1622462058570208,-9.517851237990577,16.740138828376182,61.36181882493363,6.334588304037826,1.0656174121344768,0.0052764832230634,5585.083251953125,11.8841,0.1,178.66645428672203,-8.317683391515853,103.65370365157104,1553.0,1710.0,1200.0,1528.0,1471.0,988.0,161.0,292.25,1649323625.1152513,1649323626.2258976,af0dd06a-c71e-464b-8e01-a18f72e3b80d
0.2477693687516703,0.3759944347736399,0.1049795896325062,-1.4136195922579256,-0.2342694314986211,1.360414501617233,0.1907495442823738,0.1627959223430035,-9.317867635127469,16.646469223848776,61.66717528621093,6.366530957519178,1.110586979175914,0.0111264924392858,5587.63134765625,11.879,0.1,178.68765094401027,-8.30661016551057,103.53876629069195,1553.0,1710.0,1200.0,1528.0,1471.0,988.0,161.0,292.25,1649323626.33911,1649323627.44631,af0dd06a-c71e-464b-8e01-a18f72e3b80d
0.2503424673355168,0.3742689213774844,0.0937546488989291,-1.5261917749240257,-0.2697673757695281,1.4679511200752964,0.1951573916188148,0.1652835544119982,-9.364752042339804,17.92942426241046,61.93617409801272,6.870080577871119,1.1152331633297845,0.0671252026821298,5614.063096788194,11.845666666666666,0.09,178.71116045513347,-8.288752541061832,103.37087948198314,1553.0,1814.0,1200.0,1528.0,1471.0,988.0,161.0,292.25,1649323628.564865,1649323629.7099564,6db767c0-dbb4-4b3c-941c-2dc9295a0db0
0.2469238064877875,0.3826709376453612,0.088113858328631,-1.5021822277140722,-0.2719763569650468,1.436262759837004,0.1810619898479872,0.1602213068334196,-9.469630805433226,17.769561991927798,61.67136107166159,6.74327731914099,1.1465187736279563,0.0987377157317664,5616.5564453125,11.843700000000002,0.09,178.71392956560493,-8.283889664559382,103.20736581572692,1553.0,1814.0,1200.0,1528.0,1471.0,988.0,161.0,292.25,1649323629.8272069,1649323631.1389496,6db767c0-dbb4-4b3c-941c-2dc9295a0db0
0.2439653499989167,0.385103446257187,0.0898494861853969,-1.509190491148259,-0.27334382159286,1.4428502570031505,0.1822190750751902,0.1574074859434088,-9.47416263987626,17.971753673727697,62.037741788417655,6.775372127885662,1.153403337859347,0.0972504372920964,5613.24560546875,11.848111111111113,0.09,178.7243837013666,-8.289685525929709,103.0972507201838,1553.0,1814.0,1200.0,1528.0,1471.0,988.0,161.0,292.25,1649323631.2474368,1649323632.3702786,6db767c0-dbb4-4b3c-941c-2dc9295a0db0
0.1503466365261574,0.3758467648190502,0.1907262812398557,0.2228353961218037,0.0211212509685027,-0.2220244537349977,-0.1712573327761288,-0.2032086679994025,-10.14786236259838,20.07390224251976,49.816863001364666,-0.8561785120554173,1.0249480188613418,0.0574434140426927,5613.24560546875,11.959,0.11,178.72662552123418,-8.829382124980897,102.92244037638632,1553.0,1349.0,1200.0,1528.0,1471.0,988.0,161.0,292.25,1649323633.9766123,1649323635.0306597,5e90a83b-5bdf-49c5-8ec8-ed26276e643e
0.1776827751405431,0.3772799725974956,0.1941975369208603,0.2180492709040489,0.0224887154061915,-0.2172646251766975,-0.1688642698358707,-0.1898890369916503,-10.230879772921073,20.25562318669036,50.0872864991718,-0.833307402186571,1.029326655022074,0.0478221865936492,5609.57177734375,11.957,0.1166666666666666,178.68170109033326,-8.863558968631565,103.2388306758494,1553.0,1349.0,1200.0,1528.0,1471.0,988.0,161.0,292.25,1649323635.1445377,1649323636.2583115,5e90a83b-5bdf-49c5-8ec8-ed26276e643e
0.179641930803359,0.3808432690013736,0.1861242377826042,0.2089503735010157,0.0140866984603978,-0.215213428353984,-0.1747285887960895,-0.187824691900138,-10.160599569411888,20.06955776632701,49.63259955194687,-0.8098457547607544,1.0468289453001696,0.0784559702331312,5616.92431640625,11.956,0.11,178.654184534897,-8.863209490619035,103.53565476007006,1553.0,1349.0,1200.0,1528.0,1471.0,988.0,161.0,292.25,1649323636.3671913,1649323637.4851162,5e90a83b-5bdf-49c5-8ec8-ed26276e643e
0.1491369565006037,0.3749526535336278,0.2197586013211304,0.5684488505996268,0.0787256893011063,-0.5516886302981077,-0.2453370950099402,-0.2796814953560721,-10.5318378352584,21.72609937116617,47.88030006099143,-2.364700964506803,1.00079205113246,0.0441278521159574,5605.90283203125,11.951,0.11,178.58750367475992,-8.959880288445593,104.09938214648734,1553.0,1264.0,1200.0,1528.0,1471.0,988.0,161.0,292.25,1649323639.6234293,1649323640.7762382,6b589d67-e999-45ca-8ebe-d0187a794928
0.1562635496410318,0.3840778480320043,0.2178388917742574,0.5545506799900951,0.074675890898267,-0.5475204923709943,-0.2446139166178661,-0.2793527771826035,-10.412216283469196,21.51677407674206,47.921793553983456,-2.3254001368627715,1.0353885837638983,0.0524413245758105,5592.005859375,11.947399999999998,0.11,178.5857023262028,-8.982838546384514,104.29681104117628,1553.0,1264.0,1200.0,1528.0,1471.0,988.0,161.0,292.25,1649323640.8851502,1649323641.9865391,6b589d67-e999-45ca-8ebe-d0187a794928
0.149491971283954,0.3803041724977478,0.2117904917626202,0.560625377082514,0.0697714272249364,-0.5521751322098236,-0.2535944772474379,-0.2680185994289726,-10.561336708969543,21.65209730247229,47.47124768849724,-2.3491137413768706,1.025154553937127,0.0789537917283905,5602.23974609375,11.947,0.1066666666666666,178.5796990452683,-8.994894399452017,104.43073056023272,1553.0,1264.0,1200.0,1528.0,1471.0,988.0,161.0,292.25,1649323642.0946767,1649323643.2432945,6b589d67-e999-45ca-8ebe-d0187a794928
0.1325301535591294,0.3864051670883139,0.242019343001134,0.9263300318784748,0.1284672064597942,-0.9077423241576508,-0.3346693499212079,-0.3476208181359439,-10.888952675011332,23.403604123540408,45.43298826776124,-3.960434479424508,1.0253408019706824,0.0733581183117515,5608.654541015625,11.91,0.1,178.58805464335296,-9.11787458792684,104.61355423374648,1553.0,1178.0,1200.0,1528.0,1471.0,988.0,161.0,292.25,1649323644.1262329,1649323645.2708995,8317879e-9d36-4e23-a438-8dd92df4974b
0.1358699223195581,0.3933476781645919,0.2442546212348754,0.9217674346344664,0.1285066525341202,-0.9115160020789108,-0.3336569001846881,-0.3572456653970793,-10.828384086933283,23.395429784767625,45.27865858183145,-3.9585593351497854,1.0530218895216172,0.0694440311816391,5598.2146484375,11.9225,0.11,178.60083939144138,-9.134748612960038,104.71432342966622,1553.0,1178.0,1200.0,1528.0,1471.0,988.0,161.0,292.25,1649323645.3788776,1649323646.4962237,8317879e-9d36-4e23-a438-8dd92df4974b
0.1399460180720172,0.3938999233676544,0.2468843603272908,0.9169944582774868,0.1302817264577156,-0.9067824688093316,-0.3292126401643676,-0.352354349955626,-10.763366498976058,23.36999608307904,45.430787428716215,-3.9371364698015214,1.0540385878062664,0.0574094561284765,5594.92578125,11.917222222222222,0.1055555555555555,178.623374310461,-9.140481589158131,104.79290361770238,1553.0,1178.0,1200.0,1528.0,1471.0,988.0,161.0,292.25,1649323646.6043472,1649323647.724598,8317879e-9d36-4e23-a438-8dd92df4974b
0.130912863925544,0.4011711518103042,0.255338971524035,1.1040872452373192,0.1485189676456042,-1.0920740136868088,-0.3860413155317296,-0.4018066055015174,-11.135669736084887,24.854841563955755,44.39277526806912,-4.76563547088565,1.070671094389288,0.1021435067347419,5591.27587890625,11.902888888888889,0.1044444444444444,178.65165281144468,-9.211799388831771,104.94719455541332,1553.0,1088.0,1200.0,1528.0,1471.0,988.0,161.0,292.25,1649323649.6607351,1649323650.7950928,821f0f56-bb36-497a-9f9e-151b679c9f7a
0.1332138857501775,0.4026043595920381,0.252038648942629,1.1036533383306624,0.1440484110277334,-1.098424838577719,-0.3903014938987955,-0.4134957988285886,-10.994108263732366,24.866189959361968,43.60326125366107,-4.7790715335240606,1.0818863932786482,0.1179472692926972,5587.63134765625,11.884,0.09,178.66986664923138,-9.226408214829046,104.94841791818467,1553.0,1088.0,1200.0,1528.0,1471.0,988.0,161.0,292.25,1649323650.9031465,1649323652.0206969,821f0f56-bb36-497a-9f9e-151b679c9f7a
0.1348574727408364,0.4018154378781969,0.2529853550683273,1.113935618335777,0.147243544188721,-1.1048414071361234,-0.3910378208962993,-0.4120757392101372,-11.07194305769412,24.81855739797264,43.92880843925838,-4.816940632656485,1.0753862757895094,0.1137722600424418,5586.41796875,11.890333333333333,0.1,178.69614921715757,-9.245090205165107,104.92632680967913,1553.0,1088.0,1200.0,1528.0,1471.0,988.0,161.0,292.25,1649323652.129363,1649323653.3368866,821f0f56-bb36-497a-9f9e-151b679c9f7a
0.1972611830902328,0.3758862108985624,0.1557244530386542,-0.2134383542741943,-0.0545757951429464,0.2001670448411765,-0.0832399542047121,-0.1098266197817683,-9.973304405527564,18.71606585011873,52.94753798919137,1.0665116472591436,1.0475860732794942,0.0842132579928364,5586.41943359375,11.955,0.11,178.73862388687616,-8.86014444322899,104.88554830360442,1553.0,1435.0,1200.0,1528.0,1471.0,988.0,161.0,292.25,1649323654.4694736,1649323655.7109013,33b8d2a2-0ff9-4fb4-bfa4-6fb942e4e5a2
0.2014581456263684,0.3869179662049561,0.1628844236382585,-0.2143946691597517,-0.0491888752565227,0.1921529148137928,-0.0765482789656724,-0.096220752420748,-9.779716199526366,18.535750904420865,53.27396241167791,1.0499707095931388,1.0852671905407918,0.0595849673914778,5604.683159722223,11.955,0.11,178.7336515091604,-8.841891616445777,104.96634488802624,1553.0,1435.0,1200.0,1528.0,1471.0,988.0,161.0,292.25,1649323655.8193712,1649323656.9449265,33b8d2a2-0ff9-4fb4-bfa4-6fb942e4e5a2
0.2026521483204096,0.3884169174575281,0.1715160367533,-0.2090729866605634,-0.042018789742263,0.1879256091309874,-0.0693023355066289,-0.0895513287722781,-9.64416746720874,18.639107600997804,53.637383404133786,1.029708101308857,1.086602535485982,0.0285295138418483,5611.20458984375,11.958777777777778,0.11,178.74274780331504,-8.828997262793916,105.0502105041151,1553.0,1435.0,1200.0,1528.0,1471.0,988.0,161.0,292.25,1649323657.0687883,1649323658.1688468,33b8d2a2-0ff9-4fb4-bfa4-6fb942e4e5a2
0.2490933412597534,0.4142541035269727,0.3600814791301904,-0.2319911666829999,0.1275730950855773,0.1702406133223305,0.1250485454426097,0.1024853830495022,-8.458989324521745,18.63587446040938,53.19033452746957,1.0515585470868856,1.1938571827146889,-0.7330854814830243,5620.60791015625,11.953666666666669,0.1044444444444444,178.7369011613855,-8.82252489964542,105.08784636426168,1553.0,1435.0,1200.0,1446.0,1471.0,988.0,161.0,292.25,1649323659.0772607,1649323660.2159145,ef3fb81a-4f2f-4615-b055-bda365b23def
0.2447016769380373,0.40444517690999,0.3483659916715181,-0.2280597060891361,0.1188555097217163,0.176170675121441,0.1147136704811155,0.0866937988743465,-8.575664547295776,18.66479689979228,53.09713646702123,1.0555505654977382,1.1574932988504418,-0.6919049776559631,5620.60791015625,11.953,0.103,178.73056517434742,-8.835617746183662,105.12709634989112,1553.0,1435.0,1200.0,1446.0,1471.0,988.0,161.0,292.25,1649323660.3246758,1649323661.4031076,ef3fb81a-4f2f-4615-b055-bda365b23def
0.2541950351096318,0.4124921783754189,0.3578856470557073,-0.2312022448532179,0.1247592742106522,0.1702274646273186,0.1223793602394112,0.1049178916793111,-8.413325991222484,18.73091801324881,53.02630087413574,1.0502669411161218,1.188144799106651,-0.7229041488640681,5623.56005859375,11.9552,0.106,178.74036786184425,-8.849189161309747,105.18319884071468,1553.0,1435.0,1200.0,1446.0,1471.0,988.0,161.0,292.25,1649323661.5117695,1649323662.6736915,ef3fb81a-4f2f-4615-b055-bda365b23def
0.3399639753907006,0.4401570329722754,0.6161786133825773,-0.2478353475137555,0.3597396130720831,0.142260188542049,0.3897054895393771,0.367089733676949,-6.605108860842276,18.68755725817933,52.7413473223209,1.0383795507835512,1.3000537960781962,-1.771571024916741,5626.141845703125,11.947500000000002,0.1,178.7242691059705,-8.866731733796644,105.19211906777072,1553.0,1435.0,1200.0,1354.0,1471.0,988.0,161.0,292.25,1649323664.6087558,1649323665.7462838,efc452ea-5d07-43e5-977c-7f8fb999efac
0.3288270304277562,0.4488614691487518,0.6051994530826188,-0.2471910613363618,0.3475376238527052,0.1384996615263,0.3749789508967404,0.3507459053019341,-6.703647724897769,18.74729577383921,53.40397687921047,1.0283811426836225,1.3267509562933189,-1.7171181782350189,5631.68603515625,11.942000000000002,0.1,178.73906192967496,-8.867950666431396,105.20316484969646,1553.0,1435.0,1200.0,1354.0,1471.0,988.0,161.0,292.25,1649323665.8546574,1649323666.9710016,efc452ea-5d07-43e5-977c-7f8fb999efac
0.3141136403425162,0.4336352801864888,0.6112610014626481,-0.2336742000083602,0.357741011389799,0.1396961928566354,0.3839595097192026,0.3609361442108511,-6.625264987181334,18.725767085848613,53.28046867906937,1.0007580571596104,1.2689030563411832,-1.7538989209036244,5624.708116319444,11.942555555555556,0.1,178.7359631487395,-8.86361512796474,105.2248948688679,1553.0,1435.0,1200.0,1354.0,1471.0,988.0,161.0,292.25,1649323667.079358,1649323668.2027595,efc452ea-5d07-43e5-977c-7f8fb999efac
0.4005663118289035,0.4724502281625372,0.8759442320222871,-0.220709584100109,0.5968894778512142,0.0741630918378583,0.6421209885576532,0.6175460776636809,-4.886699059485738,19.121137237157928,53.06718147755701,0.8408929967922891,1.4192579163223384,-2.8024240764678723,5615.289333767361,11.931888888888889,0.1,178.67843322427038,-8.859888121407636,105.19228602795044,1553.0,1435.0,1200.0,1252.0,1471.0,988.0,161.0,292.25,1649323669.1117527,1649323670.251026,81df3994-4d24-464f-bf8b-54f045424e73
0.4060230203344636,0.4838107007109666,0.8779822797422012,-0.2301503489881063,0.5955614596654779,0.0686669368369782,0.6431334380723372,0.6206623183691582,-4.759836363142397,19.04175176546436,52.644695724001096,0.8494101932983572,1.4660033883445451,-2.8040176021154526,5613.24560546875,11.926,0.1,178.68065834811998,-8.86922091086229,105.1776185761628,1553.0,1435.0,1200.0,1252.0,1471.0,988.0,161.0,292.25,1649323670.359409,1649323671.4857962,81df3994-4d24-464f-bf8b-54f045424e73
0.4087842463143674,0.4801159174001217,0.8839386386643672,-0.2197234317557241,0.603121959271063,0.0665894428464156,0.6501811385721465,0.6254221458627228,-4.617764511941063,18.98896724185176,53.2492295908665,0.8213357697121826,1.4448751159870563,-2.8318508578538206,5620.60791015625,11.91877777777778,0.09,178.67604114024107,-8.86362764997822,105.182118153006,1553.0,1435.0,1200.0,1252.0,1471.0,988.0,161.0,292.25,1649323671.5977886,1649323672.9167736,81df3994-4d24-464f-bf8b-54f045424e73
0.1087977687803914,0.3512900592382659,-0.0495555215219714,-0.1650491247074654,-0.2403886330795391,0.1892450301762016,-0.3075228507831763,-0.3287630560554984,-11.36730212794878,19.14898995617421,52.65181691194957,0.9247136668763052,0.9488588283250942,0.9323258382615645,5622.247992621527,11.957,0.1,178.73953761440512,-8.859326243484665,105.29800066028427,1553.0,1435.0,1200.0,1604.0,1471.0,988.0,161.0,292.25,1649323673.5412762,1649323674.553243,0bcea701-154a-4a66-9d9a-3241e55d208d
0.101338412378659,0.3432111974172969,-0.0450672645120701,-0.1608263699742534,-0.235065939115205,0.1942137200067689,-0.3024150872686233,-0.3282446935930461,-11.412269012347512,19.30008066580239,52.82089541874697,0.927582876969078,0.9171450930728654,0.9108902772514172,5627.98828125,11.957777777777778,0.1,178.80420129200738,-8.872292788441504,105.32800568130814,1553.0,1435.0,1200.0,1604.0,1471.0,988.0,161.0,292.25,1649323674.6608474,1649323675.784303,0bcea701-154a-4a66-9d9a-3241e55d208d
0.1067850068453759,0.3449604796153502,-0.0440962838500892,-0.1619743523914078,-0.2340555123052321,0.1896480882734104,-0.3002460578487834,-0.3324209226357957,-11.258696454263443,19.14273527291975,52.27872592612915,0.9189090262235464,0.9276244783195108,0.9047111400452168,5620.60791015625,11.952333333333334,0.11,178.81856745656162,-8.879459933610569,105.31584946240532,1553.0,1435.0,1200.0,1604.0,1471.0,988.0,161.0,292.25,1649323675.892622,1649323677.0103328,0bcea701-154a-4a66-9d9a-3241e55d208d
0.0642884210032774,0.3170063533161091,-0.217514450529643,-0.1221732459302034,-0.3889077316168713,0.1904238613153925,-0.4877990980668697,-0.5077719735124623,-12.646615473800452,19.536270261492067,52.31830455723004,0.8241521370290374,0.8163645928991207,1.614939308723205,5620.60791015625,11.9505,0.1,178.8313972080076,-8.857553026769205,105.34987423948324,1553.0,1435.0,1200.0,1676.0,1471.0,988.0,161.0,292.25,1649323678.123861,1649323679.0575562,0a02e8f3-2067-4643-ae40-96b93fcf8817
0.0639334062004856,0.3208983671434672,-0.21199199756998,-0.1260784089594407,-0.3854496238997242,0.1895560474038948,-0.4815929119638232,-0.5031830771099303,-12.47671450705273,19.51428069616569,52.270394795219566,0.8312182308501315,0.8310146471084969,1.594362204581988,5627.98828125,11.94888888888889,0.1,178.83472768413787,-8.853735259330316,105.3138846446541,1553.0,1435.0,1200.0,1676.0,1471.0,988.0,161.0,292.25,1649323679.1667988,1649323680.289606,0a02e8f3-2067-4643-ae40-96b93fcf8817
0.0601334329775377,0.3139427072832215,-0.213004447269298,-0.1240140635327036,-0.3841873487910196,0.1959726109131424,-0.4824607261060862,-0.508547746420995,-12.739613133002162,19.59599723038369,52.47699568386472,0.8413723407402992,0.8046393638489283,1.5945090709080818,5631.275173611111,11.945222222222222,0.1,178.8245415953557,-8.858719305285916,105.29535510034574,1553.0,1435.0,1200.0,1676.0,1471.0,988.0,161.0,292.25,1649323680.3981476,1649323681.5169055,0a02e8f3-2067-4643-ae40-96b93fcf8817
-0.0060439557925032,0.2944826380914318,-0.3891444082361048,-0.0831873593887498,-0.5458374589623688,0.1891878839223727,-0.6779556025924275,-0.7012288045106234,-14.056948886414665,20.248476853970207,52.71451292483386,0.7289606318429099,0.7226890322740709,2.330272834734513,5613.24560546875,11.947,0.1,178.8760609533552,-8.885469266851581,105.27004014255196,1553.0,1435.0,1200.0,1747.0,1471.0,988.0,161.0,292.25,1649323682.6308353,1649323683.7691395,b2fd5631-8cc8-4c22-919b-891c9536b1d5
0.0043172170480051,0.2933912963672295,-0.3926551107992329,-0.082884939343302,-0.5489011060591513,0.1813381125595565,-0.6828469194385367,-0.7061069724936254,-14.066561046269904,20.22627783632986,51.45491081605886,0.7101113660471386,0.729567520809582,2.344291730200581,5594.92578125,11.947,0.11,178.90408749624945,-8.89250587951651,105.2412076373356,1553.0,1435.0,1200.0,1747.0,1471.0,988.0,161.0,292.25,1649323683.8776634,1649323684.9934156,b2fd5631-8cc8-4c22-919b-891c9536b1d5
-0.0013630198268837,0.2891442677342601,-0.385607408310941,-0.0779804754240432,-0.5414194958253621,0.1824031569151176,-0.6757334721888671,-0.7080398314811288,-14.063509811628885,20.315231178681103,51.71004588098608,0.7024242108236365,0.7112001805959616,2.314221262222277,5565.86083984375,11.9409,0.1,178.90908992679755,-8.903339071804337,105.20065475517649,1553.0,1435.0,1200.0,1747.0,1471.0,988.0,161.0,292.25,1649323685.102343,1649323686.4404066,b2fd5631-8cc8-4c22-919b-891c9536b1d5
0.1705298846088477,0.3575174836227457,0.114332358236692,-0.1732822322045621,-0.0637009907587728,0.1932902769825054,-0.0920495810801182,-0.1105629465534614,-9.039536427678089,15.633567583318673,54.50588951168379,0.9386994004428472,0.9506511741045168,0.1678526304501262,7982.497016059027,11.661,7.035555555555556,-179.6929515780887,-8.952808291606212,94.847455301418,1553.0,1435.0,1350.0,1528.0,1471.0,988.0,161.0,292.25,1649323690.5712883,1649323691.550378,cbe08443-6357-4548-b0f6-e8fa6a2fda2b
0.1922778274168998,0.3700218928289553,0.1214195054112896,-0.1847610450974408,-0.0621494445050558,0.1907525787030165,-0.0884205406817016,-0.101358858949821,-9.039686048560045,15.808997440303632,54.423440586051626,0.9603928633113724,1.000147663046795,0.1521358226145702,7995.7333984375,11.666333333333334,7.018888888888889,-179.02868532490862,-8.878700075065407,87.97563081604468,1553.0,1435.0,1350.0,1528.0,1471.0,988.0,161.0,292.25,1649323691.6590588,1649323692.7838075,cbe08443-6357-4548-b0f6-e8fa6a2fda2b
0.1883094499046902,0.367801786195323,0.1226291854419614,-0.182256218206451,-0.0611870610480923,0.1937585728436192,-0.0864983023586238,-0.1017078047219691,-8.959889586563326,15.873100026881293,54.88000687260053,0.9620955823256796,0.986978974734759,0.1468660073301384,8001.539767795139,11.67,7.006666666666667,-178.82348671058384,-8.760832923514572,83.9773147258199,1553.0,1435.0,1350.0,1528.0,1471.0,988.0,161.0,292.25,1649323692.8917878,1649323694.0054274,cbe08443-6357-4548-b0f6-e8fa6a2fda2b
0.4014998691976046,0.7502164099181017,0.1730544341682548,-0.3429793273288686,-0.101503494204604,-0.034234761266116,-0.1246714983383242,-0.1424616856578647,-8.083362474704076,15.04553588023294,54.74857511465007,0.8097611636736644,2.439198464554942,0.2330240044604508,8010.67919921875,11.642333333333331,7.0233333333333325,-179.12541294611452,-8.59340449639005,74.79694170140553,1637.0,1435.0,1350.0,1528.0,1535.0,988.0,161.0,292.25,1649323696.1464422,1649323697.286156,3517f835-65d9-4cf4-9229-157816a74dc9
0.3979497214766331,0.7545423305716729,0.1731464749861198,-0.3406520078641207,-0.1024764978766183,-0.0393890503547328,-0.1282742413739639,-0.1423564965204469,-8.192113283682465,15.170409969153647,54.90853141043914,0.7937320693757566,2.4544967298613063,0.2399954918593126,8003.19873046875,11.64111111111111,7.022222222222221,-179.28342709583308,-8.540873890938437,72.05711300978254,1637.0,1435.0,1350.0,1528.0,1535.0,988.0,161.0,292.25,1649323697.3947327,1649323698.51395,3517f835-65d9-4cf4-9229-157816a74dc9
0.3952542389623159,0.7539506392972213,0.165809502773376,-0.3525121338218658,-0.1106549873673894,-0.0313551966860612,-0.13071989901772,-0.1446443694030838,-7.979034851815296,15.00514755477388,54.379149744795,0.8371007446925804,2.4564536151252203,0.2639126924143767,8010.67919921875,11.643999999999998,7.029999999999999,-179.45204625260288,-8.5322219385348,69.46388673959483,1637.0,1435.0,1350.0,1528.0,1535.0,988.0,161.0,292.25,1649323698.6221497,1649323699.947611,3517f835-65d9-4cf4-9229-157816a74dc9
0.6160734238303608,1.123271192079944,0.2259121908996324,-0.5216438511524621,-0.1423170499969867,-0.2453633922624752,-0.1603176164673395,-0.1894945767577572,-7.528497498617145,14.667024555028028,53.37840108009533,0.7385339894814943,3.871939240698075,0.3094990677792373,8003.19873046875,11.614,7.04,179.75281135597467,-8.514039690373009,66.00112881783038,1723.0,1435.0,1350.0,1528.0,1599.0,988.0,161.0,292.25,1649323701.064216,1649323702.199564,a6a2a373-d8b4-42a8-903b-e900125dd1d1
0.600544815066853,1.1201812485933471,0.2276478187018653,-0.5191850445865985,-0.1412520055833487,-0.2468228977548182,-0.15705673953982,-0.1872067028212863,-7.261020340427214,14.674914796190167,53.08028595958295,0.7299336685160818,3.860906554817841,0.3004508184767535,8003.19873046875,11.611,7.029999999999999,179.55410749264067,-8.520474297753593,64.5906423894391,1723.0,1435.0,1350.0,1528.0,1599.0,988.0,161.0,292.25,1649323702.3121471,1649323703.4296403,a6a2a373-d8b4-42a8-903b-e900125dd1d1
0.6039503270654716,1.1248621842564712,0.2332754604012874,-0.5190535573604292,-0.1367157050973181,-0.2456395149431047,-0.1533225095630372,-0.178528563143437,-7.381597826323984,14.764492632293328,53.95281648200503,0.7332487167930128,3.871925204101536,0.2829614571110781,8003.19873046875,11.615333333333332,7.04,179.29664578860675,-8.528467042038585,63.27326054635401,1723.0,1435.0,1350.0,1528.0,1599.0,988.0,161.0,292.25,1649323703.5378656,1649323704.6607275,a6a2a373-d8b4-42a8-903b-e900125dd1d1
0.7167792785827487,1.3282988101683453,0.264345828043197,-0.6146183103050279,-0.1644857535908289,-0.3922475010562104,-0.1809873687426311,-0.2023277050667491,-6.724200872885705,15.184041955603677,48.94570046660646,0.6232327593908592,4.688404166054761,0.3348251797400869,7999.880805121527,11.563,7.042222222222223,178.85339535004945,-8.556566440284017,61.57481106582528,1813.0,1435.0,1350.0,1528.0,1662.0,988.0,161.0,292.25,1649323705.5691998,1649323706.7063522,33b58204-fb62-4cd6-bc32-c85411fb5502
0.7140837961118249,1.297820131799007,0.2686848975298675,-0.613855685884803,-0.1515079894260053,-0.369947308022818,-0.167996455735273,-0.1848399373265613,-7.1206956214837085,15.084216839896651,48.04089369559944,0.6708344640085303,4.585095648742283,0.2875443794668397,7966.009765625,11.557666666666668,7.0888888888888895,178.71561829193172,-8.567462773876173,60.57146538366929,1813.0,1435.0,1350.0,1528.0,1662.0,988.0,161.0,292.25,1649323706.814252,1649323707.9422233,33b58204-fb62-4cd6-bc32-c85411fb5502
0.7099551058918597,1.2942436863819975,0.2629783636923364,-0.5944745013957722,-0.1547820150257756,-0.3820967056122408,-0.1786994953980977,-0.1991325714956463,-7.214067025877018,15.227436074411214,48.28813441915191,0.6004716227575139,4.567405801963454,0.3149830227354994,7936.505859375,11.559,7.093999999999999,178.57297631774125,-8.547207202819079,59.81484480351789,1813.0,1435.0,1350.0,1528.0,1662.0,988.0,161.0,292.25,1649323708.0542445,1649323709.169935,33b58204-fb62-4cd6-bc32-c85411fb5502
-0.0886835145790557,-0.0869741839918278,0.0689430593600047,-0.0059650637416614,-0.0082397882376765,0.4625361120656319,-0.0352472109096463,-0.0520249479738703,-10.18227772868495,16.857559961184833,52.80704389743531,1.1713120796700445,-0.7167749663905311,0.0172945535538456,7938.7125,11.6498,7.134,179.1956969587118,-8.516593355808071,58.21984127004468,1470.0,1435.0,1350.0,1528.0,1403.0,988.0,161.0,292.25,1649323711.0035863,1649323712.2410824,fcdc5805-723b-4417-956b-23192a6acdcc
-0.0660546072911131,-0.0990315390779597,0.0688641671200439,-0.0025069566369267,-0.007319379546828,0.4683872813734077,-0.0317628063295207,-0.0563114231104009,-9.97503582836364,16.92250814932014,52.42350285498216,1.1771295986917352,-0.7604945382860937,0.0093361150354371,7957.79296875,11.651222222222222,7.126666666666667,179.09579876369318,-8.535675452933887,57.677474010109776,1470.0,1435.0,1350.0,1528.0,1403.0,988.0,161.0,292.25,1649323712.350219,1649323713.46742,fcdc5805-723b-4417-956b-23192a6acdcc
-0.0971381267202228,-0.0982689146509011,0.0681541376208035,-0.0079110708744083,-0.007082702913582,0.4776045166357452,-0.0294486356887532,-0.0585335528385678,-10.044044867667132,16.77815896502315,53.140456668237775,1.2091196010151244,-0.7628822455751022,0.0077537932644239,7960.256944444444,11.652444444444448,7.1,178.96751870416145,-8.530540289042898,57.26425894897263,1470.0,1435.0,1350.0,1528.0,1403.0,988.0,161.0,292.25,1649323713.5753715,1649323714.7037356,fcdc5805-723b-4417-956b-23192a6acdcc
-0.3189435065713086,-0.5045110951261725,0.0208056823099541,0.1467175963372815,0.037675459732575,0.7284421710279676,0.0155725011961689,-0.01038302568846,-11.193034289267752,18.017117168729385,52.43787664337278,1.4291461131603276,-2.2941969280980428,-0.1028702735961964,7980.84423828125,11.596555555555556,7.064444444444444,178.8494793749253,-8.576037696924171,56.40568633591919,1385.0,1435.0,1350.0,1528.0,1331.0,988.0,161.0,292.25,1649323716.6286142,1649323717.8538406,477382c1-2aae-49b8-9677-3c9ac09bc972
-0.2929090840897468,-0.4926904141465819,0.0197274890834531,0.1357647326162754,0.0300492156964936,0.7247342390439228,0.0128112748629492,-0.0109615686715451,-10.859827155289825,18.15251587724013,52.105494218051774,1.4464795038660676,-2.2479921721122915,-0.0860390381163815,7980.84423828125,11.602333333333334,7.065555555555556,178.784733735053,-8.56958307329477,56.069635336930254,1385.0,1435.0,1350.0,1528.0,1331.0,988.0,161.0,292.25,1649323717.9653237,1649323719.1994584,477382c1-2aae-49b8-9677-3c9ac09bc972
-0.3169580531325222,-0.5082716232433167,0.017781482072495,0.1506622050987572,0.0327184010996759,0.7303224344092872,0.0108652678115037,-0.0070169598638659,-11.097286330545847,18.32275568553325,52.663642457875824,1.426432960237464,-2.311652032660001,-0.0854546610476738,7984.976182725694,11.60222222222222,7.071111111111112,178.74931844529658,-8.588053327766561,55.84902326237847,1385.0,1435.0,1350.0,1528.0,1331.0,988.0,161.0,292.25,1649323719.3091283,1649323720.4336998,477382c1-2aae-49b8-9677-3c9ac09bc972
-0.5582103855669208,-0.9462022826000152,-0.0341164230562478,0.3159544576216219,0.0758066787711313,0.996465172482584,0.0556497275570117,0.0336782558721622,-12.130848092584198,19.993126454172582,51.09511533612304,1.659351023270918,-3.956553888728324,-0.192324395813994,7986.79990234375,11.539399999999995,7.029999999999999,178.73995258634267,-8.616706768190166,55.50987150928834,1297.0,1435.0,1350.0,1528.0,1253.0,988.0,161.0,292.25,1649323721.5439212,1649323722.6837552,69b01c14-e1b3-455c-af8a-597988a3f791
-0.567243542608637,-0.9484901570714652,-0.0349842370867546,0.3152181306642838,0.0753333256316555,1.0004886732628424,0.0556497275269956,0.0290762120219069,-12.16404016900834,20.011566982129047,51.2485427066965,1.670140122272408,-3.9662237510034206,-0.19059441943732,7995.7333984375,11.543,7.027777777777778,178.76043495762576,-8.609029882208793,55.389306755552056,1297.0,1435.0,1350.0,1528.0,1253.0,988.0,161.0,292.25,1649323722.7917578,1649323723.906185,69b01c14-e1b3-455c-af8a-597988a3f791
-0.5786829118164543,-0.9574181270842268,-0.036746162483463,0.3277619860181147,0.0777789831087743,1.002303193224495,0.0553604562204895,0.0328235906290964,-12.217520297224995,19.94611512857585,51.8977493720158,1.6454766728839092,-4.006741673584163,-0.1911771224872019,8004.029893663194,11.536777777777775,7.018888888888888,178.72638115224385,-8.594479017955727,55.27516025468785,1297.0,1435.0,1350.0,1528.0,1253.0,988.0,161.0,292.25,1649323724.014574,1649323725.1362069,69b01c14-e1b3-455c-af8a-597988a3f791
0.1880307986813937,0.3748080178963714,0.1182243722927803,-0.1767008935262716,-0.0629120689341765,0.178905603841662,-0.0929173950290422,-0.120634848797831,-9.034435929771472,15.551441815821304,54.43452085327139,0.9137273471522022,1.0167638792559286,0.1647072239104081,8005.692220052083,11.658666666666669,7.066666666666666,178.1616140592529,-8.633522466253767,55.09857709734578,1553.0,1435.0,1350.0,1528.0,1471.0,988.0,161.0,292.25,1649323727.0161903,1649323728.2181282,3f9c3929-b07d-4da0-8931-732d403f89ca
0.1887013821804428,0.3737298248835685,0.1229710515354174,-0.1849188294378977,-0.0582179841690123,0.187925609120496,-0.0865797231177838,-0.1047775197898444,-9.211899979504269,15.559704295627537,54.53430147916891,0.952751854034644,1.0144045517565805,0.1426306887703682,8010.67919921875,11.656199999999998,7.0680000000000005,178.12418917606072,-8.626317185861835,55.16739284694447,1553.0,1435.0,1350.0,1528.0,1471.0,988.0,161.0,292.25,1649323728.333266,1649323729.649556,3f9c3929-b07d-4da0-8931-732d403f89ca
0.1837969186411881,0.3727042266586693,0.1213932080277872,-0.1825783612903148,-0.058191686741673,0.1857034795419758,-0.0866454665942143,-0.1143497712167504,-9.139594070131514,15.393962381862742,54.37730645031687,0.941312991238983,1.0110466149195445,0.1446328349348485,8010.67919921875,11.663222222222222,7.067777777777778,178.11553760311205,-8.622102200234028,55.21804052102389,1553.0,1435.0,1350.0,1528.0,1471.0,988.0,161.0,292.25,1649323729.7581189,1649323730.8920066,3f9c3929-b07d-4da0-8931-732d403f89ca
0.1927117343683972,0.3635132886690406,0.1012231083260778,-0.638115038533935,-0.1241718479894933,0.6377950679184324,0.0223046337027428,-0.0035457036355315,-8.842668500271948,14.432993986020454,58.08312725099608,2.978167773450024,0.996420188059606,0.1075950248268808,8018.171875,11.649555555555557,7.050000000000001,178.16354472605832,-8.46623775769303,55.2668334951797,1553.0,1522.0,1350.0,1528.0,1471.0,988.0,161.0,292.25,1649323732.1945398,1649323733.3320062,dbdf72a2-a5e4-4a66-a76a-1cfd66a0c2b0
0.1995753535135787,0.3586219740282795,0.0985539230048437,-0.6341178337326262,-0.1261704499954083,0.633837310732874,0.0167690325300053,-0.0120792075090687,-9.006557253619038,14.611603878685989,57.330033492606205,2.961106023919693,0.98525107507346,0.1200302127844494,8018.171875,11.650333333333334,7.054444444444444,178.18006467693087,-8.46895759593877,55.33641490898434,1553.0,1522.0,1350.0,1528.0,1471.0,988.0,161.0,292.25,1649323733.4393406,1649323734.5609353,dbdf72a2-a5e4-4a66-a76a-1cfd66a0c2b0
0.1963933691626331,0.3571887662419285,0.1002632535384188,-0.6319220006033334,-0.1242112940392222,0.6225951765348463,0.0163877203441164,-0.0041636922747335,-8.997321682032146,14.61490008570076,55.82562046061279,2.9307619867628403,0.9929819464176578,0.1133037720515816,8002.3759765625,11.643333333333333,7.111111111111111,178.18213042969984,-8.460589855295598,55.32940485816618,1553.0,1522.0,1350.0,1528.0,1471.0,988.0,161.0,292.25,1649323734.6690283,1649323735.7886543,dbdf72a2-a5e4-4a66-a76a-1cfd66a0c2b0
0.2181807578984378,0.3508247977169336,0.0852079965202298,-1.1019092456725024,-0.1887582490390463,1.0817213138518236,0.1294270613155429,0.0967525514401421,-8.851731768231648,13.877079280731786,59.06741739314988,5.017605091072393,0.996249334627688,0.0608830605454682,7957.79296875,11.62922222222222,7.121111111111111,178.19177313898808,-8.322281275651257,55.34997776740121,1553.0,1613.0,1350.0,1528.0,1471.0,988.0,161.0,292.25,1649323736.4958422,1649323737.8369267,823d5416-83e1-4da5-b950-538a2527f544
0.2076486526745436,0.3460518213231449,0.085050212182373,-1.0935203712694803,-0.1857208998801998,1.084035484274825,0.1307156335160213,0.1145821834483691,-8.908247288762272,13.778461695157985,59.83509025425207,5.003314414161827,0.9708993837975994,0.0557062168633731,7943.861328125,11.6298,7.13,178.26286114074165,-8.303979556097236,55.32986255673156,1553.0,1613.0,1350.0,1528.0,1471.0,988.0,161.0,292.25,1649323737.9452522,1649323739.06609,823d5416-83e1-4da5-b950-538a2527f544
0.2186015161752852,0.350298849909202,0.0860100669611213,-1.1037632131459236,-0.1883637881324655,1.0854686920975425,0.1321093952648559,0.1085600806384034,-8.742679300026678,13.844808059920153,59.29726715033773,5.030125588290849,0.9917462741830644,0.0557672032578145,7951.23046875,11.625,7.113333333333334,178.29541291163403,-8.293101284560883,55.35212510298527,1553.0,1613.0,1350.0,1528.0,1471.0,988.0,161.0,292.25,1649323739.1754391,1649323740.298772,823d5416-83e1-4da5-b950-538a2527f544
0.23977091607329,0.3383203884748898,0.0690613976326769,-1.508901218210822,-0.2482429572279504,1.4908824475674656,0.2236374665733577,0.2078327343438978,-8.90048977350743,13.560772409028454,62.51651850764281,6.852743400897642,0.9682064488009144,0.0296562269273923,7958.61328125,11.568222222222223,7.082222222222223,178.29761982164584,-8.154820310264437,55.339261959503375,1553.0,1710.0,1350.0,1528.0,1471.0,988.0,161.0,292.25,1649323740.9666033,1649323742.0396545,872244fc-bdf4-440f-bab2-097f1839ab0a
0.2281095402638515,0.3446019248111676,0.0770006815281415,-1.512298137266424,-0.2459389008153227,1.489701593419252,0.2306254925817245,0.2168572910506582,-8.535403239385964,13.777140742176233,62.831660902060825,6.859816147034044,0.9873141485462962,0.0070877156569935,7968.78857421875,11.564,7.06375,178.33909083301145,-8.158995749571268,55.35308460226805,1553.0,1710.0,1350.0,1528.0,1471.0,988.0,161.0,292.25,1649323742.147977,1649323743.0955372,872244fc-bdf4-440f-bab2-097f1839ab0a
0.2272007631174748,0.3396615554036604,0.0648143687131957,-1.5117413402451394,-0.2551328750046205,1.492959941782093,0.2196402630831035,0.1957490829257955,-8.688161688684808,13.67800498467602,62.59254443700373,6.864503102009906,0.9711424473379644,0.0508658564692986,7978.616943359375,11.5625,7.066999999999998,178.370752174909,-8.16445219560012,55.382783545439736,1553.0,1710.0,1350.0,1528.0,1471.0,988.0,161.0,292.25,1649323743.2042267,1649323744.3894677,872244fc-bdf4-440f-bab2-097f1839ab0a
0.2401259308826965,0.3472220552004059,0.0592656189287416,-1.6165234291226924,-0.2850461628726105,1.591509431514344,0.2267011125795945,0.2044272221169309,-8.749291345128599,14.88485861609534,63.92957661706148,7.330226132121138,1.000651120714046,0.0904630310336374,7988.28173828125,11.554200000000002,7.05,178.43285088880492,-8.117020544550522,55.49299957600056,1553.0,1814.0,1350.0,1528.0,1471.0,988.0,161.0,292.25,1649323746.549224,1649323747.6671064,df36c207-d440-40bd-9ce6-054f392cc841
0.2508158203845617,0.3469327839116002,0.0635126478353295,-1.6070169091701294,-0.2802863341287132,1.5839094840165322,0.2263986926233708,0.205978768231819,-8.931982965053546,15.060000775693624,64.06731203886625,7.293006161165799,0.9987402315109905,0.0786643595259559,7988.28173828125,11.547222222222222,7.055555555555555,178.43269364267204,-8.12052555098685,55.53359564013344,1553.0,1814.0,1350.0,1528.0,1471.0,988.0,161.0,292.25,1649323747.7751143,1649323748.896126,df36c207-d440-40bd-9ce6-054f392cc841
0.228528781376095,0.3502988498977523,0.0651956809520106,-1.6346686520631395,-0.2812461890699441,1.6033169619922132,0.2383114108397309,0.2078984775551934,-8.595340848176503,14.699500155795006,63.73044202146849,7.396802672443913,1.015473128705929,0.0607894786721003,7988.28173828125,11.559222222222225,7.0488888888888885,178.43710442705603,-8.080730876743846,55.54932101233253,1553.0,1814.0,1350.0,1528.0,1471.0,988.0,161.0,292.25,1649323749.004708,1649323750.1448662,df36c207-d440-40bd-9ce6-054f392cc841
0.1552116539786834,0.364223318217405,0.138815230114443,0.2846342651139329,0.0033179159568655,-0.2572235177189763,-0.2046681729692624,-0.2185531985162035,-9.74714480942306,17.277885382795883,50.98608155472715,-1.0954104824643662,0.9572070262750724,0.2022348626311266,7988.28173828125,11.663111111111112,7.092222222222222,178.46901203521873,-8.733060710303132,55.63668937710074,1553.0,1349.0,1350.0,1528.0,1471.0,988.0,161.0,292.25,1649323751.0354128,1649323752.1354153,142115fc-497e-4bc7-b80c-647d95ed50dc
0.1685312828726343,0.372625334487322,0.1372110892176144,0.2743125391396485,0.0008065149251787,-0.2555536330967447,-0.203511087552847,-0.2284673157066454,-9.628190945657286,16.995449962474744,51.043630138191496,-1.0702578659005246,0.9885320593161798,0.2074010733731533,7988.28173828125,11.665,7.105555555555555,178.467265024611,-8.779274054818652,55.86137565949244,1553.0,1349.0,1350.0,1528.0,1471.0,988.0,161.0,292.25,1649323752.2443223,1649323753.4011323,142115fc-497e-4bc7-b80c-647d95ed50dc
0.1696620707051429,0.3746239361611239,0.1394989623350577,0.2630178097515876,0.0004777975528207,-0.2503861948266171,-0.1995270322033142,-0.2150424953862039,-9.530028726000538,17.021720514377236,50.6016474392334,-1.0329007706322133,1.0007866516095865,0.1986350149110219,7988.28173828125,11.667,7.096666666666666,178.4913892527595,-8.774047062828824,56.081039476114455,1553.0,1349.0,1350.0,1528.0,1471.0,988.0,161.0,292.25,1649323753.509433,1649323754.6313295,142115fc-497e-4bc7-b80c-647d95ed50dc
0.1459944181635115,0.3880882000820536,0.1581964078603567,0.6460787457409869,0.0509424942082017,-0.629068732185798,-0.2969720318582765,-0.3180888414712898,-9.855095974154349,18.515766645854843,48.47072514481651,-2.737610707363688,1.0265205402698172,0.2442964157010145,7995.7333984375,11.65688888888889,7.088888888888889,178.49199334504607,-8.900090425134854,56.33773544005141,1553.0,1264.0,1350.0,1528.0,1471.0,988.0,161.0,292.25,1649323755.7459671,1649323756.883525,6777d795-f4e7-4e03-b5d0-f17dd6323ac7
0.1369481153845022,0.3755969396107126,0.1680053349388323,0.6513119263388092,0.062776320809415,-0.6202854001380015,-0.2864530733812018,-0.3078723033815745,-10.075923777126173,18.73009607740466,48.74118772383829,-2.727836971788877,0.9788177327853012,0.1985044230201391,7995.7333984375,11.646777777777778,7.082222222222223,178.52434112095526,-8.88327155862239,56.44721464498278,1553.0,1264.0,1350.0,1528.0,1471.0,988.0,161.0,292.25,1649323756.991886,1649323758.1133702,6777d795-f4e7-4e03-b5d0-f17dd6323ac7
0.1334637109782125,0.374005947488491,0.1565922669726119,0.6501811385720996,0.0527833116980395,-0.6202854001301901,-0.2955388237412933,-0.3129608491722677,-9.958869860779291,18.548992843039795,48.294454237209045,-2.7270673313647094,0.9753940789228892,0.2399323867118566,7995.7333984375,11.653333333333334,7.083333333333332,178.54423214963816,-8.901720089298074,56.59294394056912,1553.0,1264.0,1350.0,1528.0,1471.0,988.0,161.0,292.25,1649323758.2223845,1649323759.2698014,6777d795-f4e7-4e03-b5d0-f17dd6323ac7
0.1200257437035342,0.3755048987494532,0.1869131594965107,1.0900707356230597,0.1165544878901472,-1.04405494145155,-0.3997422594117601,-0.4267102413642891,-10.360640568061104,20.88728716317308,45.53591135642821,-4.655248585983059,0.9561106018298396,0.2590135521909354,7995.7333984375,11.64722222222222,7.097777777777777,178.55525607495858,-9.040019372296044,56.731622963112194,1553.0,1178.0,1350.0,1528.0,1471.0,988.0,161.0,292.25,1649323760.0467837,1649323761.1847,3d8493c3-5324-4884-99bb-26bce29009d2
0.1185267923741642,0.3832494802400554,0.1798260124639202,1.0724251861355958,0.1089282441891867,-1.0391899205641264,-0.4051595233532392,-0.4371766055361494,-10.533433437422945,20.657921496924786,44.95226014679261,-4.60656560022857,0.9932727300873624,0.2867068494044135,7989.109700520833,11.627222222222224,7.081111111111111,178.55314782323475,-9.05406783819016,56.84918000510196,1553.0,1178.0,1350.0,1528.0,1471.0,988.0,161.0,292.25,1649323761.293844,1649323762.6224597,3d8493c3-5324-4884-99bb-26bce29009d2
0.1189344019427749,0.3787920725570013,0.1850328959766599,1.078263207068091,0.1143718043022391,-1.037783009172741,-0.4029505419251135,-0.4285116131506076,-10.76769461050395,20.93289137268976,45.32188699259014,-4.614550151265422,0.9745527574059994,0.2688063398652974,7988.28173828125,11.6265,7.080000000000001,178.5889767188909,-9.058223344253944,56.94569304453144,1553.0,1178.0,1350.0,1528.0,1471.0,988.0,161.0,292.25,1649323762.730798,1649323763.8483791,3d8493c3-5324-4884-99bb-26bce29009d2
0.1033531971544314,0.399211996230317,0.1996279482027178,1.3396592842545418,0.1411556979145595,-1.308212459777615,-0.4751500491591629,-0.4977526643772343,-10.577719026126152,22.526191974457934,43.69949148670229,-5.800760814838689,1.0329433541498885,0.3171812069146665,7988.28173828125,11.596,7.07,178.62357026099917,-9.147296524238998,57.08880736424855,1553.0,1088.0,1350.0,1528.0,1471.0,988.0,161.0,292.25,1649323764.501418,1649323765.6960838,c8bbeb1f-9f01-44bc-bec5-a19e45f6b151
0.1110977791062767,0.4059178307789775,0.2025338099930427,1.3393568641777254,0.1434698684641267,-1.312065031155872,-0.4747687368108806,-0.5090999921660978,-10.714515528638474,22.52218358332787,44.059502688077465,-5.808629223129489,1.056093135189193,0.3107478050591097,7993.24951171875,11.592999999999998,7.059999999999999,178.64733157842977,-9.163529208738693,57.14457050850686,1553.0,1088.0,1350.0,1528.0,1471.0,988.0,161.0,292.25,1649323765.8102767,1649323766.9257972,c8bbeb1f-9f01-44bc-bec5-a19e45f6b151
0.1019462866908799,0.3977919371501143,0.1997199891216531,1.352452966085389,0.1441930467548094,-1.309159166605645,-0.4764912164093962,-0.4926772658816115,-10.741534286109884,22.513937211854167,45.03726957117963,-5.831693469373935,1.0153504709410377,0.3165459390558347,8003.19873046875,11.5885,7.045,178.65837144085825,-9.187543157791204,57.20918295969032,1553.0,1088.0,1350.0,1528.0,1471.0,988.0,161.0,292.25,1649323767.0381362,1649323768.2671485,c8bbeb1f-9f01-44bc-bec5-a19e45f6b151
0.1742378168380754,0.3770958908693189,0.1143455069694629,-0.20193324399562,-0.0680137632616938,0.2057026457205456,-0.0902219121466132,-0.1053166163266669,-9.215975756445026,15.424056483750384,55.257025001389714,1.029864013990224,1.022198437336864,0.174246432114538,8010.67919921875,11.668333333333331,7.076666666666667,178.73351490537698,-8.733574776901913,57.28297973857772,1553.0,1435.0,1350.0,1528.0,1471.0,988.0,161.0,292.25,1649323769.057766,1649323770.1940258,d4f60c8a-c42b-473a-a13e-3243662e41ee
0.1919228126297515,0.3712841675723349,0.1229710515248634,-0.1945173786013112,-0.0593750695159636,0.203625151810379,-0.081911935734091,-0.1072757727606429,-9.114264773582784,15.560800578641636,55.18600800335232,1.009843098207294,0.9999465588654796,0.13816766374311,8024.845920138889,11.667222222222222,7.059999999999999,178.7186675919412,-8.743340145004002,57.33017179228305,1553.0,1435.0,1350.0,1528.0,1471.0,988.0,161.0,292.25,1649323770.303898,1649323771.4248762,d4f60c8a-c42b-473a-a13e-3243662e41ee
0.1915713378878569,0.3734405535926072,0.1200373751893354,-0.1942417616638123,-0.0618950677770803,0.2009903554844183,-0.0863086576698923,-0.1140979230028732,-9.224345615262056,15.545193064635605,55.1204856700861,1.002985236652273,1.009173986962332,0.1519592609904794,8025.68017578125,11.670444444444446,7.051111111111111,178.72324685432477,-8.733679791060403,57.36665335045992,1553.0,1435.0,1350.0,1528.0,1471.0,988.0,161.0,292.25,1649323771.533126,1649323772.8541548,d4f60c8a-c42b-473a-a13e-3243662e41ee
