raw_voltage_G-,raw_voltage_G0,raw_voltage_G1,raw_voltage_G2,raw_voltage_G3,raw_voltage_G4,raw_voltage_G5,raw_voltage_G6,load_x,load_y,load_z,load_l,load_m,load_n,rpm,voltage,current,roll,pitch,yaw,aileron1_pwm,elevator_pwm,throttle_pwm,rudder_pwm,aileron2_pwm,pbaro,pdiff,Tt,sample_start_time,sample_end_time,uid
-0.0788088432470639,0.0653008705742464,-0.1724670129784933,-0.0710511121629481,-0.2670718926460718,0.3861158957872203,-0.385870382376001,-0.4156521858756323,-17.19592313910855,19.53030886054232,52.3597758908068,1.1484994068823628,-0.0992912437703158,1.2093364549682666,5507.92666015625,11.9532,0.12,-179.91111419502212,-9.444225167272233,109.6764278579049,1553.0,1435.0,1200.0,1528.0,1471.0,988.0,161.0,292.25,1649324216.506739,1649324217.485017,b1ba8ea2-56dc-4db6-808c-b64772af79a7
-0.0828444817088026,0.0561903412786383,-0.174860075868275,-0.0677993383125089,-0.2654217310422051,0.3902304259693556,-0.3859725375890485,-0.4153548226264474,-17.364127869853423,19.41846068131732,52.09415409584828,1.1494224751888595,-0.130470524042892,1.2089761063111002,5516.114854600694,11.953333333333331,0.12,-179.83966859492,-9.440387891105528,109.3029959166074,1553.0,1435.0,1200.0,1528.0,1471.0,988.0,161.0,292.25,1649324217.593386,1649324218.709541,b1ba8ea2-56dc-4db6-808c-b64772af79a7
-0.060845700481987,0.0522963043122298,-0.1763898761954061,-0.0619582826114574,-0.2661550237663169,0.3907487879915535,-0.3876287678765796,-0.4197545793558105,-17.341283893870724,19.486349116779444,52.37668912425885,1.1378417168617208,-0.1485563039147639,1.21438492224533,5522.826171875,11.952,0.12,-179.77626167212506,-9.422828233659333,108.9562226589864,1553.0,1435.0,1200.0,1528.0,1471.0,988.0,161.0,292.25,1649324218.8178957,1649324219.871322,b1ba8ea2-56dc-4db6-808c-b64772af79a7
0.1521480078536284,0.4423265676664014,-0.1266963978491023,-0.3060051876569188,-0.3176286369907371,0.2358920509065214,-0.4063823525810731,-0.4183213721242693,-16.39376554271936,18.495248625899336,52.868665781038565,1.3368276368633454,1.336408532129751,1.2902744260786896,5522.826171875,11.944333333333333,0.12,-179.98689256356977,-9.365894717514,108.4066474245294,1637.0,1435.0,1200.0,1528.0,1535.0,988.0,161.0,292.25,1649324221.0595572,1649324222.209136,29a38a5f-bc9f-4242-b0dd-53010bffbbf9
0.1577887983475358,0.4555673036543737,-0.1221206511608273,-0.3077802618314053,-0.316958053238686,0.2271481683243237,-0.4030162855252625,-0.4264078212796093,-16.052887395986637,18.41741494692734,53.26704257927516,1.3211300633577938,1.3806331947051225,1.2807500285003368,5522.826171875,11.936,0.12,-179.9978056880436,-9.343901982705251,108.09312580451775,1637.0,1435.0,1200.0,1528.0,1535.0,988.0,161.0,292.25,1649324222.317775,1649324223.4294157,29a38a5f-bc9f-4242-b0dd-53010bffbbf9
0.1585382740346473,0.4539368654611896,-0.126433423842586,-0.3048349534736511,-0.3196403877394015,0.227213911810149,-0.408525590448187,-0.4309967177183819,-16.240869151787173,18.4348987694932,53.39773821037803,1.3144612671952915,1.3740544559808792,1.2980005656541054,5529.95263671875,11.938444444444444,0.12,179.990857108928,-9.314771795077576,107.90237000464792,1637.0,1435.0,1200.0,1528.0,1535.0,988.0,161.0,292.25,1649324223.5390265,1649324224.657936,29a38a5f-bc9f-4242-b0dd-53010bffbbf9
0.3510088794513751,0.7874666628710592,-0.0817541514348324,-0.5163317762988588,-0.3654504531580569,0.0923082924746651,-0.4273282299997153,-0.4431724130806406,-15.516067654623049,18.0294000819256,53.09206641115775,1.4882480933815765,2.651438511703866,1.3650086049606676,5529.95263671875,11.925333333333334,0.1166666666666666,179.61338898117694,-9.270660156687914,107.5856609630236,1723.0,1435.0,1200.0,1528.0,1599.0,988.0,161.0,292.25,1649324225.5646474,1649324226.698405,5302b639-9a15-4e93-942e-682ca4114d6a
0.3601866687426014,0.8024298778106285,-0.0744566246735747,-0.5275344686170423,-0.3641092859098547,0.0833540304270712,-0.4212140849703202,-0.4366638065358041,-15.16002984555901,17.98653300511031,52.48750278133896,1.493559246670363,2.712239137888369,1.3456555345041266,5529.95263671875,11.910999999999998,0.12,179.5657962230403,-9.22726796489082,107.41580326528428,1723.0,1435.0,1200.0,1528.0,1599.0,988.0,161.0,292.25,1649324226.8069322,1649324227.9187498,5302b639-9a15-4e93-942e-682ca4114d6a
0.351771503763487,0.7903067809972183,-0.077112661458526,-0.5147933785100999,-0.3618477097753256,0.0893761332329735,-0.4240016091781852,-0.4412921485386114,-15.486131469060265,18.077485229869097,53.30203322648582,1.4787873080616425,2.6601235214167427,1.349692760375046,5535.508626302083,11.910111111111114,0.11,179.53305836743849,-9.21617953222826,107.27709502470974,1723.0,1435.0,1200.0,1528.0,1599.0,988.0,161.0,292.25,1649324228.0273402,1649324229.1545894,5302b639-9a15-4e93-942e-682ca4114d6a
0.4869269414320997,1.018476088550083,-0.0424789941890872,-0.6687383630599346,-0.3962710030503467,-0.0098702264920497,-0.440753051880496,-0.4752157940811813,-15.093769246291986,18.496273403525823,50.8861082113931,1.6073427701202874,3.555689004443625,1.3961732809590472,5524.6064453125,11.89,0.12,179.25507042712889,-9.159865950613842,107.07698148622202,1813.0,1435.0,1200.0,1528.0,1662.0,988.0,161.0,292.25,1649324230.069191,1649324231.2082877,b96f419d-66fb-498a-bdbe-dce3bf163e1d
0.4865061831961161,1.0223286563202272,-0.0356416719127339,-0.6682387124742947,-0.3895388692421799,-0.0156950990891439,-0.4343496353427173,-0.4571494799346305,-15.057407581611203,18.389025832080435,50.71226696978279,1.5927465024684282,3.57179198078098,1.3688615470074494,5517.140234375,11.863600000000002,0.108,179.1939497963221,-9.138517511344052,106.85862375355131,1813.0,1435.0,1200.0,1528.0,1662.0,988.0,161.0,292.25,1649324231.3170495,1649324232.4448414,b96f419d-66fb-498a-bdbe-dce3bf163e1d
0.4888203535264195,1.0264310492914144,-0.0344714378928811,-0.6632159087025006,-0.3893547874439608,-0.022966328265421,-0.4357959922162305,-0.4575176442202998,-14.996513961077303,18.44385945330781,50.90537065569035,1.5655600676070422,3.584492687370948,1.3699078329129284,5526.38671875,11.8615,0.107,179.16299537900363,-9.110705151798488,106.6186887702736,1813.0,1435.0,1200.0,1528.0,1662.0,988.0,161.0,292.25,1649324232.5524476,1649324233.878629,b96f419d-66fb-498a-bdbe-dce3bf163e1d
-0.3511537718860679,-0.4091471191528048,-0.2288708796281766,0.1983985452169984,-0.2051273659945044,0.5985108130987458,-0.3552374544428204,-0.3826980060236508,-18.479074084170684,20.9529735124533,51.63074924833955,1.0238270973052472,-1.8999430925499656,1.100680536954783,5517.84951171875,11.8948,0.108,179.88702001970597,-9.147616347846885,106.3407410521891,1470.0,1435.0,1200.0,1528.0,1403.0,988.0,161.0,292.25,1649324234.9847634,1649324236.0471668,9e585a58-7f2a-44b4-890a-1c311e157ac6
-0.3347937567159479,-0.413546876125199,-0.2344590762311894,0.200042132196217,-0.2107155625571821,0.601797986843114,-0.3601682164737074,-0.3901194349292623,-18.4089614171628,21.04462284093828,51.65836514493439,1.027875280728837,-1.9177409237325915,1.1224619510651437,5525.3185546875,11.9406,0.12,179.86019103664617,-9.130303867357652,106.19567329836936,1470.0,1435.0,1200.0,1528.0,1403.0,988.0,161.0,292.25,1649324236.1569138,1649324237.3546531,9e585a58-7f2a-44b4-890a-1c311e157ac6
-0.3530122898821887,-0.409893054962721,-0.2285421622637971,0.198082470799771,-0.2045457890877428,0.6012669818545797,-0.3545294476723234,-0.3878436991798772,-18.522308034055712,20.96378467973836,51.88122456526373,1.0308397637648414,-1.9045948247032984,1.0986578514732666,5518.087890625,11.945666666666666,0.12,179.81048091986682,-9.095155315461064,106.0788165025515,1470.0,1435.0,1200.0,1528.0,1403.0,988.0,161.0,292.25,1649324237.4630997,1649324238.5801518,9e585a58-7f2a-44b4-890a-1c311e157ac6
-0.5679009776439071,-0.8028288233958968,-0.2806019028097468,0.4192243102675027,-0.1625397464181121,0.7720300949261492,-0.3417433497317562,-0.3560622826710064,-19.78047654036008,22.674753358266045,50.20899621644364,0.9235755674394046,-3.3851155210072483,1.0446556929856503,5510.7541015625,11.9068,0.11,179.86707313525386,-9.06841244970304,105.73983466938972,1385.0,1435.0,1200.0,1528.0,1331.0,988.0,161.0,292.25,1649324240.514151,1649324241.861386,589195f6-cf6b-438b-af7c-bb5313fccc76
-0.5691106580003039,-0.7992260789131556,-0.2776171484717187,0.4107302531683615,-0.1619086090115878,0.7721221357965308,-0.3361157069128749,-0.3676462859549925,-19.4907865815738,22.559287729181023,49.645335546295854,0.9423820643345951,-3.367424623238946,1.0315313865116025,5508.62890625,11.888666666666666,0.11,179.84321573982896,-9.036230704308934,105.45857613094154,1385.0,1435.0,1200.0,1528.0,1331.0,988.0,161.0,292.25,1649324241.9702654,1649324243.0188148,589195f6-cf6b-438b-af7c-bb5313fccc76
-0.5610899509621583,-0.7985423464195854,-0.2742773791125866,0.4156084190891292,-0.1576747284488369,0.7708204149844646,-0.3353267849719624,-0.3550103868272879,-19.71651111572721,22.641211898559,50.20987264916516,0.929138726632557,-3.368653559706894,1.0208192140448324,5512.1708984375,11.89,0.1066666666666666,179.82670489587534,-9.011837822053096,105.2315861775248,1385.0,1435.0,1200.0,1528.0,1331.0,988.0,161.0,292.25,1649324243.1276238,1649324244.310517,589195f6-cf6b-438b-af7c-bb5313fccc76
-0.7990025509857442,-1.2073224247494814,-0.3367336956050855,0.6317466682280053,-0.1262756395040663,0.9543630501226172,-0.3288970714140348,-0.362071238801515,-20.818023310861182,24.569146862390657,47.42512994877912,0.8627008278590031,-4.8998879984181976,1.000976292459282,5494.50390625,11.895,0.11,179.90245624723022,-9.003627934670739,104.7705461318192,1297.0,1435.0,1200.0,1528.0,1253.0,988.0,161.0,292.25,1649324245.9152784,1649324246.9763496,84ca4f4c-d40b-4178-abb2-2501c213dcbe
-0.8028288234245443,-1.2161189098264578,-0.3237953764421821,0.6477223326149836,-0.1132189833132215,0.9491824641681744,-0.3172604734365274,-0.3390478669773952,-20.6265424863186,24.81223778213425,47.64523274750552,0.8174093679200692,-4.937328788553856,0.9484085396392816,5485.132866753473,11.837333333333332,0.0944444444444444,179.90170492642153,-8.972513577089178,104.42294718021854,1297.0,1435.0,1200.0,1528.0,1253.0,988.0,161.0,292.25,1649324247.08517,1649324248.213649,84ca4f4c-d40b-4178-abb2-2501c213dcbe
-0.7971485839101695,-1.2199451836476187,-0.3202320791651648,0.6379528522530735,-0.110536649091759,0.9591360264874508,-0.3097131206282557,-0.3453329452826114,-20.54091433909667,24.793418491902862,47.29113737651355,0.861853236877929,-4.947718951353122,0.9281716608376048,5476.9501953125,11.844,0.1,179.8983854544849,-8.961689719393215,104.21228062000822,1297.0,1435.0,1200.0,1528.0,1253.0,988.0,161.0,292.25,1649324248.3216274,1649324249.4357862,84ca4f4c-d40b-4178-abb2-2501c213dcbe
-0.0677376405131688,0.0621846295666899,-0.1710732510252556,-0.0630172584674304,-0.260629030672435,0.3830259524164074,-0.3843451332727878,-0.4069608952673653,-17.47654111244003,19.304296878620217,52.553464995826495,1.1218942444483968,-0.1116141741129117,1.1963526374645546,5479.284505208333,11.913333333333334,0.1133333333333333,179.3843727383064,-8.900450527886097,103.79988745830116,1553.0,1435.0,1200.0,1528.0,1471.0,988.0,161.0,292.25,1649324251.5735493,1649324252.9184563,75ab0256-2abf-4758-aab4-8ebdb24fbbb5
-0.0696967963367266,0.0604884477729143,-0.1753465777018222,-0.0641874924707671,-0.2651653314841321,0.3860238549321332,-0.3893153414623468,-0.4145608435535821,-17.561027222371706,19.41634688785061,52.5537040339438,1.1317582127488153,-0.1175049587575525,1.215112542939348,5494.50390625,11.951444444444444,0.1222222222222222,179.3192719285973,-8.880001890148463,103.95232893256689,1553.0,1435.0,1200.0,1528.0,1471.0,988.0,161.0,292.25,1649324253.0269077,1649324254.1453314,75ab0256-2abf-4758-aab4-8ebdb24fbbb5
-0.0689210232225824,0.0619742504605979,-0.1737950314170611,-0.0615709018189995,-0.2646393835580802,0.3816321907227167,-0.3887236499993277,-0.4141269368440533,-17.437257281441997,19.456960388433902,52.48601866380186,1.1163851710888784,-0.112431524581161,1.21161595920933,5494.8955078125,11.953666666666669,0.1211111111111111,179.23392643818826,-8.862041907725914,104.12399131806689,1553.0,1435.0,1200.0,1528.0,1471.0,988.0,161.0,292.25,1649324254.253764,1649324255.3692634,75ab0256-2abf-4758-aab4-8ebdb24fbbb5
-0.0484747997292491,0.0448020531568217,-0.2108743583567492,-0.4436194681429184,-0.3344458221489119,0.7698474115538947,-0.3122771167811364,-0.334669349942954,-17.295171811127446,18.335755984116272,55.43251242546208,2.841826878798553,-0.1592893416139835,1.24768210310196,5501.55712890625,11.949666666666666,0.12,179.10936807284426,-8.696334498544758,104.47132616901963,1553.0,1522.0,1200.0,1528.0,1471.0,988.0,161.0,292.25,1649324257.5141284,1649324258.852372,d561a9ad-7aac-40c8-8824-40ae725d1560
-0.0644110201910502,0.0577580704348937,-0.2055698703068024,-0.4506160932877513,-0.3348569718268311,0.7582800999855019,-0.311884678739636,-0.3387130806272545,-17.166142364247747,18.504055271712616,54.69654234938973,2.832943694009092,-0.1038861893051029,1.240942226266764,5496.853515625,11.942666666666666,0.1133333333333333,179.08312041477382,-8.686656499945805,104.51832545960843,1553.0,1522.0,1200.0,1528.0,1471.0,988.0,161.0,292.25,1649324258.9636643,1649324260.0897171,d561a9ad-7aac-40c8-8824-40ae725d1560
-0.0714981677680301,0.0564517980280813,-0.2036294259817148,-0.4467357099308807,-0.3311980936667645,0.7592495633806764,-0.3072148679564279,-0.3389689748238004,-17.039052436590126,18.317743358823112,55.1870872584751,2.8253727200686685,-0.1143906076077194,1.2273980249018173,5503.917534722223,11.939,0.1155555555555555,179.05875181763506,-8.696889166823606,104.49815439316956,1553.0,1522.0,1200.0,1528.0,1471.0,988.0,161.0,292.25,1649324260.2028286,1649324261.3129752,d561a9ad-7aac-40c8-8824-40ae725d1560
-0.0445433394509583,0.040397239875903,-0.240577266453308,-0.8892026524855946,-0.411773319112944,1.2033467497905874,-0.2198812162669831,-0.2475986712457897,-16.918228525816968,17.583820276379754,58.36200400518291,4.815277311345894,-0.1514769224799937,1.2622053131183393,5515.71875,11.922,0.1,179.03274093945578,-8.52788306086455,104.55102385189498,1553.0,1613.0,1200.0,1528.0,1471.0,988.0,161.0,292.25,1649324261.9146929,1649324262.9496543,27710d66-125b-4a31-81ec-47a604d55c0c
-0.0490138963455504,0.0347170030799133,-0.2527661092706159,-0.8888607863866784,-0.4215822484946031,1.2052138646359374,-0.2317807876178038,-0.2432070066747174,-17.073858889385807,17.5636380772434,57.78965720771222,4.8177915125598005,-0.1674221962897965,1.307530508809626,5518.087890625,11.920333333333335,0.11,179.03072831038037,-8.532446481003765,104.49749793609932,1553.0,1613.0,1200.0,1528.0,1471.0,988.0,161.0,292.25,1649324263.0572567,1649324264.1800854,27710d66-125b-4a31-81ec-47a604d55c0c
-0.0356811178737501,0.0420671242900016,-0.2442983479293692,-0.8955403276265232,-0.4154549548350688,1.205608325523319,-0.223602297712359,-0.245836746002162,-17.058071054319807,17.547141867903086,58.059188762198254,4.8341085220828095,-0.1409964410520665,1.2772267557545376,5519.27001953125,11.914,0.1011111111111111,179.01546663213497,-8.527801952368156,104.46084638210311,1553.0,1613.0,1200.0,1528.0,1471.0,988.0,161.0,292.25,1649324264.2889087,1649324265.4050417,27710d66-125b-4a31-81ec-47a604d55c0c
-0.0242189944470643,0.0326364747486215,-0.2651309424950934,-1.2690975813599743,-0.4773433534126995,1.5750416980759128,-0.1429112699947514,-0.1705741068899925,-16.824926234705813,17.202863214269914,60.59487218802493,6.504130252984812,-0.1558245711781631,1.274495486699353,5519.27001953125,11.912444444444445,0.1077777777777777,179.02527933724252,-8.382943126446031,104.34269245747087,1553.0,1710.0,1200.0,1528.0,1471.0,988.0,161.0,292.25,1649324267.5488951,1649324268.6877673,c0b3dae4-cba9-4a7f-b427-1b5ae44ea57a
-0.038468641581347,0.0346907056627092,-0.2694255096134296,-1.2632175806280386,-0.4796206071021108,1.5708922725551002,-0.1503509041585086,-0.1811451534205433,-17.107178867160712,17.197853302064914,61.0169872514712,6.4812202554678455,-0.150859728264751,1.2947437548647025,5526.38671875,11.886555555555557,0.1,179.04643926329123,-8.373911055042337,104.17763486489828,1553.0,1710.0,1200.0,1528.0,1471.0,988.0,161.0,292.25,1649324268.7954018,1649324269.9175026,c0b3dae4-cba9-4a7f-b427-1b5ae44ea57a
-0.0235054248157927,0.0389377345906769,-0.2703590671456202,-1.266715136772787,-0.4817638451059001,1.568354573841535,-0.1524021008347936,-0.1811451538718523,-17.11312585053689,17.198661393759117,60.77862916702672,6.483325220163956,-0.1324046794796216,1.3019984816510606,5521.245659722223,11.891888888888888,0.1055555555555555,179.03847222707932,-8.37623085290294,104.03113413739068,1553.0,1710.0,1200.0,1528.0,1471.0,988.0,161.0,292.25,1649324270.0259888,1649324271.1434336,c0b3dae4-cba9-4a7f-b427-1b5ae44ea57a
-0.0300666244300795,0.02638072958842,-0.2520823771801862,-1.385855588948551,-0.4858925369603319,1.6923993940902418,-0.1065394454136872,-0.129220947799572,-16.800744288758622,18.116510334410744,61.301376643775214,7.038057327085354,-0.170502189889582,1.2154251291344649,5522.826171875,11.870333333333331,0.1,179.0604168659727,-8.326154087774391,103.8082210479985,1553.0,1814.0,1200.0,1528.0,1471.0,988.0,161.0,292.25,1649324272.0538745,1649324273.191612,494ecd79-a4a6-4612-b804-b8587c5fae99
-0.0180355670666106,0.0314824237730789,-0.2544228452626589,-1.378584352463624,-0.4890087785747654,1.681985624960432,-0.1110100022799499,-0.129076312214482,-16.604194668082236,18.087315350138564,61.45641636004149,6.998067644871878,-0.1551770910526491,1.230274163210982,5520.060275607639,11.834111111111111,0.0977777777777777,179.10049641602234,-8.321368401895937,103.5674113451611,1553.0,1814.0,1200.0,1528.0,1471.0,988.0,161.0,292.25,1649324273.3000996,1649324274.2540674,494ecd79-a4a6-4612-b804-b8587c5fae99
-0.0169573739171104,0.0387799502153814,-0.252292756218696,-1.3689463470165342,-0.4874046371932305,1.662578145201152,-0.1147047862109261,-0.1397662031357578,-16.5986342154612,18.107016319343103,60.96962531590703,6.932877333561205,-0.1245831431687359,1.2307230393285584,5508.62890625,11.838,0.09,179.09593384965677,-8.317258809881574,103.42090075182468,1553.0,1814.0,1200.0,1528.0,1471.0,988.0,161.0,292.25,1649324274.3634746,1649324275.4404428,494ecd79-a4a6-4612-b804-b8587c5fae99
-0.0786510588850326,0.0805270607373502,-0.1331129620288774,0.3422912944242964,-0.1944384863759835,-0.031079074067475,-0.4707452349714481,-0.4924931849110163,-17.310343211120095,21.031093067712067,49.090821912299205,-0.7100628324456965,-0.0607722875503136,1.177766989653393,5476.9501953125,11.922666666666666,0.1066666666666666,179.06252967115597,-8.888228758140006,103.27627149614966,1553.0,1349.0,1200.0,1528.0,1471.0,988.0,161.0,292.25,1649324277.5865066,1649324278.9381266,8bd784ca-fa75-4339-b604-8dd8217a4f7e
-0.0865665743901775,0.0772924814903047,-0.1376755599540977,0.3412919935686762,-0.1968709954538522,-0.0251753092753571,-0.4740061124601616,-0.4976080282403422,-17.487319126799825,20.96835482546079,49.320171575301735,-0.6952377185835371,-0.0738513276402,1.191767589420668,5475.3955078125,11.956444444444443,0.1244444444444444,179.00543536097393,-8.88081193161128,103.46063120331672,1553.0,1349.0,1200.0,1528.0,1471.0,988.0,161.0,292.25,1649324279.050877,1649324280.163502,8bd784ca-fa75-4339-b604-8dd8217a4f7e
-0.0689999154132143,0.0901650549831974,-0.1321005123215184,0.3394380275322631,-0.1938862410646873,-0.0349710882620204,-0.4712974803021392,-0.4955962776693957,-17.412356624461093,20.90111193661924,49.510138796465206,-0.7131681937611347,-0.0272050406368489,1.1781356071765243,5467.246419270833,11.955999999999998,0.12,178.96190125302405,-8.878521256918384,103.7424091397058,1553.0,1349.0,1200.0,1528.0,1471.0,988.0,161.0,292.25,1649324280.2791126,1649324281.383752,8bd784ca-fa75-4339-b604-8dd8217a4f7e
-0.0957049187701716,0.0784495667502025,-0.1015560890312451,0.6871289714294135,-0.133336489859478,-0.3620975348973813,-0.5418928490251277,-0.5531744340657576,-17.754715075693124,22.6115333648526,46.71780881816344,-2.220328532068504,-0.0848166013295199,1.1512932769808222,5469.95947265625,11.95377777777778,0.12,178.88742638813406,-8.986412917186414,104.2449509326282,1553.0,1264.0,1200.0,1528.0,1471.0,988.0,161.0,292.25,1649324283.430402,1649324284.66317,2f0d7b3e-5cbb-4f5d-9489-f933434ce126
-0.089972086957609,0.0869304757410267,-0.1041989771309542,0.688627922654115,-0.1356243631501433,-0.3681064901949884,-0.546665827151649,-0.5667964872761405,-17.85024184201565,22.48228781788886,47.21432771120112,-2.2381700439562144,-0.0570868456294124,1.1665335649063246,5466.470703125,11.944555555555556,0.12,178.87019761540765,-8.99469793664964,104.38154333237983,1553.0,1264.0,1200.0,1528.0,1471.0,988.0,161.0,292.25,1649324284.7713454,1649324285.8860655,2f0d7b3e-5cbb-4f5d-9489-f933434ce126
-0.084830946397744,0.0933470394254566,-0.1071048391831425,0.6848805445876132,-0.1411599647073492,-0.3718933153858155,-0.5516754818874917,-0.5735812166299363,-17.78401561541485,22.55686069040004,47.047587548841065,-2.237869961678416,-0.0317333186773181,1.185691027823068,5465.77587890625,11.9438,0.12,178.84410750703404,-9.008578968045352,104.52445168394796,1553.0,1264.0,1200.0,1528.0,1471.0,988.0,161.0,292.25,1649324286.0004342,1649324287.1207669,2f0d7b3e-5cbb-4f5d-9489-f933434ce126
-0.1029629994847623,0.0910723150264214,-0.0640954516521409,1.0490468055182962,-0.0700781086963381,-0.7226743358786406,-0.6174584298056738,-0.6373655626368987,-18.0127186839852,24.40598051900512,44.42841333320216,-3.833724630897664,-0.0575112747351832,1.1222141789399809,5473.4521484375,11.93888888888889,0.11,178.8608569522627,-9.116904914508106,104.7760588533893,1553.0,1178.0,1200.0,1528.0,1471.0,988.0,161.0,292.25,1649324288.0271556,1649324289.161834,f225ddf6-16e9-4d2d-b3b2-e30496f9288d
-0.1136660388623836,0.0848661304561202,-0.0711694505588745,1.04669318900661,-0.0756268588065572,-0.7132467168321439,-0.6219026907233967,-0.6454651630055841,-18.077562961617147,24.39577530562701,44.55211296115038,-3.807663141924909,-0.0815844813416687,1.1451038199335677,5478.117350260417,11.910666666666666,0.1066666666666666,178.87236354428447,-9.117913790366764,104.79684236012376,1553.0,1178.0,1200.0,1528.0,1471.0,988.0,161.0,292.25,1649324289.2702172,1649324290.394242,f225ddf6-16e9-4d2d-b3b2-e30496f9288d
-0.1014640480527431,0.0967919978150304,-0.0725763611124839,1.0405264508320795,-0.0798212930741669,-0.7195186474875876,-0.6268466021769754,-0.657246398463351,-18.143652637586385,24.41267919013718,44.49014194037932,-3.8078475003457326,-0.0351678602920755,1.161022041704546,5473.4521484375,11.9158,0.104,178.8814303927347,-9.136840529148085,104.82008685990714,1553.0,1178.0,1200.0,1528.0,1471.0,988.0,161.0,292.25,1649324290.5029423,1649324291.6229098,f225ddf6-16e9-4d2d-b3b2-e30496f9288d
-0.106723526833362,0.1015518258041054,-0.0430575369007516,1.2326157474406692,-0.0405855819304603,-0.9093859124988208,-0.6587453505267904,-0.689500162661658,-18.10096363231028,25.71706159966194,43.28304970492629,-4.657865167288349,-0.0286761720007175,1.1128134089719373,5475.785319010417,11.894666666666666,0.1033333333333333,178.9096654840716,-9.207314990186704,104.97192970603756,1553.0,1088.0,1200.0,1528.0,1471.0,988.0,161.0,292.25,1649324293.5577786,1649324294.8966885,672ef4de-1658-491c-a5cc-9a6aa107a845
-0.1050010475399309,0.1036687658525641,-0.0464236033032505,1.2298150752394486,-0.0451613284005271,-0.9076634327750664,-0.6633999909794478,-0.6745895353776042,-18.16578402403972,25.81929142009893,43.424310854653775,-4.647176919935593,-0.0213964051550049,1.130604818672959,5480.45166015625,11.888666666666666,0.1,178.93553824064762,-9.21308023902863,104.89526083260418,1553.0,1088.0,1200.0,1528.0,1471.0,988.0,161.0,292.25,1649324295.0071764,1649324296.1330354,672ef4de-1658-491c-a5cc-9a6aa107a845
-0.1139684588951294,0.1022224092701403,-0.0401911209423156,1.239466218071528,-0.0384817904015417,-0.9153554238248004,-0.659429082860885,-0.6945229665441305,-18.139608463850955,25.897769405257744,43.430947178177256,-4.685387654525677,-0.0278570286369306,1.1072628290213813,5480.45166015625,11.8744,0.1,178.93790512886804,-9.24496156993574,104.90486726599885,1553.0,1088.0,1200.0,1528.0,1471.0,988.0,161.0,292.25,1649324296.242453,1649324297.360942,672ef4de-1658-491c-a5cc-9a6aa107a845
-0.0535107505843414,0.0617244252063195,-0.1644989022928205,-0.0646082507278621,-0.2585383876024211,0.3844986062894708,-0.3791382484936136,-0.4026875680264201,-17.25605549147805,19.64471615034693,52.5305426094586,1.131483755118874,-0.1140791656158515,1.1770425623005136,5485.1357421875,11.911,0.1033333333333333,178.97875967771546,-8.816578650790493,104.79515530339876,1553.0,1435.0,1200.0,1528.0,1471.0,988.0,161.0,292.25,1649324298.474447,1649324299.51074,0496b21c-0d93-4af7-b1d1-567223df1e27
-0.0801768134021607,0.0612222461636523,-0.1657571315704887,-0.064815595589638,-0.2597703195485054,0.3836055064375038,-0.3785384656696365,-0.4000568169687459,-17.071268121855084,19.54170439458049,52.30434485499583,1.1292559909439783,-0.1153217203815656,1.1793715306725046,5501.951931423611,11.955777777777778,0.1144444444444444,178.96867528286091,-8.817527572766432,104.8569525782793,1553.0,1435.0,1200.0,1528.0,1471.0,988.0,161.0,292.25,1649324299.6194007,1649324300.8403704,0496b21c-0d93-4af7-b1d1-567223df1e27
-0.0443971865947703,0.065824289834592,-0.1636963261227889,-0.0640317309572279,-0.2582025902064054,0.3784471721622868,-0.3779189596558127,-0.3970857168558204,-17.070037781946624,19.503203225187043,52.325440500950975,1.1157476860516964,-0.0982234562099205,1.174155213704382,5509.8095703125,11.957,0.1133333333333333,178.956725487453,-8.821019127524648,104.9483609999416,1553.0,1435.0,1200.0,1528.0,1471.0,988.0,161.0,292.25,1649324300.9525118,1649324302.0748017,0496b21c-0d93-4af7-b1d1-567223df1e27
-0.0188244888241062,0.0851685504931412,0.0095241006802117,-0.0781777059095631,-0.1006751263910849,0.3620669321750453,-0.1982647574005703,-0.2199732578305602,-15.913472051429023,19.45681630237189,52.19261580919604,1.1197276823665492,-0.0199572465674134,0.470546438434214,5512.1708984375,11.9485,0.1,178.96528599121274,-8.812813793601737,105.00245495980325,1553.0,1435.0,1200.0,1446.0,1471.0,988.0,161.0,292.25,1649324302.9771674,1649324304.3282826,820558d9-f022-48f1-acc6-3296a7b6f1dd
-0.007464015016941,0.0856024574589604,0.0245530607423666,-0.0755611152115597,-0.088183864223646,0.3610281852512167,-0.1835513648476548,-0.2163968122213448,-15.71334624558314,19.609324782723984,52.55929895061644,1.1134096204495,-0.0223629922685046,0.4127680049337401,5505.0908203125,11.956666666666669,0.11,178.9728037527592,-8.803694732149864,105.05716287778029,1553.0,1435.0,1200.0,1446.0,1471.0,988.0,161.0,292.25,1649324304.4453678,1649324305.5577345,820558d9-f022-48f1-acc6-3296a7b6f1dd
-0.0062674836380243,0.0874695723120958,0.0252762390214251,-0.0773493379344068,-0.0870267789041526,0.3600946278998968,-0.1816185063408973,-0.1965554270966966,-15.668818641529192,19.4670744914512,52.4643274198584,1.114445874909434,-0.0145699998601141,0.4076200768242642,5508.62890625,11.959333333333332,0.11,178.9757771617779,-8.805284079224231,105.06747266887744,1553.0,1435.0,1200.0,1446.0,1471.0,988.0,161.0,292.25,1649324305.671126,1649324306.781061,820558d9-f022-48f1-acc6-3296a7b6f1dd
0.0370837684561619,0.1156998227229995,0.2057683891404302,-0.0868032510682416,0.0754385152520204,0.3327321929622522,0.0021082359373009,-0.0257407033269646,-14.356566572549712,19.4479626468538,52.66455543840808,1.0838376230308686,0.0928540844021321,-0.3167410218526991,5515.71875,11.955444444444446,0.1122222222222222,178.988819787453,-8.804360296138988,105.09067102693844,1553.0,1435.0,1200.0,1354.0,1471.0,988.0,161.0,292.25,1649324308.4190938,1649324309.649618,e3a933c6-c02d-4979-831f-8c4ad56b5a53
0.049864301226798,0.1185530897458607,0.2034410699762389,-0.091615674124746,0.0730191551294107,0.3323508807953081,-0.000797626018671,-0.0167338463506695,-14.472736286537504,19.403539879473303,52.35900214874015,1.0933188583580635,0.1075301215618008,-0.30632695992523,5515.71875,11.95525,0.11,178.98806808718933,-8.816522159434234,105.10520491058232,1553.0,1435.0,1200.0,1354.0,1471.0,988.0,161.0,292.25,1649324309.7581146,1649324310.87542,e3a933c6-c02d-4979-831f-8c4ad56b5a53
0.0481155246176805,0.1072452111690961,0.2081483030350643,-0.0815174748583288,0.0791595962654291,0.3370318163325229,0.0052376256318842,-0.0153926798082843,-14.396098297453682,19.56759260167988,52.80996683888965,1.0824908601337233,0.059637279479332,-0.3303572540326412,5516.507921006944,11.955444444444446,0.1022222222222222,178.99201783380437,-8.826326469100964,105.14553641872136,1553.0,1435.0,1200.0,1354.0,1471.0,988.0,161.0,292.25,1649324310.983589,1649324312.103959,e3a933c6-c02d-4979-831f-8c4ad56b5a53
0.1157129714282859,0.1403667763338088,0.4295854820380791,-0.0926018263776372,0.2782045530467771,0.3023061118698946,0.2287128630068692,0.196248732992225,-12.903587458792778,19.67948805918742,52.7396300440966,1.0419690884012476,0.1893276099773718,-1.2166789073480109,5522.826171875,11.947599999999998,0.102,179.0065840470103,-8.838024192582987,105.1271639687639,1553.0,1435.0,1200.0,1252.0,1471.0,988.0,161.0,292.25,1649324314.037696,1649324315.1758626,4f7d17bf-9868-496c-b69b-24460bcc1318
0.119907405457033,0.1402615867532218,0.4236422718537732,-0.0869741840946674,0.2715118670872736,0.2956002772016755,0.219811196129388,0.2032175419231005,-12.850992024299345,19.82562137064001,52.44935704004638,1.0148586075092778,0.1900663371229988,-1.1871838838107749,5512.1708984375,11.942,0.11,178.9944099178337,-8.837070356665393,105.16131491461395,1553.0,1435.0,1200.0,1252.0,1471.0,988.0,161.0,292.25,1649324315.2836895,1649324316.612729,4f7d17bf-9868-496c-b69b-24460bcc1318
0.1103220060528956,0.1406954937107012,0.4265218360723168,-0.0898931947948619,0.2748384870089752,0.2995054397411765,0.2245184291226533,0.2062548907885902,-12.863955810444,19.72880286121568,52.71311859227632,1.0297556830930232,0.18998809426912,-1.2019125289388572,5501.55712890625,11.94222222222222,0.11,179.0265360920498,-8.856529281019546,105.12111545679892,1553.0,1435.0,1200.0,1252.0,1471.0,988.0,161.0,292.25,1649324316.72149,1649324317.8367507,4f7d17bf-9868-496c-b69b-24460bcc1318
-0.1465114843102669,0.0303121898121332,-0.4053173079228531,-0.0257144059754542,-0.478147952767091,0.3894162182935408,-0.6371683321948538,-0.6591924064805147,-18.89590284444555,20.14611858185684,52.02800236031854,1.0452264444366453,-0.235880472935496,2.1662793673981984,5494.112847222223,11.946999999999996,0.1,179.0786595423359,-8.846669523497676,105.23510296603745,1553.0,1435.0,1200.0,1604.0,1471.0,988.0,161.0,292.25,1649324319.9752667,1649324321.114455,33e6cfa7-c8d8-46e5-8da9-c5a96df5b9c1
-0.1427904031002554,0.0233170832998547,-0.405343605248188,-0.0225718674385385,-0.4753078335929321,0.3904549652150287,-0.6360769899342577,-0.6550637141650358,-19.02234103309049,20.086165747555206,51.61843803384779,1.039944173752788,-0.2579811162640976,2.1594327052961635,5487.859809027777,11.951222222222222,0.1011111111111111,179.08249659082963,-8.867237689545785,105.219832939783,1553.0,1435.0,1200.0,1604.0,1471.0,988.0,161.0,292.25,1649324321.2231624,1649324322.5497282,33e6cfa7-c8d8-46e5-8da9-c5a96df5b9c1
-0.1525730337177178,0.0293654836767012,-0.4011886163959798,-0.0259905285632301,-0.4738483279673574,0.3900868017561492,-0.6324085024460052,-0.6666082735545115,-18.89263827776436,20.128616716303394,51.98975679450206,1.0474413059503636,-0.2388198960437594,2.147856830062703,5483.9580078125,11.950444444444445,0.1055555555555555,179.10948342715025,-8.860730985723965,105.17166416902636,1553.0,1435.0,1200.0,1604.0,1471.0,988.0,161.0,292.25,1649324322.6582892,1649324323.696458,33e6cfa7-c8d8-46e5-8da9-c5a96df5b9c1
-0.212268120100418,0.0007539202848815,-0.6017588812465836,0.0238824772509602,-0.6549453757302612,0.3823685176603806,-0.8533987341138038,-0.8824442193473209,-20.46299247318885,20.757785297455552,51.81371598901043,0.91096124504513,-0.3523006777632023,2.977930498045112,5501.55712890625,11.93,0.1,179.0908339750765,-8.866694310051818,105.1736980475792,1553.0,1435.0,1200.0,1676.0,1471.0,988.0,161.0,292.25,1649324325.507203,1649324326.653163,2addfb1e-b914-4915-ac7d-5a74a20cc6e0
-0.2181850340479058,-0.0073719741871077,-0.6050329077696677,0.0306672045513731,-0.6543536843039928,0.3865366540400142,-0.8556077162672758,-0.8819182714228048,-20.658213749943748,20.719015057990266,52.14274761590477,0.9045570643678617,-0.3853557518295683,2.984152285635359,5511.384223090277,11.934888888888889,0.11,179.10290974952906,-8.861680761473549,105.11515194274358,1553.0,1435.0,1200.0,1676.0,1471.0,988.0,161.0,292.25,1649324326.7659776,1649324328.0859582,2addfb1e-b914-4915-ac7d-5a74a20cc6e0
-0.2083629569131124,0.000977448118094,-0.5986031931359146,0.0385958684330939,-0.6477267388939869,0.36964058066191,-0.8524651762199907,-0.8845874593106265,-20.590758386376915,20.566761740548127,51.98015234153519,0.8480230962139995,-0.3536478571679957,2.9628475648425168,5502.735026041667,11.934333333333331,0.1066666666666666,179.1112744545326,-8.866811277041354,105.03457620110494,1553.0,1435.0,1200.0,1676.0,1471.0,988.0,161.0,292.25,1649324328.198274,1649324329.307555,2addfb1e-b914-4915-ac7d-5a74a20cc6e0
-0.2692940224314097,-0.0285545243306504,-0.7855119826183694,0.0986854100136224,-0.8196065679922883,0.351547975963133,-1.063751702174225,-1.0978068503988851,-21.8011417443004,21.597592945429987,51.62182169710445,0.668679612512671,-0.4718978849094336,3.7477369363854702,5505.0908203125,11.894777777777778,0.1,179.13038532383032,-8.894402205648573,104.89288848023249,1553.0,1435.0,1200.0,1747.0,1471.0,988.0,161.0,292.25,1649324331.651985,1649324332.7439623,42093d38-29a2-4a07-8a13-ea2347b4e680
-0.2526083247677788,-0.0039664617593481,-0.7809756804545931,0.0863913791560525,-0.8180024263936442,0.3391619049727333,-1.063278348939087,-1.0867356398330714,-21.958398669022785,21.31565970920168,51.70003996837431,0.666868996132511,-0.3774614672557587,3.7416780241538943,5505.0908203125,11.9063,0.09,179.15393718212633,-8.886946190909484,104.75920801779698,1553.0,1435.0,1200.0,1747.0,1471.0,988.0,161.0,292.25,1649324332.8521688,1649324334.0183525,42093d38-29a2-4a07-8a13-ea2347b4e680
-0.2807202409998487,-0.0322493080741972,-0.8013561688798836,0.098593369107907,-0.8303096119198183,0.3566759671187711,-1.0770713407503607,-1.1002130626223927,-22.06693965195904,21.304116473814567,51.71672138749874,0.6775574210514259,-0.4857134935551115,3.8024971071011326,5518.090494791667,11.904555555555554,0.1,179.1336531898932,-8.883384825926127,104.67059921478447,1553.0,1435.0,1200.0,1747.0,1471.0,988.0,161.0,292.25,1649324334.1268542,1649324335.2419584,42093d38-29a2-4a07-8a13-ea2347b4e680
-0.0644995210384126,0.0608050279454522,-0.2418552187266475,-0.0192376616442402,-0.3011887184165908,0.3597229243800094,-0.4362915969511408,-0.45842945489986,-17.111598042249856,16.564709920795792,54.33697687779339,0.949555667389277,-0.145102583476457,1.4261527164671957,7973.419921875,11.661444444444443,6.984444444444445,-179.32931078885738,-8.890669696994637,93.56448167464173,1553.0,1435.0,1350.0,1528.0,1471.0,988.0,161.0,292.25,1649324339.4752152,1649324340.5678303,e6c7446d-ceb7-4b02-b75c-b8a30199b5c4
-0.0911554696131908,0.061619235672313,-0.2426416118754798,-0.0112113938595389,-0.3035726784718351,0.3556372201639145,-0.441265850919424,-0.4684836587302958,-17.11822935207041,16.849023764314087,54.89434766100983,0.92420035459228,-0.147975074589044,1.438387665961912,7980.84423828125,11.666,6.97,-178.83530749130742,-8.75353572016006,88.29743669660964,1553.0,1435.0,1350.0,1528.0,1471.0,988.0,161.0,292.25,1649324340.6758509,1649324341.7997277,e6c7446d-ceb7-4b02-b75c-b8a30199b5c4
-0.072110593608855,0.0552294750240906,-0.2455090394761003,-0.0148252624464905,-0.3037805290858657,0.3611768666524403,-0.4426763017782,-0.4617545595632934,-17.37879934755478,16.792414786052703,54.30470823595858,0.9440574793066164,-0.1646081473386766,1.442792094619808,7980.84423828125,11.658555555555555,7.05,-178.64141967024818,-8.679610590634505,84.6837604327644,1553.0,1435.0,1350.0,1528.0,1471.0,988.0,161.0,292.25,1649324341.9076931,1649324343.0297878,e6c7446d-ceb7-4b02-b75c-b8a30199b5c4
0.1417342407100589,0.4465998935926955,-0.198356798257326,-0.2372243486563767,-0.3541031264382001,0.1884121108493599,-0.4655514985435347,-0.4886669125053837,-16.221477508271477,15.544363185269503,55.24743883247048,1.0523170805051467,1.3170723588057294,1.5276860523645168,7988.28173828125,11.639333333333331,7.017777777777777,-178.8423183010355,-8.431015610508135,75.52779850444365,1637.0,1435.0,1350.0,1528.0,1535.0,988.0,161.0,292.25,1649324345.1687052,1649324346.3060057,2e11a617-8bf6-4e72-bffb-fd1cfe2978b9
0.1346207962102611,0.4372906174407205,-0.2011574708020668,-0.235449274402604,-0.3572851114717094,0.1968535734881699,-0.4699826102433169,-0.4830787156334642,-16.415347828647644,15.933009520119228,55.351588336576896,1.0696379829230698,1.282216499132521,1.540887563380941,7988.28173828125,11.630333333333333,7.046666666666667,-179.01624527370032,-8.418808260050291,72.71614430241874,1637.0,1435.0,1350.0,1528.0,1535.0,988.0,161.0,292.25,1649324346.4148166,1649324347.531021,2e11a617-8bf6-4e72-bffb-fd1cfe2978b9
0.1415633076459957,0.4381452826258425,-0.1999477906546383,-0.2400118725941326,-0.3554574423578756,0.1972348856711996,-0.4645521973433506,-0.4960827794857532,-16.189671881358333,15.64189867169809,54.95567772096015,1.0789678600806931,1.2879671838458018,1.5287998440640047,7992.421549479167,11.638777777777776,7.037777777777778,-179.19454812089342,-8.388044423982386,70.59160257743765,1637.0,1435.0,1350.0,1528.0,1535.0,988.0,161.0,292.25,1649324347.6396496,1649324348.7666197,2e11a617-8bf6-4e72-bffb-fd1cfe2978b9
0.3389909719160018,0.7941593486346912,-0.1535723349393128,-0.4656435397583676,-0.4051200775349065,0.0547687648960398,-0.4878648415407429,-0.5016183816605745,-15.660658502646411,15.299721724269745,54.84606659237371,1.268086900332854,2.651177881282485,1.6078747054716551,7988.28173828125,11.607111111111111,7.052222222222222,-179.8469541300347,-8.312699753474329,67.86206698089389,1723.0,1435.0,1350.0,1528.0,1599.0,988.0,161.0,292.25,1649324349.469157,1649324350.6091154,c4fa76ae-4abe-4752-bab3-170bf6840566
0.3377549945741734,0.7964077754838351,-0.1391613626628864,-0.4541515765526996,-0.3925367725250268,0.0439999826505389,-0.4769119747640087,-0.5102702263865038,-15.486651165707425,15.47269842281873,55.22714795334232,1.2199775463866975,2.6545033590818603,1.5564584979069156,7983.323404947917,11.605333333333334,7.06,59.97822247311868,-8.33581387253556,66.24519879763162,1723.0,1435.0,1350.0,1528.0,1599.0,988.0,161.0,292.25,1649324350.7180278,1649324351.8353095,c4fa76ae-4abe-4752-bab3-170bf6840566
0.33920135105803,0.8001157074812398,-0.1492990082128143,-0.466905814708145,-0.4030162855095164,0.0523888508986136,-0.483499473247625,-0.4948862479484334,-15.456444486852591,15.270250737687688,55.2044740711473,1.2657636436063464,2.669321734732093,1.5943389572984097,7988.28173828125,11.601555555555557,7.044444444444445,179.82408513887367,-8.368580756441311,64.71114589914583,1723.0,1435.0,1350.0,1528.0,1599.0,988.0,161.0,292.25,1649324351.94374,1649324353.0657349,c4fa76ae-4abe-4752-bab3-170bf6840566
0.4957497158198765,1.0501381471835307,-0.0974142495128574,-0.6338417109475005,-0.4263552263300902,-0.0608345747083131,-0.4862475515073487,-0.5188168810132389,-14.885642275165246,15.57484309012514,52.26601804761907,1.3923235853261855,3.652909124488468,1.58423424259649,7988.28173828125,11.551333333333336,7.033333333333334,179.31344350050554,-8.366646200222643,62.939510182750496,1813.0,1435.0,1350.0,1528.0,1662.0,988.0,161.0,292.25,1649324353.93418,1649324355.112024,48cc8d88-81c6-4d20-88d8-c13e15f38e0c
0.4908058064829289,1.058461271429476,-0.0985844834815469,-0.6343676590522991,-0.4276700961597215,-0.0659757151430109,-0.4876281648989443,-0.5079297574626331,-14.818148038830252,15.375044129197084,52.61765375842359,1.3806644327342712,3.680518835198121,1.5912136398917776,7980.84423828125,11.550222222222224,7.03888888888889,179.124421809775,-8.412158311983376,61.940314219970254,1813.0,1435.0,1350.0,1528.0,1662.0,988.0,161.0,292.25,1649324355.2211113,1649324356.5469296,48cc8d88-81c6-4d20-88d8-c13e15f38e0c
0.4926597724853341,1.0537014436521996,-0.0931014768422145,-0.6317116214104915,-0.4247905310007011,-0.0633591245392444,-0.4834468784302123,-0.507127686619389,-14.703653508899112,15.72132356858481,52.70669061235132,1.383193262992228,3.661093542528278,1.5733752420683462,7980.84423828125,11.554333333333332,7.036666666666666,178.96219874570792,-8.430643080607155,61.10406759803881,1813.0,1435.0,1350.0,1528.0,1662.0,988.0,161.0,292.25,1649324356.656824,1649324357.7703698,48cc8d88-81c6-4d20-88d8-c13e15f38e0c
-0.3400734648264416,-0.4196493895674408,-0.2987997009766998,0.2384034516020872,-0.2414056343663665,0.5868438748959734,-0.4033713002951845,-0.4279067726013484,-18.43531137726436,18.15736971073869,53.32400964120136,0.8856462225449097,-1.96405604399162,1.3165920289163409,7990.765625,11.647666666666668,7.096666666666666,179.33969874767507,-8.496411825898853,59.49753197317096,1470.0,1435.0,1350.0,1528.0,1403.0,988.0,161.0,292.25,1649324359.5153437,1649324360.6410234,14bad3bd-fe73-4740-aba6-ac345d60b265
-0.3382063496374133,-0.4266313487418195,-0.2951706604038626,0.2396920237336093,-0.2357779917974466,0.5904597660169442,-0.3965339769353175,-0.4208327725170172,-18.385483170126225,18.0562693961317,53.0755978831843,0.890360889439922,-1.9883239441321925,1.2931377600691636,7988.28173828125,11.646777777777778,7.077777777777778,179.16574445425354,-8.544188619688137,58.98805753824099,1470.0,1435.0,1350.0,1528.0,1403.0,988.0,161.0,292.25,1649324360.749078,1649324361.871272,14bad3bd-fe73-4740-aba6-ac345d60b265
-0.3508422489469593,-0.416822419268256,-0.300982384955088,0.2366809724270458,-0.245166162042464,0.583464660284867,-0.4069608951061103,-0.4233967688884144,-18.376613588280406,18.21826316971423,52.98884733741206,0.8822092742921299,-1.9508233638223769,1.3296703611794165,7988.28173828125,11.639666666666669,7.076666666666666,179.04360397587575,-8.537936150685425,58.54465228206247,1470.0,1435.0,1350.0,1528.0,1403.0,988.0,161.0,292.25,1649324361.9800026,1649324363.3107555,14bad3bd-fe73-4740-aba6-ac345d60b265
-0.579708510444459,-0.8146495068117204,-0.3325261120335341,0.4612869859947937,-0.1823942794225115,0.7572246643517255,-0.3675936909458594,-0.3934703301494183,-19.200781332876435,19.74031721836384,51.695872668410175,0.7739133068959958,-3.455251659175813,1.1819274309366363,7995.7333984375,11.5904,7.053999999999999,178.99110137419973,-8.55827381682179,57.82897686460153,1385.0,1435.0,1350.0,1528.0,1331.0,988.0,161.0,292.25,1649324364.627055,1649324365.760194,f334dc3a-971d-4a14-ac48-e171f28c0b25
-0.5857700612918243,-0.8191332143922564,-0.3459509333686962,0.4637983866858935,-0.1948197987516663,0.757329853919132,-0.382201895254118,-0.3953768922842139,-19.282030198702422,19.841066577557072,51.30657092593261,0.7683810348776627,-3.469201418276305,1.2367821636617742,7988.28173828125,11.599555555555556,7.059999999999999,178.95176221665614,-8.548945372126362,57.44995889103684,1385.0,1435.0,1350.0,1528.0,1331.0,988.0,161.0,292.25,1649324365.8702471,1649324366.9939966,f334dc3a-971d-4a14-ac48-e171f28c0b25
-0.5811811648542993,-0.8151623062032902,-0.3412699965554694,0.4627596398179174,-0.191072419857687,0.757040582624168,-0.3773500253658738,-0.4083678060769583,-19.220985579504028,19.80222490446544,51.71917439148657,0.7701462550367623,-3.457973071512169,1.2195013816724791,7988.28173828125,11.5995,7.065,178.8672454558664,-8.537810740823163,57.16758198500306,1385.0,1435.0,1350.0,1528.0,1331.0,988.0,161.0,292.25,1649324367.1020498,1649324368.2166774,f334dc3a-971d-4a14-ac48-e171f28c0b25
-0.8363448661972428,-1.2538951462109933,-0.3864752224429208,0.6933877502389145,-0.1352167535910432,0.9559408935301644,-0.3470028290317184,-0.3788752752516577,-20.46309868664901,21.78978755231892,49.00081683136897,0.706727602805507,-5.10183118243614,1.1052527765849782,7989.937662760417,11.518999999999998,7.047777777777778,178.89412908043957,-8.542343425111111,56.67804771817252,1297.0,1435.0,1350.0,1528.0,1253.0,988.0,161.0,292.25,1649324370.1531236,1649324371.4932785,ff79f665-6301-469a-84ef-f01eb31d8f06
-0.8231961635300183,-1.2546577712705866,-0.3899596275654525,0.695623028377617,-0.1405025298094559,0.953981737938054,-0.3530906764067327,-0.3724850070421226,-20.431279638262385,22.02826023847935,48.86887529056621,0.6986852275550894,-5.104239361883696,1.1255352278376496,7984.976182725694,11.538666666666666,7.04,178.8760943453911,-8.547537973702383,56.46734662756138,1297.0,1435.0,1350.0,1528.0,1253.0,988.0,161.0,292.25,1649324371.60153,1649324372.7292376,ff79f665-6301-469a-84ef-f01eb31d8f06
-0.8347670219754447,-1.2597594699181884,-0.3941935085724193,0.7009219524561351,-0.1408706933318821,0.9557305144048808,-0.3554705908171423,-0.3754434645324837,-20.53997224425659,21.855331692995684,49.07758862710583,0.689283261093426,-5.125378104315783,1.1349149056431442,7981.670627170139,11.549666666666669,7.0488888888888885,178.86730009737977,-8.575669246163942,56.31998719349312,1297.0,1435.0,1350.0,1528.0,1253.0,988.0,161.0,292.25,1649324372.8373396,1649324373.9500391,ff79f665-6301-469a-84ef-f01eb31d8f06
-0.0907610087188269,0.0501141264692264,-0.2454422846411093,-0.001021153973356,-0.2990232290268818,0.353191562856625,-0.4407136056207851,-0.4598318153017901,-17.266724437936194,16.497652282249156,54.27482187882167,0.8930757080635908,-0.1860225194489925,1.4330863032571843,7982.497016059027,11.648444444444443,7.103333333333334,178.50084678803023,-8.546891287597216,56.12229988998059,1553.0,1435.0,1350.0,1528.0,1471.0,988.0,161.0,292.25,1649324376.0966904,1649324377.2337987,eb5d068c-8667-4d34-8791-610a65990d24
-0.0898011538307982,0.0555182406141747,-0.2559612428772855,-0.0134466721814773,-0.3107913138386374,0.358201215757582,-0.4502858586109389,-0.465919662762524,-17.321966286196133,16.4140648612732,54.0372536428583,0.9312184297446288,-0.1623956724307164,1.477287761928271,7988.28173828125,11.65611111111111,7.091111111111111,178.4679692930054,-8.5666215222434,56.199194539111545,1553.0,1435.0,1350.0,1528.0,1471.0,988.0,161.0,292.25,1649324377.3416512,1649324378.469798,eb5d068c-8667-4d34-8791-610a65990d24
-0.0883022023963106,0.0525860813698405,-0.2452713515329042,-0.0046370454788224,-0.3000225300417664,0.3567154131914304,-0.4426464643518142,-0.4611729819434663,-17.474269429538378,16.65308376994204,54.63898041597854,0.9101432971686486,-0.1780510952304869,1.4375384483792972,7995.7333984375,11.659666666666665,7.081111111111111,178.51218338423263,-8.580763049464956,56.22834806321888,1553.0,1435.0,1350.0,1528.0,1471.0,988.0,161.0,292.25,1649324378.58364,1649324379.6850092,eb5d068c-8667-4d34-8791-610a65990d24
-0.0616295650976016,0.0407785521113445,-0.3048046103157195,-0.4689863436220952,-0.4016624752875933,0.814718344764851,-0.3695872359579735,-0.3862759691139745,-17.26479921715305,15.369706325207291,57.38225764279242,2.9758660016105614,-0.1947572032674843,1.5521475287094522,7998.221842447917,11.645,7.066666666666666,178.5392506650035,-8.491162825521698,56.34138124324838,1553.0,1522.0,1350.0,1528.0,1471.0,988.0,161.0,292.25,1649324381.6331396,1649324382.7609444,b1f72205-bc06-4af2-a6ae-1e8424422c08
-0.0795583189598582,0.0406865112245442,-0.2983657939614764,-0.4687860788599664,-0.3937990476668149,0.8135142277308305,-0.3629522003020284,-0.3928654899693066,-17.395389883963613,15.27127480318707,57.27675960184989,2.972293984222476,-0.1928612370315738,1.5230044597650256,8003.19873046875,11.644,7.08,178.50782724136198,-8.43556110140078,56.38184214552668,1553.0,1522.0,1350.0,1528.0,1471.0,988.0,161.0,292.25,1649324382.868801,1649324383.9900086,b1f72205-bc06-4af2-a6ae-1e8424422c08
-0.0588885675542434,0.0506926690910232,-0.296301448398806,-0.4729673652701833,-0.3941277651756609,0.8054014828859297,-0.3618082635527359,-0.3771133492750879,-17.21111334368385,15.151182350875809,56.98286655837361,2.962848116162475,-0.153387921096534,1.519947263653144,8003.19873046875,11.636555555555557,7.07,178.5038581425443,-8.39630088946033,56.38059184145361,1553.0,1522.0,1350.0,1528.0,1471.0,988.0,161.0,292.25,1649324384.1022463,1649324385.2233746,b1f72205-bc06-4af2-a6ae-1e8424422c08
-0.0571003448501873,0.0402657529468575,-0.3478048997951095,-0.9739723461264076,-0.4968979984012421,1.3034083277964656,-0.278248285863532,-0.2898980330764455,-17.283271693649734,14.52013206288036,60.87122505940608,5.205916149056292,-0.1680382101301,1.611195509399674,8003.19873046875,11.614777777777778,7.064444444444444,178.52525940194369,-8.227470281417446,56.470181535521895,1553.0,1613.0,1350.0,1528.0,1471.0,988.0,161.0,292.25,1649324385.9613352,1649324387.1564324,41a16905-49b9-4d6a-a167-084da84dd1b9
-0.0591646902041465,0.0319820742779606,-0.3527882565440896,-0.9661225699647608,-0.4978052587539525,1.3047494948073342,-0.2823901257233577,-0.2946578617319454,-17.442365831596067,14.455816509529322,60.902094425715376,5.190473101939378,-0.1995380912456742,1.6241463701027987,8003.19873046875,11.612,7.059999999999999,178.5670358745471,-8.27779824572547,56.495142461843706,1553.0,1613.0,1350.0,1528.0,1471.0,988.0,161.0,292.25,1649324387.2646482,1649324388.2142975,41a16905-49b9-4d6a-a167-084da84dd1b9
-0.060505857263772,0.0377675006546307,-0.351959888441979,-0.9680422805628351,-0.4995277382375902,1.3006208041590055,-0.2824953152657788,-0.2974848313493508,-17.257847081003224,14.480769379509404,60.87123819767339,5.185820405727595,-0.1785824304403679,1.6262715422922804,8003.19873046875,11.618,7.059999999999999,178.56609786190108,-8.238388054214498,56.52047904856986,1553.0,1613.0,1350.0,1528.0,1471.0,988.0,161.0,292.25,1649324388.3233497,1649324389.265659,41a16905-49b9-4d6a-a167-084da84dd1b9
-0.0493557624427844,0.0393321955161642,-0.4005311814821712,-1.4331909417297497,-0.5968544159933851,1.7497671661888532,-0.2093491093272258,-0.2217220345227523,-17.333935739871205,13.789036997027427,64.15008099129436,7.237853931487839,-0.1470567736120232,1.7218634722392472,8003.19873046875,11.569888888888888,7.031111111111112,178.55049619201696,-8.038080993700301,56.5486664803646,1553.0,1710.0,1350.0,1528.0,1471.0,988.0,161.0,292.25,1649324390.0196066,1649324391.1638649,3de04cfb-cd4c-451d-8a8b-b9477da92084
-0.0504865503419398,0.0413570947554643,-0.3944959286958014,-1.4280760935799297,-0.5940668915102472,1.745191418877994,-0.2071664255124152,-0.2328589809158648,-17.234003192518607,14.106723467066828,64.47829343050627,7.21854289178393,-0.1433201635941986,1.7074246485518176,8003.19873046875,11.569,7.037999999999999,178.5872049678202,-8.04729985180505,56.55569982971692,1553.0,1710.0,1350.0,1528.0,1471.0,988.0,161.0,292.25,1649324391.2769594,1649324392.3831255,3de04cfb-cd4c-451d-8a8b-b9477da92084
-0.0368645005746858,0.0343619883102817,-0.398124969617317,-1.4280892423875011,-0.5949347057877145,1.7463879505232325,-0.2060356375649136,-0.2307814866194106,-17.060696763717498,13.84464475258445,63.66542113038534,7.219300926667586,-0.1638111069913877,1.710179174842034,8003.19873046875,11.574666666666666,7.040000000000001,178.6021551894395,-8.035021922725782,56.537925248984855,1553.0,1710.0,1350.0,1528.0,1471.0,988.0,161.0,292.25,1649324392.4924266,1649324393.6162672,3de04cfb-cd4c-451d-8a8b-b9477da92084
-0.0290673235031183,0.0538483561936199,-0.408722820969207,-1.6862379074134184,-0.6452416346663783,1.9743075163305184,-0.1676282922739412,-0.1902309031773101,-17.314240699503216,14.552598868281596,65.08639854438405,8.31805106045378,-0.070401159895351,1.740091869861632,7995.7333984375,11.532555555555556,7.024444444444445,178.67136321956954,-7.993199061754241,56.585645503986,1553.0,1814.0,1350.0,1528.0,1471.0,988.0,161.0,292.25,1649324395.5508566,1649324396.6930096,008741d0-6589-4026-bca7-6e4a77a10cf0
-0.0166681026201297,0.0629078078924804,-0.4117470216536623,-1.6940482439526532,-0.6499094233455932,1.9743732601173405,-0.1736766930151823,-0.1990931253441903,-17.56906086347876,14.599311155402988,65.30096334796346,8.335882010491725,-0.0357501422739338,1.7603164832310103,7995.7333984375,11.5378,7.032000000000001,178.7354938388525,-7.981257728191821,56.57808987283514,1553.0,1814.0,1350.0,1528.0,1471.0,988.0,161.0,292.25,1649324396.8119075,1649324397.963936,008741d0-6589-4026-bca7-6e4a77a10cf0
-0.0248597405696531,0.063841365326425,-0.4066979213340249,-1.6977956283634577,-0.6478056312967759,1.9784625063380616,-0.1649459580376568,-0.1890738179913086,-17.116587360554355,14.57990875722884,65.57247417476977,8.353918108549232,-0.0370764839140573,1.7389252904722847,7995.7333984375,11.540555555555557,7.0344444444444445,178.7337076684936,-7.980767738009864,56.60618236500042,1553.0,1814.0,1350.0,1528.0,1471.0,988.0,161.0,292.25,1649324398.0730145,1649324399.1500976,008741d0-6589-4026-bca7-6e4a77a10cf0
-0.1054086571310714,0.0649984505991839,-0.2069297490484127,0.4310975819467849,-0.2240362047256798,-0.0837527532861484,-0.5306244130051916,-0.5446540759188272,-17.38855667486398,17.90585461313961,50.58741212478868,-1.0529468217535047,-0.1473912299870023,1.4061942153773006,7992.421549479167,11.662,7.088888888888889,178.75771198887662,-8.691507926395019,56.71554545671589,1553.0,1349.0,1350.0,1528.0,1471.0,988.0,161.0,292.25,1649324400.0568836,1649324401.1925516,9a6b84fa-be07-4e3f-94ac-1052b361a1ea
-0.090221912133464,0.0614877487145723,-0.208389254496357,0.4249702899894169,-0.2275074609358315,-0.0742330967831476,-0.531163509751897,-0.5480069944575271,-17.370933063098747,18.116749462675145,50.639250914807256,-1.0163907045543976,-0.1604772254589258,1.4131995808485724,7995.7333984375,11.665666666666668,7.107777777777778,178.77997081647175,-8.743970135091196,56.91194299284017,1553.0,1349.0,1350.0,1528.0,1471.0,988.0,161.0,292.25,1649324401.3005784,1649324402.4223778,9a6b84fa-be07-4e3f-94ac-1052b361a1ea
-0.091549930525,0.0597389721189058,-0.2043000094750232,0.4306242289383008,-0.2214459112222785,-0.0740358662892323,-0.5271926023425482,-0.5581577908168635,-17.49226511528986,18.07637675459713,51.19566000846998,-1.028737801441972,-0.1715464515274957,1.394270171226455,7995.7333984375,11.663666666666666,7.096666666666667,178.80345604247793,-8.770787639638652,57.09393034763552,1553.0,1349.0,1350.0,1528.0,1471.0,988.0,161.0,292.25,1649324402.5299911,1649324403.6511314,9a6b84fa-be07-4e3f-94ac-1052b361a1ea
-0.1122854256791284,0.0649064097226269,-0.1594235050844709,0.8157100598415492,-0.1428429978684161,-0.4521266764438524,-0.595552694381805,-0.6191809094230858,-17.846736685015394,19.48690172280083,48.47255238988456,-2.7360450436403774,-0.170065177470762,1.322702981396756,7995.7333984375,11.648999999999996,7.090000000000001,178.81372409353017,-8.862363400935596,57.304740721273376,1553.0,1264.0,1350.0,1528.0,1471.0,988.0,161.0,292.25,1649324404.4561398,1649324405.4027376,1f81e7dd-5bbc-499e-bc7d-42dc413c64ef
-0.1121276413174868,0.0716385421730291,-0.1577667693012809,0.8066243115708852,-0.1474976367921422,-0.4501806690173298,-0.5941194861119802,-0.6245718772571949,-17.47362951274624,19.70228012587052,48.50483600578494,-2.7094736603601994,-0.1465151464231304,1.3256968561900024,7995.7333984375,11.642,7.09,178.7793454747078,-8.87506385310602,57.45780298384365,1553.0,1264.0,1350.0,1528.0,1471.0,988.0,161.0,292.25,1649324405.5113266,1649324406.7274058,1f81e7dd-5bbc-499e-bc7d-42dc413c64ef
-0.1099712549993292,0.0760170579939384,-0.1569121040063035,0.7994845701751782,-0.1477869081438293,-0.4489972860472713,-0.593685578971354,-0.6234016433083485,-17.562013241766664,19.687532887168608,48.3540218806963,-2.690832668839523,-0.127197843783728,1.32450679263245,7995.7333984375,11.639888888888889,7.088888888888889,178.85129924088412,-8.87298728587086,57.59478166873834,1553.0,1264.0,1350.0,1528.0,1471.0,988.0,161.0,292.25,1649324406.836242,1649324407.951909,1f81e7dd-5bbc-499e-bc7d-42dc413c64ef
-0.1361634596170718,0.0598967564651894,-0.0985976321756094,1.2476578556612203,-0.0514727026812549,-0.8627211642506603,-0.6655169311658069,-0.6927873387373412,-18.153130441148253,22.03552801127892,45.8868722115137,-4.613716609987333,-0.2130517851870924,1.2132291857257662,7995.7333984375,11.613499999999998,7.08,178.87288719212083,-9.05715612719613,57.88030710225202,1553.0,1178.0,1350.0,1528.0,1471.0,988.0,161.0,292.25,1649324410.090304,1649324411.2325652,17aace6d-30dd-48a4-a5fc-292dd3e9f87b
-0.1357821474010597,0.0657347775859717,-0.1046591815113992,1.2458301869588189,-0.0576394414982047,-0.8634180454799172,-0.6741161816966847,-0.7045422766762371,-18.36971163455796,22.049142320195312,46.30602620685921,-4.611413602022922,-0.1934967132169256,1.2432590741384044,7988.28173828125,11.621,7.09,178.8805506643696,-9.07873952497337,58.025557905141504,1553.0,1178.0,1350.0,1528.0,1471.0,988.0,161.0,292.25,1649324411.3405144,1649324412.370637,17aace6d-30dd-48a4-a5fc-292dd3e9f87b
-0.1344804263611991,0.0786073511407598,-0.1112729761531773,1.2305382535206733,-0.0651604960818211,-0.869216623597645,-0.6774691004981861,-0.703345745068305,-18.148625917496368,21.544719566820547,45.24010587960247,-4.593680753139759,-0.1358793709943102,1.2675739444574858,7988.28173828125,11.619666666666667,7.058888888888889,178.92175795454216,-9.074759327098285,58.1183331235477,1553.0,1178.0,1350.0,1528.0,1471.0,988.0,161.0,292.25,1649324412.4789746,1649324413.687681,17aace6d-30dd-48a4-a5fc-292dd3e9f87b
-0.1343226420193414,0.0767139388901168,-0.0630304072544135,1.4880291807029633,-0.00622803775284,-1.1151368435163014,-0.713246717036756,-0.7246466424965697,-18.20032011395997,23.7704360535294,43.74604215606103,-5.710240251776834,-0.1579796663628814,1.1714573065858265,7988.28173828125,11.5722,7.06,179.0395219512638,-9.198923533608914,58.296415886867536,1553.0,1088.0,1350.0,1528.0,1471.0,988.0,161.0,292.25,1649324415.6196773,1649324416.757736,dbd60467-7eab-4a07-a99c-9b6ca3a88445
-0.1404236374945467,0.0644330566623759,-0.0598089764752015,1.4958658043275437,0.0011615297595682,-1.1049860430290244,-0.7086709690062181,-0.7357835919114477,-18.51016836828341,23.85430637759417,44.53449617524209,-5.7044214439708005,-0.2095946719196194,1.1499300563459465,7988.28173828125,11.5815,7.060999999999998,179.07650059543028,-9.21012273865889,58.35753788371214,1553.0,1088.0,1350.0,1528.0,1471.0,988.0,161.0,292.25,1649324416.86682,1649324417.986848,dbd60467-7eab-4a07-a99c-9b6ca3a88445
-0.134848589900167,0.0758198275493403,-0.0627674332957872,1.4723427848906825,-0.0045713019497638,-1.098490582388459,-0.7073429501310231,-0.7336272045601523,-18.39162569608355,23.533830539201844,43.96195654671771,-5.639066487162524,-0.15994876787359,1.1604587274991944,7980.84423828125,11.574999999999998,7.061111111111111,179.09864771148696,-9.234915500031512,58.43396451310296,1553.0,1088.0,1350.0,1528.0,1471.0,988.0,161.0,292.25,1649324418.0943975,1649324419.2243657,dbd60467-7eab-4a07-a99c-9b6ca3a88445
-0.0816884078598963,0.0539535457693068,-0.246191760435742,-0.0490270453079695,-0.3055318346094782,0.3925982025216967,-0.430312984606935,-0.4603972086548269,-17.24272886195662,16.39252783794116,54.165740419887946,1.0891777074056372,-0.1649641541671612,1.4281143350469083,7988.28173828125,11.659444444444444,7.105555555555555,179.08049003303347,-8.728029801660725,58.51746281679648,1553.0,1435.0,1350.0,1528.0,1471.0,988.0,161.0,292.25,1649324420.130659,1649324421.263153,1a1718b2-3017-4dae-8ab2-6b77c23566e2
-0.0812150547799707,0.0561362293460641,-0.2520560796013741,-0.0470941867429607,-0.3115144922714191,0.3922037416763693,-0.4372817951739409,-0.4688781195062604,-17.260717018977772,16.419443508984205,54.61680196409402,1.0838805161782226,-0.1612574813790488,1.4550723537112862,7995.7333984375,11.661444444444443,7.09,179.08162080879603,-8.733493383814306,58.540352298524994,1553.0,1435.0,1350.0,1528.0,1471.0,988.0,161.0,292.25,1649324421.370818,1649324422.493061,1a1718b2-3017-4dae-8ab2-6b77c23566e2
-0.0876108843501618,0.0596545170140086,-0.245736613133786,-0.0442707569889441,-0.3053861874205425,0.3843514420380717,-0.4327894914885899,-0.4526768991816567,-17.262445647658215,16.384129482837324,54.40238819698234,1.059911902005689,-0.1460967879677383,1.4318765114914247,8003.19873046875,11.660888888888888,7.095555555555555,179.0768533367554,-8.707862245180188,58.58170454048997,1553.0,1435.0,1350.0,1528.0,1471.0,988.0,161.0,292.25,1649324422.601224,1649324423.7210834,1a1718b2-3017-4dae-8ab2-6b77c23566e2
