raw_voltage_G-,raw_voltage_G0,raw_voltage_G1,raw_voltage_G2,raw_voltage_G3,raw_voltage_G4,raw_voltage_G5,raw_voltage_G6,load_x,load_y,load_z,load_l,load_m,load_n,rpm,voltage,current,roll,pitch,yaw,aileron1_pwm,elevator_pwm,throttle_pwm,rudder_pwm,aileron2_pwm,pbaro,pdiff,Tt,sample_start_time,sample_end_time,uid
0.2072106999855827,0.4223688713091811,0.1482312135876884,-0.299431344260836,-0.0533231288854927,0.264875315920169,-0.0446879751816043,-0.0707957241415265,-9.328526136168838,15.273979471925127,57.51881009675817,1.383761021766669,1.186899830300622,0.0510127811902689,5545.45654296875,11.952666666666666,0.13,179.85411216828484,-11.520387865506711,111.94731731415618,1553.0,1435.0,1200.0,1528.0,1471.0,990.0,160.0,294.53,1649329507.9105482,1649329509.1033697,1d568a0e-559d-4115-8b07-186675e67327
0.2190880178914366,0.4154243373917594,0.1442061954741395,-0.2925672181246714,-0.0545100516463802,0.2661340506445669,-0.0469889971285494,-0.0716165065975154,-9.311478353171736,15.200456282334878,57.60537787759309,1.3704403476063365,1.1588641653568126,0.0607762100224041,5554.639811197917,11.950222222222225,0.1288888888888889,179.94728201984313,-11.489398064013765,111.40473619340926,1553.0,1435.0,1200.0,1528.0,1471.0,990.0,160.0,294.53,1649329509.2162435,1649329510.3251708,1d568a0e-559d-4115-8b07-186675e67327
0.2046568187074345,0.4244170334459725,0.1487622185763122,-0.3001646370587743,-0.0541069935297362,0.2646224563796092,-0.0441443272294231,-0.0633490104499268,-9.214994996706022,15.301163009832736,57.67527073068983,1.3851356743853198,1.192515839377446,0.0511128866814198,5556.240397135417,11.950333333333331,0.12,179.98259258003225,-11.475454612278137,111.00637679371688,1553.0,1435.0,1200.0,1528.0,1471.0,990.0,160.0,294.53,1649329510.4334042,1649329511.5590916,1d568a0e-559d-4115-8b07-186675e67327
0.39631928328094,0.7448385936738885,0.2003642751950495,-0.4461966132522783,-0.0814517314419176,0.0807374398613528,-0.0658573770086978,-0.0804655797413131,-8.494188068782512,14.75434991995442,57.16789733364797,1.300560355266328,2.4149283318557524,0.0864363955739655,5559.844563802083,11.934333333333331,0.12,179.64445268152215,-11.389689919008797,110.10162716895977,1637.0,1435.0,1200.0,1528.0,1535.0,990.0,160.0,294.53,1649329513.4875004,1649329514.8263578,9a46a6dd-7d46-4f34-b82e-ea5ec4e041b1
0.4016691586375304,0.7434804430502698,0.1948648331849648,-0.4440248864418065,-0.0865720531823267,0.081005344585063,-0.0730398526581403,-0.0972827627385064,-8.616818426756913,14.860083225298268,57.251599754263786,1.2966421863537734,2.409346308169182,0.1109767257974148,5563.052029079861,11.934222222222225,0.12,179.606196033071,-11.362909411319343,109.84700682362056,1637.0,1435.0,1200.0,1528.0,1535.0,990.0,160.0,294.53,1649329514.935581,1649329515.883423,9a46a6dd-7d46-4f34-b82e-ea5ec4e041b1
0.4057206003422887,0.7406441599707715,0.1988521751949902,-0.4457890036173688,-0.082621965442894,0.0852211452418716,-0.0657127413227202,-0.0890648270933436,-8.43161713325135,14.779666930317514,57.268442702683366,1.3098564336232144,2.3977170473182463,0.0895567491519599,5562.24951171875,11.934333333333331,0.12,179.55123425972982,-11.32709607331629,109.67612459750576,1637.0,1435.0,1200.0,1528.0,1535.0,990.0,160.0,294.53,1649329515.9931371,1649329516.949952,9a46a6dd-7d46-4f34-b82e-ea5ec4e041b1
0.6018859819514103,1.0775268799846218,0.2592046880381604,-0.6103318339583145,-0.1127061841175536,-0.1046723301487686,-0.0838710917342753,-0.1154674106879567,-7.376863737463277,14.682600138337111,55.8173839456113,1.256970065017111,3.690710607844362,0.1121700250386341,5555.03955078125,11.908,0.1124999999999999,179.14079794722,-11.271353405395937,109.33924771480967,1723.0,1435.0,1200.0,1528.0,1599.0,990.0,160.0,294.53,1649329517.9887047,1649329519.1290696,1d434068-3f4f-4df6-a473-47127063fd36
0.6048049922387283,1.0875593346972685,0.260388070628711,-0.6074785658995768,-0.113100645092319,-0.1109048125375708,-0.0863298980368578,-0.1056058877846307,-7.416977046193955,14.71600875441734,56.69668496647386,1.236928939183335,3.720553390438053,0.1170323893037007,5551.44189453125,11.909,0.12,179.08220516942504,-11.220824306246415,109.14551452164416,1723.0,1435.0,1200.0,1528.0,1599.0,990.0,160.0,294.53,1649329519.2383492,1649329520.359239,1d434068-3f4f-4df6-a473-47127063fd36
0.6016624541393593,1.0810638790872198,0.265555507970492,-0.5945665420692439,-0.1052377242312255,-0.1193068299576537,-0.0814122853927837,-0.1146521916528909,-7.341638670512807,14.664058095257758,56.3270401351599,1.1888140384672583,3.697671369429425,0.091157307372335,5551.44189453125,11.909,0.114,179.02515942947707,-11.20936205353603,108.98454745347446,1723.0,1435.0,1200.0,1528.0,1599.0,990.0,160.0,294.53,1649329520.4674857,1649329521.588228,1d434068-3f4f-4df6-a473-47127063fd36
0.7378303392472796,1.3066297584091386,0.3079337534202234,-0.6799410566101721,-0.1251054054933792,-0.2832842372063401,-0.1092875229622614,-0.1271960483497156,-7.010639932304832,15.316919836355122,53.30751962072042,1.0190422380493365,4.581308823216764,0.1223896772197029,5547.84912109375,11.857888888888889,0.1,178.7902449388033,-11.156647753941236,108.72105772804306,1813.0,1435.0,1200.0,1528.0,1662.0,990.0,160.0,294.53,1649329522.4989908,1649329523.6435268,3edc367a-8fef-47c5-8198-fa7ca47f09c4
0.7459956788366265,1.3141902588736294,0.3042652674035233,-0.6843984662645021,-0.1305095200090084,-0.2878468353859032,-0.1127061841667028,-0.1478132059525339,-6.8146075422009424,15.182676215152105,53.10192231719212,1.017837615857597,4.610413994750773,0.1403962196606469,5540.278591579861,11.847111111111111,0.1,178.75124455864253,-11.134421369744633,108.4603107030184,1813.0,1435.0,1200.0,1528.0,1662.0,990.0,160.0,294.53,1649329523.7631876,1649329524.8616688,3edc367a-8fef-47c5-8198-fa7ca47f09c4
0.7409465799578129,1.318818600021399,0.3081572812311557,-0.6859368642883823,-0.1299178286791828,-0.2871894004514502,-0.1128245224708981,-0.1350063746584269,-6.925767345542053,15.493577569651263,53.6497300995778,1.0250713766307658,4.624146058601223,0.1355673990500874,5537.09716796875,11.853444444444444,0.1,178.68438611358704,-11.102614981190913,108.3198114350615,1813.0,1435.0,1200.0,1528.0,1662.0,990.0,160.0,294.53,1649329524.9707344,1649329526.0265603,3edc367a-8fef-47c5-8198-fa7ca47f09c4
-0.0100588596879381,-0.0096922133780077,0.0852944744564985,-0.1106716761048391,-0.0148884771848783,0.5123489318898302,-0.0143448291604624,-0.0278222433223931,-10.491872054684276,16.548341331602344,57.09255758731384,1.5187322385736293,-0.448788783224808,-0.011311217732206,5534.317220052083,11.93988888888889,0.12,179.54334007886908,-11.025715778600508,107.80936331871985,1470.0,1435.0,1200.0,1528.0,1403.0,990.0,160.0,294.53,1649329528.027106,1649329529.3713806,2aa03cca-0876-4fe0-aeed-ecac1aa6d1ac
-0.0329679348981811,-0.0023972153858413,0.0893022981814873,-0.1142749248124933,-0.0122460948845139,0.5129305087889503,-0.0077451949126138,-0.0412743719120684,-10.231855199211068,16.340170979103814,57.76122424025864,1.5272242174430395,-0.4285006352305614,-0.0277083455605142,5555.03955078125,11.947625,0.12,179.5410555703192,-10.99620862619208,107.61494767581976,1470.0,1435.0,1200.0,1528.0,1403.0,990.0,160.0,294.53,1649329529.4798024,1649329530.8046522,2aa03cca-0876-4fe0-aeed-ecac1aa6d1ac
-0.0077704807663792,-0.0106277936768676,0.0921596109385732,-0.1095843799856086,-0.0079854115601626,0.5136890873532013,-0.0056717466686653,-0.0246867847633869,-10.37028724466098,16.48995988365576,57.35480569323163,1.519348900036905,-0.4551822704062738,-0.0420448068094223,5551.44189453125,11.951666666666664,0.1266666666666666,179.48370645613562,-10.971199390511453,107.51635048005603,1470.0,1435.0,1200.0,1528.0,1403.0,990.0,160.0,294.53,1649329530.9132738,1649329531.990981,2aa03cca-0876-4fe0-aeed-ecac1aa6d1ac
-0.2274680146586733,-0.3736815384244931,0.0420408267992844,0.0260651608399808,0.0225676075215409,0.7411832564630809,0.025263090258968,0.0011220834122624,-11.434391514984222,17.79262783302665,56.79881319112021,1.730082234737844,-1.824251865263938,-0.1041894439651398,5558.64208984375,11.889111111111111,0.11,179.55753624760402,-10.923285613483811,107.2473928087391,1385.0,1435.0,1200.0,1528.0,1331.0,990.0,160.0,294.53,1649329532.94373,1649329534.02322,0c54e526-894b-4a95-8399-bb4f2e7c54cc
-0.2320832075220414,-0.3775078097203968,0.0363211439286434,0.025315685095674,0.0179392664217894,0.7399209817466499,0.0194513665271121,-0.0058730229760305,-11.504480002384229,17.78928035816737,55.94483227312139,1.728457965472692,-1.8308082062223496,-0.0835359186212121,5553.040852864583,11.893999999999998,0.11,179.55167139183672,-10.913102560341231,106.97832889003504,1385.0,1435.0,1200.0,1528.0,1331.0,990.0,160.0,294.53,1649329534.131522,1649329535.1057975,0c54e526-894b-4a95-8399-bb4f2e7c54cc
-0.2399592775104014,-0.3771264974521263,0.037136363119392,0.0370574709735806,0.0198852735039603,0.7325840099441843,0.0177420359808545,-0.005268182841583,-11.509248687450008,17.821902713075914,56.48785531089783,1.6858252285802544,-1.835550532642069,-0.0839657072853706,5557.9220703125,11.8933,0.11,179.54246293079768,-10.892794396827528,106.7362923334407,1385.0,1435.0,1200.0,1528.0,1331.0,990.0,160.0,294.53,1649329535.2140818,1649329536.3404396,0c54e526-894b-4a95-8399-bb4f2e7c54cc
-0.4756102535195045,-0.7858144025189986,-0.0205601168284117,0.1851906803479501,0.050811007319251,0.9851704431743558,0.0502061672745064,0.0246845476754602,-12.610635520751188,19.404428898850064,54.75097461350487,1.9260550213043928,-3.3670585610304884,-0.1456849016152496,5547.84912109375,11.818333333333335,0.0966666666666666,179.67059409220553,-10.859785629361417,106.0709230806007,1297.0,1435.0,1200.0,1528.0,1253.0,990.0,160.0,294.53,1649329538.4734375,1649329539.8179328,5d544d61-9ba1-4ae5-80b9-abe64a1f96f4
-0.4604761005526176,-0.7829479854330228,-0.0263586920622873,0.1886882334214076,0.0454726365985822,0.9736258886801024,0.0399238867498845,0.0190700541431178,-12.775053299301351,19.44340608845464,53.905939946748525,1.891975430104115,-3.348452086008848,-0.116815296306066,5556.641764322917,11.829555555555554,0.09,179.68030054992602,-10.830870213237649,105.71013806935235,1297.0,1435.0,1200.0,1528.0,1253.0,990.0,160.0,294.53,1649329539.9259274,1649329541.0444114,5d544d61-9ba1-4ae5-80b9-abe64a1f96f4
-0.4600158960961876,-0.7858932948299264,-0.0206258604931016,0.1927643290629092,0.052559783754069,0.9744148104131556,0.0449861347472843,0.0212395888523239,-12.932830178494664,19.489250160584824,54.183105641618965,1.8851076930420063,-3.3609762397570613,-0.1415491677415076,5562.24951171875,11.829777777777778,0.09,179.65464028812414,-10.83096934584435,105.43655484214752,1297.0,1435.0,1200.0,1528.0,1253.0,990.0,160.0,294.53,1649329541.152456,1649329542.1943054,5d544d61-9ba1-4ae5-80b9-abe64a1f96f4
0.2150908144169335,0.4122817992484979,0.1483085885839109,-0.2651127365822182,-0.0468575101457547,0.2462795204123379,-0.049237424287298,-0.0713272351735791,-9.411645746819802,15.295377627263395,57.94542342007372,1.264731283543799,1.1416543271359751,0.048193512986389,5555.03955078125,11.94,0.12,179.0688179986518,-10.833166674618589,104.96199633425466,1553.0,1435.0,1200.0,1528.0,1471.0,990.0,160.0,294.53,1649329543.8486834,1649329544.9325488,3c51b5cc-0e22-4d67-8ce7-d436af86e410
0.210252094408142,0.4098624393286267,0.1453764293990616,-0.2699646061175526,-0.0519329070923643,0.251933459500531,-0.0542865238239026,-0.0767050519849012,-9.561592486537394,15.615182086032457,57.743395078398905,1.2902474051469357,1.1358490241416022,0.0654357421008108,5555.03955078125,11.945333333333334,0.12,178.92715532180628,-10.810040602726309,105.21634574875677,1553.0,1435.0,1200.0,1528.0,1471.0,990.0,160.0,294.53,1649329545.0416148,1649329546.16485,3c51b5cc-0e22-4d67-8ce7-d436af86e410
0.2070043665704278,0.4107302532096302,0.1459944180877569,-0.2791292487140262,-0.0516699331960123,0.2582053872429599,-0.0497239260804887,-0.0663570279385482,-9.447391447955106,15.44023281121278,57.57772301987377,1.3239165412138965,1.140928488045184,0.0576816577741726,5555.03955078125,11.94477777777778,0.12,178.84965240638428,-10.800117286499663,105.41514599364908,1553.0,1435.0,1200.0,1528.0,1471.0,990.0,160.0,294.53,1649329546.2733097,1649329547.3895664,3c51b5cc-0e22-4d67-8ce7-d436af86e410
0.2111856518311436,0.4033143891233776,0.1206437323406674,-0.6980731155671225,-0.1166507932313148,0.6717581470102613,0.0457356104834487,0.0157565827144899,-9.155929329983003,14.261263080770677,60.77344262229791,3.189837835772599,1.1326818736981437,0.0454539922224109,5551.843804253473,11.931,0.1155555555555555,178.69200405124127,-10.626176368865272,105.80703492746773,1553.0,1522.0,1200.0,1528.0,1471.0,990.0,160.0,294.53,1649329548.507104,1649329549.652392,16fdbed0-dec1-4609-9c9b-df4c16381b54
0.219416735286498,0.4085870159005759,0.123694229812083,-0.702136064245716,-0.1159670609596945,0.6697989914603802,0.0477342123265372,0.0202665853426439,-9.087099198325278,14.308444128127531,60.71603659973763,3.1950905282069413,1.1531734765996386,0.0380691456575636,5565.86083984375,11.933222222222222,0.1188888888888888,178.63910499502947,-10.601019833514732,105.92318153539388,1553.0,1522.0,1200.0,1528.0,1471.0,990.0,160.0,294.53,1649329549.7867737,1649329550.8806322,16fdbed0-dec1-4609-9c9b-df4c16381b54
0.239902403045971,0.4039060804141572,0.1207489218938986,-0.7057256597658136,-0.1181891907981284,0.6778328440835166,0.0477079149297535,0.0329550776072755,-9.071519245723076,14.277663371514086,60.72505059629682,3.2208994891953773,1.1356816778440355,0.0445863619129359,5565.86083984375,11.930444444444444,0.11,178.57284760662083,-10.598664746343417,106.04788333471043,1553.0,1522.0,1200.0,1528.0,1471.0,990.0,160.0,294.53,1649329550.9926434,1649329552.104452,16fdbed0-dec1-4609-9c9b-df4c16381b54
0.2486594342965757,0.4015524639688425,0.0947539498860395,-1.148836977469845,-0.1903623900894628,1.1112269868446998,0.1413134823697721,0.1213406131363091,-9.036898032379904,13.552105626375983,64.26895124783252,5.18882272524713,1.1480958826372012,0.0461988175137416,5573.09912109375,11.912,0.11,178.51121501519032,-10.433674032706415,106.27391174927403,1553.0,1613.0,1200.0,1528.0,1471.0,990.0,160.0,294.53,1649329553.8460567,1649329554.9707966,bdc364cd-61a0-449e-b86f-b5a0b080d58f
0.255983257691167,0.4019206274386839,0.0944646785697293,-1.1375290900585242,-0.1900336726475338,1.0976443842501138,0.137658144908344,0.1056410702444042,-8.96464522231508,13.582576463139333,63.85392543304781,5.13295078387413,1.151233630720896,0.0509461842541293,5580.35546875,11.912666666666668,0.1133333333333333,178.53055811091977,-10.432255914679994,106.26083193701346,1553.0,1613.0,1200.0,1528.0,1471.0,990.0,160.0,294.53,1649329555.0819778,1649329556.1902387,bdc364cd-61a0-449e-b86f-b5a0b080d58f
0.2501320882061223,0.4068645368232883,0.1022750040091019,-1.1312834546481008,-0.1848662345732727,1.084548283419445,0.1396567466713648,0.1166859747287352,-8.949551967024606,13.822578006012517,63.53342134233262,5.091369882033805,1.172240321958179,0.0305290175054266,5566.665093315973,11.912555555555556,0.11,178.52596974161736,-10.431667190319034,106.26878000047763,1553.0,1613.0,1200.0,1528.0,1471.0,990.0,160.0,294.53,1649329556.3026512,1649329557.2507942,bdc364cd-61a0-449e-b86f-b5a0b080d58f
0.2500926421108534,0.3943864250749964,0.0808426293789176,-1.508874920908731,-0.2486505668368234,1.4560252511511138,0.2160375204453272,0.1980632533005792,-9.028523181959166,13.810377366244074,65.3862172921746,6.7769895919998255,1.1547081576283365,0.0356126987426026,5540.67626953125,11.865200000000002,0.104,178.55379168240052,-10.283004840748356,106.22558406278269,1553.0,1710.0,1200.0,1528.0,1471.0,990.0,160.0,294.53,1649329558.8453424,1649329560.0912447,fc7f0abe-f192-4229-8f3d-ccb08cb9293a
0.2825962174142206,0.4026701030647766,0.0784232692404273,-1.5070735474653207,-0.2521349718270653,1.4528695638942013,0.2114223282273092,0.1958016774726412,-9.036457582139729,13.801378933510486,66.29976858541653,6.765796395933518,1.1773610474279257,0.0525322372948471,5540.67626953125,11.863333333333337,0.0966666666666666,178.59742110943478,-10.29452571924912,106.05726270226069,1553.0,1710.0,1200.0,1528.0,1471.0,990.0,160.0,294.53,1649329560.200175,1649329561.322895,fc7f0abe-f192-4229-8f3d-ccb08cb9293a
0.2675672584531212,0.4111773088534087,0.0832225433431024,-1.5147523945795829,-0.2500048827848656,1.4451512786104914,0.2136839038795861,0.1993649743028373,-9.055461947902687,13.800557140117746,65.41015702452239,6.76585612460102,1.218537019408718,0.0395634106044788,5537.09716796875,11.8646,0.094,178.58712300555015,-10.284256985177947,105.96259992313183,1553.0,1710.0,1200.0,1528.0,1471.0,990.0,160.0,294.53,1649329561.4353306,1649329562.549062,fc7f0abe-f192-4229-8f3d-ccb08cb9293a
0.2650953037196393,0.4008424344301333,0.0634863504466377,-1.610645954141808,-0.288662054766543,1.5512744158365552,0.2096604030531765,0.176946447866314,-9.22660672869648,15.002251716784786,66.3983088750328,7.22769617514851,1.182804072783591,0.1235365807206257,5537.09716796875,11.824555555555555,0.0911111111111111,178.62153623066436,-10.227456486966702,105.77906150826698,1553.0,1814.0,1200.0,1528.0,1471.0,990.0,160.0,294.53,1649329563.459754,1649329564.6002474,3577ef13-76aa-4638-a51a-073017993472
0.2724191270978168,0.4053261394792994,0.072795627293756,-1.6325122631176217,-0.2842835383656252,1.5632134333432186,0.2221648125224811,0.1958279745434215,-9.117616459080775,15.0630627433313,65.94061293427981,7.304698344407274,1.20618923451522,0.0868362239907774,5531.02373046875,11.8247,0.09,178.65646581807982,-10.2262439196888,105.56079560369508,1553.0,1814.0,1200.0,1528.0,1471.0,990.0,160.0,294.53,1649329564.708629,1649329565.8256836,3577ef13-76aa-4638-a51a-073017993472
0.2691451019112873,0.4074036333249792,0.0669839035595897,-1.6068591253537832,-0.286111207451511,1.5411762163239262,0.208542763824479,0.1876494862655963,-9.341390289441,15.077492298545248,66.38127364379592,7.197074453608718,1.2081327130364414,0.1175778959778809,5518.56171875,11.8232,0.09,178.68121569155625,-10.217825028517842,105.41417671391484,1553.0,1814.0,1200.0,1528.0,1471.0,990.0,160.0,294.53,1649329565.933609,1649329567.259494,3577ef13-76aa-4638-a51a-073017993472
0.1980895509080447,0.3985940075540183,0.1666378705415732,0.1307682282351735,0.0068286179167313,-0.1319032817421083,-0.1455910757023207,-0.1603307652379052,-9.687487452866144,17.086428022258332,53.781910074439175,-0.4661232083921932,1.0816211732886445,0.0822879516119488,5508.235785590277,11.949444444444444,0.12,178.7333600877558,-10.784359281174538,105.09965500242672,1553.0,1349.0,1200.0,1528.0,1471.0,990.0,160.0,294.53,1649329569.398837,1649329570.5359986,e4d11b10-3150-4f15-b9e3-d0e1e74e2579
0.188815168961161,0.3881064059547207,0.171039143620388,0.1376996138892589,0.0141271558985895,-0.1260076082390228,-0.1382080822292408,-0.1654537000529156,-9.680173643427272,17.066115238284013,54.11193769852702,-0.4683695626509362,1.038734769851314,0.0551065502500401,5497.2451171875,11.950333333333331,0.12,178.63439064668233,-10.78780074787884,105.5228914688961,1553.0,1349.0,1200.0,1528.0,1471.0,990.0,160.0,294.53,1649329570.6439686,1649329571.7610867,e4d11b10-3150-4f15-b9e3-d0e1e74e2579
0.1666641680587544,0.392387823401722,0.1777616671546708,0.1320568004927677,0.0172423854579811,-0.1270251150926383,-0.132008471603239,-0.1648144712775021,-9.50675299233706,17.176908091409217,53.87261490405373,-0.4568088897838103,1.0568091737375302,0.0330798681635516,5494.50390625,11.95,0.12,178.55606659074004,-10.786649386685,105.83182092505577,1553.0,1349.0,1200.0,1528.0,1471.0,990.0,160.0,294.53,1649329571.8693402,1649329572.9912012,e4d11b10-3150-4f15-b9e3-d0e1e74e2579
0.171489739408625,0.3983967771157483,0.1980764021307129,0.4729498785472026,0.0658268183341842,-0.4616594834271864,-0.2171594358219391,-0.2468623440893332,-10.039070049283271,18.75980932064136,51.49880850512246,-1.966889833002009,1.0634964555423707,0.0597978315215041,5494.50390625,11.942555555555556,0.1188888888888888,178.51462100285642,-10.899065288368256,106.1851617890187,1553.0,1264.0,1200.0,1528.0,1471.0,990.0,160.0,294.53,1649329573.904806,1649329575.0399964,f512982d-3856-4753-95ae-b7fc76ff6e64
0.1632455071174666,0.4042085003979266,0.2011531969231261,0.4747249523857215,0.0688773158493888,-0.4650781452741227,-0.2137144770263043,-0.2414976753491386,-9.937316871838105,18.601542664766768,52.08081878354624,-1.9793281235058828,1.079389243660369,0.0482198176719677,5496.462999131944,11.943444444444443,0.11,178.48155985163396,-10.896880007288804,106.42431630934723,1553.0,1264.0,1200.0,1528.0,1471.0,990.0,160.0,294.53,1649329575.1473477,1649329576.2733653,f512982d-3856-4753-95ae-b7fc76ff6e64
0.1784191020743557,0.4103883871358508,0.1964985586478259,0.4645610110823285,0.0614483025039791,-0.4649203608844364,-0.2194736065996202,-0.2313994759502285,-9.940543407935548,18.651922407404864,51.59314769511006,-1.956023357771083,1.1078698033335188,0.0728308584475851,5502.264306640625,11.9439,0.119,178.4678774649066,-10.916407299939271,106.62239073280377,1553.0,1264.0,1200.0,1528.0,1471.0,990.0,160.0,294.53,1649329576.381504,1649329577.4960136,f512982d-3856-4753-95ae-b7fc76ff6e64
0.163284953212741,0.4069171316086521,0.2269377891455566,0.8289113496573297,0.1203150149464438,-0.8122827403705188,-0.2971955598636893,-0.316432105358007,-10.131211472219528,20.50738829248317,49.222599628727885,-3.545136181075317,1.0743119211614822,0.0603560772829074,5515.0091796875,11.9206,0.108,178.47080215190917,-11.033328783340394,107.04831040114308,1553.0,1178.0,1200.0,1528.0,1471.0,990.0,160.0,294.53,1649329579.4349563,1649329580.399026,541433db-464d-42af-a1f9-54e87daeb5e4
0.1532656469434509,0.4072458489886927,0.2281869151907279,0.8254400941628454,0.1215246949334177,-0.8064315677296581,-0.2945263742075695,-0.3254915584749318,-10.168167076282852,20.48091201608513,49.66111058883966,-3.524219530581413,1.0724259870601291,0.0538182434702564,5510.39990234375,11.9175,0.11,178.47081444624968,-11.044435097817658,107.14511262319292,1553.0,1178.0,1200.0,1528.0,1471.0,990.0,160.0,294.53,1649329580.508159,1649329581.5949996,541433db-464d-42af-a1f9-54e87daeb5e4
0.1538573383112625,0.4047738942877214,0.2201399135063061,0.8302130704599898,0.1167780157278348,-0.808864077717622,-0.3034543401963397,-0.3257150867213845,-10.391986647613525,20.383259902162,49.53288920278046,-3.541633509382546,1.0647757681536536,0.0834093164899604,5515.009765625,11.9268,0.11,178.4887491569723,-11.05953263333642,107.19795643076344,1553.0,1178.0,1200.0,1528.0,1471.0,990.0,160.0,294.53,1649329581.703746,1649329582.8244636,541433db-464d-42af-a1f9-54e87daeb5e4
0.1413266311259501,0.403879783019651,0.2325785795039135,1.044839223065164,0.1406297500965022,-1.0189803613439334,-0.362636631806197,-0.3894336801844557,-10.584772993222307,22.104118262387303,47.43586053462755,-4.486341052173246,1.0557653703162146,0.1162050023824029,5517.691677517361,11.898777777777775,0.1,178.51155804246864,-11.141108599260766,107.40937529836538,1553.0,1088.0,1200.0,1528.0,1471.0,990.0,160.0,294.53,1649329583.9399683,1649329585.0728292,39eee87f-6987-4113-a0cd-fae79a44258f
0.1566185644326387,0.4118215949060864,0.2319737395459806,1.034109887555627,0.1380657544479842,-1.0131949315095186,-0.3613875053794371,-0.3792565868058313,-10.52830359278468,21.983350827649165,47.96331279210426,-4.449855861354592,1.0817581399733531,0.1204430954629865,5510.204427083333,11.880666666666666,0.1,178.54302244724514,-11.155148906873372,107.45245026582104,1553.0,1088.0,1200.0,1528.0,1471.0,990.0,160.0,294.53,1649329585.1810238,1649329586.306811,39eee87f-6987-4113-a0cd-fae79a44258f
0.1356726918767526,0.4062465481534438,0.2347481143133085,1.032058691064032,0.1412345901556865,-1.0068835532801697,-0.3566276764632162,-0.3795721558318575,-10.538142065304516,22.02571323015084,47.8440878770422,-4.430651341777245,1.0624037919517146,0.1046832771425698,5509.0224609375,11.888666666666667,0.1,178.54700217080156,-11.16640354080574,107.4494920350005,1553.0,1088.0,1200.0,1528.0,1471.0,990.0,160.0,294.53,1649329586.414828,1649329587.5345984,39eee87f-6987-4113-a0cd-fae79a44258f
0.2156562083344644,0.3979760188753908,0.1445612102949771,-0.3059131467311495,-0.0560615978135841,0.2903276503211563,-0.0418610053800524,-0.056364017924645,-9.32581540371202,15.60111622911071,56.88406806077131,1.4574632443277482,1.10158925770282,0.0516843049894078,5518.089409722223,11.947888888888889,0.1122222222222222,178.62616102764235,-10.787541959600285,107.31088321162387,1553.0,1435.0,1200.0,1528.0,1471.0,990.0,160.0,294.53,1649329589.470412,1649329590.4751005,2f47c90e-073b-4ec8-a13e-e96df075399c
0.1929494223361708,0.397525423206103,0.1486105028855945,-0.301049645483122,-0.0522105468511079,0.2894785480409733,-0.0388089906240462,-0.0619456396161875,-9.315288131674452,15.686928944915898,57.36321633022052,1.4454364996425395,1.0952374192998835,0.037210044856207,5544.26025390625,11.948777777777776,0.1144444444444444,178.6181530102955,-10.749772531309931,107.3884893387934,1553.0,1435.0,1200.0,1528.0,1471.0,990.0,160.0,294.53,1649329590.582751,1649329591.638464,2f47c90e-073b-4ec8-a13e-e96df075399c
0.2260993070088637,0.4030756897347788,0.1465876265683305,-0.2942982947468896,-0.0542460663040726,0.2790354495332814,-0.0430949600744184,-0.0543724964450518,-9.215879228273137,15.611836818901583,57.51152135687489,1.406215229817438,1.1130755289597176,0.0498824950012746,5537.892523871527,11.949666666666666,0.1177777777777777,178.60023970083225,-10.743835579101374,107.44882571210148,1553.0,1435.0,1200.0,1528.0,1471.0,990.0,160.0,294.53,1649329591.7509773,1649329592.85873,2f47c90e-073b-4ec8-a13e-e96df075399c
0.2609781184228446,0.4224605328894374,0.3257902296225568,-0.3105518979263074,0.1083436750727265,0.2660869345025593,0.1428726985197279,0.1164657340376112,-8.0693001554248,15.630150076666675,57.64275259099055,1.4234249059947597,1.18986413922992,-0.6774393465007899,5541.870930989583,11.948666666666668,0.11,178.6123974375549,-10.73081970500053,107.55752286037288,1553.0,1435.0,1200.0,1446.0,1471.0,990.0,160.0,294.53,1649329594.999225,1649329596.1347904,5eda63bd-bcef-4121-828f-3090c3308e4f
0.2630309585012109,0.4164893816959224,0.3191232932243039,-0.3088979012011826,0.1032874536063661,0.2663049836955011,0.1376318474914638,0.117553788524165,-8.025099749919379,15.585303979169666,57.01338174766777,1.4194765451507334,1.1721068989492016,-0.655549330228733,5543.862033420139,11.946111111111112,0.11,178.6298235268573,-10.740627382329976,107.57774477377556,1553.0,1435.0,1200.0,1446.0,1471.0,990.0,160.0,294.53,1649329596.2493205,1649329597.5184033,5eda63bd-bcef-4121-828f-3090c3308e4f
0.260940315918875,0.4237606101235442,0.322778630539555,-0.3128951055393361,0.1039054423345492,0.2645299098117505,0.1397356388482284,0.1254430060760704,-7.94462979859469,15.661245549948076,57.2712709520524,1.4252714835852267,1.1972483726006735,-0.6631354227212845,5535.112575954861,11.941444444444445,0.1122222222222222,178.64877198943475,-10.749608417042374,107.62405573307797,1553.0,1435.0,1200.0,1446.0,1471.0,990.0,160.0,294.53,1649329597.6489627,1649329598.8007889,5eda63bd-bcef-4121-828f-3090c3308e4f
0.3314436208225711,0.4594593174008249,0.5596523736438852,-0.3273981197590266,0.3170852454314674,0.2336173265531225,0.3797256298596354,0.3556109226032905,-6.442376518117287,15.772836428993164,57.77707054492376,1.401893332124576,1.3328288172705636,-1.6121630871027162,5540.67626953125,11.939,0.11,178.62944558972322,-10.741897418060644,107.62208636186728,1553.0,1435.0,1200.0,1354.0,1471.0,990.0,160.0,294.53,1649329599.9143531,1649329601.0491457,06e2cc7c-cb13-4114-80ba-8a3395bf1b9a
0.3276173504699756,0.4538185272024383,0.559284210183682,-0.3226119935628772,0.3190444010450148,0.2287260117866554,0.3812114324227073,0.3633029092502925,-6.319531641828555,15.615636454957617,56.9286036950395,1.3789717234108514,1.317707618717707,-1.6181319793322866,5537.81298828125,11.9422,0.11,178.62890463874095,-10.751797264998393,107.646216964859,1553.0,1435.0,1200.0,1354.0,1471.0,990.0,160.0,294.53,1649329601.1563835,1649329602.2799902,06e2cc7c-cb13-4114-80ba-8a3395bf1b9a
0.3269730643736122,0.4455874440578222,0.5610198379226112,-0.3200479973733175,0.323528106148698,0.2353003595869212,0.3846169444824134,0.3649201988014038,-6.496560678332146,15.618713648211465,57.07294656071254,1.3880021324573266,1.28660411221366,-1.6323484842499607,5526.38671875,11.9408,0.11,178.6434092284624,-10.744237526247655,107.6188306383629,1553.0,1435.0,1200.0,1354.0,1471.0,990.0,160.0,294.53,1649329602.3885708,1649329603.50636,06e2cc7c-cb13-4114-80ba-8a3395bf1b9a
0.4077060533312363,0.499510242608992,0.8363798084554473,-0.3078591540034716,0.5683173636502883,0.1662828558537532,0.6546911409469088,0.630944597836267,-4.192274574205645,15.90095927039397,58.45149565685215,1.2223773379648903,1.4762806081337223,-2.715562900292257,5537.81787109375,11.924600000000002,0.1,178.60135438770482,-10.756230057769727,107.60661826012692,1553.0,1435.0,1200.0,1252.0,1471.0,990.0,160.0,294.53,1649329605.444855,1649329606.5815122,1a598f55-4528-4112-96ce-e972dd92be15
0.4221170232194238,0.4978272096497953,0.8371292840983127,-0.3147096258646633,0.5691325827237532,0.1745665342278007,0.6574655155823774,0.6356123845629442,-4.2819737774459465,15.887221275313276,58.51207200498832,1.2563556074498945,1.4709569130110776,-2.7218803599011854,5554.3205078125,11.9292,0.101,178.594958598566,-10.753459050023457,107.60551040344352,1553.0,1435.0,1200.0,1252.0,1471.0,990.0,160.0,294.53,1649329606.6895874,1649329607.8119118,1a598f55-4528-4112-96ce-e972dd92be15
0.420871732223202,0.4953399148320649,0.8357541497146729,-0.3210434633844156,0.5663154748349052,0.1748952516092851,0.6549732900263167,0.6333190329741923,-4.354274789539642,16.047652971140653,57.36747305092431,1.2721580633460634,1.4729797012208632,-2.7147077599095444,5560.44580078125,11.933,0.1,178.59439305890274,-10.754634013315425,107.5960724480484,1553.0,1435.0,1200.0,1252.0,1471.0,990.0,160.0,294.53,1649329607.9200144,1649329609.244217,1a598f55-4528-4112-96ce-e972dd92be15
0.1393937728172164,0.3714682492956388,-0.0820434227558342,-0.2505834253494941,-0.2594324990779183,0.2886709147162547,-0.2854406237275485,-0.3128425111354462,-10.812212542616152,15.887939830901871,58.392520298605135,1.319040274636682,0.9781470505763245,0.9826234008414108,5576.72509765625,11.951,0.11,178.72368853989104,-10.735216639278724,107.7069537390344,1553.0,1435.0,1200.0,1604.0,1471.0,990.0,160.0,294.53,1649329609.8465986,1649329610.8813963,bb543a3a-956f-4220-9d6c-6905a922b8fd
0.1392885832338299,0.3613700513347174,-0.0834371846594262,-0.2541861685758724,-0.25931416082756,0.2980459345490177,-0.2848620810416606,-0.3143283137308713,-10.98283423799526,15.981932593332376,57.84403179487387,1.348614472501211,0.9466983385434028,0.9813533861624611,5582.17333984375,11.95,0.105,178.7101032936319,-10.75767600881702,107.70174230469767,1553.0,1435.0,1200.0,1604.0,1471.0,990.0,160.0,294.53,1649329610.9902866,1649329612.1074831,bb543a3a-956f-4220-9d6c-6905a922b8fd
0.1362775318732786,0.3673790050697345,-0.0797686982226889,-0.2554747410502348,-0.2586961720394399,0.286987881690713,-0.2859797203879741,-0.3160770910863901,-10.9863134921471,16.158289770758397,56.94860609623699,1.3278795268006234,0.9775905333769896,0.9764804458692948,5572.37529296875,11.9491,0.11,178.697371821019,-10.752603483452546,107.70162141034936,1553.0,1435.0,1200.0,1604.0,1471.0,990.0,160.0,294.53,1649329612.2162912,1649329613.541482,bb543a3a-956f-4220-9d6c-6905a922b8fd
0.0722170848016266,0.3480898690890178,-0.2374610249703235,-0.2234708106404588,-0.4018723486978414,0.2861332164713932,-0.4556242305963829,-0.4815403172375358,-11.996160906197524,16.446174140503487,57.07136223610821,1.2473335857011725,0.8973716737699736,1.6252766090002142,5547.84912109375,11.9439,0.103,178.72490294752552,-10.744017081892194,107.69715378361327,1553.0,1435.0,1200.0,1676.0,1471.0,990.0,160.0,294.53,1649329615.4848454,1649329616.6259525,ba72fd0e-c575-4dad-ba01-2ec0e561c921
0.0619611017380079,0.3380442658546405,-0.2521612691493818,-0.2158182685761808,-0.4108529100874358,0.2889075912196739,-0.4696538928361149,-0.4832102021538251,-12.30256337883855,16.346556448252127,56.96055270790374,1.2347414655718487,0.860969499129066,1.67604366136869,5544.26025390625,11.946000000000002,0.11,178.72133349066524,-10.754498263305672,107.65388180314557,1553.0,1435.0,1200.0,1676.0,1471.0,990.0,160.0,294.53,1649329616.740476,1649329618.0493972,ba72fd0e-c575-4dad-ba01-2ec0e561c921
0.0853334570386082,0.3419247745741113,-0.2334676560004362,-0.2153745000670232,-0.3957445072988583,0.2862482675574995,-0.4529824379234179,-0.477814304798613,-12.192629115566213,16.555506997793845,57.31396069486491,1.230192226146164,0.8727474140495629,1.6072104248275183,5542.10986328125,11.949000000000002,0.104,178.71372465992985,-10.774351744920876,107.6191038459297,1553.0,1435.0,1200.0,1676.0,1471.0,990.0,160.0,294.53,1649329618.1619236,1649329619.2791145,ba72fd0e-c575-4dad-ba01-2ec0e561c921
0.022146849367597,0.3260132096343105,-0.417295772566074,-0.1735978008772427,-0.5638774754927165,0.2798744374467297,-0.6548138886465023,-0.6823209725978066,-13.4566681326433,17.009814780687442,58.176246737146336,1.1149907974123203,0.7975838859136559,2.372743294996208,5547.84912109375,11.951,0.11,178.74475284329137,-10.781221378433347,107.6329281488098,1553.0,1435.0,1200.0,1747.0,1471.0,990.0,160.0,294.53,1649329620.8466823,1649329621.7937915,9e6b307f-0e9c-4b69-b5a7-65d38e5ca2ae
0.0255260643452527,0.3214243149612828,-0.4151788320353473,-0.1709417639807587,-0.560169542019677,0.2759429774999728,-0.6517107952514852,-0.6812427784039004,-13.41132255617534,16.92213255506315,57.34727058089916,1.0995797491221295,0.7872046914967541,2.358755720318741,5540.67626953125,11.953,0.11,178.72071513087238,-10.767249657303656,107.6112810026003,1553.0,1435.0,1200.0,1747.0,1471.0,990.0,160.0,294.53,1649329621.9019136,1649329622.9626083,9e6b307f-0e9c-4b69-b5a7-65d38e5ca2ae
0.0286554540660288,0.3296291008642369,-0.4331399549484984,-0.1793174842330534,-0.57945868528734,0.274404580136508,-0.6718020104810339,-0.6864891097269121,-13.516769586838729,16.893915611819363,57.02958616830887,1.1138312200465257,0.8214316966736903,2.4385259420999894,5544.26025390625,11.951,0.11,178.71979381424435,-10.77754929798082,107.5986550184646,1553.0,1435.0,1200.0,1747.0,1471.0,990.0,160.0,294.53,1649329623.0708292,1649329624.1951797,9e6b307f-0e9c-4b69-b5a7-65d38e5ca2ae
0.1821776062155931,0.3965645570202832,0.0872288499361405,-0.2556992803216143,-0.0830846984705352,0.2628271537393453,-0.0757644142491027,-0.1012905864212037,-8.436931124248316,12.595993745105687,59.03014497929326,1.2604092264013111,1.0611155550148403,0.2200636147526384,7980.84423828125,11.662555555555556,7.0088888888888885,-179.35619441343056,-10.844072589448324,95.96434301269665,1553.0,1435.0,1350.0,1528.0,1471.0,990.0,160.0,294.53,1649329629.371199,1649329630.3404496,8439db12-0aa9-4ea2-8ea9-d6729e5de930
0.1935795482787008,0.3964507702401297,0.0880744122309086,-0.2522533100980181,-0.0808994861965657,0.2617029402806554,-0.0752718438214617,-0.1063422154258242,-8.520958733233334,12.545881256796266,59.31160771686099,1.2498221751424905,1.058417396599336,0.2156085961372296,7988.28173828125,11.663799999999998,7.007999999999998,-178.88229919279712,-10.752151410306857,91.60159853653828,1553.0,1435.0,1350.0,1528.0,1471.0,990.0,160.0,294.53,1649329630.4488776,1649329631.569959,8439db12-0aa9-4ea2-8ea9-d6729e5de930
0.2138229767423089,0.3983219307125628,0.0848898992056159,-0.2540683361325025,-0.0850822889377892,0.2611203519249564,-0.079317090980756,-0.0959805357178555,-8.511065022428207,12.595716578579312,59.22339166104384,1.252769990342465,1.066169650034272,0.231478677392555,7986.628960503473,11.658555555555555,7.026666666666666,-178.5640594298888,-10.600491727082655,87.0428592018527,1553.0,1435.0,1350.0,1528.0,1471.0,990.0,160.0,294.53,1649329631.678321,1649329632.7927024,8439db12-0aa9-4ea2-8ea9-d6729e5de930
0.4006583526903427,0.7474157378873929,0.1396304493084462,-0.4145608432438518,-0.116151142701125,0.063617837474552,-0.1028578099590097,-0.1246846473225822,-7.666099381689646,11.930298604028984,58.88669497253915,1.1696734851325223,2.3957063860934182,0.2739174489440011,7984.152940538194,11.633888888888889,7.047777777777777,-178.67718405856218,-10.474292219063098,81.80084079584948,1637.0,1435.0,1350.0,1528.0,1535.0,990.0,160.0,294.53,1649329633.346225,1649329634.435973,fa9c53e4-5927-455e-8c34-55f17b234eba
0.3996196057676499,0.7519125915734479,0.1312941759894426,-0.4244618136985913,-0.1253815282153822,0.0715202038926551,-0.1094716046441955,-0.1203587264720148,-7.698778948737843,11.848745153767156,59.28371810466255,1.208856440499779,2.409973976432388,0.3082973509684042,7988.28173828125,11.6446,7.026000000000001,-178.70846541426894,-10.412451951936273,78.89765978221668,1637.0,1435.0,1350.0,1528.0,1535.0,990.0,160.0,294.53,1649329634.5447626,1649329635.6647615,fa9c53e4-5927-455e-8c34-55f17b234eba
0.4079558785333051,0.7425901668257734,0.135330825707462,-0.4245538545961231,-0.1192279378992644,0.0746890396482208,-0.1007671671378337,-0.1255656101485165,-7.544712783438306,11.695721525332406,58.4741864657627,1.2153199543112183,2.381358270780382,0.2799202277933376,7988.28173828125,11.64011111111111,7.006666666666667,-178.86805445382808,-10.355624702150774,76.1329441579879,1637.0,1435.0,1350.0,1528.0,1535.0,990.0,160.0,294.53,1649329635.7730503,1649329636.8241756,fa9c53e4-5927-455e-8c34-55f17b234eba
0.5766404875825202,1.0696902574137817,0.1952099864408203,-0.5763029976068172,-0.1448284513227735,-0.1120356005082675,-0.1201877926755084,-0.1403710430539584,-6.845196771997864,11.646103625212277,57.77992238729004,1.1409277520986,3.631863473863144,0.2985969461852565,7979.194390190973,11.59988888888889,7.076666666666666,-179.71160254798227,-10.262284095863286,70.75471660173645,1723.0,1435.0,1350.0,1528.0,1599.0,990.0,160.0,294.53,1649329638.9505165,1649329639.969031,fada6581-0fe6-48bd-b8a1-8c3c63d16e75
0.592800233719528,1.0717020078287016,0.1906868351522866,-0.5850600318088754,-0.1531778739705192,-0.1109311099052279,-0.1234223721419705,-0.1531121308137268,-6.515172319525363,11.722222779852414,57.03871409647747,1.1634907669844592,3.644434965093039,0.3200608506230912,7973.419921875,11.598999999999998,7.023333333333333,-179.96520747186483,-10.251623024342544,69.17634032899673,1723.0,1435.0,1350.0,1528.0,1599.0,990.0,160.0,294.53,1649329640.0765915,1649329641.1939745,fada6581-0fe6-48bd-b8a1-8c3c63d16e75
0.5939310214936527,1.0778687460400302,0.1898190212373963,-0.5865326862595652,-0.1544532975763493,-0.112627291858131,-0.1256576506369971,-0.1569252526835257,-6.60152896093214,11.675290340028432,57.45260462043021,1.162669341952685,3.664632397103764,0.327439400222024,7974.162353515625,11.6048,7.055999999999999,179.80043234555993,-10.21920942248524,67.64943787966205,1723.0,1435.0,1350.0,1528.0,1599.0,990.0,160.0,294.53,1649329641.3062537,1649329642.425519,fada6581-0fe6-48bd-b8a1-8c3c63d16e75
0.7202242366661948,1.307129408856636,0.2483570142393457,-0.6660691772972571,-0.1581875277052929,-0.2818641777948685,-0.138688009538998,-0.1647881740162548,-6.2840736960778365,12.300086564755064,55.08366797055975,0.9686251271993472,4.556762464605682,0.294951863509064,7980.84423828125,11.54866666666667,7.026666666666666,179.33977312084602,-10.286756758523182,65.31351849588704,1813.0,1435.0,1350.0,1528.0,1662.0,990.0,160.0,294.53,1649329643.5468552,1649329644.6719096,9a64a1da-b8c1-48b6-80de-82c636a44ae3
0.727587505856848,1.3093515385456451,0.2428740081200292,-0.6718151595292795,-0.1620795422088325,-0.2801942931605282,-0.1411731133893259,-0.1633155198728716,-6.272388622048763,12.002844971798638,54.851376075102095,0.9830644948472624,4.5674277141364605,0.3112861617239256,7980.84423828125,11.555,7.013333333333333,179.16383200128593,-10.320882470618812,64.23469542885287,1813.0,1435.0,1350.0,1528.0,1662.0,990.0,160.0,294.53,1649329644.7793255,1649329645.9058616,9a64a1da-b8c1-48b6-80de-82c636a44ae3
0.7325577125588886,1.3168462955005935,0.2472656725035965,-0.6673446008326426,-0.1603833600802988,-0.2890302182083714,-0.1416333177383347,-0.1718358758406299,-6.25456624310432,12.18762115285013,55.2370262087868,0.9546385317345576,4.59172457999356,0.3050714295035657,7980.84423828125,11.548333333333334,7.028888888888889,178.98587066355137,-10.356661183357325,63.36631428469635,1813.0,1435.0,1350.0,1528.0,1662.0,990.0,160.0,294.53,1649329646.036423,1649329646.9930575,9a64a1da-b8c1-48b6-80de-82c636a44ae3
-0.0304266964147668,-0.0350160972593324,0.0326238316796594,-0.0663201100683105,-0.036166608369296,0.5079365332597863,-0.0367608282056898,-0.0528932676185944,-9.579528984913072,13.813025808315968,58.48188704023557,1.3886960568765887,-0.5713857305594311,0.1224267169839154,7980.84423828125,11.633,7.06,179.69980453455594,-10.335793153031904,62.23891718901478,1470.0,1435.0,1350.0,1528.0,1403.0,990.0,160.0,294.53,1649329647.8388577,1649329648.9761124,34423bca-cddd-4c6d-993e-2790d2b57d7a
-0.0244915770243734,-0.0287123086524567,0.0287474948920781,-0.075995022235279,-0.0394547939023966,0.514802174952991,-0.0373904484685823,-0.0602954781134986,-9.622123198292826,13.524875324900975,59.05545544379555,1.4239150911751404,-0.5515841786872735,0.1346610347349962,7990.765625,11.647666666666666,7.063333333333333,179.49680675896371,-10.383884514977964,61.57298740531687,1470.0,1435.0,1350.0,1528.0,1403.0,990.0,160.0,294.53,1649329649.0835488,1649329650.211274,34423bca-cddd-4c6d-993e-2790d2b57d7a
-0.0259773797468856,-0.0303164496435379,0.0330339698886566,-0.0774808251202524,-0.037561381613195,0.5131848854659411,-0.0346555195519503,-0.0482644208362763,-9.552302851576512,13.745059742962477,58.43199209409337,1.425241262106696,-0.5521107060464694,0.121217235756596,7988.28173828125,11.651000000000002,7.075555555555557,179.34820460992148,-10.34304728824915,61.00104178350826,1470.0,1435.0,1350.0,1528.0,1403.0,990.0,160.0,294.53,1649329650.3428812,1649329651.4340503,34423bca-cddd-4c6d-993e-2790d2b57d7a
-0.2518073499574714,-0.4062908592517942,-0.0108163849030501,0.0578033741886677,0.0027569048738768,0.7453705679605402,0.0062358309791519,-0.0141857387409187,-10.722597585169794,14.955789135678396,56.76020616670549,1.6468125113895171,-1.9585590037208267,0.0198745766219643,7980.84423828125,11.582666666666666,7.065555555555555,179.16874670184876,-10.356100254071736,60.13100393902304,1385.0,1435.0,1350.0,1528.0,1331.0,990.0,160.0,294.53,1649329652.552232,1649329653.6860988,42de4708-b94c-408b-9b2f-cbefd28772e1
-0.260852558362923,-0.4005443299630996,-0.0136964973462196,0.074623296007915,-0.0004031652107473,0.7270089632735548,-0.0036508930950161,-0.0209282804114644,-10.705461543112,15.097301078461818,57.10104666794707,1.5684675584451808,-1.942399246694044,0.0434586443751858,7974.244845920139,11.589777777777776,7.042222222222222,179.03888203842956,-10.384372494048668,59.62594104738701,1385.0,1435.0,1350.0,1528.0,1331.0,990.0,160.0,294.53,1649329653.794603,1649329654.9156623,42de4708-b94c-408b-9b2f-cbefd28772e1
-0.2494789347558217,-0.4000052333579063,-0.0082923830041711,0.0720724489471845,0.0038307151253071,0.7262726363536403,0.002239722973675,-0.0144854193124823,-10.612259436622766,15.1070910539065,56.78060847520273,1.572896843158818,-1.937540110701157,0.0215906367796501,7973.419921875,11.581666666666669,7.061111111111111,178.90058892157458,-10.379984287234407,59.25168993873505,1385.0,1435.0,1350.0,1528.0,1331.0,990.0,160.0,294.53,1649329655.024243,1649329656.1406949,42de4708-b94c-408b-9b2f-cbefd28772e1
-0.4678656695412042,-0.8045907494317538,-0.0679743172205736,0.2267931533676759,0.0328235906123587,0.968813466213945,0.0281821009667371,0.001266719392548,-11.834700215780318,16.76335088745391,55.016443697484085,1.7760176911004593,-3.453498756326173,-0.0251032049394756,7980.84423828125,11.5102,7.037999999999999,178.820852078948,-10.456408658868265,58.29904687573581,1297.0,1435.0,1350.0,1528.0,1253.0,990.0,160.0,294.53,1649329658.4891984,1649329659.6339798,d9edbd9f-7e73-4688-a7e2-51e4dcd96104
-0.4743479783603576,-0.8089955647551236,-0.0712614914081204,0.221454782903347,0.030851286192438,0.9753089217043605,0.0263675808809874,0.0025684402455158,-12.01189432433791,16.746003427695367,54.60921791647392,1.802223115853434,-3.4647075395806985,-0.016623527662117,7980.84423828125,11.53,7.04,178.7615414482713,-10.452136034032964,58.00435016776861,1297.0,1435.0,1350.0,1528.0,1253.0,990.0,160.0,294.53,1649329659.74705,1649329660.8547668,d9edbd9f-7e73-4688-a7e2-51e4dcd96104
-0.482302941588409,-0.8162273510920187,-0.0750088698956037,0.2247945517499859,0.028405628801015,0.9793324224535144,0.0257890382561032,0.0122064347798106,-11.82750802546892,16.701870594682372,54.59396729932355,1.803341987010984,-3.493650519601082,-0.0080808575112383,7977.544542100694,11.523444444444443,7.036666666666666,178.73309143364847,-10.496331057648746,57.75881700966519,1297.0,1435.0,1350.0,1528.0,1253.0,990.0,160.0,294.53,1649329660.9628985,1649329662.0282855,d9edbd9f-7e73-4688-a7e2-51e4dcd96104
0.1886882334691878,0.3896003000333625,0.0856944982169763,-0.2400381698882897,-0.0788745868905799,0.250473954290047,-0.0797555494658274,-0.1033706092635013,-8.70257189788332,12.466923128171375,58.33621985206631,1.1961459520051867,1.0409980614950245,0.2202864330690644,7976.3896484375,11.6384,7.078,178.0901611736157,-10.556574919839065,57.47889961680603,1553.0,1435.0,1350.0,1528.0,1471.0,990.0,160.0,294.53,1649329662.9945247,1649329664.1282756,8d4e7699-5296-49b4-90a2-255796999910
0.1937636300100558,0.3957144433073827,0.0882847913678783,-0.2405772664518547,-0.077914732004821,0.247068442146134,-0.0796240624898619,-0.1032522711081423,-8.742380155215109,12.531734387854296,58.642894502513,1.1902968495006498,1.0617252037660716,0.2163741959396614,7980.84423828125,11.651,7.09,178.02881241449066,-10.557672701993416,57.44457518415105,1553.0,1435.0,1350.0,1528.0,1471.0,990.0,160.0,294.53,1649329664.2366245,1649329665.367644,8d4e7699-5296-49b4-90a2-255796999910
0.1979317665672142,0.3886141478933115,0.0880875609511259,-0.2385523670008862,-0.0764946727261444,0.25122342994238,-0.0774545275064285,-0.1072100293230986,-8.706845670109665,12.507257940311783,58.51740219131177,1.1948917896722635,1.0356932829331995,0.2106364329843363,7980.84423828125,11.647000000000002,7.106999999999999,177.98359656218517,-10.563019032566242,57.441929168866594,1553.0,1435.0,1350.0,1528.0,1471.0,990.0,160.0,294.53,1649329665.4803717,1649329666.588991,8d4e7699-5296-49b4-90a2-255796999910
0.2068860283267549,0.3788315186350094,0.0670759444916413,-0.7101173262334308,-0.1438554476559713,0.715858869933572,0.0375834188612414,0.0246188041227715,-8.228754016547407,11.291605078308123,61.84835830467928,3.2943913613397187,1.022803578956446,0.1674487282058508,7984.976182725694,11.632333333333332,7.095555555555555,177.94103082327763,-10.369870864075867,57.42537855803377,1553.0,1522.0,1350.0,1528.0,1471.0,990.0,160.0,294.53,1649329668.5243237,1649329669.6658869,720b469f-287d-410e-b59a-1ce42ad4cd58
0.2313714282268954,0.3772840183567813,0.0686942455760768,-0.7029447095468572,-0.1401045288943848,0.710881583165384,0.0360880075242707,0.0231542415071159,-8.508874556830614,11.34397194376651,61.86550453298847,3.2673165219799154,1.018050546904732,0.1619455042107514,7988.28173828125,11.638444444444444,7.091111111111111,177.95909743254225,-10.4022786887315,57.42261460814965,1553.0,1522.0,1350.0,1528.0,1471.0,990.0,160.0,294.53,1649329669.7735386,1649329670.8921242,720b469f-287d-410e-b59a-1ce42ad4cd58
0.2032701370136134,0.3814218116079974,0.0632233765043761,-0.6976260598420535,-0.1457488600312318,0.7047087765960598,0.0290367662575237,0.0076306882561555,-8.40986717165903,11.310329097769149,62.212036503371365,3.241057472504877,1.0287954992041792,0.1882492556743989,7988.28173828125,11.634,7.092499999999999,177.97160616509723,-10.420849925652895,57.435666909926056,1553.0,1522.0,1350.0,1528.0,1471.0,990.0,160.0,294.53,1649329670.999767,1649329672.1151595,720b469f-287d-410e-b59a-1ce42ad4cd58
0.2454774499714042,0.3839069150043591,0.054137627397583,-1.1950020869118874,-0.2097304216895507,1.1808361823218785,0.152148007819263,0.1274021620648431,-8.20146863269078,10.562559603663365,65.57943253803732,5.428170006942658,1.067444973167336,0.1136368656037962,7995.7333984375,11.612444444444444,7.065555555555556,178.01253986824804,-10.292982096496695,57.46496329882354,1553.0,1613.0,1350.0,1528.0,1471.0,990.0,160.0,294.53,1649329673.0298092,1649329674.1636677,ce386478-1965-4438-b97f-7b53eebd90a5
0.2432553204111564,0.3762280769775904,0.0553341587635375,-1.190163362329371,-0.2066667751280261,1.1856223076303407,0.1561715087415107,0.1351730410767603,-8.114444173471739,10.531137821311187,65.84349712221785,5.427947272200771,1.0351678966475246,0.1016639366451007,7988.28173828125,11.610111111111111,7.087777777777777,178.05917943554053,-10.285421361676706,57.45308559985689,1553.0,1613.0,1350.0,1528.0,1471.0,990.0,160.0,294.53,1649329674.271759,1649329675.3960736,ce386478-1965-4438-b97f-7b53eebd90a5
0.2342616126301863,0.3753734117918872,0.0462747070918626,-1.1885723689108008,-0.2140957892127185,1.1797711379440132,0.1442193442128329,0.1136749229176306,-8.356202412420727,10.54769749227844,65.0216198150829,5.410615990212116,1.0401878403603328,0.139724374045422,7988.28173828125,11.612333333333332,7.076666666666666,178.0873107080021,-10.29474172398162,57.4832522686911,1553.0,1613.0,1350.0,1528.0,1471.0,990.0,160.0,294.53,1649329675.5036285,1649329676.6244535,ce386478-1965-4438-b97f-7b53eebd90a5
0.2801900061474566,0.3754523039660273,0.0500220854837602,-1.6053864678003649,-0.2633376624730488,1.5865655204198057,0.2506448873024336,0.2276609673975642,-8.43214599250293,10.870465548097666,68.71716168268648,7.267844896315456,1.059829524421996,0.0515397371786729,7988.28173828125,11.556,7.045555555555556,178.1418156175788,-10.118278569268725,57.58478454852317,1553.0,1710.0,1350.0,1528.0,1471.0,990.0,160.0,294.53,1649329678.9722495,1649329680.1072628,1b77ef1a-d731-40f3-916e-77552ee9347f
0.2581133463959158,0.3834335619685182,0.0368996865952082,-1.6058992679430082,-0.2773804719152898,1.580753795957682,0.2365494856605099,0.2059524708978504,-8.282123361453056,10.749083194985674,68.83135934526025,7.254577582138978,1.086919328182839,0.1098997085462117,7989.109700520833,11.562333333333337,7.04,178.17858480261071,-10.111640953487813,57.56075214847351,1553.0,1710.0,1350.0,1528.0,1471.0,990.0,160.0,294.53,1649329680.215454,1649329681.334111,1b77ef1a-d731-40f3-916e-77552ee9347f
0.2483438656131956,0.3832757776301513,0.0401079684988181,-1.6064778105692108,-0.2733306728448004,1.5821081117244191,0.2399155517206639,0.2176022151765452,-8.399780612227234,10.71154163680736,68.95249329770722,7.258796928202678,1.0863606651800222,0.0952977448943251,7988.28173828125,11.559444444444445,7.044444444444444,178.20220359676057,-10.152925178152309,57.59330331223799,1553.0,1710.0,1350.0,1528.0,1471.0,990.0,160.0,294.53,1649329681.4426556,1649329682.5638745,1b77ef1a-d731-40f3-916e-77552ee9347f
0.2559832577197342,0.3774377569371366,0.025552361603644,-1.7313642989087823,-0.3120798863865552,1.705811067305563,0.2463715612084465,0.2235848713970541,-8.441269755034702,11.913037000735288,69.33078027234106,7.825766809252396,1.0758792686283407,0.156934479660924,7995.7333984375,11.522666666666668,7.036666666666666,178.2445735369119,-10.093180375117342,57.66458544314597,1553.0,1814.0,1350.0,1528.0,1471.0,990.0,160.0,294.53,1649329684.4990077,1649329685.635455,fe3fe7aa-9fd6-489e-ac38-d1b24fb83040
0.2491853821269913,0.3731118362133193,0.0269987181907189,-1.705934681457158,-0.3058474033990265,1.6827745457942482,0.242229722129844,0.2106991500165133,-8.558887834307745,11.87414639535737,68.7733121199993,7.716303821637922,1.062387835329938,0.1512181466221636,7988.28173828125,11.531,7.050000000000001,178.2651779409081,-10.094773706468724,57.65422784072459,1553.0,1814.0,1350.0,1528.0,1471.0,990.0,160.0,294.53,1649329685.7439802,1649329686.8658054,fe3fe7aa-9fd6-489e-ac38-d1b24fb83040
0.271906327992526,0.3678786555030736,0.0285502643414945,-1.7223705750086398,-0.3066231766258751,1.7031550288786468,0.2510656455002454,0.236904500382307,-8.31945818747405,11.87667786191856,68.82874303421735,7.799400234242323,1.042696331917612,0.1370466309353921,7980.84423828125,11.513,7.045,178.32348043566333,-10.102058530105367,57.70582308971488,1553.0,1814.0,1350.0,1528.0,1471.0,990.0,160.0,294.53,1649329686.9753666,1649329688.0934305,fe3fe7aa-9fd6-489e-ac38-d1b24fb83040
0.1647181610544862,0.3904023704423394,0.1023275987364674,0.2089635221320563,-0.0199552769641588,-0.1808558817277238,-0.1910987171617556,-0.2141089381371062,-8.995360784482592,13.930859517017732,55.52845194757506,-0.7760097211436411,1.0167613356259653,0.2751606519488305,7980.84423828125,11.656888888888888,7.117777777777778,178.38415376497048,-10.735559192238348,57.7921149407789,1553.0,1349.0,1350.0,1528.0,1471.0,990.0,160.0,294.53,1649329689.430877,1649329690.551548,7e649ce7-942c-41c6-a706-95dc63e0398c
0.1588143966147148,0.3854979071233966,0.1024459370211034,0.2095946594841516,-0.0196791543111887,-0.1751230496717115,-0.1910198249343799,-0.2123996077184389,-9.093767317923694,14.086307934686186,55.74218083279227,-0.7635300602142179,0.9971012716290056,0.2740918511650422,7980.84423828125,11.65522222222222,7.115555555555555,178.32816442761415,-10.725023530579866,57.98154113049032,1553.0,1349.0,1350.0,1528.0,1471.0,990.0,160.0,294.53,1649329690.6599643,1649329691.7806711,7e649ce7-942c-41c6-a706-95dc63e0398c
0.1508103809157663,0.391216578105402,0.0990373904297788,0.1951113711954133,-0.0245982839737318,-0.16876616023211,-0.1910430880150787,-0.2238642604563286,-9.001798647815443,13.889675175886389,55.53527214947989,-0.7180344438375694,1.0212964438828012,0.2858893896077991,7980.84423828125,11.659,7.103333333333333,178.32623983208805,-10.748144764421482,58.21459705079995,1553.0,1349.0,1350.0,1528.0,1471.0,990.0,160.0,294.53,1649329691.889559,1649329693.01917,7e649ce7-942c-41c6-a706-95dc63e0398c
0.152700253028232,0.3920459573438297,0.1217745202022112,0.5763249188821458,0.0317979924010053,-0.5365413279172715,-0.2833499806147334,-0.3169186071551697,-9.633359053988553,15.578529183507358,52.98805307086222,-2.3927948958487475,1.0059875954564306,0.308223199293591,7988.28173828125,11.634,7.1,178.36835326069053,-10.86676447000962,58.55780039621475,1553.0,1264.0,1350.0,1528.0,1471.0,990.0,160.0,294.53,1649329694.9438045,1649329696.080335,3c0a049a-81fb-4c74-8a0f-5eb912097d22
0.1463625816483822,0.3881144974713614,0.118842360971653,0.5755359971770719,0.0304831227105768,-0.5315448219340783,-0.2843887277817348,-0.3081221282339473,-9.695793445065185,15.51628162350437,53.03322628167059,-2.3803703412415347,0.9911939510813954,0.3150528839011364,7988.28173828125,11.639666666666669,7.09,178.39743620617642,-10.86038488359735,58.69643122797868,1553.0,1264.0,1350.0,1528.0,1471.0,990.0,160.0,294.53,1649329696.1886232,1649329697.3053615,3c0a049a-81fb-4c74-8a0f-5eb912097d22
0.1540151226523798,0.3978839780166695,0.1139116000003819,0.566305613293429,0.0210818048465609,-0.531242401882734,-0.2889644746926923,-0.3119878453106032,-9.391410063840574,15.520653059113195,53.19033293015534,-2.358907556074316,1.0251126079196242,0.3426277061585545,7988.28173828125,11.642,7.096666666666667,178.42350627932848,-10.88343942823082,58.82812106972607,1553.0,1264.0,1350.0,1528.0,1471.0,990.0,160.0,294.53,1649329697.415141,1649329698.543235,3c0a049a-81fb-4c74-8a0f-5eb912097d22
0.1272049316803397,0.3935449086013892,0.1361591935370362,0.980739332952932,0.0770558048371963,-0.9258086430093342,-0.3955609732051005,-0.4116549810564809,-10.211938619243565,17.8750293434588,50.3995619499114,-4.164554189683812,0.9898051377390038,0.385466411017168,7988.28173828125,11.625000000000002,7.08,178.47825935244498,-11.012414744101816,59.1506983822123,1553.0,1178.0,1350.0,1528.0,1471.0,990.0,160.0,294.53,1649329700.4735425,1649329701.8188908,4e88fc89-369e-4965-9c7d-6265423725b3
0.1320305030959691,0.3935712059929447,0.1425889058439284,0.9833953694293296,0.0852605912148361,-0.927228703029168,-0.3881056609715637,-0.4176770849210446,-10.252825477970363,17.719375142456023,50.60446699098392,-4.174436233829009,0.9884550426130936,0.3552627746940973,7980.84423828125,11.614999999999998,7.1,178.4758346352897,-11.030963830340278,59.281711655776895,1553.0,1178.0,1350.0,1528.0,1471.0,990.0,160.0,294.53,1649329701.9268744,1649329703.0447264,4e88fc89-369e-4965-9c7d-6265423725b3
0.1309786073982307,0.3995670109933589,0.1350284057509677,0.9758480182378088,0.075964463138107,-0.9275179744931424,-0.3938647910080064,-0.4139165572412339,-10.021625660618955,17.566620510604753,50.35998508803274,-4.159372973324803,1.011920772715453,0.3869688790200314,7980.84423828125,11.618333333333332,7.104444444444444,178.51262962325842,-11.038030040491613,59.39636472900455,1553.0,1178.0,1350.0,1528.0,1471.0,990.0,160.0,294.53,1649329703.1532445,1649329704.2691786,4e88fc89-369e-4965-9c7d-6265423725b3
0.1098355042970327,0.406851388131662,0.1483611832767636,1.2342593345594806,0.1038791448093516,-1.185429827892003,-0.4676947366028517,-0.4851693589539368,-10.338258003626311,19.426980019722308,48.2853226273772,-5.309341629944393,1.0289311561951024,0.4351282431945479,7980.84423828125,11.5872,7.074000000000001,178.54612274600044,-11.122545738807476,59.617636751612125,1553.0,1088.0,1350.0,1528.0,1471.0,990.0,160.0,294.53,1649329706.4115362,1649329707.549817,8b9f1199-4158-4a63-a6af-efe0a97fb378
0.122142683751657,0.411085267985724,0.1470726111391652,1.2154172530850205,0.0981331646547325,-1.1734645048201886,-0.4657750264144384,-0.4893769421596291,-10.161423458102966,19.476509003043017,48.11050148976605,-5.239625514064681,1.0473476386164584,0.4421815412872696,7980.84423828125,11.5856,7.078,178.5603350036254,-11.138679157891236,59.68600557916612,1553.0,1088.0,1350.0,1528.0,1471.0,990.0,160.0,294.53,1649329707.6584473,1649329708.780178,8b9f1199-4158-4a63-a6af-efe0a97fb378
0.1348706214234041,0.4090866663196491,0.1516089111909133,1.2258178715767596,0.1065220327356781,-1.175502554232892,-0.463829018948191,-0.4921907639820514,-10.566351260721898,19.464664508916314,48.930649803226,-5.267592265455549,1.034455530471248,0.4225292183156327,7980.84423828125,11.589,7.1,178.59463211552367,-11.144298439898767,59.72116090433363,1553.0,1088.0,1350.0,1528.0,1471.0,990.0,160.0,294.53,1649329708.8897903,1649329710.003965,8b9f1199-4158-4a63-a6af-efe0a97fb378
0.1836391342793483,0.3838148741356673,0.0663264688170501,-0.2822191927857804,-0.0989132009741868,0.2969545928251235,-0.0866849127005067,-0.109550496943262,-8.953402962043358,12.297033625684987,58.51828746194656,1.3935563503018908,1.0234235326047243,0.2829276623386374,7974.90478515625,11.653000000000002,7.110000000000001,178.64320159071164,-10.664144252096513,59.76231108653568,1553.0,1435.0,1350.0,1528.0,1471.0,990.0,160.0,294.53,1649329710.9187117,1649329712.0559938,3a3b5079-d3f3-4cac-83fd-9463632b4f81
0.2063469318225923,0.3843934167216679,0.0704551593917762,-0.2725548998322312,-0.0961782720480166,0.2913269511740111,-0.0853568943304843,-0.1063027685333194,-8.824207743861555,12.491284440547618,59.08160231836759,1.3607581335341774,1.0187615117154731,0.2726437876071157,7980.84423828125,11.6582,7.108,178.64870125903133,-10.655841474141443,59.77932645379601,1553.0,1435.0,1350.0,1528.0,1471.0,990.0,160.0,294.53,1649329712.1640894,1649329713.2843258,3a3b5079-d3f3-4cac-83fd-9463632b4f81
0.1724364455217998,0.3887061887607156,0.0650378965771355,-0.2781562451546172,-0.1004910446474645,0.2899068920694907,-0.0898931947524004,-0.1180840014208806,-8.905720438522465,12.259081429996456,58.71234295454579,1.3682933950017913,1.0391289741586014,0.292351212172575,7980.84423828125,11.657,7.110000000000001,178.66422491297695,-10.690793088916964,59.76769327560164,1553.0,1435.0,1350.0,1528.0,1471.0,990.0,160.0,294.53,1649329713.39623,1649329714.514746,3a3b5079-d3f3-4cac-83fd-9463632b4f81
