raw_voltage_G-,raw_voltage_G0,raw_voltage_G1,raw_voltage_G2,raw_voltage_G3,raw_voltage_G4,raw_voltage_G5,raw_voltage_G6,load_x,load_y,load_z,load_l,load_m,load_n,rpm,voltage,current,roll,pitch,yaw,aileron1_pwm,elevator_pwm,throttle_pwm,rudder_pwm,aileron2_pwm,pbaro,pdiff,Tt,sample_start_time,sample_end_time,uid
-0.5107041327859203,-0.3177864211634823,-1.0854602148678898,0.0010826375570905,-1.0473026719689775,0.6257508633234259,-1.3587166504278014,-1.3912465574243469,-32.74498027489272,25.460518606588806,35.26949363133044,1.5075749306808215,-1.3412378951037691,4.818541854284623,4817.51318359375,11.93911111111111,0.14,179.7549302324372,-4.101919008308339,102.76918459178955,1553.0,1435.0,1200.0,1528.0,1471.0,988.0,161.0,292.25,1649320989.1390152,1649320990.107971,9cf83bae-5b94-4ecb-a489-199c20ea29a6
-0.4862869974873877,-0.3132369715935352,-1.0653295468748636,0.0013719088973899,-1.0298017456428032,0.617467185494974,-1.3396641708020562,-1.3596502083529567,-32.55809312169139,25.487733347983745,34.91321202403462,1.4895279388356182,-1.321098696548112,4.7403080138155,4823.840657552083,11.940666666666669,0.14,179.78049790723026,-4.104442194024228,102.41726820172354,1553.0,1435.0,1200.0,1528.0,1471.0,988.0,161.0,292.25,1649320990.215881,1649320991.347912,9cf83bae-5b94-4ecb-a489-199c20ea29a6
-0.4991464256818965,-0.2954862289591409,-1.0411227805149996,-0.0049920601196089,-1.012511198779828,0.6018728332572938,-1.3163646589631297,-1.340019186504708,-31.978764139383152,25.37976298487763,34.517127204168986,1.4695589701027487,-1.2527961880615126,4.652570487228888,4810.90869140625,11.943444444444443,0.1488888888888888,179.83015338249626,-4.111514902341646,102.0961460989855,1553.0,1435.0,1200.0,1528.0,1471.0,988.0,161.0,292.25,1649320991.460775,1649320992.5687487,9cf83bae-5b94-4ecb-a489-199c20ea29a6
-0.2361593038068387,0.1081919173062217,-0.9936296589797676,-0.3555100371433908,-1.072535037130862,0.540297494589699,-1.3055301231197085,-1.3263050829529583,-31.062203018841192,23.397863632248576,36.34996057710439,2.1118537690981487,0.284644208839831,4.703971856309048,4722.548828125,11.928333333333333,0.14,179.68932550654935,-4.055082930781617,101.42556723319257,1637.0,1435.0,1200.0,1528.0,1535.0,988.0,161.0,292.25,1649320994.713872,1649320996.0614598,8682fa1c-ba07-4d46-b887-483de0826a41
-0.2512277115074335,0.1053912450634785,-0.9985472745476436,-0.3503820445479543,-1.082186186965152,0.5377992425381055,-1.318902359552709,-1.3528260292617864,-31.205245979669,24.154550169095355,36.1973185262774,2.09934733407885,0.2755749873486828,4.741939739390955,4709.288628472223,11.92688888888889,0.14,179.6941719052204,-4.022131110017714,101.20174345191104,1637.0,1435.0,1200.0,1528.0,1535.0,988.0,161.0,292.25,1649320996.1707642,1649320997.2776082,8682fa1c-ba07-4d46-b887-483de0826a41
-0.2452187565860079,0.1064562894295441,-0.9944580274716412,-0.3548263046784415,-1.0770844893287743,0.5403237919918569,-1.312827656321791,-1.3355354762384608,-31.27040928741337,23.983650604380227,36.164335366017696,2.1140781398743105,0.2811266117147823,4.72083581887269,4711.38740234375,11.9248,0.143,179.68143678983992,-4.010970362727313,101.03263016890024,1637.0,1435.0,1200.0,1528.0,1535.0,988.0,161.0,292.25,1649320997.386389,1649320998.5027533,8682fa1c-ba07-4d46-b887-483de0826a41
-0.0264375841566544,0.5105682951501723,-0.9815591483782437,-0.668685768175453,-1.176883168537621,0.4499659595299015,-1.3632924008999014,-1.3783213759853776,-30.932547033089413,23.521928861605293,38.38007879389837,2.617126821619492,1.814215654577408,4.96073020972537,4731.4130859375,11.8986,0.14,179.4705587973293,-3.939440352870709,100.69395182381058,1723.0,1435.0,1200.0,1528.0,1599.0,988.0,161.0,292.25,1649320999.622555,1649321000.7697308,1e547593-c148-46b8-ab7d-bc42500b2707
-0.02637184069151,0.5135136028399322,-0.9903556313688346,-0.6621771612886146,-1.179644396960921,0.4427210285035084,-1.3703269604964898,-1.3864209823034508,-31.0711178872902,22.982347701341816,38.55858892456904,2.582108419404749,1.8232928389264929,4.987287162853579,4759.79892578125,11.9025,0.14,179.44933603354022,-3.937599744955437,100.53465883500648,1723.0,1435.0,1200.0,1528.0,1599.0,988.0,161.0,292.25,1649321000.8782845,1649321001.9908364,1e547593-c148-46b8-ab7d-bc42500b2707
-0.0145380137783368,0.5263598778880997,-0.9697647604843292,-0.6679757382610932,-1.1654832398987545,0.4356075844500572,-1.3513533731111107,-1.3755338493647158,-30.71029830972592,23.07834635117688,38.72679638458335,2.581073844980336,1.869450478511168,4.914870915835337,4772.5087890625,11.898,0.13,179.45029468853576,-3.9339091613307207,100.37698444925364,1723.0,1435.0,1200.0,1528.0,1599.0,988.0,161.0,292.25,1649321002.098838,1649321003.4221015,1e547593-c148-46b8-ab7d-bc42500b2707
0.1917387308560348,0.8746951059392516,-0.9351705204650504,-0.9305553252550486,-1.228202572099926,0.3385044701621797,-1.3746134395406446,-1.38924795345145,-30.352605003036807,22.6801412230706,39.11578302048657,2.954510270361011,3.204455630167101,5.027067016844578,4788.50634765625,11.862333333333332,0.1266666666666666,179.17499101256993,-3.8524089725606654,100.02026567729122,1813.0,1435.0,1200.0,1528.0,1662.0,988.0,161.0,292.25,1649321005.5627277,1649321006.700415,c583a98a-e27f-4982-8730-974cf3fc8435
0.1946445926227768,0.8805725726646573,-0.933895096161902,-0.9406798271555304,-1.2280447877372942,0.3429092831221543,-1.3711290315905666,-1.4044215648648222,-30.318286012041973,22.51990107365939,39.25527546211259,2.9862876365052347,3.226345164904995,5.021061419549153,4791.18310546875,11.85388888888889,0.13,179.16307916265745,-3.873184083854252,99.90830597532629,1813.0,1435.0,1200.0,1528.0,1662.0,988.0,161.0,292.25,1649321006.8082952,1649321007.9283164,c583a98a-e27f-4982-8730-974cf3fc8435
0.1924224630283924,0.8718286904039882,-0.9398514588071032,-0.9293719418983222,-1.232489050700374,0.3429618778817366,-1.3800833028667472,-1.406065152995193,-30.48696991477776,22.810479909771928,39.46494286411612,2.962476211394569,3.191121000181371,5.0470824503638605,4806.767041015625,11.8604,0.1299999999999999,179.13521973172482,-3.855285250597523,99.759415971756,1813.0,1435.0,1200.0,1528.0,1662.0,988.0,161.0,292.25,1649321008.036265,1649321009.1648743,c583a98a-e27f-4982-8730-974cf3fc8435
-0.7771231103664547,-0.7752428459710355,-1.1006864158735368,0.4150824713076267,-0.9397725666161172,0.6776619110494052,-1.3308282383928642,-1.3509457645480716,-33.32967075429816,27.44995179328953,33.15373602434928,0.7021422392949442,-3.0859911787781864,4.59719803166401,4797.4404296875,11.943,0.14,179.69049270998747,-3.9796195383048607,99.44103603818772,1470.0,1435.0,1200.0,1528.0,1403.0,988.0,161.0,292.25,1649321011.0914586,1649321012.4393027,4965d9bb-825e-4d66-b489-633db166976b
-0.7574612493165718,-0.7724431839266865,-1.102273363725444,0.4092581050471244,-0.9401144330617422,0.679387930124414,-1.3282288401293936,-1.3473197538365294,-33.20098946738238,27.09895361099465,33.03413811573287,0.7167990594422317,-3.074730977779872,4.596478916052993,4802.219835069444,11.940444444444443,0.14,179.68027322916933,-3.966021200849797,99.37739764787092,1470.0,1435.0,1200.0,1528.0,1403.0,988.0,161.0,292.25,1649321012.5475235,1649321013.872872,4965d9bb-825e-4d66-b489-633db166976b
-0.7816988587432783,-0.7690892534011824,-1.0973597936807389,0.4022493447064357,-0.9382867633399004,0.6826584151433863,-1.323754233090299,-1.3570204675444415,-33.15682210677501,27.237530788242893,33.0829645219652,0.7411516459055124,-3.061720279332576,4.581308190440328,4803.714029947917,11.941666666666666,0.14,179.64539069416813,-3.95570121190073,99.28721790134932,1470.0,1435.0,1200.0,1528.0,1403.0,988.0,161.0,292.25,1649321013.980943,1649321015.3021228,4965d9bb-825e-4d66-b489-633db166976b
-1.004806057541516,-1.1763309225607304,-1.1251035626554136,0.7713200654376878,-0.8566070176186418,0.7369625254131431,-1.3165618896894522,-1.331827541730587,-34.0543701001418,29.277680014636307,32.292759556627004,0.0422122845516894,-4.622932661533257,4.449015126650534,4796.54541015625,11.890444444444444,0.1355555555555555,179.7548528236266,-3.991474944292973,99.08484546752112,1385.0,1435.0,1200.0,1528.0,1331.0,988.0,161.0,292.25,1649321017.2367468,1649321018.3728015,8865d302-34b6-44b0-a389-6ce0cef50c05
-1.0204398674297623,-1.2003667586916822,-1.1415920403135311,0.7795248511127025,-0.8693349621294325,0.7477050092001951,-1.3337735492678144,-1.353825331516307,-34.394165629021515,29.71784821247845,31.41328183803142,0.0496297674915971,-4.704929883966159,4.50883728866667,4804.611328125,11.883333333333333,0.13,179.7406885291078,-4.007392083539388,98.9133781218674,1385.0,1435.0,1200.0,1528.0,1331.0,988.0,161.0,292.25,1649321018.482736,1649321019.600619,8865d302-34b6-44b0-a389-6ce0cef50c05
-1.0189672124938525,-1.2042850733806305,-1.1406716307379734,0.7908195801287593,-0.8650090388483332,0.7423929364211601,-1.3309071307893074,-1.3605180246525748,-34.25058579966735,29.4889714067784,31.607331274127844,0.0108464745270986,-4.72369817979274,4.497702386539416,4801.024088541667,11.891,0.1333333333333333,179.72645137923786,-3.98992458621512,98.78601634332406,1385.0,1435.0,1200.0,1528.0,1331.0,988.0,161.0,292.25,1649321019.709916,1649321020.83728,8865d302-34b6-44b0-a389-6ce0cef50c05
-1.2752486478889709,-1.6512886246866645,-1.1789475156655098,1.212432499076784,-0.7880102362087028,0.779261877227715,-1.3437665684063202,-1.3598342913952255,-35.21306964862858,32.49007766871172,29.54996732313188,-0.8401831751519847,-6.429471848922173,4.408113314740385,4806.9688720703125,11.82525,0.12,179.85882329126486,-4.009742806978734,98.5035649692556,1297.0,1435.0,1200.0,1528.0,1253.0,988.0,161.0,292.25,1649321022.1522272,1649321023.288599,f8cd2082-930d-451c-ae7c-37b51b3d8d3d
-1.3049778771129998,-1.6601114115311366,-1.1874678774564855,1.2121826736783683,-0.7862877561071676,0.7941330512644359,-1.3425305894358548,-1.3776244947950371,-35.51663713905369,31.741646414173275,30.384472766501577,-0.8116075980631297,-6.468332367971359,4.415823780657084,4810.00341796875,11.816,0.1111111111111111,179.86794406026405,-4.048640117687656,98.20904901465568,1297.0,1435.0,1200.0,1528.0,1253.0,988.0,161.0,292.25,1649321023.3969734,1649321024.465547,f8cd2082-930d-451c-ae7c-37b51b3d8d3d
-1.294064449178295,-1.6561273512668775,-1.195738414046126,1.2095134882884309,-0.7938614084336649,0.7895178593109422,-1.351734685465861,-1.368985791833541,-35.59986674951873,31.609812448204515,29.868979932772195,-0.8173673513267181,-6.448429750873349,4.450245205772999,4818.11474609375,11.83488888888889,0.12,179.87276920945772,-4.027238004514636,98.004672299761,1297.0,1435.0,1200.0,1528.0,1253.0,988.0,161.0,292.25,1649321024.5841682,1649321025.5311215,f8cd2082-930d-451c-ae7c-37b51b3d8d3d
-0.5035512401009165,-0.3076619234530911,-1.0715488843499268,0.0076832832552796,-1.0304065857885647,0.6106430128049009,-1.3488682668434295,-1.3621747616071218,-33.11469212927784,25.18023802029175,35.49278046552944,1.4574203010004134,-1.3025626589713837,4.763998450188876,4811.893896484375,11.949800000000002,0.14,179.41818080866017,-3.871838939758649,97.6303401395309,1553.0,1435.0,1200.0,1528.0,1471.0,988.0,161.0,292.25,1649321027.6802158,1649321028.8137474,82a14cc5-89cf-4635-b3fc-466f5d2eec9b
-0.5026439798212456,-0.3173262166879846,-1.062252749555455,0.0211606970991446,-1.0204004215470377,0.6058174417500468,-1.341860005107928,-1.3557318942721346,-33.10057940490714,25.451461889468224,35.28446611925203,1.4184096135946158,-1.338128669001052,4.726273302089984,4815.40771484375,11.948,0.14,179.36360896322952,-3.824812020106053,97.75708932599667,1553.0,1435.0,1200.0,1528.0,1471.0,988.0,161.0,292.25,1649321028.922594,1649321030.0468948,82a14cc5-89cf-4635-b3fc-466f5d2eec9b
-0.5030252921234691,-0.3104362987990572,-1.0692347121219896,0.0131794383861331,-1.0263567849001916,0.6087233033410964,-1.3441347317462924,-1.3597422511954442,-32.93905609202764,25.01056484424234,35.581094277272896,1.4398014128849244,-1.31552695080805,4.748617971567942,4815.40771484375,11.949,0.14,179.33154046616644,-3.8502374941551634,97.82808838350904,1553.0,1435.0,1200.0,1528.0,1471.0,988.0,161.0,292.25,1649321030.1556618,1649321031.2809703,82a14cc5-89cf-4635-b3fc-466f5d2eec9b
-0.5176466461977965,-0.3272140378276981,-1.1339657906794856,-0.3405731156384226,-1.118187343436111,0.9717324766131172,-1.3067529531561768,-1.331498822576889,-33.28411563685769,24.00542392295253,38.44776261377158,3.0439074801813644,-1.3619847760924375,4.907788969257241,4805.512315538194,11.93677777777778,0.14,179.32256256195743,-3.710802834503285,97.92978155224154,1553.0,1522.0,1200.0,1528.0,1471.0,988.0,161.0,292.25,1649321032.1858425,1649321033.329652,426caca9-fbd6-4bc3-9294-4cff637d1a48
-0.52051306273622,-0.3213628670800094,-1.1295215282739022,-0.3478969406344934,-1.1184371689035246,0.9707463244472646,-1.301598659579959,-1.328132753164594,-32.91479667587427,24.072880772780785,38.19818105708262,3.059026814655017,-1.339256635904843,4.89525495748253,4799.23046875,11.938444444444444,0.14,179.29574116799668,-3.720992860130644,97.87109429016309,1553.0,1522.0,1200.0,1528.0,1471.0,988.0,161.0,292.25,1649321033.4453351,1649321034.572713,426caca9-fbd6-4bc3-9294-4cff637d1a48
-0.5012006571643192,-0.3191923204322293,-1.12499281005419,-0.3482585298595394,-1.1150554227775469,0.9690764401378164,-1.2992384661178444,-1.3270656847465578,-33.00635046722629,24.19122872151949,38.241356995401965,3.0570608577778824,-1.3305168152546518,4.881323106781208,4792.969563802083,11.928666666666668,0.1333333333333333,179.2897609579234,-3.691532831284302,97.84276038875616,1553.0,1522.0,1200.0,1528.0,1471.0,988.0,161.0,292.25,1649321034.6823454,1649321035.7900455,426caca9-fbd6-4bc3-9294-4cff637d1a48
-0.4933609978922291,-0.336483870186899,-1.1841807007334173,-0.7817251565728154,-1.2163424379361347,1.408058804564698,-1.2373803697798775,-1.271198846632852,-32.95393868193705,23.543095745385003,41.51061047339976,5.014611161527389,-1.3751110777535491,5.010907241597823,4807.3056640625,11.91477777777778,0.1244444444444444,179.28185311668437,-3.53201127304552,97.74794597942774,1553.0,1613.0,1200.0,1528.0,1471.0,988.0,161.0,292.25,1649321037.7158515,1649321038.8528843,a8bc4431-fc40-49c8-b11b-3c7b4ee85bd1
-0.4951886671182069,-0.3472263568464691,-1.1902422547210711,-0.777425530725847,-1.2104518176127967,1.4136075545365958,-1.233383163305845,-1.2697919348190456,-33.16525077900759,22.63238038235623,41.37015601529333,5.010913215624272,-1.4135905660166457,5.004221156516731,4807.905490451389,11.916,0.13,179.25908430163113,-3.537366544525697,97.62897394991494,1553.0,1613.0,1200.0,1528.0,1471.0,988.0,161.0,292.25,1649321038.960395,1649321040.0886266,a8bc4431-fc40-49c8-b11b-3c7b4ee85bd1
-0.4942912683772859,-0.333808657956584,-1.1893919714437742,-0.7866444144580945,-1.21904504540113,1.4078456859815212,-1.240726715938688,-1.2652846673410223,-33.08884280550782,23.229077957391382,41.18074067378813,5.022767257379904,-1.3609289858133042,5.026306163405219,4817.21240234375,11.916333333333332,0.1266666666666666,179.25298266597258,-3.533778869084475,97.52112905746996,1553.0,1613.0,1200.0,1528.0,1471.0,988.0,161.0,292.25,1649321040.2119324,1649321041.3214512,a8bc4431-fc40-49c8-b11b-3c7b4ee85bd1
-0.484827491856967,-0.3519204422006405,-1.2350136025229626,-1.155963576265756,-1.2982325901261342,1.7847295575722255,-1.1811696471104467,-1.207900968517588,-33.151221793553866,22.53927042950109,43.94994993413586,6.69633474241707,-1.41039389038007,5.110268650582099,4818.65673828125,11.8924,0.12,179.2711336660189,-3.382067077208731,97.32039025310922,1553.0,1710.0,1200.0,1528.0,1471.0,988.0,161.0,292.25,1649321043.040305,1649321044.1837204,da2290e5-1b51-430f-a1f5-7b751562ba87
-0.4942025146466556,-0.3569695424773338,-1.2417720383486226,-1.1495207103957306,-1.3031896531479676,1.7835856207186285,-1.187914933653007,-1.221194312635271,-33.14390573283125,22.547708483858496,43.87535670841606,6.678941840700214,-1.4299433100271777,5.1351786883867785,4820.82470703125,11.8996,0.12,179.2745187077716,-3.397757515836132,97.11558020065722,1553.0,1710.0,1200.0,1528.0,1471.0,988.0,161.0,292.25,1649321044.2913034,1649321045.4128191,da2290e5-1b51-430f-a1f5-7b751562ba87
-0.4949388418160385,-0.3531827173392275,-1.2471498597076625,-1.1483110291798986,-1.3071474144584063,1.7812188547195036,-1.1934242420560734,-1.225454492254768,-33.20695106653509,22.38171293938105,44.184952911558966,6.669544088925047,-1.4185308153758025,5.156673455647739,4820.01171875,11.889599999999998,0.12,179.28965987112366,-3.3930441943889766,96.9372439614282,1553.0,1710.0,1200.0,1528.0,1471.0,988.0,161.0,292.25,1649321045.5204942,1649321046.6444647,da2290e5-1b51-430f-a1f5-7b751562ba87
-0.4740192609045028,-0.3596781744139869,-1.247333941414282,-1.473149873496497,-1.3491049440843743,2.097589741870269,-1.1102060790938344,-1.130086922648582,-32.87662048269485,22.593206767283668,46.046127667364416,8.115084375813849,-1.4217397406118957,5.094722180635406,4822.18115234375,11.86,0.1149999999999999,179.30665884593,-3.278853762127484,96.68603028677406,1553.0,1814.0,1200.0,1528.0,1471.0,988.0,161.0,292.25,1649321047.7530243,1649321048.7155778,b5ce8a85-d7ca-43aa-a30f-e4c275046307
-0.4764254729392425,-0.3579162487669066,-1.245598313591955,-1.469165813599859,-1.3518924709227094,2.0930665883530493,-1.112480805950362,-1.1372003740181404,-32.66562138167445,22.98865029090582,46.16204514085466,8.098765737955317,-1.4180260086394707,5.099788644102413,4825.7134765625,11.8474,0.11,179.2919384222308,-3.2676525720537795,96.51569424811984,1553.0,1814.0,1200.0,1528.0,1471.0,988.0,161.0,292.25,1649321048.8240206,1649321049.9179008,b5ce8a85-d7ca-43aa-a30f-e4c275046307
-0.4829077817486512,-0.3625708881062584,-1.2621788329073056,-1.4769235529588354,-1.3615962176085492,2.105544706661532,-1.1247616969494494,-1.138962299335184,-33.19720365397497,22.574250441256904,46.168740923186526,8.140466071769502,-1.4318836727643305,5.152268483414544,4823.53759765625,11.852,0.11,179.2859770331232,-3.248285143775385,96.324798657045,1553.0,1814.0,1200.0,1528.0,1471.0,988.0,161.0,292.25,1649321050.0272186,1649321051.1375885,b5ce8a85-d7ca-43aa-a30f-e4c275046307
-0.5095864932392982,-0.2945000765614928,-0.99433968893362,0.4948030097157356,-0.91156859698236,0.1271260394265349,-1.4074983620553545,-1.426340463670246,-32.82257630101054,26.446773238108367,32.41321639644816,-0.7160329955162336,-1.283029889892496,4.581573660682688,4823.53759765625,11.951,0.133,179.26624188453536,-3.8833750865781176,96.09485624052304,1553.0,1349.0,1200.0,1528.0,1471.0,988.0,161.0,292.25,1649321052.0516844,1649321053.1892774,0a2ea8d5-47a6-4ce5-86b8-f05a6b9f5eb8
-0.4892060087766516,-0.2873603335107389,-0.9948524884482912,0.4880577291982934,-0.914448163171113,0.1266132403312944,-1.4091945456778392,-1.4271425350327067,-32.82232030542283,26.46976516641596,32.44302211334102,-0.7018378609652949,-1.2557191221347668,4.589447287626208,4820.82470703125,11.9516,0.137,179.23535167099504,-3.8949866216105504,96.30472951220672,1553.0,1349.0,1200.0,1528.0,1471.0,988.0,161.0,292.25,1649321053.298287,1649321054.4240072,0a2ea8d5-47a6-4ce5-86b8-f05a6b9f5eb8
-0.5006848235650301,-0.2865714116697579,-0.9857667335641344,0.4815228277516611,-0.9086101388439144,0.1312415813165942,-1.3988333624288851,-1.434873978194116,-32.640486061614595,26.59311077470288,32.42784311635153,-0.6753370301999067,-1.252529966067932,4.554451976238543,4818.11474609375,11.9504,0.14,179.21167960136964,-3.9130744993253073,96.50071427723218,1553.0,1349.0,1200.0,1528.0,1471.0,988.0,161.0,292.25,1649321054.5377386,1649321055.6456783,0a2ea8d5-47a6-4ce5-86b8-f05a6b9f5eb8
-0.5007149560211731,-0.2664078832309688,-0.9339646746247978,0.8689956944772685,-0.8287476555948241,-0.2647779925549537,-1.4711578431740455,-1.4855255501699771,-33.14552312027861,28.418351710267945,29.564597354988862,-2.4253212473752352,-1.1923443461534184,4.478735662899124,4818.3857421875,11.9302,0.13,179.18659778069951,-4.045273365663775,96.81184237128568,1553.0,1264.0,1200.0,1528.0,1471.0,988.0,161.0,292.25,1649321057.5811622,1649321058.7152257,4771b068-89eb-494a-80bf-770d4aee00f9
-0.4979104479145427,-0.2638110153793017,-0.9311338680974812,0.8684494757775526,-0.8278902505500204,-0.2655860896743774,-1.4676142656974098,-1.49196567956677,-32.90520056137243,28.42913994554577,29.76294422843324,-2.425539952264425,-1.185816507942292,4.469416664452677,4818.11474609375,11.928333333333333,0.1244444444444444,179.18386115157205,-4.059081484790097,96.93671758151616,1553.0,1264.0,1200.0,1528.0,1471.0,988.0,161.0,292.25,1649321058.8234985,1649321059.9512565,4771b068-89eb-494a-80bf-770d4aee00f9
-0.4906260683547141,-0.2620490898698875,-0.9287539527693746,0.8672660932279448,-0.8211975610181652,-0.2633639597884951,-1.4599091212535185,-1.484142196459828,-32.913541984654586,27.89594515074093,30.21436360210568,-2.4212254574280263,-1.1828625649887974,4.447138912931838,4815.107313368056,11.92488888888889,0.1288888888888889,179.17679114687118,-4.054286502265271,97.05358287712498,1553.0,1264.0,1200.0,1528.0,1471.0,988.0,161.0,292.25,1649321060.0598423,1649321061.1783512,4771b068-89eb-494a-80bf-770d4aee00f9
-0.4978972992312747,-0.2434568311122035,-0.8643516035879063,1.2766507307994186,-0.7318915760019881,-0.680782573386803,-1.5250083898231046,-1.5482553126916598,-32.90500193680537,30.06305947875253,27.028236721840948,-4.26562297785759,-1.1312366658279511,4.33086291449705,4816.313259548611,11.902888888888889,0.1244444444444444,179.17952018689957,-4.204028960875823,97.20908199940912,1553.0,1178.0,1200.0,1528.0,1471.0,988.0,161.0,292.25,1649321062.2996686,1649321063.4323776,54e3b7b1-1c0f-4155-bd25-18c6fa0874bc
-0.5127947759722247,-0.257013138533446,-0.8804982109964287,1.2867094834277568,-0.7457897536295384,-0.6742871148101518,-1.5431273142700015,-1.5646254587933428,-33.12210260166938,30.41541181247013,27.2449605016976,-4.272259839649492,-1.1847213739715,4.396056941501363,4817.21240234375,11.898666666666664,0.12,179.18285939049375,-4.217784677273013,97.28443795870209,1553.0,1178.0,1200.0,1528.0,1471.0,988.0,161.0,292.25,1649321063.540311,1649321064.664724,54e3b7b1-1c0f-4155-bd25-18c6fa0874bc
-0.5060626417713316,-0.2471516152864683,-0.8702027763888291,1.273232069700961,-0.7400043248802644,-0.6752338213726307,-1.5333446729247182,-1.5579590630088327,-33.03146895211585,30.43729366616973,26.79655810648601,-4.243353626222556,-1.14208956475795,4.360711814514191,4812.7041015625,11.910999999999998,0.127,179.16050509203222,-4.233782445953943,97.36441150532887,1553.0,1178.0,1200.0,1528.0,1471.0,988.0,161.0,292.25,1649321064.773103,1649321065.845178,54e3b7b1-1c0f-4155-bd25-18c6fa0874bc
-0.5125580994037435,-0.2440748198907275,-0.8044987086496828,1.556547043660085,-0.6578249411290568,-0.948582198614084,-1.554474653255333,-1.5806668887401256,-33.06332116273236,32.20190694819407,25.60504076517884,-5.481929606428968,-1.150450804230023,4.189732625425523,4812.7041015625,11.867,0.11,179.1881550638303,-4.3200498269166365,97.4176084336795,1553.0,1088.0,1200.0,1528.0,1471.0,988.0,161.0,292.25,1649321066.515865,1649321067.531905,8bac5306-f9e4-47de-9cd6-2bb100c01e18
-0.5058785599609084,-0.2455869201830513,-0.7987658744184959,1.558427307157873,-0.6537882902599595,-0.9506991398516368,-1.5518712087438646,-1.5776952795650387,-33.14204108200952,32.476024210079125,25.36897527835814,-5.488902712319607,-1.1533361176964174,4.1720463455791,4810.00341796875,11.869,0.12,179.18484469881253,-4.336491372909326,97.45536723723116,1553.0,1088.0,1200.0,1528.0,1471.0,988.0,161.0,292.25,1649321067.6460793,1649321068.7546074,8bac5306-f9e4-47de-9cd6-2bb100c01e18
-0.5114536085940457,-0.250504533118471,-0.8065499065049953,1.55943975688764,-0.6577460494977211,-0.9474251124525388,-1.558577052464163,-1.5852557913567995,-33.40235530134408,32.3406940492759,25.22927996028144,-5.485267390743047,-1.169320015426887,4.196685457605904,4804.611328125,11.86,0.12,179.16468653384212,-4.354660956762031,97.50411277951774,1553.0,1088.0,1200.0,1528.0,1471.0,988.0,161.0,292.25,1649321068.8625996,1649321070.188802,8bac5306-f9e4-47de-9cd6-2bb100c01e18
-0.5050107457484252,-0.2965381248279533,-1.0452646226120372,0.0271302050600384,-1.002163168271955,0.5819657090416429,-1.322321024035547,-1.3560869098241128,-32.59711890942835,24.609325782719843,35.718581631154194,1.3469317410612285,-1.267243909539094,4.654335165424224,4793.566351996527,11.948333333333332,0.1344444444444444,179.1966852111937,-3.864906463762628,97.54752090842288,1553.0,1435.0,1200.0,1528.0,1471.0,988.0,161.0,292.25,1649321071.0981572,1649321072.2314997,64bab7d5-b6ee-4974-8e83-bb1b9b80cdf8
-0.496805957183966,-0.287373482223579,-1.0518389750092672,0.0365052257557814,-1.0123928604559669,0.563478643897235,-1.3390067354024433,-1.360886187888929,-32.65361941147003,25.002070085484487,35.500429383860336,1.286454062385661,-1.2321019370980946,4.701669577244453,4814.32685546875,11.9502,0.1299999999999999,179.2048999555995,-3.8437866271298073,97.56815126713796,1553.0,1435.0,1200.0,1528.0,1471.0,988.0,161.0,292.25,1649321072.3391588,1649321073.4721107,64bab7d5-b6ee-4974-8e83-bb1b9b80cdf8
-0.4907838527668467,-0.2983263477491368,-1.0523123284773426,0.0372415526113845,-1.0113146666110115,0.5732086781829048,-1.3359036399989948,-1.366803107441462,-32.613225240246834,25.048309778489912,35.46376998362842,1.3069552239614606,-1.27326271226703,4.695066848922432,4807.84658203125,11.9458,0.1299999999999999,179.21016193333608,-3.852887683444119,97.59933517881254,1553.0,1435.0,1200.0,1528.0,1471.0,988.0,161.0,292.25,1649321073.5838497,1649321074.699642,64bab7d5-b6ee-4974-8e83-bb1b9b80cdf8
-0.4043706013808952,-0.2514117932987629,-0.7825666731954576,0.0016874776979321,-0.7697992834741685,0.5407182528447048,-1.058768342854122,-1.093862238832185,-30.8351656775993,24.86751771162118,34.82414884485931,1.3271722931178207,-1.0827454940665522,3.60961996755889,4799.23046875,11.962555555555554,0.1355555555555555,179.2034030816974,-3.8414601318892654,97.59180178372198,1553.0,1435.0,1200.0,1446.0,1471.0,988.0,161.0,292.25,1649321075.6037033,1649321076.7373388,48b2566e-76f5-45d8-b652-ec69f79ed948
-0.407434248209067,-0.2589591458428184,-0.7862614586579341,0.010483955626654,-0.7715086146800804,0.5450310248055429,-1.063002225888824,-1.0885238634920782,-30.958360535062464,25.01766668293737,35.50538754754587,1.3178789287647543,-1.117533231357573,3.622989633045707,4799.23046875,11.961125,0.14,179.21622031112986,-3.8495073161021742,97.62200782100768,1553.0,1435.0,1200.0,1446.0,1471.0,988.0,161.0,292.25,1649321076.845714,1649321077.967964,48b2566e-76f5-45d8-b652-ec69f79ed948
-0.4041602222487955,-0.25339724663887,-0.7814095873800414,0.0034625516113421,-0.7682345880487201,0.5435583709553837,-1.057111606094396,-1.0874456702495212,-30.848525023203106,24.897292487531008,35.194029421885055,1.329857517962221,-1.0935205308565232,3.6038281656137743,4801.620659722223,11.964333333333334,0.14,179.21836423161935,-3.840187107950837,97.66200778038076,1553.0,1435.0,1200.0,1446.0,1471.0,988.0,161.0,292.25,1649321078.0764673,1649321079.1978405,48b2566e-76f5-45d8-b652-ec69f79ed948
-0.3172473245019153,-0.2112951165300524,-0.5059180062410967,-0.0187192994650698,-0.517633497614546,0.5130008036980824,-0.7709300719974856,-0.7983188193641979,-28.90730976329216,24.53149791839178,35.96679963776797,1.3236204931214042,-0.93601087815912,2.4870110048093825,4814.596630859375,11.9647,0.1299999999999999,179.21467259026392,-3.839537737201871,97.66330536454106,1553.0,1435.0,1200.0,1354.0,1471.0,988.0,161.0,292.25,1649321081.0229642,1649321082.270893,d283f3b6-4962-4a79-909e-509bb3186f9b
-0.3287261381272123,-0.2149110083382771,-0.5105726459158277,-0.0093179813441197,-0.5266403570459852,0.5030735389510923,-0.7851569677583845,-0.8029866080808341,-28.98520384030337,25.27439114484919,35.20182098748976,1.2846373404393194,-0.9436813531169236,2.5240861304521145,4812.104275173611,11.961777777777778,0.13,179.23752670679076,-3.847907356147066,97.68338247793334,1553.0,1435.0,1200.0,1354.0,1471.0,988.0,161.0,292.25,1649321082.3787937,1649321083.4959147,d283f3b6-4962-4a79-909e-509bb3186f9b
-0.322204383761613,-0.2138328151164781,-0.5226957470988519,-0.0186141097855237,-0.5328596922564252,0.5138949149760048,-0.7887597123215373,-0.8087325910238633,-29.071743299605227,24.55575130770041,35.62175047171913,1.324579983080452,-0.9423829676504611,2.5550874015202405,4805.8095703125,11.963444444444445,0.1322222222222222,179.22430497837746,-3.853328818800764,97.68853471729726,1553.0,1435.0,1200.0,1354.0,1471.0,988.0,161.0,292.25,1649321083.6041124,1649321084.72988,d283f3b6-4962-4a79-909e-509bb3186f9b
-0.2422997456615396,-0.1800406624983244,-0.2717791263934813,-0.0134598207516272,-0.3071754216877224,0.459709142600658,-0.5405385327432011,-0.564087854880312,-27.26872979793072,24.91801805846072,35.2084423603001,1.2069276942570986,-0.8094616805611105,1.5569195439573735,4814.596630859375,11.9562,0.1299999999999999,179.19769957017644,-3.8651892383374538,97.6909669476607,1553.0,1435.0,1200.0,1252.0,1471.0,988.0,161.0,292.25,1649321086.663695,1649321087.803795,234c34ab-d1eb-496e-a4b2-a048dcc15ce7
-0.2483349979663312,-0.1764247707370558,-0.2699120112719427,-0.012447371174778,-0.3108044624429336,0.4560669540414288,-0.5424845404251569,-0.5677037476255546,-27.01811614771528,25.31868593630645,35.32033670750244,1.1993524068308594,-0.7986648806026586,1.5627030817789278,4807.3056640625,11.957,0.13,179.19855061174704,-3.8576417512385417,97.69473652906362,1553.0,1435.0,1200.0,1252.0,1471.0,988.0,161.0,292.25,1649321087.9118755,1649321088.9511712,234c34ab-d1eb-496e-a4b2-a048dcc15ce7
-0.2446139164892879,-0.1733742729237919,-0.2729362118641614,-0.0156425043252759,-0.312763618461225,0.4546468949767909,-0.5450090909229744,-0.5664151748035218,-27.09774767360892,25.144248356285164,35.10639995500596,1.2019876420486608,-0.7845652179707312,1.5731435239750278,4810.00341796875,11.954666666666666,0.13,179.1906154497513,-3.877262750289873,97.67489938298418,1553.0,1435.0,1200.0,1252.0,1471.0,988.0,161.0,292.25,1649321089.058789,1649321090.0042198,234c34ab-d1eb-496e-a4b2-a048dcc15ce7
-0.601522204359386,-0.3364049780638869,-1.3189681033178786,0.1292955743108428,-1.2532114139691468,0.5345515148780674,-1.6412824544913016,-1.669105132252422,-34.69107612414453,26.34890342604628,34.50830875560846,1.0065819686802973,-1.4211222984412597,5.815679648624557,4816.31005859375,11.893333333333333,0.1133333333333333,179.24356611183688,-3.876819499471861,97.7754329373776,1553.0,1435.0,1200.0,1604.0,1471.0,988.0,161.0,292.25,1649321091.0761833,1649321092.3022482,9a6dbc1f-9d48-44f5-a167-08c9720e5092
-0.5789802747138958,-0.3431381231197289,-1.3229187842968066,0.1296081085233436,-1.2522318351122292,0.541516277469015,-1.639575144593126,-1.6755065331439625,-34.73626678760682,25.983632005605347,34.59740402256498,1.0189010281169186,-1.4471406133377218,5.816731795700627,4820.82470703125,11.899,0.12,179.26018623881723,-3.878039684307962,97.63820305330344,1553.0,1435.0,1200.0,1604.0,1471.0,988.0,161.0,292.25,1649321092.4108818,1649321093.5391624,9a6dbc1f-9d48-44f5-a167-08c9720e5092
-0.5753036958213901,-0.3268458743150649,-1.3156809263389988,0.1289011133616555,-1.2487540020762866,0.5253868744426277,-1.6397046086496316,-1.6578498348246538,-34.84191319662088,26.0883488794249,34.50800531442723,0.985238061183999,-1.383947033142973,5.804035410462205,4806.108181423611,11.893777777777776,0.12,179.27923487750252,-3.8959078386316697,97.53945900847256,1553.0,1435.0,1200.0,1604.0,1471.0,988.0,161.0,292.25,1649321093.6517608,1649321094.7735322,9a6dbc1f-9d48-44f5-a167-08c9720e5092
-0.6397323285810528,-0.3591259290614949,-1.5058507172558695,0.1886619360478365,-1.4213834000080268,0.5090298978140201,-1.8537393934928192,-1.8869004583655904,-36.26260919982428,27.02299339095431,33.94986168219068,0.809598548103807,-1.5094124506825677,6.597578941881039,4815.40771484375,11.835,0.1,179.29553929796123,-3.927144955819799,97.37098983127323,1553.0,1435.0,1200.0,1676.0,1471.0,988.0,161.0,292.25,1649321095.6743617,1649321096.817914,53a15812-5aa5-42d8-bf1c-9c0a26105441
-0.6358534618420166,-0.3538138548287259,-1.4988030078732757,0.1874391073117991,-1.4179778840296902,0.5043621110755467,-1.848138039893784,-1.883481793985092,-36.03027716270874,27.14293872089972,33.912182220424945,0.8031248147481231,-1.4902000017422028,6.576050711985171,4804.910698784723,11.829444444444444,0.1,179.32103108176352,-3.919581985772973,97.13700604873765,1553.0,1435.0,1200.0,1676.0,1471.0,988.0,161.0,292.25,1649321096.9483612,1649321098.0271952,53a15812-5aa5-42d8-bf1c-9c0a26105441
-0.6364188559765901,-0.3515391299534542,-1.4939248362062083,0.1875837429736556,-1.4095495609336206,0.5043752597742741,-1.838973384043216,-1.8526349027639009,-36.011696075837655,26.67839348156673,34.30914991190875,0.8000641050672673,-1.4850346634952891,6.545913079328535,4807.3056640625,11.8278,0.1,179.32765484743862,-3.926164258048861,96.99220785971713,1553.0,1435.0,1200.0,1676.0,1471.0,988.0,161.0,292.25,1649321098.135586,1649321099.0763853,53a15812-5aa5-42d8-bf1c-9c0a26105441
-0.6452679316420994,-0.3582712636233287,-1.4951476664139571,0.1907131326004359,-1.4109959191989114,0.5111205403331573,-1.84084050229595,-1.8551857528168776,-36.08994464759128,26.944117089024413,34.72505057317963,0.8098900485848471,-1.5138748600336571,6.5518439644290005,4813.608452690973,11.627777777777776,0.03,179.32016137100922,-3.9187275006486817,96.62207960503017,1553.0,1435.0,1200.0,1747.0,1471.0,988.0,161.0,292.25,1649321100.182637,1649321101.3136785,a6741360-2b99-4c9d-aab7-20849226acb9
-0.6420727973492437,-0.3598622561028234,-1.5049829020830572,0.1910155525643826,-1.419174416679735,0.5107918229318709,-1.852056357963641,-1.8725420601194984,-36.30889313113821,26.951022176764905,34.41652281975318,0.8078658427367728,-1.516218530671303,6.591577911466459,4810.00341796875,11.643,0.03,179.382870096689,-3.954463951591704,96.12421649168922,1553.0,1435.0,1200.0,1747.0,1471.0,988.0,161.0,292.25,1649321101.4216444,1649321102.5464566,a6741360-2b99-4c9d-aab7-20849226acb9
-0.6444658608583151,-0.3588892524691958,-1.503917856712021,0.1925670986634601,-1.4207128160518152,0.5120278002828659,-1.8502681324825647,-1.871555905245148,-35.9913099209108,27.05927279534125,34.93853299185528,0.8081570543239802,-1.5195651888167954,6.590720693361156,4807.3056640625,11.642499999999998,0.03,179.40433055106118,-3.951461870008072,95.72824993493607,1553.0,1435.0,1200.0,1747.0,1471.0,988.0,161.0,292.25,1649321102.6550715,1649321103.7756984,a6741360-2b99-4c9d-aab7-20849226acb9
-0.4665507995911122,-0.2982869016630809,-1.027066815000793,0.0552947125923479,-0.9543018845834856,0.5627686143614032,-1.288108084477008,-1.31385325533428,-33.269269423879514,22.062299075964155,36.668301884400464,1.2240957064330318,-1.2798201221032632,4.51757895534192,7756.9462890625,11.638666666666667,7.267777777777777,19.97673693223764,-4.011743483223116,84.51548733891252,1553.0,1435.0,1350.0,1528.0,1471.0,988.0,161.0,292.25,1649321108.7351372,1649321109.720806,0f1ca38e-b00d-4db7-b323-1f004522a31f
-0.4696933387415883,-0.2948550914295221,-1.0289733775049827,0.0528753521398053,-0.9569184769225192,0.5643990525431364,-1.2898305654624849,-1.3082256083834949,-33.249962131637815,22.034859412861564,37.04741860619241,1.2330103204322882,-1.270268957612069,4.527147659894918,7756.9462890625,11.630000000000004,7.33,-179.83397677061168,-3.975153021474496,79.6166328150089,1553.0,1435.0,1350.0,1528.0,1471.0,988.0,161.0,292.25,1649321109.8335266,1649321111.1484687,0f1ca38e-b00d-4db7-b323-1f004522a31f
-0.4686151454149538,-0.2918834856562675,-1.0309062370729634,0.0431058712091157,-0.9620464715596032,0.5645831342650743,-1.287411203254981,-1.3118152058990549,-32.72127522628925,21.880123170022443,36.21004781629981,1.2544721691091825,-1.2543662740133517,4.5328483153486845,7756.9462890625,11.633,7.286666666666666,-179.7253403351329,-4.004785654892988,75.19003957870727,1553.0,1435.0,1350.0,1528.0,1471.0,988.0,161.0,292.25,1649321111.257468,1649321112.37371,0f1ca38e-b00d-4db7-b323-1f004522a31f
-0.2387627459560043,0.1153053618517262,-1.0000330784027271,-0.3048612515007449,-1.042187825999802,0.5067683222525189,-1.3051093643363212,-1.3194546069394897,-32.478973871545726,20.71148352264285,39.2196541023318,1.9038750841095449,0.2892300338320289,4.676231381183636,7756.9462890625,11.608999999999998,7.33,-179.90727836078423,-3.947483925146775,70.8852399989556,1637.0,1435.0,1350.0,1528.0,1535.0,988.0,161.0,292.25,1649321113.0233872,1649321114.01592,d6cabeb8-4438-4a10-984f-10fe4ed59bd3
-0.2459813810853836,0.1145821835736509,-1.0093029150653643,-0.313407905289233,-1.0490120038941813,0.5131454393496874,-1.306187558462474,-1.3303943315113886,-32.18518130614979,20.186564869729047,38.871799880429386,1.9336355872896749,0.2879770227606384,4.699464916988814,7749.93359375,11.611222222222224,7.344444444444444,-179.96927371115075,-3.9660309243829897,68.36107680710549,1637.0,1435.0,1350.0,1528.0,1535.0,988.0,161.0,292.25,1649321114.1243858,1649321115.1795304,d6cabeb8-4438-4a10-984f-10fe4ed59bd3
-0.2422602995767776,0.1148846035674295,-1.0040434331519048,-0.3029546900814421,-1.0446203363906914,0.5048617614686693,-1.306700358117764,-1.325779134438536,-32.32274788819153,20.48843353261892,39.11993652830572,1.893674482406313,0.2869372432776609,4.687302298098657,7742.9326171875,11.5951,7.321000000000001,179.96580215366856,-3.922385754711328,66.08113014055981,1637.0,1435.0,1350.0,1528.0,1535.0,988.0,161.0,292.25,1649321115.2885811,1649321116.473214,d6cabeb8-4438-4a10-984f-10fe4ed59bd3
0.0189254187339845,0.5551686686613491,-0.9552222945162606,-0.6272016176569803,-1.1150053572639549,0.386063300973009,-1.3266338005264615,-1.345804617849357,-31.795686689965105,19.625150138875235,41.230995227081465,2.3554500880998,1.958831604359884,4.799133375911151,7745.03291015625,11.5806,7.334,179.5861966320533,-3.819412798255841,62.86304143385978,1723.0,1435.0,1350.0,1528.0,1599.0,988.0,161.0,292.25,1649321117.5887306,1649321118.7297947,b80bbdad-3091-49f4-a2cd-10069fd43631
0.0213710762772241,0.5501064210873502,-0.9448085207245682,-0.6094903176115776,-1.1022248150679674,0.3858266244621501,-1.3183632627433264,-1.344318815672662,-31.94121773249208,19.784520798067856,42.880523940812,2.316730602329041,1.9247376401302727,4.757457306476463,7748.377821180556,11.579555555555556,7.3244444444444445,179.4572341607325,-3.7850628804575175,61.405015598698384,1723.0,1435.0,1350.0,1528.0,1599.0,988.0,161.0,292.25,1649321118.8384683,1649321119.9591782,b80bbdad-3091-49f4-a2cd-10069fd43631
0.0255690504749209,0.5470286150193617,-0.9563100967510518,-0.6283764031892756,-1.1190126781300558,0.4086891711076972,-1.3243853715685694,-1.3482174058916594,-31.59844940137309,20.01997303776829,43.157330233225984,2.411912984261888,1.909914774811683,4.8045705700867165,7749.93359375,11.572777777777778,7.33,179.3705408463272,-3.760473440535564,60.21272942917197,1723.0,1435.0,1350.0,1528.0,1599.0,988.0,161.0,292.25,1649321120.0673912,1649321121.1832974,b80bbdad-3091-49f4-a2cd-10069fd43631
0.242729372559093,0.9495769250191304,-0.9286619127730288,-0.9430202976357116,-1.203772274939795,0.3065662890128087,-1.3565339647667125,-1.3891033188096926,-30.85799209206216,19.244099320313723,43.510146725715074,2.888851072909782,3.451826893308984,4.975384862736045,7756.9462890625,11.5314,7.3,178.85341568883496,-3.808009840125186,57.78333480849184,1813.0,1435.0,1350.0,1528.0,1662.0,988.0,161.0,292.25,1649321123.1179578,1649321124.2623494,11daf550-c917-4e02-a4e8-73abc2e806a1
0.2425452908105403,0.9425686704540596,-0.9293982402371114,-0.9073084184332224,-1.1995252427362215,0.2744308774572854,-1.366960891221263,-1.384225146237491,-31.00973824199787,19.402689862304342,42.59699260021662,2.7368739668102418,3.430268075279522,4.9834556622545065,7759.28857421875,11.523,7.303333333333332,178.76748371284918,-3.848236011569004,57.05805591738489,1813.0,1435.0,1350.0,1528.0,1662.0,988.0,161.0,292.25,1649321124.3958237,1649321125.4849844,11daf550-c917-4e02-a4e8-73abc2e806a1
0.2377328682673649,0.9424503321901532,-0.9279387338416344,-0.9169595664598028,-1.1996961756681443,0.284594819017285,-1.3630820218640485,-1.385237597169937,-30.9885631720468,19.44152990062724,42.78187389124904,2.781854605129462,3.429317211202563,4.976337012943564,7756.9462890625,11.515,7.313333333333333,178.62960951426328,-3.809309767419848,56.34335744464823,1813.0,1435.0,1350.0,1528.0,1662.0,988.0,161.0,292.25,1649321125.59577,1649321126.7149982,11daf550-c917-4e02-a4e8-73abc2e806a1
-0.7683134799043226,-0.7686816436049994,-1.053982214362633,0.4905691298317947,-0.8533329907695201,0.6013863315333672,-1.2718825788504045,-1.2971543960101355,-33.65351534240283,23.94725890274224,33.556438798461684,0.3394683814389873,-3.0690523622931325,4.3351100321572575,7756.9462890625,11.621555555555556,7.360000000000001,179.1262082836979,-4.056549239587184,54.99725541501314,1470.0,1435.0,1350.0,1528.0,1403.0,988.0,161.0,292.25,1649321128.6494052,1649321129.7914732,dc2947ca-99ed-4310-9c2e-b0e3ea66e3f1
-0.7388340902288671,-0.7552436701475489,-1.0581240567090344,0.4667568431071251,-0.8637467635897241,0.601715048913208,-1.2726977988394814,-1.2969440179185237,-33.18119638571986,23.75807005756908,32.33920513966944,0.3925050655300062,-3.0085404149312653,4.35620881149162,7756.9462890625,11.627888888888888,7.367777777777778,179.12992238878658,-4.109357226610092,54.609313571624845,1470.0,1435.0,1350.0,1528.0,1403.0,988.0,161.0,292.25,1649321129.905161,1649321131.013903,dc2947ca-99ed-4310-9c2e-b0e3ea66e3f1
-0.7568543861379315,-0.7611403573429436,-1.0397917274077348,0.4855205366531653,-0.8446219751274051,0.5993705354494927,-1.2617267194048232,-1.2926893980101928,-33.63465625000645,24.280673761229234,33.748924615432244,0.3492840232139006,-3.0410805851239946,4.290458401390902,7756.9462890625,11.626111111111111,7.354444444444444,179.1130578928159,-4.138375617321976,54.275343883058,1470.0,1435.0,1350.0,1528.0,1403.0,988.0,161.0,292.25,1649321131.122544,1649321132.2430756,dc2947ca-99ed-4310-9c2e-b0e3ea66e3f1
-0.9880283106893296,-1.1696382308653728,-1.0721274276527972,0.8531180973795949,-0.7666961899534016,0.6442773745338666,-1.2563671035867925,-1.292276226590028,-34.20426992794646,26.03271187753764,31.23302466929593,-0.3696977560486037,-4.59414535744852,4.1698958091540135,7756.9462890625,11.568,7.33,179.20322246113932,-4.190070473237648,53.82562677317648,1385.0,1435.0,1350.0,1528.0,1331.0,988.0,161.0,292.25,1649321134.01977,1649321135.1101944,a8faaf9e-d756-44fd-ab9a-808ebc289200
-1.0015087670205314,-1.1823034696655572,-1.0677327257049098,0.8689819980576251,-0.7591554094288313,0.6503723003692199,-1.2518651883890262,-1.2747237119431487,-34.31914186651232,26.235641176292777,32.44368009682701,-0.3900874856168729,-4.653235820023621,4.147375267998309,7756.9462890625,11.571888888888887,7.345555555555555,179.2057966835465,-4.215944131019173,53.62818080301461,1385.0,1435.0,1350.0,1528.0,1331.0,988.0,161.0,292.25,1649321135.2194417,1649321136.3390267,a8faaf9e-d756-44fd-ab9a-808ebc289200
-1.0058842513428978,-1.193858148698293,-1.0763744593413955,0.8714473783720783,-0.7629488097581458,0.6540337061977582,-1.2567484159326845,-1.2751566087090191,-34.40166668783208,26.036202992165407,31.6287171901495,-0.3893449629616329,-4.689620568762009,4.168772533666076,7749.93359375,11.575555555555557,7.352222222222222,179.16652613145857,-4.222116819617832,53.44820911293432,1385.0,1435.0,1350.0,1528.0,1331.0,988.0,161.0,292.25,1649321136.4480965,1649321137.5679655,a8faaf9e-d756-44fd-ab9a-808ebc289200
-1.2786015683818823,-1.640966884700386,-1.101370149320542,1.296281734766227,-0.6697771109368214,0.6871552688214199,-1.2539608904446924,-1.2865039434833974,-35.37861068471532,28.72833448750412,29.56085917458249,-1.2574581630939845,-6.395153364817401,4.016892497729247,7749.93359375,11.523,7.347777777777777,179.22989207311852,-4.364204343716092,53.31542416419,1297.0,1435.0,1350.0,1528.0,1253.0,988.0,161.0,292.25,1649321139.5185282,1649321140.6529992,d880f27a-ba96-4335-822f-de638987f65d
-1.2575899332258471,-1.646541939152907,-1.1117970729607152,1.2719566466839236,-0.681137588770103,0.7034202045003833,-1.2552363151070465,-1.272198147972778,-35.113613570918034,28.473409047981203,27.86984697892904,-1.168382528908193,-6.400621790351412,4.045411911444761,7742.9326171875,11.517,7.333,179.26240468425962,-4.366122782585593,53.23141909840558,1297.0,1435.0,1350.0,1528.0,1253.0,988.0,161.0,292.25,1649321140.7826807,1649321141.8712652,d880f27a-ba96-4335-822f-de638987f65d
-1.2676881408130944,-1.6590595144816478,-1.104446946333466,1.3090622681804072,-0.6721964719190737,0.6952022701420116,-1.2604169056732122,-1.277681159102739,-35.61074364056408,29.36276062850944,29.81446402317105,-1.2642291689555756,-6.465374290391732,4.031431579646256,7756.24501953125,11.5211,7.32,179.26902996775456,-4.3489900214488975,53.26056249106565,1297.0,1435.0,1350.0,1528.0,1253.0,988.0,161.0,292.25,1649321141.9795015,1649321143.101012,d880f27a-ba96-4335-822f-de638987f65d
-0.4893637931985566,-0.314867410117145,-1.0426611796782712,0.0840772083006937,-0.9581544553788848,0.54493898393388,-1.3010990084656335,-1.3245694537501296,-33.23462591684195,21.50407852335109,35.48913477292797,1.1144563535108862,-1.3363431874402023,4.559415783661365,7763.97314453125,11.625999999999998,7.34,178.9586333869612,-4.139067316271047,53.42388187638549,1553.0,1435.0,1350.0,1528.0,1471.0,988.0,161.0,292.25,1649321145.032504,1649321146.1712615,05d80c3a-21b9-4123-81d8-a8954e1213e5
-0.4962274143999258,-0.3120404399889511,-1.0331415173242715,0.0876010590336562,-0.950620247964413,0.5448206456806893,-1.2962076893173111,-1.311946693150556,-33.4514664565631,21.82482239045381,36.37961389631875,1.1088745487434482,-1.33192280665832,4.530558999234123,7775.948291015625,11.628900000000002,7.346999999999999,178.97020782552866,-4.127456891144353,53.48223457303112,1553.0,1435.0,1350.0,1528.0,1471.0,988.0,161.0,292.25,1649321146.2791202,1649321147.3951805,05d80c3a-21b9-4123-81d8-a8954e1213e5
-0.486142361790878,-0.3083193584006993,-1.0410964832851466,0.0878377354769591,-0.9594693254758476,0.5464642325544203,-1.306042922570239,-1.322570849297223,-33.52101983155383,21.92262849606136,37.09282382483635,1.1123649665189248,-1.324327151847832,4.568827997889653,7778.06396484375,11.6328,7.347999999999999,179.01101000959252,-4.212050278118842,53.636464684112966,1553.0,1435.0,1350.0,1528.0,1471.0,988.0,161.0,292.25,1649321147.5039625,1649321148.6288898,05d80c3a-21b9-4123-81d8-a8954e1213e5
-0.4980813810135449,-0.3218625176126198,-1.1126385899528557,-0.3660947399544754,-1.07086515210471,0.995834035168521,-1.2507657541281392,-1.2769316830314297,-33.64947152173945,20.79818028107301,39.61601559520251,3.135440494014939,-1.3452417228832751,4.737681556129893,7778.06396484375,11.621555555555554,7.332222222222223,178.9816374640858,-4.103727348322971,53.86218308397925,1553.0,1522.0,1350.0,1528.0,1471.0,988.0,161.0,292.25,1649321149.536271,1649321150.678609,cd75d0e9-9937-4392-8094-7d9bdb78f6f0
-0.4723230786146579,-0.325202286973453,-1.1076420817941652,-0.3632809186283215,-1.0653163985608094,0.9931911473866292,-1.240996264536686,-1.257918651229164,-33.196435802698026,20.55878869542829,39.20101761445829,3.1219780113314526,-1.357329996948475,4.708853801894545,7771.01171875,11.623,7.345000000000001,178.98275078492048,-4.117670254592101,53.81629331967565,1553.0,1522.0,1350.0,1528.0,1471.0,988.0,161.0,292.25,1649321150.7876022,1649321151.9072444,cd75d0e9-9937-4392-8094-7d9bdb78f6f0
-0.4950308827105495,-0.324952461729152,-1.104525838125457,-0.3514470900873913,-1.0608721358031317,0.9843946702360992,-1.2437969389291486,-1.2675566543407444,-33.51384421964209,20.74810596074897,39.53486166672403,3.0768205512799924,-1.3583615467111714,4.702845511733488,7778.06396484375,11.618000000000002,7.34,179.04108743062156,-4.1414954485209865,53.65786366678262,1553.0,1522.0,1350.0,1528.0,1471.0,988.0,161.0,292.25,1649321152.015495,1649321153.3441598,cd75d0e9-9937-4392-8094-7d9bdb78f6f0
-0.4697590822519316,-0.3318686770247627,-1.1522819391704795,-0.8200667730589001,-1.157370488740404,1.446821163263404,-1.1626825657139086,-1.1868893348663754,-33.22358095507975,19.973043905690787,43.09859284439394,5.166244093104341,-1.3632847440496805,4.784488647960355,7778.06396484375,11.601222222222225,7.337777777777778,179.01531788579302,-4.035103726253813,53.76230257156147,1553.0,1613.0,1350.0,1528.0,1471.0,988.0,161.0,292.25,1649321154.0489132,1649321155.3846416,e1dabfe3-8d67-4414-b934-23e002522944
-0.4643286694315856,-0.3139864473219836,-1.1486791931139368,-0.813387232510371,-1.1550300183982365,1.421641408419288,-1.1651413733404927,-1.1845225675434097,-33.146749486187,19.766935928480056,42.89089014939648,5.093413058944964,-1.2955159358410735,4.7819584142131495,7765.538791232639,11.597333333333331,7.34111111111111,178.96323238100229,-4.059240571279515,53.82439809803578,1553.0,1613.0,1350.0,1528.0,1471.0,988.0,161.0,292.25,1649321155.4919727,1649321156.625035,e1dabfe3-8d67-4414-b934-23e002522944
-0.4704954094240852,-0.320166335508226,-1.1457601806605409,-0.8078910749101393,-1.1498494281798932,1.4249943261884428,-1.1616175202128087,-1.1895453735087207,-33.274473150089506,19.79101986669503,43.251191436521175,5.088847671818868,-1.3214748547706106,4.765615503935432,7756.9462890625,11.60825,7.358750000000001,178.96039899086162,-4.095456024811987,53.88229941404101,1553.0,1613.0,1350.0,1528.0,1471.0,988.0,161.0,292.25,1649321156.73854,1649321158.0439863,e1dabfe3-8d67-4414-b934-23e002522944
-0.4599107064350902,-0.3177469750630106,-1.1919778843835993,-1.2190379241565104,-1.241653700333981,1.81700961472762,-1.100949390211576,-1.12781219645062,-33.06366197030847,19.27521600118381,45.55450038021136,6.891957546770279,-1.2866247472560928,4.867573072590171,7756.9462890625,11.570333333333332,7.336666666666667,178.92268382462964,-4.046259559602561,53.96083947471577,1553.0,1710.0,1350.0,1528.0,1471.0,988.0,161.0,292.25,1649321160.1877315,1649321161.3241396,a89eaca5-71d0-4e04-abdf-d752ab443c4f
-0.4521206078571148,-0.3290664871636854,-1.2001047975787242,-1.2307008273873408,-1.2452529067565914,1.8319217574199924,-1.1003516303728107,-1.1168001553357625,-33.11608755025587,18.892200511661795,44.54746440808762,6.948645135728417,-1.318869155691515,4.879930391668281,7756.9462890625,11.5791,7.356,178.92153043335185,-4.058473474631105,54.04616880034378,1553.0,1710.0,1350.0,1528.0,1471.0,988.0,161.0,292.25,1649321161.431901,1649321162.5397527,a89eaca5-71d0-4e04-abdf-d752ab443c4f
-0.4573861561607406,-0.3287261381362162,-1.1902817006871818,-1.217341740236625,-1.2359077146859654,1.8313679947112207,-1.0964262351666048,-1.1145977469814543,-33.405254633442475,19.283747029039013,46.3136176984851,6.920486638881819,-1.3322147756625382,4.850509413530243,7756.9462890625,11.568666666666664,7.346666666666666,178.96568214218462,-4.0430123738346495,54.00983242163228,1553.0,1710.0,1350.0,1528.0,1471.0,988.0,161.0,292.25,1649321162.649104,1649321163.6134253,a89eaca5-71d0-4e04-abdf-d752ab443c4f
-0.4407793490146193,-0.3325655580539612,-1.2164607769382187,-1.5808772689446002,-1.3084622858122847,2.1727871717741136,-1.0307090063107598,-1.0635807692848886,-32.852642624084226,19.356478705972123,46.87378714314944,8.507294271746467,-1.3123903299847732,4.888943584008349,7756.9462890625,11.527,7.318,179.02460481811647,-3.924015822045434,54.080881870762525,1553.0,1814.0,1350.0,1528.0,1471.0,988.0,161.0,292.25,1649321164.6953757,1649321165.8366632,983b43d4-6d3e-490e-99cd-c82ce26643bf
-0.4479716874926019,-0.3280818519178811,-1.2105570071555158,-1.5634157789876344,-1.3024138796061788,2.160519432153539,-1.0325629737300668,-1.056809186241135,-33.08192952285795,19.615389137127764,48.05314759794748,8.442421076091085,-1.306174736239892,4.8773900119240094,7756.9462890625,11.522,7.33,179.01223671156745,-3.922866215830756,54.10013207591928,1553.0,1814.0,1350.0,1528.0,1471.0,988.0,161.0,292.25,1649321165.9492466,1649321167.055289,983b43d4-6d3e-490e-99cd-c82ce26643bf
-0.4362956426318969,-0.3205607964383119,-1.215632408688964,-1.574224019998833,-1.3061875595583072,2.156390739228156,-1.0339435879155294,-1.0527593850432222,-32.98261844493366,19.10682105082138,47.080299291322426,8.453794928123521,-1.2690464273946054,4.891135272309452,7756.9462890625,11.5155,7.32,179.06237713026448,-3.915427712937789,54.05636763881243,1553.0,1814.0,1350.0,1528.0,1471.0,988.0,161.0,292.25,1649321167.1636913,1649321168.2874956,983b43d4-6d3e-490e-99cd-c82ce26643bf
-0.4841958485221715,-0.3019852258578193,-0.9652107578573228,0.5331592702663888,-0.847706863225344,0.0938790557735272,-1.3572445004578646,-1.3771824952836826,-33.14899934338801,23.34003082987888,32.01031552942894,-0.8966388157185361,-1.3081510544791957,4.383244080527813,7756.9462890625,11.637666666666668,7.387777777777777,179.06768115160992,-4.584309466449477,54.13986252741135,1553.0,1349.0,1350.0,1528.0,1471.0,988.0,161.0,292.25,1649321170.6407108,1649321171.6251204,e9b1863e-19ce-402d-a88f-515aab465759
-0.5053096257624787,-0.2949936584642355,-0.9540596455472864,0.5348913579523993,-0.8401337163474979,0.0956870014923499,-1.3478001873646392,-1.3717080803891757,-33.02662044283748,23.52939722534615,33.54336027412656,-0.894366723464119,-1.295885055062281,4.347313552580907,7756.9462890625,11.637,7.373333333333335,179.1035973219055,-4.534684821898487,54.27674483074775,1553.0,1349.0,1350.0,1528.0,1471.0,988.0,161.0,292.25,1649321171.7338667,1649321172.998543,e9b1863e-19ce-402d-a88f-515aab465759
-0.5092577757234067,-0.2983394964744482,-0.9707377652252128,0.5314221254004302,-0.8543848870569566,0.1000134282626377,-1.3600578185904844,-1.382265989620049,-32.90210841854196,23.252628360050885,33.12972497136472,-0.8794873791040709,-1.3062840689900397,4.4060925342785735,7756.9462890625,11.637666666666668,7.38,179.13917805402187,-4.508056475645546,54.421165765653086,1553.0,1349.0,1350.0,1528.0,1471.0,988.0,161.0,292.25,1649321173.1071634,1649321174.2263858,e9b1863e-19ce-402d-a88f-515aab465759
-0.5050633405966183,-0.2909630767979227,-0.923810040957938,0.9242262407799748,-0.776952178016582,-0.2915547683955497,-1.4338089312968214,-1.464629508348548,-33.26530287699061,25.07373482522437,29.791367299330403,-2.6317692009852287,-1.2918163713725297,4.340291426646233,7756.9462890625,11.620666666666668,7.370000000000001,179.10661171205922,-4.605924548715366,54.69802065347039,1553.0,1264.0,1350.0,1528.0,1471.0,988.0,161.0,292.25,1649321176.1623096,1649321177.30012,a57a7c9e-d07a-4c5e-b89f-8448707789b5
-0.5146618913452552,-0.2961699612514414,-0.9299110389906936,0.925383325961043,-0.7795030259094973,-0.281496014293586,-1.4391078612583894,-1.4529534545316083,-33.64487209635209,25.0544901939553,30.605376377138697,-2.612268609811858,-1.3164029571974565,4.359897309176887,7763.97314453125,11.597,7.34,179.11309128485183,-4.587367209331656,54.78459216283544,1553.0,1264.0,1350.0,1528.0,1471.0,988.0,161.0,292.25,1649321177.408385,1649321178.5255632,a57a7c9e-d07a-4c5e-b89f-8448707789b5
-0.5079429057712977,-0.2868869803733236,-0.9150267064702275,0.9345874126777765,-0.7685633057912366,-0.2968536938417171,-1.4306926867578056,-1.4576606932057816,-33.515396878484864,25.30887157360952,31.00575697321333,-2.664985068169047,-1.2862364104079118,4.3144814035657255,7771.01171875,11.61111111111111,7.343333333333334,179.1937467120308,-4.588936445293466,55.12501979526254,1553.0,1264.0,1350.0,1528.0,1471.0,988.0,161.0,292.25,1649321178.635437,1649321179.6960812,a57a7c9e-d07a-4c5e-b89f-8448707789b5
-0.5202237913616837,-0.2745009068376796,-0.868716973557634,1.3559768170192137,-0.690578356114147,-0.7200840419806185,-1.5158963325704915,-1.5449286882047506,-33.92028578862704,27.3076677648933,27.55779665575224,-4.551788684890751,-1.2552685811787905,4.265676618539616,7773.362467447917,11.603666666666667,7.336666666666667,179.13713810418977,-4.708618292729408,55.30926452757858,1553.0,1178.0,1350.0,1528.0,1471.0,988.0,161.0,292.25,1649321180.6671238,1649321181.8042445,6f0b9254-1a9d-4095-94b4-714f621a71c0
-0.5259829218952834,-0.2810226610405741,-0.8668235598507367,1.3523477766789012,-0.6904731663659203,-0.7093547014472912,-1.512346180590565,-1.5344623141645422,-33.84647652340845,27.54985466795573,27.717137033403784,-4.517729879134709,-1.2810928060090772,4.257253756470545,7778.06396484375,11.5936,7.338000000000001,179.1618970845851,-4.710642817717643,55.34993306760764,1553.0,1178.0,1350.0,1528.0,1471.0,988.0,161.0,292.25,1649321181.9126198,1649321183.2449198,6f0b9254-1a9d-4095-94b4-714f621a71c0
-0.5100335490420326,-0.2681895317715093,-0.8633654513823188,1.3568972257903078,-0.6904074230619938,-0.7211490868577548,-1.5137925392563438,-1.5439951311145903,-33.716651700714266,27.64113152895516,28.42906664075261,-4.553539768278452,-1.2405288120301323,4.257159877577494,7778.06396484375,11.5925,7.312,179.1652602697324,-4.6931325605632574,55.40600345654211,1553.0,1178.0,1350.0,1528.0,1471.0,988.0,161.0,292.25,1649321183.3564742,1649321184.464249,6f0b9254-1a9d-4095-94b4-714f621a71c0
-0.519513761564476,-0.2692019815318134,-0.793992896132539,1.6529795954309103,-0.604651595723007,-1.005516087957992,-1.539169552587917,-1.5531992305039553,-34.05244465243825,29.839530092074064,26.7673456085336,-5.842845852144708,-1.2592406062006942,4.080919139990427,7776.653515625,11.568,7.324000000000001,179.21235852217313,-4.78908958939199,55.6080206446425,1553.0,1088.0,1350.0,1528.0,1471.0,988.0,161.0,292.25,1649321186.6073806,1649321187.7474182,7bdc8300-4419-4c33-ab8e-ca326a770440
-0.5166078989371532,-0.2758157766128583,-0.7992392283742172,1.6423554471011597,-0.6055983021794452,-0.9974164858660348,-1.5369605689468688,-1.561995716572911,-34.08558763197124,29.37430581415685,25.60156636738928,-5.804227264617251,-1.272511928374561,4.083844901471744,7771.01171875,11.5439,7.32,179.29221299583543,-4.77638163824304,55.68467005203676,1553.0,1088.0,1350.0,1528.0,1471.0,988.0,161.0,292.25,1649321187.856006,1649321188.9694176,7bdc8300-4419-4c33-ab8e-ca326a770440
-0.5158978691039722,-0.2747112859750452,-0.7937562193313755,1.6531505281874712,-0.6032709821128763,-0.9985472745623316,-1.5371446508971074,-1.5699243901840685,-34.109556414645105,29.866930624396417,27.02153188123553,-5.827366383854447,-1.281758047739364,4.075475243613429,7771.01171875,11.540333333333333,7.314444444444444,179.2744173174079,-4.777822528309885,55.74004493798624,1553.0,1088.0,1350.0,1528.0,1471.0,988.0,161.0,292.25,1649321189.077876,1649321190.403345,7bdc8300-4419-4c33-ab8e-ca326a770440
-0.480719028974329,-0.3092296528599279,-1.0331288740793552,0.0594395860417989,-0.9573468214645148,0.5661447946498849,-1.290438946263279,-1.320731548560974,-33.15655805565265,21.95863700269952,36.135274599506005,1.2213153452560948,-1.3178320111068755,4.531390021040735,7771.01171875,11.636555555555557,7.362222222222223,179.2997922290844,-4.308025136587222,55.79923991079302,1553.0,1435.0,1350.0,1528.0,1471.0,988.0,161.0,292.25,1649321191.020127,1649321192.250249,0ef7a878-35ba-4f2c-a9a3-8953c14758db
-0.4760967553832856,-0.3085165888314441,-1.0336806139827144,0.0607382724677508,-0.9549461716302174,0.5652405690050282,-1.289475550491725,-1.3096719677258548,-33.26349966974956,21.697017702493483,36.281275221075376,1.2145615738459972,-1.3158939911868572,4.527836836499875,7771.01171875,11.636,7.35,179.32227265837264,-4.311472674570786,55.77426608300277,1553.0,1435.0,1350.0,1528.0,1471.0,988.0,161.0,292.25,1649321192.3586009,1649321193.4739888,0ef7a878-35ba-4f2c-a9a3-8953c14758db
-0.4880489232486245,-0.3131975254155728,-1.0390058391131785,0.0672600259847303,-0.9597585968184938,0.5649512977310005,-1.296917719051396,-1.3255950522306148,-33.34609100018292,21.893987688906527,36.39072274282599,1.2002165139480263,-1.3349730366980783,4.551753021294279,7771.01171875,11.638333333333334,7.34,179.3831524111747,-4.349316333736495,55.74387629465567,1553.0,1435.0,1350.0,1528.0,1471.0,988.0,161.0,292.25,1649321193.5826416,1649321194.708071,0ef7a878-35ba-4f2c-a9a3-8953c14758db
