raw_voltage_G-,raw_voltage_G0,raw_voltage_G1,raw_voltage_G2,raw_voltage_G3,raw_voltage_G4,raw_voltage_G5,raw_voltage_G6,load_x,load_y,load_z,load_l,load_m,load_n,rpm,voltage,current,roll,pitch,yaw,aileron1_pwm,elevator_pwm,throttle_pwm,rudder_pwm,aileron2_pwm,pbaro,pdiff,Tt,sample_start_time,sample_end_time,uid
0.2084244256704689,0.2624162570159288,0.6020087031011588,-0.2399324323538547,0.2974246586490061,0.0654049643084429,0.3148466800427145,0.2998626457980495,-5.695922851913781,27.03750119702245,17.665836445648836,0.8973622017744622,0.9361264884579882,-1.6344970929504825,-1.0,11.98677777777778,0.0,179.16154312900412,1.2698459320437334,88.60653083621929,1553.0,1435.0,1000.0,1528.0,1471.0,1012.0,60.0,292.25,1649150060.1310952,1649150061.2602742,9e727836-6158-4aa6-9df5-b2a440c74fd4
0.2130401657250957,0.2667991555199,0.6034879312885716,-0.2383436313357293,0.2974657483371925,0.0598852512513797,0.3141070659532274,0.300725528979769,-5.6496157574365045,27.09584348479764,17.70151759048605,0.8818641350480609,0.9518201805246926,-1.6349133306249817,-1.0,11.989333333333336,0.0,179.14817113642903,1.2489292603364115,88.68777973094615,1553.0,1435.0,1000.0,1528.0,1471.0,1012.0,60.0,292.25,1649150061.3695135,1649150062.7030954,9e727836-6158-4aa6-9df5-b2a440c74fd4
0.2134784555987176,0.269346715268685,0.6106786238546976,-0.2430278550057426,0.303642895885295,0.0614877485035559,0.3222017315587484,0.3049577653141614,-5.6245629756941256,27.055419195427778,17.730173325904218,0.89613887110767,0.9619756801861172,-1.6643119028984463,-1.0,11.988,0.0,179.14903325808427,1.2427543187239627,88.73193918066002,1553.0,1435.0,1000.0,1528.0,1471.0,1012.0,60.0,292.25,1649150062.8131342,1649150063.929505,9e727836-6158-4aa6-9df5-b2a440c74fd4
0.3360982589429399,0.4883470005136392,0.6382947183258687,-0.2423128947121504,0.2898542972875743,-0.1619743526966278,0.2709333245090013,0.2562462316261878,-5.424686246178717,26.831917541196777,16.472717016262504,0.3921705620200261,1.7947489218785286,-1.5852165195407146,-1.0,11.975222222222222,0.0,179.05938323067826,1.2264909861219602,88.83566395121564,1663.0,1435.0,1000.0,1528.0,1555.0,1012.0,60.0,292.25,1649150065.0447128,1649150066.1876438,59c04469-14ba-4f00-84a8-609f05b5d4c2
0.318860319336709,0.4750536697943611,0.6312470178235111,-0.2486637156134031,0.2852128077924809,-0.1421855630917066,0.2693028862381427,0.2450566916352658,-5.560807055346158,26.860703507918828,16.5697797863242,0.4507513603348335,1.7453296376921497,-1.568600742135161,-1.0,11.97222222222222,0.0,179.0479403870888,1.2235104504649286,88.93148695181146,1663.0,1435.0,1000.0,1528.0,1555.0,1012.0,60.0,292.25,1649150066.2957027,1649150067.4110222,59c04469-14ba-4f00-84a8-609f05b5d4c2
0.3187025349895228,0.479169211354347,0.6287882118658961,-0.2437592515241007,0.2827934478377548,-0.1512581643913179,0.2628337280811685,0.2341038279229468,-5.67752285529074,26.910505832660647,16.461024921462677,0.4194323700275671,1.7617965230576171,-1.552457627782572,-1.0,11.973666666666666,0.0,179.0502823830642,1.2096538227659384,89.02551437156549,1663.0,1435.0,1000.0,1528.0,1555.0,1012.0,60.0,292.25,1649150067.5200346,1649150068.6470938,59c04469-14ba-4f00-84a8-609f05b5d4c2
0.444073700519072,0.6869958408875053,0.6747785118174291,-0.2481914582263273,0.2856319223739842,-0.3564901630561741,0.2336534853414151,0.2149713802233329,-5.458796262616684,26.99033877153803,15.716679009513134,-0.0289426811265938,2.549784360531005,-1.5532885826922247,-1.0,11.959888888888887,0.0,178.8762977332464,1.18047130592853,89.18378882738239,1779.0,1435.0,1000.0,1528.0,1638.0,1012.0,60.0,292.25,1649150070.438326,1649150071.5072916,07b3afac-b3ad-4c34-9691-279efa19d8e9
0.4389374914791752,0.6853796471312803,0.6658757496021401,-0.2439729183184464,0.2774276843049501,-0.3602841113157298,0.2233947634742858,0.1957414126816267,-5.457786990003375,27.02645591213873,15.430405439907265,-0.0472331807788876,2.545169575664091,-1.515948886905876,-1.0,11.958555555555556,0.0,178.8721510495103,1.171146971204568,89.27925058686212,1779.0,1435.0,1000.0,1528.0,1638.0,1012.0,60.0,292.25,1649150071.6155758,1649150072.736255,07b3afac-b3ad-4c34-9691-279efa19d8e9
0.4359242488500288,0.6908856631474567,0.6711900138164258,-0.2445618698063344,0.281879065611986,-0.3646122237267481,0.2268052064552717,0.2091503430699335,-5.520672413318644,27.020569500319443,15.53889851665153,-0.0554192643559697,2.565713308237683,-1.5333389773534136,-1.0,11.963666666666668,0.0,178.87134964064768,1.1746108257511492,89.37051481564191,1779.0,1435.0,1000.0,1528.0,1638.0,1012.0,60.0,292.25,1649150072.8443232,1649150073.964317,07b3afac-b3ad-4c34-9691-279efa19d8e9
0.5287003455844663,0.8445714454725612,0.7129530083667137,-0.2841914983145517,0.2841214659497256,-0.4908758945202984,0.2187593001456542,0.1856114381773123,-5.236047638436085,27.327147152719064,13.934270440713222,-0.2457565145534068,3.161867712111345,-1.565806557563663,-1.0,11.93275,0.0,178.66671110183484,1.1391285844290526,89.599826843649,1904.0,1435.0,1000.0,1528.0,1723.0,1012.0,60.0,292.25,1649150076.104248,1649150077.048391,8646f847-1d15-4f89-a3cd-8d7548931222
0.5294032529035813,0.8402329239990536,0.7079241803925888,-0.2738725091376103,0.2813859895026089,-0.4951815458117823,0.2125059998852383,0.1961797026593002,-5.27460824543349,27.342208575745207,14.025212829455413,-0.2788644710730755,3.1434734873056587,-1.5466618918159265,-1.0,11.934,0.0,178.64611125129807,1.1484309952537055,89.66852204040882,1904.0,1435.0,1000.0,1528.0,1723.0,1012.0,60.0,292.25,1649150077.156976,1649150078.2864273,8646f847-1d15-4f89-a3cd-8d7548931222
0.5368541800809509,0.8485741274296226,0.7158133973781403,-0.269311554180106,0.2871933299508522,-0.5075495408504896,0.2164232154582621,0.1947141709683167,-5.1949265525739685,27.390419976219604,14.07032433245662,-0.3161856739672606,3.173733682777464,-1.569754011319479,-1.0,11.927222222222222,0.0,178.66522060277595,1.1374591856996286,89.77123897860695,1904.0,1435.0,1000.0,1528.0,1723.0,1012.0,60.0,292.25,1649150078.3955123,1649150079.5177355,8646f847-1d15-4f89-a3cd-8d7548931222
0.5604938901313821,0.9070934907829356,0.7337936899059473,-0.2794579665801484,0.2865539746281166,-0.5640878554034806,0.2101863508476,0.1916466896717473,-4.995462576566489,27.907737962969986,12.89453321674969,-0.416109356251539,3.4046239934160427,-1.579251630221285,-1.0,11.873555555555557,0.0,178.59548285353029,1.147231538144461,89.87980028200485,2045.0,1435.0,1000.0,1528.0,1813.0,1012.0,60.0,292.25,1649150080.6104803,1649150081.7440853,ca970c6c-c6e5-4114-bfd2-c54146a49583
0.5764098375580612,0.915125699955284,0.7413574766954527,-0.2746943023030334,0.2935485327568647,-0.5780868374578746,0.2133277933300323,0.1888246509527774,-5.069370349704008,27.8842292848738,12.688877693373456,-0.4581617993604928,3.4369880781433424,-1.602879919659239,-1.0,11.877444444444444,0.0,178.5984699229273,1.1316937234142952,89.8679142350292,2045.0,1435.0,1000.0,1528.0,1813.0,1012.0,60.0,292.25,1649150081.8520806,1649150083.1764762,ca970c6c-c6e5-4114-bfd2-c54146a49583
0.5711180356878363,0.915245681800972,0.7379486775119715,-0.2859271258098004,0.288907591158842,-0.5671252047700749,0.2131711047865486,0.1820218445684611,-5.027512194006508,27.852981695927745,12.779812660193288,-0.4085323629107033,3.437502238330914,-1.5916027496833258,-1.0,11.875333333333336,0.0,178.59981167564425,1.1287975097627985,89.91035627162175,2045.0,1435.0,1000.0,1528.0,1813.0,1012.0,60.0,292.25,1649150083.2855098,1649150084.4096029,ca970c6c-c6e5-4114-bfd2-c54146a49583
0.0632409081588476,-0.0013246694581613,0.5601657206277384,-0.1976785445730845,0.3086284429096732,0.2893299929896358,0.3540188349444165,0.3371583724708286,-5.9147925542804245,27.54021869357739,18.27779033136604,1.3064736710098532,-0.0647834190557437,-1.679531734858296,-1.0,11.972,0.0,179.09165815123632,1.180876528245382,89.94705032457279,1444.0,1435.0,1000.0,1528.0,1381.0,1012.0,60.0,292.25,1649150086.5496511,1649150087.6875637,2ac0432c-3901-47cf-88fb-c7cc45b6744a
0.0571223815174594,5.7039401743040894e-05,0.5610592840171834,-0.203734615464871,0.3081704299974899,0.2937200137120703,0.3563998444824271,0.3334027763591315,-5.840724673478856,27.53370232199393,18.31382471804072,1.330043969575358,-0.0596426082799795,-1.6832965982937644,-1.0,11.97,0.0,179.13467468262908,1.1933532561465854,90.00287118392959,1444.0,1435.0,1000.0,1528.0,1381.0,1012.0,60.0,292.25,1649150087.7951243,1649150088.9141865,2ac0432c-3901-47cf-88fb-c7cc45b6744a
0.0547293188262167,0.0001227828809527,0.5563520512081692,-0.201749162067809,0.3042915648549986,0.2927075641819238,0.3517978011451804,0.3306021041500344,-5.832515946235294,27.47695059206083,18.40370291707045,1.3226980201989358,-0.0607945455664884,-1.664863476720543,-1.0,11.972875000000002,0.0,179.14831457040162,1.2054059253498663,90.05244555069916,1444.0,1435.0,1000.0,1528.0,1381.0,1012.0,60.0,292.25,1649150089.0273192,1649150090.3523097,2ac0432c-3901-47cf-88fb-c7cc45b6744a
-0.0694787472103776,-0.2499446176865676,0.5359912969870294,-0.1589309768686021,0.3311592802669625,0.5063245538062318,0.4063944709501243,0.3844251925377078,-5.988164940700465,28.255101201788914,19.666791463194915,1.7104042018548042,-1.0153418153974412,-1.779967840814706,-1.0,11.946333333333332,0.0,179.2861272972849,1.2348719128247811,90.0764323212906,1331.0,1435.0,1000.0,1528.0,1283.0,1012.0,60.0,292.25,1649150091.4646013,1649150092.5137236,32ea0dac-c8e5-4a7d-b370-340327a747e7
-0.0569688578509488,-0.2472305073049413,0.5323556828097212,-0.1582927172582389,0.3279723652145782,0.5031261337236562,0.4006452039935583,0.3781214888478363,-6.14143352658009,28.256663790977584,19.63839419529056,1.7015248186503806,-1.0041348051304608,-1.7622995474590228,-1.0,11.945222222222222,0.0,179.28668130151766,1.2312290148298008,90.00672720517099,1331.0,1435.0,1000.0,1528.0,1283.0,1012.0,60.0,292.25,1649150092.6477993,1649150093.601201,32ea0dac-c8e5-4a7d-b370-340327a747e7
-0.0679310359468042,-0.2511773081117199,0.5376759735375828,-0.1587392250178223,0.3331589776890791,0.5080366234787094,0.4093529273720886,0.3845621580486232,-5.9360255173665495,28.214317313614306,19.78159530077589,1.713676976188226,-1.021269188413308,-1.7891324650177314,-1.0,11.947444444444445,0.0,179.29025121372382,1.2286344797246131,89.95325213633915,1331.0,1435.0,1000.0,1528.0,1283.0,1012.0,60.0,292.25,1649150093.710297,1649150094.855756,32ea0dac-c8e5-4a7d-b370-340327a747e7
-0.2272220244870396,-0.5238210564595582,0.4959973495739469,-0.111540881044953,0.3403496704283548,0.7383579306761329,0.444402417894078,0.4228029467553741,-6.146897385402177,29.439999849293816,20.685850021206548,2.130859682422669,-2.0588034403741453,-1.8239681238346368,-1.0,11.906111111111109,0.0,179.36869821307113,1.256341438541953,89.803546532291,1209.0,1435.0,1000.0,1528.0,1173.0,1012.0,60.0,292.25,1649150096.9945447,1649150098.3372085,4d0cb8e6-2275-4b81-a4b8-2b5979a9fe13
-0.2176327888001669,-0.5191587466426555,0.497301261840488,-0.1142577304427942,0.3411079118683133,0.7374621757985941,0.4451798345005924,0.4162790024628002,-6.189617867644866,29.388382622763,20.861032763762747,2.134704518253437,-2.042150931053593,-1.827106420238564,-1.0,11.909333333333334,0.0,179.3963437831917,1.2482180313151825,89.66548260622818,1209.0,1435.0,1000.0,1528.0,1173.0,1012.0,60.0,292.25,1649150098.4454176,1649150099.573499,4d0cb8e6-2275-4b81-a4b8-2b5979a9fe13
-0.2155158484858911,-0.5155165568040131,0.5006804764585047,-0.1172424845941103,0.3429224318059269,0.7350296672248633,0.4477043839454085,0.4329121018525013,-6.152340323176684,29.410866493620887,20.654219609632577,2.136274328768544,-2.026339273633502,-1.8376388396749088,-1.0,11.910333333333332,0.0,179.37559366849322,1.259891891823792,89.585166411778,1209.0,1435.0,1000.0,1528.0,1173.0,1012.0,60.0,292.25,1649150099.682154,1649150100.7944634,4d0cb8e6-2275-4b81-a4b8-2b5979a9fe13
-0.2252327360771244,-0.5054709503079584,0.4752114541025271,-0.1332575976755523,0.3103662620887631,0.7290338623077962,0.4099807775388612,0.3828418705547615,-6.645169716889857,30.116524368660794,18.85659041800586,2.1618021997165937,-1.968872503632524,-1.7069632635130016,-1.0,11.819666666666668,0.0,179.37539028063793,1.26155596780814,89.36807340246858,1074.0,1435.0,1000.0,1528.0,1047.0,1012.0,60.0,292.25,1649150102.402187,1649150103.6626537,7e0b3ee9-2a90-4d22-8931-775d0c0cca7b
-0.2284410183554071,-0.5050841593284415,0.4696725662923692,-0.1279904488357203,0.3048618894677588,0.7272363261400104,0.4022307174513666,0.3808503911061754,-6.693073713461335,30.22646105125558,19.29193353232992,2.1463797650883643,-1.971938954877243,-1.6802531837808203,-1.0,11.827666666666666,0.0,179.38251189121254,1.2704318579244085,89.14963408698279,1074.0,1435.0,1000.0,1528.0,1047.0,1012.0,60.0,292.25,1649150103.770923,1649150104.890603,7e0b3ee9-2a90-4d22-8931-775d0c0cca7b
-0.2120599324739531,-0.5041527931191613,0.4746170234946367,-0.1320583269900372,0.3099707054778925,0.7297975823550175,0.4104760450544016,0.379782059530626,-6.5551508214777146,30.03690270508058,19.305580471811137,2.160372584319411,-1.968731821825652,-1.7054204782287363,-1.0,11.824111111111112,0.0,179.38347115333596,1.2786551803837247,89.00811939756929,1074.0,1435.0,1000.0,1528.0,1047.0,1012.0,60.0,292.25,1649150104.9997127,1649150106.1193435,7e0b3ee9-2a90-4d22-8931-775d0c0cca7b
0.2090161169967237,0.2651741958997738,0.6008735324356547,-0.2301503492391829,0.2968494032319017,0.0502982079579542,0.3089330542787136,0.2895387284266388,-5.746830235804742,27.076763497164496,17.15593438560142,0.8414461640785408,0.950074313416456,-1.6240978741730725,-1.0,11.984000000000002,0.0,179.09034220145622,1.1934567050533895,88.71927373320906,1553.0,1435.0,1000.0,1528.0,1471.0,1012.0,60.0,292.25,1649150108.0539176,1649150109.1873865,99d2dd02-64ff-45ae-9d9c-bbd303cfc57a
0.2152091526681386,0.2640565567866689,0.6004922202867687,-0.2280597061543704,0.2966258754354457,0.0498774498389122,0.3091302847690795,0.2938120546105461,-5.660779213742522,27.06253258460756,17.21308809674506,0.8357237871025087,0.9444850699275862,-1.6235247400394273,-1.0,11.987000000000002,0.0,179.0892949057835,1.2206812699026297,88.98422360130304,1553.0,1435.0,1000.0,1528.0,1471.0,1012.0,60.0,292.25,1649150109.297355,1649150110.4302876,99d2dd02-64ff-45ae-9d9c-bbd303cfc57a
0.2150513683171694,0.265555508070963,0.5976915482531385,-0.2276520967104557,0.2932861067820163,0.0492594609408082,0.3053303117531495,0.2903933937498795,-5.668261881881588,27.11120874044361,17.361334414199703,0.8336187065771758,0.9486191981086548,-1.6093790530530294,-1.0,11.981666666666666,0.0,179.07912247737966,1.213549817215163,89.18224520462996,1553.0,1435.0,1000.0,1528.0,1471.0,1012.0,60.0,292.25,1649150110.5388763,1649150111.6493094,99d2dd02-64ff-45ae-9d9c-bbd303cfc57a
0.2114376684636032,0.2641968095380915,0.5883943251831543,-0.4367520123856276,0.2631558711352443,0.2522534109502155,0.3536490278771591,0.3356517510116495,-5.62772596734166,26.640946113872428,18.811904829932647,1.758122663089831,0.9555272857657908,-1.6241935570894992,-1.0,11.981222222222222,0.0,179.09306517020536,1.278812784627229,89.61046846810335,1553.0,1537.0,1000.0,1528.0,1471.0,1012.0,60.0,292.25,1649150113.5850232,1649150114.7209358,b089af06-7edc-4640-b559-5778cfba3d01
0.2167930226279455,0.2616081601086734,0.5907364364737476,-0.4346838313625329,0.2658814861283534,0.2527601836764691,0.3564705187283054,0.3286938997533565,-5.601358645664232,26.658746678092783,18.81363287626878,1.75484431108558,0.9455104813693233,-1.635397222500253,-1.0,11.983777777777778,0.0,179.0898048932415,1.267015850275919,89.69278439016054,1553.0,1537.0,1000.0,1528.0,1471.0,1012.0,60.0,292.25,1649150114.8292208,1649150115.9496086,b089af06-7edc-4640-b559-5778cfba3d01
0.2278598414640758,0.2639502714945422,0.5877642835449616,-0.4399844007826497,0.2624436501061503,0.2571567787422034,0.3536627244335391,0.3332137638494367,-5.699625842105612,26.65844274716965,19.049139235499663,1.7765189009100275,0.9533672369446604,-1.622165208226371,-1.0,11.98,0.0,179.089694092395,1.2477231983393755,89.79098277876773,1553.0,1537.0,1000.0,1528.0,1471.0,1012.0,60.0,292.25,1649150116.058274,1649150117.1788414,b089af06-7edc-4640-b559-5778cfba3d01
0.2293938559409569,0.2659088792585506,0.5743553539709436,-0.6357904577452743,0.2263258269829635,0.4449776732984913,0.3901640503198069,0.3679482338377034,-5.659477902512258,26.5214562710855,20.479711077965188,2.638940496788344,0.9710054662913112,-1.6060415514238988,-1.0,11.980555555555556,0.0,179.10092899466977,1.309135101140351,90.02188111820954,1553.0,1645.0,1000.0,1528.0,1471.0,1012.0,60.0,292.25,1649150118.9209986,1649150120.0455368,c3631e47-b145-4adf-ae07-f11e79f2a2d1
0.2303937046510608,0.2636215541064634,0.5773138103409369,-0.6364752860246382,0.2288186005070659,0.4480183090238244,0.3942456244514238,0.3713723733195239,-5.589495227002949,26.56344470537935,20.52990838691693,2.64778690308736,0.9617589681066177,-1.619461057264448,-1.0,11.981,0.0,179.1004326675901,1.3073264172446688,90.09295910235232,1553.0,1645.0,1000.0,1528.0,1471.0,1012.0,60.0,292.25,1649150120.1537397,1649150121.2770033,c3631e47-b145-4adf-ae07-f11e79f2a2d1
0.2200117137371277,0.2671963556890475,0.5778205829540047,-0.631613006253178,0.2287364211279598,0.4398414641817018,0.392026782139947,0.3742486502666988,-5.560192015010003,26.600581932922683,20.49476092060608,2.6187248978801367,0.97470486347128,-1.6164498916439296,-1.0,11.98088888888889,0.0,179.083275232395,1.3026413936506995,90.13761260241614,1553.0,1645.0,1000.0,1528.0,1471.0,1012.0,60.0,292.25,1649150121.38506,1649150122.503784,c3631e47-b145-4adf-ae07-f11e79f2a2d1
0.233571306091559,0.2666211002708261,0.5660415436903735,-0.7862883039659453,0.1964810270864331,0.5924211130069463,0.417639344615769,0.3958755145441954,-5.529730010006745,26.829446229232484,21.90679413717466,3.311672389149321,0.9781178814655656,-1.5924344758099542,-1.0,11.968,0.0,179.08381254060973,1.3732838109382872,90.2255649483584,1553.0,1761.0,1000.0,1528.0,1471.0,1012.0,60.0,292.25,1649150123.4151676,1649150124.5519474,322357ac-5004-40af-bb4a-06ab8b4fcc47
0.2384954925949301,0.2656475489340562,0.569382407948577,-0.7980295475304306,0.1998646248086372,0.6043579365875567,0.425259561335758,0.4128866391099655,-5.578770676358434,26.704862935351752,21.97503876341865,3.364308062220169,0.9758639979386944,-1.6125542480364037,-1.0,11.968666666666667,0.0,179.09487592924532,1.3617989189967146,90.24024302488476,1553.0,1761.0,1000.0,1528.0,1471.0,1012.0,60.0,292.25,1649150124.660165,1649150125.7667255,322357ac-5004-40af-bb4a-06ab8b4fcc47
0.2404606747128542,0.2684701355616558,0.5704792282484361,-0.7892878517414411,0.2006584772729708,0.5919006438176898,0.422446836295468,0.4001762337991261,-5.543444316643819,26.771056845354767,21.734177340617617,3.317068547510375,0.9873294966393402,-1.6110498646110345,-1.0,11.964444444444446,0.0,179.0900037276374,1.3874847821499654,90.2130110606639,1553.0,1761.0,1000.0,1528.0,1471.0,1012.0,60.0,292.25,1649150125.8746536,1649150126.923875,322357ac-5004-40af-bb4a-06ab8b4fcc47
0.2324602413336501,0.2672253923973181,0.5455438239146748,-0.837409911865648,0.1674925358649086,0.6427126798288296,0.4035247682267716,0.3764647534429123,-5.803937037674948,27.297403258389195,22.31057474532201,3.542009907612828,0.9837490711865272,-1.5051037455737433,-1.0,11.925666666666665,0.0,179.09219242381144,1.365939021560964,90.15618692240903,1553.0,1887.0,1000.0,1528.0,1471.0,1012.0,60.0,292.25,1649150128.1249952,1649150129.2618396,fd534c02-c66d-45ea-942f-8e95688bb435
0.2308823978667665,0.2683035854350645,0.5518026027347982,-0.855331594205228,0.1712793602567676,0.6580703555519328,0.4167129094525182,0.3953594284680436,-5.558751102545264,27.14437146411649,22.373305008823795,3.6163781791423175,0.9881023286714192,-1.5372739753430462,-1.0,11.931777777777777,0.0,179.07827401610274,1.3658705655156886,90.07369645107308,1553.0,1887.0,1000.0,1528.0,1471.0,1012.0,60.0,292.25,1649150129.3714228,1649150130.4965966,fd534c02-c66d-45ea-942f-8e95688bb435
0.2394159012864013,0.2711831497431002,0.5546558695277336,-0.8538194932535564,0.1724758914869598,0.6554143191654748,0.4180146301857667,0.3964507701068936,-5.486074842638703,27.24094283386468,22.609068648672128,3.6078552038427376,0.9962948413887877,-1.5439409845929724,-1.0,11.933555555555554,0.0,179.07713565124106,1.3677115979461898,90.00919821583074,1553.0,1887.0,1000.0,1528.0,1471.0,1012.0,60.0,292.25,1649150130.6062355,1649150131.719813,fd534c02-c66d-45ea-942f-8e95688bb435
0.2034251820314085,0.2685934045917058,0.6061724565127448,-0.0519882412122293,0.3166683222486808,-0.1225392180976597,0.2592797452064601,0.2388033908645838,-5.991568578137257,27.926372465857742,16.205145144546083,0.0567885795499925,0.951472207221304,-1.5875042272912196,-1.0,11.988,0.0,179.08426636873455,1.141647502758956,89.83112380051988,1553.0,1335.0,1000.0,1528.0,1471.0,1012.0,60.0,292.25,1649150133.4482296,1649150134.5867603,51addd15-6e37-44d4-ba9b-2215b7aa2a58
0.2032438395914013,0.2704994175729768,0.6042264496592954,-0.0513412157196847,0.3151655359534728,-0.1259337733579139,0.2578109263635399,0.2426110341597303,-5.913901404464101,27.80331834657235,16.060775322779477,0.0468044731620182,0.959145635610769,-1.5805759731531,-1.0,11.988333333333337,0.0,179.0735110975215,1.1309005321230257,89.98248989944625,1553.0,1335.0,1000.0,1528.0,1471.0,1012.0,60.0,292.25,1649150134.6950328,1649150135.8154469,51addd15-6e37-44d4-ba9b-2215b7aa2a58
0.1978780760091113,0.2723736545483655,0.6102677271363172,-0.0524539243403012,0.3205444480787425,-0.1255387647677906,0.2629778158480935,0.2315579119449922,-5.99136201339604,27.852744538411155,16.27517460070521,0.0508257605090443,0.9653440168131492,-1.6030487595082057,-1.0,11.988555555555555,0.0,179.0741728669611,1.1210828229532364,90.11546154002788,1553.0,1335.0,1000.0,1528.0,1471.0,1012.0,60.0,292.25,1649150135.923579,1649150137.043954,51addd15-6e37-44d4-ba9b-2215b7aa2a58
0.1892355478887677,0.2701685087407955,0.6205264485255554,0.1497620673229707,0.3489374120623853,-0.3212078222163135,0.2150261666278378,0.1839075866857786,-6.074946092955339,28.62514039287372,14.47027190367009,-0.8397171364797504,0.949428104716214,-1.588846726332191,-1.0,11.979333333333336,0.0,179.09253545108973,1.0986233348352683,90.36799412421075,1553.0,1236.0,1000.0,1528.0,1471.0,1012.0,60.0,292.25,1649150138.984717,1649150140.1164706,865efe3d-2c4f-40a1-9536-50b6e014276d
0.1871125813961913,0.269045390997585,0.6171981851105265,0.1549256697464513,0.346718569727475,-0.3232623063204978,0.2111911303716414,0.1823461790772957,-6.079647525329773,28.610415278066245,14.67021409780611,-0.8562154930609284,0.9426299294285782,-1.5756333849158777,-1.0,11.976222222222225,0.0,179.08208222602,1.0608552820691215,90.44855544656116,1553.0,1236.0,1000.0,1528.0,1471.0,1012.0,60.0,292.25,1649150140.224713,1649150141.3501203,865efe3d-2c4f-40a1-9536-50b6e014276d
0.1975767517554774,0.2721430045137243,0.6251460233568247,0.1534365799155568,0.3532047115341968,-0.3260701013562615,0.2173786874028082,0.1923698679253112,-6.124806689032565,28.68950509949118,14.56137915793824,-0.8582859972066516,0.9562206209390532,-1.6039670735804572,-1.0,11.97222222222222,0.0,179.0683611348873,1.0694595773021434,90.504334565873,1553.0,1236.0,1000.0,1528.0,1471.0,1012.0,60.0,292.25,1649150141.4685938,1649150142.570989,865efe3d-2c4f-40a1-9536-50b6e014276d
0.1824689003606412,0.2689347228155184,0.621595875706754,0.2971649718867132,0.3599236947909285,-0.4615279966444262,0.1701354236105535,0.142286485435184,-6.14165166399755,29.576401741367143,13.46733489744646,-1.481374318154981,0.9360972645697636,-1.542061798614935,-1.0,11.973666666666666,0.0,179.09112084302166,1.0272243792333635,90.66651285425552,1553.0,1133.0,1000.0,1528.0,1471.0,1012.0,60.0,292.25,1649150144.5100937,1649150145.648924,f0fca6a7-6a7e-4459-99a3-7986e5c4b344
0.1736077751277073,0.2691275703517607,0.612678321216993,0.2894121722484152,0.3518684754005431,-0.4547492945329743,0.1623629009217358,0.1387089447691549,-6.329366225548637,29.50601920340073,13.38060730568437,-1.4496721775005277,0.9393058385907268,-1.508137625348401,-1.0,11.96922222222222,0.0,179.10045847052692,1.0071498129324614,90.72429549572392,1553.0,1133.0,1000.0,1528.0,1471.0,1012.0,60.0,292.25,1649150145.7566965,1649150147.0869074,f0fca6a7-6a7e-4459-99a3-7986e5c4b344
0.1842500007588142,0.2752636282392399,0.6173488472386992,0.2992189076213488,0.356237677247657,-0.4673638279464735,0.16156850048377,0.1309019065637314,-6.436944916596417,29.5971010510464,13.739976323998384,-1.4993008240249015,0.958986335453458,-1.5181013260623224,-1.0,11.967111111111112,0.0,179.10938476886224,1.0134443065713206,90.78410746228572,1553.0,1133.0,1000.0,1528.0,1471.0,1012.0,60.0,292.25,1649150147.1995118,1649150148.3041475,f0fca6a7-6a7e-4459-99a3-7986e5c4b344
0.1674136436847082,0.2675409610878266,0.582005155138323,0.3268941720309914,0.3233834705429054,-0.4853665891317522,0.1147136703996219,0.0926896045210867,-6.71039227409711,30.122570388890963,13.40673905561396,-1.6006512947642748,0.9292713975631532,-1.360032748104825,-1.0,11.951222222222222,0.0,179.12354147428198,1.012030730146376,90.85907789534552,1553.0,1026.0,1000.0,1528.0,1471.0,1012.0,60.0,292.25,1649150148.9021294,1649150149.96009,8c8611c5-9608-4f22-93c2-d3b670baec40
0.1674399410793411,0.2679748680385325,0.5848452732440338,0.3234097678039055,0.3252637339324026,-0.4821583063024999,0.1201046357178487,0.1031691152857225,-6.520075639303431,30.05382987664206,13.498581797026336,-1.5857857220474398,0.929345685475668,-1.3738279216948686,-1.0,11.958,0.0,179.09947492328646,0.9996925744511462,90.87849915879548,1553.0,1026.0,1000.0,1528.0,1471.0,1012.0,60.0,292.25,1649150150.0686204,1649150151.1756656,8c8611c5-9608-4f22-93c2-d3b670baec40
0.1583410435362113,0.2626890924447451,0.57561488936686,0.3358615820545476,0.3191758880007796,-0.4904419878614025,0.1073109545109673,0.077305629799691,-6.722608438632983,30.126482737846462,13.1303715192929,-1.6326271344013543,0.9121007192155232,-1.3359597331194708,-1.0,11.959333333333335,0.0,179.0951961892264,1.0043634514901154,90.88652007761078,1553.0,1026.0,1000.0,1528.0,1471.0,1012.0,60.0,292.25,1649150151.2836657,1649150152.4042509,8c8611c5-9608-4f22-93c2-d3b670baec40
0.2108076267924283,0.2683194734413698,0.5985160810033149,-0.2441783659274072,0.2920556080479884,0.0630354597909517,0.3090941258546764,0.2920556079509351,-5.745899450738655,27.102769051903906,17.55938900115728,0.9018320285722856,0.9598667608602142,-1.6137678227657055,-1.0,11.987444444444444,0.0,179.0912544111654,1.1500796321646176,90.86119525398824,1553.0,1435.0,1000.0,1528.0,1471.0,1012.0,60.0,292.25,1649150154.5444643,1649150155.688311,e6cec0e3-5edc-4625-93c5-9cf4860e9089
0.2142728559609124,0.2642242026511307,0.6037892555501169,-0.2438085589046429,0.2967809204614831,0.0660760957128004,0.3150658249894461,0.302643047059872,-5.697338899251719,27.21128267529108,17.511376600164184,0.9088292589387154,0.9448794388538644,-1.636464793007006,-1.0,11.991555555555555,0.0,179.0866129181694,1.1679307465893016,90.82422647565058,1553.0,1435.0,1000.0,1528.0,1471.0,1012.0,60.0,292.25,1649150155.803053,1649150156.9166212,e6cec0e3-5edc-4625-93c5-9cf4860e9089
0.2054248794924356,0.2622792914360212,0.6021730617927187,-0.2391654253776946,0.2963289340611857,0.0637887701658598,0.3124086927959724,0.2862071776775141,-5.7695024673972,27.23289009450556,17.506792203680615,0.8932412678154277,0.9374624659498224,-1.630123353833075,-1.0,11.986777777777778,0.0,179.08529696838934,1.1882832636439282,90.8173006638322,1553.0,1435.0,1000.0,1528.0,1471.0,1012.0,60.0,292.25,1649150157.0488513,1649150158.04107,e6cec0e3-5edc-4625-93c5-9cf4860e9089
0.2471172018537562,0.2830295765072506,0.7179500603052246,-0.24052138444866,0.3997516405514957,0.0378748815863802,0.4279528523705531,0.4055726773463039,-4.836703894803849,27.26103126816379,17.42107782600917,0.8444753680359106,1.016953285596394,-2.0902970924454025,-1.0,11.974222222222222,0.0,179.09755032776033,1.1786447165022111,90.77151790582558,1553.0,1435.0,1000.0,1435.0,1471.0,1012.0,60.0,292.25,1649150159.054366,1649150160.1872988,f3a565c2-373b-4645-83e9-41a33ffce5c8
0.2338145569661366,0.2743782827490054,0.7115460979860996,-0.2359489248996337,0.3960694580522706,0.0426851128690856,0.4221827666720136,0.3971213535754838,-4.994052001753904,27.314674269422323,17.45171336845357,0.8449326613376408,0.984379788288921,-2.069432708963566,-1.0,11.977,0.0,179.0757164897135,1.1759183445164814,90.72130463177736,1553.0,1435.0,1000.0,1435.0,1471.0,1012.0,60.0,292.25,1649150160.2949855,1649150161.4126613,f3a565c2-373b-4645-83e9-41a33ffce5c8
0.2427293725843169,0.277744348791041,0.7167529811899074,-0.2374873226440103,0.4000666614203581,0.0397398048321661,0.4273633525969421,0.4061939533257206,-4.890406589024685,27.279641598890795,17.340418378201708,0.8418458729278905,0.9977763146252112,-2.089026956392566,-1.0,11.982666666666669,0.0,179.05484950288923,1.165993664623597,90.66358194419166,1553.0,1435.0,1000.0,1435.0,1471.0,1012.0,60.0,292.25,1649150161.521251,1649150162.6468744,f3a565c2-373b-4645-83e9-41a33ffce5c8
0.2552074846601919,0.2851602130285093,0.8038367882054398,-0.2042868608455634,0.4808390956006355,-0.0030723505157353,0.5038230145448502,0.4772889478662667,-4.394570047906546,27.72911255439254,17.255041785109803,0.6783009072586461,1.0242781800348495,-2.4253787256231107,-1.0,11.96288888888889,0.0,179.05148753199776,1.1676718871629452,90.56503293920711,1553.0,1435.0,1000.0,1330.0,1471.0,1012.0,60.0,292.25,1649150164.9895642,1649150166.085446,8136920d-f25d-4316-826e-ba592dfe741d
0.2678127007703858,0.287179633504629,0.8028961086450312,-0.1997741181726537,0.4809448330252226,-0.0079811971178889,0.5016403311791549,0.4772604590547852,-4.440560745417135,27.662516385052147,17.418158334726805,0.6566049692227361,1.030115668895822,-2.420623668338402,-1.0,11.97425,0.0,179.05824828091124,1.1731351758318336,90.5334078352576,1553.0,1435.0,1000.0,1330.0,1471.0,1012.0,60.0,292.25,1649150166.1943407,1649150167.351092,8136920d-f25d-4316-826e-ba592dfe741d
0.2681962043794341,0.2877685854803837,0.8031426466779136,-0.1995686698116418,0.4809037433506449,-0.0098165361354935,0.5005583031559575,0.484300489543329,-4.50056837437777,27.71770817236167,17.262712887605883,0.6523404399836238,1.0341182953293857,-2.4195739778076883,-1.0,11.971333333333334,0.0,179.068972816273,1.1758591851175768,90.53510456808392,1553.0,1435.0,1000.0,1330.0,1471.0,1012.0,60.0,292.25,1649150167.4607284,1649150168.590955,8136920d-f25d-4316-826e-ba592dfe741d
0.2713935288445025,0.2909587877216841,0.8467278314729546,-0.1470900271178506,0.5224152693700802,-0.0652788343508537,0.5270304613188809,0.508582842173441,-4.19604374710335,28.285213945178366,16.95383558742642,0.4153666585340657,1.042977163293349,-2.5728257395100043,-1.0,11.966333333333331,0.0,179.0536246222981,1.1762169637072255,90.51083235250344,1553.0,1435.0,1000.0,1210.0,1471.0,1012.0,60.0,292.25,1649150169.4941795,1649150170.6405425,53f5ee73-7c1b-4ae1-937e-50d9160d40f9
0.2704599714556997,0.2892494573162216,0.8306469774047583,-0.1367945972348091,0.508911559556831,-0.0738649333434945,0.5072153778950014,0.4802868504152557,-4.361387042055596,28.31574493046799,16.705343978101663,0.3721274140560082,1.0376522586729615,-2.50489596000503,-1.0,11.958666666666666,0.0,179.04986650043475,1.1625562889180172,90.4877964011627,1553.0,1435.0,1000.0,1210.0,1471.0,1012.0,60.0,292.25,1649150170.772046,1649150171.8678386,53f5ee73-7c1b-4ae1-937e-50d9160d40f9
0.2663838758517471,0.2812024556951015,0.8268207071574228,-0.1418962917552677,0.5066631326955918,-0.0615314557767167,0.5084513552210024,0.4818515450835939,-4.325120077936911,28.229928607554857,16.660835768065052,0.4106023093711714,1.00799300381644,-2.4993982742605,-1.0,11.958333333333334,0.0,179.05107316718812,1.1649645709306813,90.4354862590393,1553.0,1435.0,1000.0,1210.0,1471.0,1012.0,60.0,292.25,1649150171.9757814,1649150173.097453,53f5ee73-7c1b-4ae1-937e-50d9160d40f9
0.2615259807162746,0.2844677150646916,0.8371785916953726,-0.0942147335216425,0.5168161167221571,-0.1095685764846442,0.5002569788760877,0.4774796038494759,-4.36531928376311,28.82546881040535,16.529996521500152,0.1995211414591729,1.0164799709784702,-2.5153227935841254,-1.0,11.966,0.0,179.06201513023848,1.1545946362233095,90.39966419357228,1553.0,1435.0,1000.0,1071.0,1471.0,1012.0,60.0,292.25,1649150174.0022268,1649150175.1388347,3704753c-8ce7-4b38-8521-50dfa4b62dfb
0.2644904636823826,0.2845290756468903,0.8350254928857109,-0.0925360832309595,0.515196635771018,-0.1118383704574063,0.4977088713437257,0.4731997037305501,-4.372116687739453,28.79635601201109,16.41797168200632,0.1903125062991121,1.0174074276510623,-2.5066827922206887,-1.0,11.964333333333334,0.0,179.0660859229838,1.146653331800504,90.40397631966827,1553.0,1435.0,1000.0,1071.0,1471.0,1012.0,60.0,292.25,1649150175.2473133,1649150176.3670714,3704753c-8ce7-4b38-8521-50dfa4b62dfb
0.2707300675557826,0.28824796499365,0.8437666357980301,-0.0925026638605912,0.5228973881645816,-0.1165538224240068,0.5052425257693126,0.4846702965996468,-4.352920259830003,28.79585065715357,16.332626487912353,0.1800688291769278,1.0325260871110231,-2.5394694149632406,-1.0,11.958666666666668,0.0,179.05758461419686,1.1210071691218044,90.4047967012786,1553.0,1435.0,1000.0,1071.0,1471.0,1012.0,60.0,292.25,1649150176.4750254,1649150177.8014953,3704753c-8ce7-4b38-8521-50dfa4b62dfb
0.156158360051429,0.242953448304927,0.4431286380748775,-0.2299339437321318,0.1519672132785947,0.0830050418046478,0.1484061081484908,0.1320113278097696,-6.908966550101124,27.27107245712377,17.516937178895514,0.9073606401050224,0.8617352223822569,-0.9862533819594572,-1.0,11.98577777777778,0.0,179.10966252988848,1.1563093813019694,90.50660142976756,1553.0,1435.0,1000.0,1613.0,1471.0,1012.0,60.0,292.25,1649150179.4193163,1649150180.4676754,f45dad16-bf33-472c-be5f-f538984aeb5d
0.1634690349302347,0.240533540459435,0.4460870944649844,-0.227362825184541,0.154672557425936,0.0818550789519549,0.1517272495578203,0.1221558321705905,-6.797989025801542,27.30999945999133,17.376164699639347,0.8994154930076338,0.852992938777321,-0.9991066375026422,-1.0,11.988666666666669,0.0,179.07200086680507,1.1759853657477126,90.48579287900615,1553.0,1435.0,1000.0,1613.0,1471.0,1012.0,60.0,292.25,1649150180.575425,1649150181.897666,f45dad16-bf33-472c-be5f-f538984aeb5d
0.1523320895629011,0.2432553204438169,0.4457320797100865,-0.2286251001710779,0.1545147731085438,0.0801983432559211,0.1512407478011534,0.1277966228770501,-6.825700126579984,27.2299240567312,17.352411500298686,0.8979737274509941,0.8637394739124286,-0.9974168790143558,-1.0,11.98911111111111,0.0,179.0660054785336,1.1633895601387916,90.48003654735564,1553.0,1435.0,1000.0,1613.0,1471.0,1012.0,60.0,292.25,1649150182.005951,1649150183.1320937,f45dad16-bf33-472c-be5f-f538984aeb5d
0.1257930904502821,0.2237645706654414,0.3388293525551765,-0.2082385924728111,0.0579814297085572,0.0862785193578734,0.0371763571756682,0.0212609557818139,-7.604061740853325,27.53815252210046,17.320299458285625,0.8619730437232489,0.7871491213912724,-0.5607071554967489,-1.0,11.990444444444446,0.0,179.0860346288197,1.1627019877623437,90.49795516918824,1553.0,1435.0,1000.0,1694.0,1471.0,1012.0,60.0,292.25,1649150184.036343,1649150185.1733143,882ca82d-e179-453c-832f-a288a3ff7c46
0.1235758916149384,0.2256097709521402,0.3414892240401337,-0.2075608864690327,0.0601728790725612,0.0841561008004276,0.039345344197194,0.018570403657645,-7.571878779365534,27.53452454529248,17.38273949080108,0.8558094940598632,0.7933736768420637,-0.5700645886610386,-1.0,11.993333333333332,0.0,179.09391363148228,1.1550465077835554,90.50080791153158,1553.0,1435.0,1000.0,1694.0,1471.0,1012.0,60.0,292.25,1649150185.281499,1649150186.4024937,882ca82d-e179-453c-832f-a288a3ff7c46
0.1274914636660694,0.2261614683084199,0.3399661668356399,-0.207663336911808,0.0585977748419983,0.0826489314198571,0.0378200954176649,0.016124746260511,-7.535907988876276,27.50857158147576,17.220399969041104,0.8523981318276,0.7965427160222601,-0.5637988174851398,-1.0,11.992,0.0,179.07856543750734,1.1473060417530636,90.52501789649962,1553.0,1435.0,1000.0,1694.0,1471.0,1012.0,60.0,292.25,1649150186.513213,1649150187.8436482,882ca82d-e179-453c-832f-a288a3ff7c46
0.0843664799944847,0.210081161392367,0.2452670708350244,-0.1824600229419291,-0.0259379336991056,0.0806191015571202,-0.0650421577010238,-0.0850018795998924,-8.23062948485444,27.7479923574971,17.23144016467911,0.7875081528993545,0.7319485826340842,-0.1754121638388655,-1.0,11.988444444444443,0.0,179.0883614465969,1.167804447379493,90.58085393405456,1553.0,1435.0,1000.0,1774.0,1471.0,1012.0,60.0,292.25,1649150189.9759324,1649150191.1141164,a8dc87d5-6726-4339-afb6-e9b8ca214d27
0.0951615594936495,0.206425824000196,0.2386532769710461,-0.1784759675790509,-0.0307766540457191,0.0814343207356481,-0.0724974687524327,-0.1007014236159765,-8.378961960390887,27.789300423398245,17.305792509582922,0.7802347052279183,0.7177206216313848,-0.1496147305966422,-1.0,11.990333333333332,0.0,179.08318871666552,1.1571590283755973,90.58362016066845,1553.0,1435.0,1000.0,1774.0,1471.0,1012.0,60.0,292.25,1649150191.222325,1649150192.338785,a8dc87d5-6726-4339-afb6-e9b8ca214d27
0.0915719654633249,0.2127503466134522,0.2424663986791446,-0.1774898153020852,-0.0290936208840088,0.074570701312366,-0.0707749894863973,-0.0906821166251165,-8.25761943801508,27.824709922269754,17.360314923521678,0.7630810917834175,0.7402202790381567,-0.1586360920421426,-1.0,11.991,0.0,179.0901008681056,1.1511294180104878,90.57073311152443,1553.0,1435.0,1000.0,1774.0,1471.0,1012.0,60.0,292.25,1649150192.4473848,1649150193.5757372,a8dc87d5-6726-4339-afb6-e9b8ca214d27
0.05683091873651763,0.1960290407355191,0.15055646777598689,-0.15278122177239367,-0.111896991259207,0.071951919139954,-0.17323018513637958,-0.20395156923352933,-9.079526706989718,28.25315924217725,17.144431810383633,0.6992754063731025,0.6763743496843438,0.22244107333785249,-1.0,11.990111111111112,0.0,179.1015649611725,1.1789634586634783,90.57286868400492,1553.0,1435.0,1000.0,1856.0,1471.0,1012.0,60.0,292.25,1649150194.4798634,1649150195.619655,4034fe36-97fa-4adf-82b5-cd9135f5f128
0.0706655386153381,0.2014556170208327,0.15646078008367006,-0.15142909722877915,-0.10722317732202123,0.06553754700230172,-0.16894316190216008,-0.19163781386050946,-9.01324605820965,28.238171109622463,17.204473250269867,0.6820489661566873,0.6959336184352217,0.20272879261315657,-1.0,11.991666666666667,0.0,179.11103615682157,1.1490667008811437,90.58216001800587,1553.0,1435.0,1000.0,1856.0,1471.0,1012.0,60.0,292.25,1649150195.7277787,1649150197.0606177,4034fe36-97fa-4adf-82b5-cd9135f5f128
0.07111642930413546,0.20034345650919436,0.16033581031248859,-0.15602730626599223,-0.10282986895643509,0.0714999328705315,-0.16260165473625,-0.18244797011634703,-9.0439283702225,28.14914543031362,17.33572419685539,0.7054279424496647,0.6916265127509114,0.18245920978047683,-1.0,11.99,0.0,179.11468044219873,1.1510425109680797,90.592758194868,1553.0,1435.0,1000.0,1856.0,1471.0,1012.0,60.0,292.25,1649150197.1686058,1649150198.2815173,4034fe36-97fa-4adf-82b5-cd9135f5f128
