raw_voltage_G-,raw_voltage_G0,raw_voltage_G1,raw_voltage_G2,raw_voltage_G3,raw_voltage_G4,raw_voltage_G5,raw_voltage_G6,load_x,load_y,load_z,load_l,load_m,load_n,rpm,voltage,current,roll,pitch,yaw,aileron1_pwm,elevator_pwm,throttle_pwm,rudder_pwm,aileron2_pwm,pbaro,pdiff,Tt,sample_start_time,sample_end_time,uid
0.0638413652956247,0.1755395377350104,0.195867421357135,-0.1801852981311442,-0.0462395212837013,0.1100064373835235,-0.1299572745354056,-0.1599494536034539,-12.592954260438535,27.962379902347525,16.476598288779964,0.8450594173519899,0.6365539938615666,0.0036388869224571,-1.0,11.990333333333332,0.0,179.2552730560743,1.1948902977271516,93.08143324161053,1553.0,1435.0,1000.0,1528.0,1471.0,1012.0,60.0,292.25,1649148765.5708904,1649148766.7133849,623db12d-ad04-429c-8920-78cc43ff065a
0.0650510453448538,0.174921549032412,0.1947892283102109,-0.1800669598671281,-0.0467391717541238,0.1112950095821926,-0.1311012111860266,-0.1539142010261253,-12.667829666191896,27.9609562784346,16.580988972146002,0.8476038949207867,0.6337579524084426,0.0074395636507865,-1.0,11.992666666666668,0.0,179.26481710707452,1.2052894148920712,93.1126107784419,1553.0,1435.0,1000.0,1528.0,1471.0,1012.0,60.0,292.25,1649148766.8261757,1649148767.9333007,623db12d-ad04-429c-8920-78cc43ff065a
0.0615562314665487,0.1770867009370794,0.1969467101318914,-0.1821329489382453,-0.0457973963530755,0.1120280493952603,-0.1286752765633623,-0.1499871235230274,-12.590642501862286,27.97286646516612,16.733331712323167,0.8541610190560714,0.6403734091224401,0.0002697577950716,-1.0,11.991666666666667,0.0,179.27568014349447,1.2120845044788493,93.12365443541992,1553.0,1435.0,1000.0,1528.0,1471.0,1012.0,60.0,292.25,1649148768.0420406,1649148769.1671493,623db12d-ad04-429c-8920-78cc43ff065a
0.1922909760639871,0.4282706125756865,0.2256886631311533,-0.2490581763050814,-0.072707847869555,-0.0731549035675723,-0.1714414143635513,-0.190743702756585,-12.27579837451717,27.68033897881214,16.58260995147201,0.5886235297997252,1.5916303035723585,0.0885683173640208,-1.0,11.981333333333332,0.0,179.15756947672696,1.2061144922574352,93.28648842196274,1663.0,1435.0,1000.0,1528.0,1555.0,1012.0,60.0,292.25,1649148771.096419,1649148772.240028,64c56435-b0c1-43bd-b2c4-9b69f478e779
0.186900010831816,0.4279813412838447,0.2232824518319316,-0.2507149122592393,-0.07532443854177,-0.071853182592777,-0.1738870720819431,-0.1881928554967807,-12.297897044595889,27.70650478752104,16.491670356409028,0.5953138838927561,1.5915596470894806,0.0986902511911155,-1.0,11.972,0.0,179.1612835818156,1.203066982801042,93.32813815661156,1663.0,1435.0,1000.0,1528.0,1555.0,1012.0,60.0,292.25,1649148772.3545628,1649148773.4651563,64c56435-b0c1-43bd-b2c4-9b69f478e779
0.189621790854246,0.4309660950822083,0.2241634144388251,-0.2521481203110876,-0.0749431263334656,-0.0742593941075882,-0.1732296372073937,-0.1961083709733582,-12.26406582856916,27.655573143007064,16.384160989140046,0.5928458977523006,1.6036991354796504,0.0962755127988734,-1.0,11.972888888888887,0.0,179.174488614211,1.2000660514402388,93.3380335828991,1663.0,1435.0,1000.0,1528.0,1555.0,1012.0,60.0,292.25,1649148773.5735798,1649148774.7041705,64c56435-b0c1-43bd-b2c4-9b69f478e779
0.344881587417591,0.6864057932000294,0.2594019185768778,-0.3195614953891627,-0.0979270485197593,-0.2631009856691248,-0.2134778002593557,-0.238591813318404,-12.049475544778655,27.59394949732313,16.274660734695864,0.321998380741689,2.571737907720934,0.1671893562558565,-1.0,11.961333333333334,0.0,179.0558603708864,1.1542121219138544,93.4443105674746,1779.0,1435.0,1000.0,1528.0,1638.0,1012.0,60.0,292.25,1649148776.421898,1649148777.7606118,9cf89f61-76a7-41ed-84be-6dfb5000a012
0.3298307141684979,0.6835853981299701,0.2559514817242425,-0.3214954497363958,-0.1006247228518925,-0.2595322098908033,-0.2151142652449793,-0.2380012173956108,-12.030961251515786,27.54062586819502,16.11702671309717,0.3338393179619394,2.562444245705447,0.177351267337657,-1.0,11.94888888888889,0.0,179.06427516394385,1.1611562187178377,93.50222374144714,1779.0,1435.0,1000.0,1528.0,1638.0,1012.0,60.0,292.25,1649148777.869897,1649148778.9949892,9cf89f61-76a7-41ed-84be-6dfb5000a012
0.3361448272307088,0.6861055646649069,0.2582798965567606,-0.3214817531658825,-0.0988852598144238,-0.2624632737998945,-0.2144431338057795,-0.2350290640699574,-12.09045991404762,27.58066639023657,16.064595684064468,0.3275649949401185,2.572928816058736,0.1710256908481415,-1.0,11.95622222222222,0.0,179.0581446897088,1.156588648290065,93.57735506340735,1779.0,1435.0,1000.0,1528.0,1638.0,1012.0,60.0,292.25,1649148779.1043088,1649148780.1532638,9cf89f61-76a7-41ed-84be-6dfb5000a012
0.3678918041672447,0.7452987979953221,0.2740758627506273,-0.3652663712834145,-0.1050667909929994,-0.2950786193230361,-0.2162258780849704,-0.2410111734562192,-11.97209352850114,28.04374938745616,13.990472131714498,0.3566266519913398,2.818884624033919,0.1641975970168621,-1.0,11.944333333333333,0.0,178.9459019143483,1.1541756942382808,93.64270479556625,1904.0,1435.0,1000.0,1528.0,1723.0,1012.0,60.0,292.25,1649148780.9264708,1649148782.062217,813a5b23-2f2e-42c8-a455-a12a9aa68f0d
0.3775035003848341,0.7592890094709221,0.2770737653149486,-0.3689611556048996,-0.1053692110274475,-0.304913845529311,-0.2164099598452516,-0.2400381698418388,-11.87759571656576,28.0019322347526,14.068133307028232,0.3427921256945373,2.8706435306030063,0.1626383282314594,-1.0,11.919333333333332,0.0,178.94207245495355,1.1562956379178582,93.66387989981308,1904.0,1435.0,1000.0,1528.0,1723.0,1012.0,60.0,292.25,1649148782.1739562,1649148783.290002,813a5b23-2f2e-42c8-a455-a12a9aa68f0d
0.3816190420134637,0.7510710750961352,0.2744045801399202,-0.3636753786974614,-0.1051982779597075,-0.3024681876678353,-0.2183033722893633,-0.2421288126962029,-12.001264041247673,28.00997795285072,13.946131266730497,0.336203156898492,2.840958007310316,0.1675298361207477,-1.0,11.915,0.0,178.96230802873464,1.1805266944938304,93.70080390246618,1904.0,1435.0,1000.0,1528.0,1723.0,1012.0,60.0,292.25,1649148783.399392,1649148784.5226314,813a5b23-2f2e-42c8-a455-a12a9aa68f0d
0.4235288643592582,0.8175240318522453,0.2956714993010044,-0.3846502925132046,-0.1053089461840016,-0.3429853537348546,-0.2198806681832561,-0.2427265307246588,-11.907824166364668,28.59708265127843,14.764557355553672,0.2975983771663195,3.0862225909847143,0.1497727602531184,-1.0,11.916777777777778,0.0,178.9382490668382,1.147138464959052,93.79363603911546,2045.0,1435.0,1000.0,1528.0,1813.0,1012.0,60.0,292.25,1649148786.455085,1649148787.6015828,aedec70d-6e5e-433d-aa70-a4c0f5082e35
0.4210634840193153,0.8162091623462867,0.2929184912009262,-0.3854173000132899,-0.1080071683671112,-0.3420813808056104,-0.2229623941814121,-0.2426717444182348,-11.955574644683184,28.6425668494516,14.586861579551105,0.3014719827536972,3.0831245906188727,0.1611197013011412,-1.0,11.868111111111112,0.0,178.9321519846391,1.1489467812577476,93.75619142426562,2045.0,1435.0,1000.0,1528.0,1813.0,1012.0,60.0,292.25,1649148787.7145543,1649148788.818732,aedec70d-6e5e-433d-aa70-a4c0f5082e35
0.4209402149950041,0.8203866123348881,0.2964795962131237,-0.385622748366088,-0.1051171943384876,-0.3459575074565928,-0.2202641718478822,-0.2490954312582086,-11.931971757893166,28.60196259661489,14.615266808505275,0.2931498075755698,3.098624119223293,0.1490644847525818,-1.0,11.866666666666667,0.0,178.93428452147998,1.1463226486661569,93.68369427859528,2045.0,1435.0,1000.0,1528.0,1813.0,1012.0,60.0,292.25,1649148788.9273608,1649148790.0526989,aedec70d-6e5e-433d-aa70-a4c0f5082e35
-0.0938509525359782,-0.1042252743710673,0.1883332187052054,-0.0921810679606749,0.0035808900631888,0.3055143935555979,-0.0618864704009106,-0.0786247621045539,-12.567304168211406,28.70076139645112,17.045052665880757,1.0904991110729925,-0.4292541991468673,-0.1834299826588493,-1.0,11.901000000000002,0.0,179.33336488558476,1.1845702376302816,93.61748242478116,1444.0,1435.0,1000.0,1528.0,1381.0,1012.0,60.0,292.25,1649148791.987508,1649148793.13491,ff76cf8b-890a-4f95-a925-1b0f1de7c1e2
-0.0955706925138281,-0.1092809483713544,0.1857292290874409,-0.0899961928166432,0.0017433597328143,0.3092721811292606,-0.063438564485181,-0.0827507132845278,-12.548857446695528,28.750325731993613,17.144301571929677,1.0942388316014091,-0.4496594957553335,-0.1756278641080104,-1.0,11.97711111111111,0.0,179.34518870194793,1.1994370099904283,93.67405156930704,1444.0,1435.0,1000.0,1528.0,1381.0,1012.0,60.0,292.25,1649148793.248943,1649148794.2956169,ff76cf8b-890a-4f95-a925-1b0f1de7c1e2
-0.0948721679915303,-0.1087056928842664,0.1867975606191327,-0.0924067872530681,0.0026610291761689,0.3107924990329359,-0.0620689085660709,-0.0941736437860304,-12.583231989259188,28.739015110997247,17.134707780706893,1.1030522831063985,-0.4468092833617558,-0.1802685731287559,-1.0,11.977666666666668,0.0,179.34929744018868,1.1970608156373022,93.6853130334286,1444.0,1435.0,1000.0,1528.0,1381.0,1012.0,60.0,292.25,1649148794.405299,1649148795.580825,ff76cf8b-890a-4f95-a925-1b0f1de7c1e2
-0.2533550612753539,-0.3951692514259031,0.1726490161036735,0.009742150043819,0.046216085898161,0.5020238348181496,-0.0052144921624222,-0.0279781733714331,-12.633472417218504,29.841132887587992,17.940982126705947,1.309056456210786,-1.541467167720703,-0.3343714399309849,-1.0,11.966333333333331,0.0,179.44880418947685,1.206117029862439,93.76488321943944,1331.0,1435.0,1000.0,1528.0,1283.0,1012.0,60.0,292.25,1649148797.5189362,1649148798.65324,35e1a76a-2265-428a-a26b-d0dd20c7efcc
-0.2593815478316301,-0.3994014888676014,0.1708547669904066,0.0122075306367831,0.0463530514817952,0.5016677243317953,-0.0053788508738268,-0.0356071566599091,-12.605935140309484,29.7335773019956,17.617381899929043,1.3018548710209086,-1.555086583755221,-0.3327617149561757,-1.0,11.958444444444446,0.0,179.4448259837403,1.200386003114171,93.7260824325844,1331.0,1435.0,1000.0,1528.0,1283.0,1012.0,60.0,292.25,1649148798.7619607,1649148799.8865254,35e1a76a-2265-428a-a26b-d0dd20c7efcc
-0.2589065511315178,-0.4003076533630764,0.1696357733219108,0.0147572820341918,0.04568301584041,0.5029157546410672,-0.0073062306315563,-0.0294617846097034,-12.690035578726924,29.78395149934779,17.989858508716694,1.2991980271063504,-1.5615816124709598,-0.3270847336219173,-1.0,11.95722222222222,0.0,179.4358359369727,1.1956754848904878,93.71834003370525,1331.0,1435.0,1000.0,1528.0,1283.0,1012.0,60.0,292.25,1649148800.0009153,1649148801.1182492,35e1a76a-2265-428a-a26b-d0dd20c7efcc
-0.3656476835894174,-0.5856385744338329,0.145902377291441,0.0921242107159424,0.0563466084712228,0.6149952308366129,0.0071047406842812,-0.0202708457334528,-12.663818176657973,30.984504698166965,18.18520797667169,1.3833559236522068,-2.2696119195123763,-0.3517214253305492,-1.0,11.933222222222222,0.0,179.50109611776247,1.1959750290026818,93.69498306347349,1209.0,1435.0,1000.0,1528.0,1173.0,1012.0,60.0,292.25,1649148802.0195065,1649148803.1564553,aaf969d0-61e0-489a-ac88-497a94c369fd
-0.3489225390698515,-0.5694393755446588,0.1459681207910868,0.076976912792107,0.0524414457064214,0.6093281433080209,0.0047116779432404,-0.0078716249838173,-12.70552804498383,30.895870721504952,17.64577318781219,1.4040985378381148,-2.2019112443295303,-0.3420111817287076,-1.0,11.907888888888888,0.0,179.4971346080439,1.1997077866739303,93.590763483658,1209.0,1435.0,1000.0,1528.0,1173.0,1012.0,60.0,292.25,1649148803.2649496,1649148804.3149607,aaf969d0-61e0-489a-ac88-497a94c369fd
-0.35088169509201,-0.5754746290462868,0.1470068677569732,0.0846820486939154,0.0558864041123979,0.6113530423338377,0.0068549154686862,-0.0175096192360672,-12.729152595420018,30.876449511587296,18.1139459320423,1.3912535720551753,-2.2294124543261167,-0.3511817206022956,-1.0,11.910999999999998,0.0,179.5093014516854,1.1908589208651594,93.51565113444546,1209.0,1435.0,1000.0,1528.0,1173.0,1012.0,60.0,292.25,1649148804.4247878,1649148805.617643,aaf969d0-61e0-489a-ac88-497a94c369fd
-0.3586657246343235,-0.5814309902315196,0.1502414469359341,0.095766399542899,0.0600019460236887,0.5960216639921723,0.0003857567814168,-0.0199552769191139,-13.24221239343376,31.32882764959982,16.541592789218576,1.334449364371503,-2.235337386577801,-0.3553712779746379,-1.0,11.800333333333334,0.0,179.5113049738419,1.1764076991113914,93.2140777920219,1074.0,1435.0,1000.0,1528.0,1047.0,1012.0,60.0,292.25,1649148807.5509925,1649148808.889262,c5c064ad-017d-4270-a331-7efd0f3b7f35
-0.3724192633915357,-0.602726954182233,0.1538573383017969,0.1098502965545233,0.0687058350499031,0.607186001750068,0.0093312532723087,-0.0127065104344704,-13.173640202473862,31.35901809326848,17.053351717972735,1.3282635790912043,-2.321735531746893,-0.3865875989998376,-1.0,11.75111111111111,0.0,179.51366214801547,1.1879297776384454,92.89090890926256,1074.0,1435.0,1000.0,1528.0,1047.0,1012.0,60.0,292.25,1649148809.003524,1649148810.1220932,c5c064ad-017d-4270-a331-7efd0f3b7f35
-0.3610785108252999,-0.6017818913297204,0.1553091734599178,0.1081656198616283,0.070102884009914,0.6063505117518622,0.0101119570851975,-0.0207874800390035,-13.254936780691445,31.36317901461331,16.854785119396386,1.3302136390372672,-2.3155561545741947,-0.3918200369554045,-1.0,11.75711111111111,0.0,179.4878774249888,1.1785750272283362,92.66101612544854,1074.0,1435.0,1000.0,1528.0,1047.0,1012.0,60.0,292.25,1649148810.2308755,1649148811.345631,c5c064ad-017d-4270-a331-7efd0f3b7f35
0.0480240315893785,0.1749500378734112,0.1958646820462981,-0.1800784649973369,-0.046454831189553,0.1103433726976566,-0.1296066426137288,-0.1450563623769749,-12.543304325013962,27.97069341616132,16.457355719260537,0.8456524666397742,0.634148961226935,0.0033704322381391,-1.0,11.818333333333335,0.0,179.24023905080114,1.1530134830043537,92.28175848813495,1553.0,1435.0,1000.0,1528.0,1471.0,1012.0,60.0,292.25,1649148813.49036,1649148814.6369972,ddcbd898-75fb-45c4-9d6f-570a8b9320cf
0.0542165196684526,0.1822848186655904,0.1991677439826766,-0.1818551827117553,-0.0453454099034183,0.1049047433228113,-0.1283925795717905,-0.1476685701656427,-12.488796041147438,27.99466245168632,16.490084160297666,0.8377949993716459,0.6614115361186156,-0.00342527075506,-1.0,11.987333333333332,0.0,179.23880774671508,1.16613726460771,92.5727048151199,1553.0,1435.0,1000.0,1528.0,1471.0,1012.0,60.0,292.25,1649148814.766399,1649148815.855518,ddcbd898-75fb-45c4-9d6f-570a8b9320cf
0.0511002786629257,0.1768938533995789,0.1963933691863182,-0.1815527626631677,-0.04643675173192,0.1081130251544937,-0.1294050292569341,-0.1531910227870005,-12.518231505909135,27.94716977225409,16.221159015454255,0.8438115861490302,0.6435700320550712,0.0022544231729116,-1.0,11.987666666666668,0.0,179.227970513232,1.1696584405682628,92.83741562659291,1553.0,1435.0,1000.0,1528.0,1471.0,1012.0,60.0,292.25,1649148815.9642022,1649148817.086066,ddcbd898-75fb-45c4-9d6f-570a8b9320cf
0.0659254336386278,0.1799355850212846,0.1920433423540222,-0.3726110151217607,-0.0718482518142936,0.2930691533432311,-0.0821206712346778,-0.1117463294586329,-12.39629405303426,27.59775269965637,18.09510634697733,1.6882404779087163,0.6607482496484396,-0.0229629286929272,-1.0,11.983444444444446,0.0,179.24966926531522,1.224200489298577,93.22371367112098,1553.0,1537.0,1000.0,1528.0,1471.0,1012.0,60.0,292.25,1649148819.2252655,1649148820.3625698,71ddc89c-3bce-4bd0-8936-97acf10cee98
0.0621714808828271,0.1808121647406985,0.1944079161351671,-0.3750621517028826,-0.0695653093275745,0.2940750285443571,-0.0781514083631123,-0.102239821319265,-12.318577910683535,27.50159145977422,18.06447952715233,1.695544491132364,0.6642074034475134,-0.034811744688386,-1.0,11.985666666666669,0.0,179.24876160906553,1.2335178278218262,93.36657087216132,1553.0,1537.0,1000.0,1528.0,1471.0,1012.0,60.0,292.25,1649148820.4704018,1649148821.5920534,71ddc89c-3bce-4bd0-8936-97acf10cee98
0.0661949818964252,0.1838626621548644,0.1948286743975945,-0.3766662929651169,-0.0701964467756434,0.2933387015913584,-0.0791638580225018,-0.0933381536063538,-12.37005850614172,27.56306877836164,18.17191084418844,1.697928118501368,0.675286049953932,-0.0326388053144298,-1.0,11.985666666666669,0.0,179.248165105878,1.2425278552642942,93.492250906349,1553.0,1537.0,1000.0,1528.0,1471.0,1012.0,60.0,292.25,1649148821.7003255,1649148822.835023,71ddc89c-3bce-4bd0-8936-97acf10cee98
0.0883110888290164,0.1842965691138703,0.1928432213451096,-0.6060322086355618,-0.0993602564870622,0.5147758775709792,-0.0196134105897174,-0.0515384465712351,-12.084514756571698,27.32610592031413,19.90821357365028,2.711671124911547,0.6876136168003127,-0.0742101551879572,-1.0,11.979333333333331,0.0,179.25108235556348,1.2969894595443834,93.69161122675324,1553.0,1645.0,1000.0,1528.0,1471.0,1012.0,60.0,292.25,1649148824.9578054,1649148826.3027267,53142050-941b-4a16-afd8-5a02c95ba670
0.0867069479152972,0.1808647595227392,0.1962487335354899,-0.6095034655698978,-0.0954813908835972,0.5228623250163532,-0.0129470214370198,-0.0314209402546105,-12.04853978920029,27.270472572909625,20.16444616881063,2.737532482651602,0.6728589731448469,-0.0936632170926976,-1.0,11.978222222222222,0.0,179.24215909286784,1.297159123340641,93.75647525657114,1553.0,1645.0,1000.0,1528.0,1471.0,1012.0,60.0,292.25,1649148826.4110837,1649148827.4636776,53142050-941b-4a16-afd8-5a02c95ba670
0.0917823446120557,0.1833104169312067,0.192751180472934,-0.6125671128341752,-0.1000571374286862,0.5227834328413947,-0.0174438756662396,-0.0401648235335349,-12.073875083448767,27.321510884502228,20.06164414413428,2.7444010829940124,0.6832784640241778,-0.0761753681812628,-1.0,11.981444444444444,0.0,179.25464467867062,1.3015354010397846,93.79895827429873,1553.0,1645.0,1000.0,1528.0,1471.0,1012.0,60.0,292.25,1649148827.5712745,1649148828.7604606,53142050-941b-4a16-afd8-5a02c95ba670
0.0901782036794868,0.1819692499631195,0.1870183491267059,-0.7401095144960189,-0.1246977956935493,0.6488399716871467,0.0046722318345324,-0.0158397351432608,-12.14823041948815,27.801121450621505,21.15589986807278,3.31840230897823,0.6844240828873158,-0.0662741187632134,-1.0,11.977444444444444,0.0,179.24615095898278,1.3688460615366138,93.87084222076356,1553.0,1761.0,1000.0,1528.0,1471.0,1012.0,60.0,292.25,1649148830.4090974,1649148831.6233635,7c241d80-4497-4a9b-94b9-6777e807dc12
0.0886754172798619,0.1840993386766941,0.1833871176565493,-0.7161892867739134,-0.1259907509037825,0.624251912099885,-0.0062691272013548,-0.020157438289808,-12.167865981214028,27.8413416157793,21.03207405900754,3.2092476734405726,0.6904750407222061,-0.0437225432213098,-1.0,11.966666666666663,0.0,179.24213177211115,1.3397444871840571,93.87317510982004,1553.0,1761.0,1000.0,1528.0,1471.0,1012.0,60.0,292.25,1649148831.7315018,1649148832.8597667,7c241d80-4497-4a9b-94b9-6777e807dc12
0.0927022054516382,0.1842500008128601,0.185647049726906,-0.7283929254478873,-0.1252648332655551,0.6358528960976279,0.000127165753507,-0.0241431368003821,-12.075871241412733,27.78374170040916,21.1381822645788,3.2626389672138045,0.6910933847450549,-0.0567499057896988,-1.0,11.966333333333331,0.0,179.23837516806765,1.3435547722455723,93.88680133721424,1553.0,1761.0,1000.0,1528.0,1471.0,1012.0,60.0,292.25,1649148832.9682567,1649148834.0843563,7c241d80-4497-4a9b-94b9-6777e807dc12
0.0839774977450431,0.1816339582215861,0.1779358875279149,-0.7433358771891877,-0.1377287024298555,0.6540556206895825,-0.0082551282652169,-0.0308133613412285,-12.212838907890928,28.27381225881618,21.338102380452423,3.340078252857778,0.6818384329253501,-0.0177904136233647,-1.0,11.946111111111112,0.0,179.23998861053158,1.3593614426685356,93.85776316741288,1553.0,1887.0,1000.0,1528.0,1471.0,1012.0,60.0,292.25,1649148834.9976642,1649148836.3523169,db927e1c-03e5-4b90-85b1-1bcbffe9765b
0.0940176229276998,0.1828107664887081,0.1741194785767662,-0.7404908270051332,-0.141330897602973,0.6484323621439982,-0.0133940771546927,-0.0436623771104638,-12.18734418360994,28.256327643156688,21.04083440236389,3.3206838117461537,0.6881138895414973,-0.0005920654297782,-1.0,11.934333333333331,0.0,179.23927219957866,1.3282463261770658,93.77680569409064,1553.0,1887.0,1000.0,1528.0,1471.0,1012.0,60.0,292.25,1649148836.4844477,1649148837.5870674,db927e1c-03e5-4b90-85b1-1bcbffe9765b
0.0804481685585157,0.1831789299726494,0.1751713742307498,-0.7366514059656255,-0.1395558234940596,0.64480332233345,-0.0137490919649862,-0.0397703628086107,-12.259559787737992,28.25983193088617,21.08181951060049,3.3039138710279103,0.6892366298578735,-0.0038540868862873,-1.0,11.932333333333332,0.0,179.2492958816406,1.3264005742755758,93.75069084525404,1553.0,1887.0,1000.0,1528.0,1471.0,1012.0,60.0,292.25,1649148837.6944864,1649148838.7922084,db927e1c-03e5-4b90-85b1-1bcbffe9765b
0.0462708720633556,0.1833871176581651,0.2181489819105104,0.0654323575854652,-0.0055295130118632,-0.1328116375459756,-0.1819275005405406,-0.2066634882892058,-12.64848124578171,29.03320884479633,15.07764952274098,-0.2466812972421974,0.6499689459074568,-0.0075355641752718,-1.0,11.971333333333334,0.0,179.24133036324852,1.096958618520686,93.74595828306911,1553.0,1335.0,1000.0,1528.0,1471.0,1012.0,60.0,292.25,1649148840.1174374,1649148841.258381,6ad3e570-5aab-4fff-822d-1dedeb9ae553
0.0444733357108795,0.1831263351929357,0.2141967031427609,0.0661160897838546,-0.0085816541912537,-0.1335468688670812,-0.186233698956656,-0.2002370623480237,-12.720942710792867,29.0007338778892,14.99534135756134,-0.2503374657435124,0.6498979265146803,0.0079610686708698,-1.0,11.986444444444444,0.0,179.23469749065458,1.082771722716204,93.87942776855026,1553.0,1335.0,1000.0,1528.0,1471.0,1012.0,60.0,292.25,1649148841.3723924,1649148842.4879858,6ad3e570-5aab-4fff-822d-1dedeb9ae553
0.0469967896842135,0.1818804962716586,0.2133004003876787,0.0690619455971664,-0.0096247841186339,-0.1356057356851917,-0.187638965998775,-0.2126351883887304,-12.657794702590316,29.048218732035192,14.905035376427506,-0.2613215986189031,0.6451599932433179,0.0123767960348656,-1.0,11.990777777777778,0.0,179.24554838451596,1.0852697102515612,93.99963378557312,1553.0,1335.0,1000.0,1528.0,1471.0,1012.0,60.0,292.25,1649148842.595893,1649148843.936698,6ad3e570-5aab-4fff-822d-1dedeb9ae553
0.0293967118045702,0.1836473522615932,0.230585456522173,0.2921788770897786,0.0265478276597513,-0.3538193333737241,-0.2366726508380058,-0.2515471157989797,-12.83000630399795,29.969680339270365,13.206042325379684,-1.248362178000184,0.6417047192936586,0.0086356796766516,-1.0,11.98488888888889,0.0,179.23637468155073,1.0243672968739863,94.19286590847204,1553.0,1236.0,1000.0,1528.0,1471.0,1012.0,60.0,292.25,1649148846.0528176,1649148847.4052756,b4d2102c-fc52-4f48-a303-80a2be0e8d09
0.0355848170119372,0.1819955473589731,0.2290810265994357,0.2913532485855326,0.0258153356987922,-0.3514339403102651,-0.2376845527086363,-0.2586304286286806,-12.905039270144234,29.95565694087269,13.197872478990018,-1.241346411031604,0.6361189625293306,0.0128594489564127,-1.0,11.977777777777778,0.0,179.24537535305703,1.0215304679227737,94.29459626379004,1553.0,1236.0,1000.0,1528.0,1471.0,1012.0,60.0,292.25,1649148847.51736,1649148848.6309102,b4d2102c-fc52-4f48-a303-80a2be0e8d09
0.0332969438693704,0.1860584943455372,0.2314740892000189,0.2854494843231512,0.0267620418373121,-0.3502505574618207,-0.2335558616125936,-0.2630220941810754,-12.75395477879883,29.85439406718629,13.184725852835191,-1.2258479148645245,0.6512815331080799,0.0029981440884835,-1.0,11.975222222222222,0.0,179.23508605252735,1.0189875742652168,94.37032940130716,1553.0,1236.0,1000.0,1528.0,1471.0,1012.0,60.0,292.25,1649148848.7388103,1649148850.0595596,b4d2102c-fc52-4f48-a303-80a2be0e8d09
0.0283694698841982,0.1877563196775775,0.2377213631868371,0.412694887353012,0.0410935729613742,-0.4733766184655301,-0.2687226019254265,-0.289472891924568,-12.92194414294538,30.721047794712224,12.454467312427758,-1.783707812131891,0.6500547698840634,0.0248503051595561,-1.0,11.975,0.0,179.22321670156967,0.9584745053862674,94.47216903965185,1553.0,1133.0,1000.0,1528.0,1471.0,1012.0,60.0,292.25,1649148850.972304,1649148852.1030772,72a2e506-6539-40ff-b522-52592edc60ab
0.0309170298201539,0.190564114082202,0.2395567019318825,0.4117087352762201,0.0415866490584194,-0.4754584956075624,-0.2680240773737709,-0.2993207183744952,-12.891752629779528,30.774664348304643,12.429481786951795,-1.785703517540636,0.6608321404194125,0.0209773641085568,-1.0,11.966666666666663,0.0,179.22199030315872,0.970773470499541,94.51028984322949,1553.0,1133.0,1000.0,1528.0,1471.0,1012.0,60.0,292.25,1649148852.2146845,1649148853.3361127,72a2e506-6539-40ff-b522-52592edc60ab
0.0323825615977043,0.1810450062250487,0.237269376751631,0.4218030981182705,0.0419701526806496,-0.4754995853852565,-0.2708044791186287,-0.2843777710522111,-12.984630392525936,30.87681106725049,12.39889846091007,-1.808054639237552,0.6246720196023576,0.0263182796064194,-1.0,11.967666666666666,0.0,179.2202144539745,0.9737332072819124,94.55683151114388,1553.0,1133.0,1000.0,1528.0,1471.0,1012.0,60.0,292.25,1649148853.445428,1649148854.564335,72a2e506-6539-40ff-b522-52592edc60ab
0.0313690162422008,0.1875782644262084,0.2287227246323639,0.4750827064762955,0.0348479422084466,-0.5335045261569062,-0.3008547328393111,-0.3236595066738225,-13.081270212893278,31.38170924034585,11.883757499241574,-2.055794526672486,0.6473322746708808,0.0907104962361856,-1.0,11.96411111111111,0.0,179.21523752279927,0.9189336865074174,94.60171420199984,1553.0,1026.0,1000.0,1528.0,1471.0,1012.0,60.0,292.25,1649148855.4754975,1649148856.6124637,fc20163e-d30a-43f5-a339-93f98ac5dd13
0.0331786055874631,0.1826661308397985,0.2296069743920266,0.4766972566375754,0.0361239135773201,-0.5304929261226348,-0.2984578347559241,-0.3213760159961474,-13.001651920905632,31.4143286281774,11.850856628535173,-2.0523739880480663,0.6284946922989285,0.0837702506520113,-1.0,11.955666666666666,0.0,179.22602163258884,0.9421841484767676,94.59118736266905,1553.0,1026.0,1000.0,1528.0,1471.0,1012.0,60.0,292.25,1649148856.7211754,1649148857.840936,fc20163e-d30a-43f5-a339-93f98ac5dd13
0.0196995482294335,0.1844828422996512,0.2288596901912209,0.4700971595528557,0.0343685626243953,-0.5263275275877818,-0.2985811037948845,-0.3275493301006264,-13.036932832959977,31.42126648739164,11.828832868018036,-2.028138067461443,0.6365187275282539,0.0874586107959672,-1.0,11.958,0.0,179.23649003585675,0.9513503690646306,94.5776909088691,1553.0,1026.0,1000.0,1528.0,1471.0,1012.0,60.0,292.25,1649148857.9489326,1649148859.0782435,fc20163e-d30a-43f5-a339-93f98ac5dd13
0.0688975868367256,0.1844143595123499,0.2062466730240897,-0.1596295012981751,-0.0375794609314106,0.0823613038710648,-0.1273193171740573,-0.1579037350609852,-12.35396524818317,28.075664741672565,16.52110070969175,0.7379634609050401,0.6658830939421583,-0.0246228872891626,-1.0,11.952333333333334,0.0,179.2116008265212,1.1575838874863134,94.57664209537654,1553.0,1435.0,1000.0,1528.0,1471.0,1012.0,60.0,292.25,1649148860.91028,1649148862.1422703,b44b914b-3c62-4887-b38a-4f805a0a0ad3
0.0652679988274054,0.1861949120648786,0.2072191286395484,-0.1597527703004689,-0.0367713639525775,0.0812381860963583,-0.1271960481462087,-0.146604073595869,-12.405984874826606,28.08323901237274,16.597676312020248,0.7358023837638127,0.6723276970868378,-0.026941735319817,-1.0,11.988333333333332,0.0,179.21887421907735,1.137325332964644,94.53204171900629,1553.0,1435.0,1000.0,1528.0,1471.0,1012.0,60.0,292.25,1649148862.2506778,1649148863.3707268,b44b914b-3c62-4887-b38a-4f805a0a0ad3
0.0616931970317876,0.1879206783796624,0.2083148532824186,-0.160314329251433,-0.0372096538353376,0.0788412883504142,-0.127278227493626,-0.1508910969615144,-12.342454645511047,28.167878360702463,16.426457171826204,0.7323033043167072,0.6800082680525751,-0.027749260818918,-1.0,11.989333333333333,0.0,179.22600341875105,1.1503994771168446,94.51469607415406,1553.0,1435.0,1000.0,1528.0,1471.0,1012.0,60.0,292.25,1649148863.478796,1649148864.602671,b44b914b-3c62-4887-b38a-4f805a0a0ad3
0.0924529281129866,0.2024154718211515,0.3148762646760842,-0.1725064588744445,0.0593839573331191,0.0697451299250119,-0.015169151153902,-0.048185528929345,-11.540189342464757,28.018865079324488,16.395771920516005,0.7440826474605636,0.7372202924406638,-0.4619617299911353,-1.0,11.98911111111111,0.0,179.21118342607193,1.1447649149326362,94.45973126517326,1553.0,1435.0,1000.0,1435.0,1471.0,1012.0,60.0,292.25,1649148866.5346591,1649148867.671935,40b2c063-4af6-4b27-b5ee-c6c70db36614
0.0989483839537154,0.2042168431282356,0.3158887142175813,-0.1726379458372377,0.0603306634576683,0.0698897655815772,-0.0142881884901574,-0.0383503034091373,-11.55849702658093,27.99715246885088,16.657524695124515,0.7446432524601647,0.7418662036470353,-0.4653034605646675,-1.0,11.988222222222223,0.0,179.23002260562265,1.1429125107114857,94.44820266476415,1553.0,1435.0,1000.0,1435.0,1471.0,1012.0,60.0,292.25,1649148867.781372,1649148868.8390129,40b2c063-4af6-4b27-b5ee-c6c70db36614
0.0932944446451102,0.2003511265954886,0.3145606959843031,-0.1723486744821812,0.0595811877722269,0.0719672595896817,-0.0138411328100016,-0.0421502769977295,-11.470944298367694,27.968268778178025,16.448882578978154,0.7484123467193758,0.7284766348190604,-0.463795329503491,-1.0,11.989,0.0,179.22871728058124,1.149099393297015,94.41905065847664,1553.0,1435.0,1000.0,1435.0,1471.0,1012.0,60.0,292.25,1649148868.9496777,1649148870.135044,40b2c063-4af6-4b27-b5ee-c6c70db36614
0.1488170048600655,0.229462338773149,0.4651390058363665,-0.1707921974346984,0.1943854537767113,0.0346561903952364,0.1326413696399433,0.1104529446888243,-10.511379127793878,28.12406991850148,16.54013293880621,0.670086547120592,0.8394179324833649,-1.0569463857321824,-1.0,11.984777777777778,0.0,179.2033378154453,1.1412427429028291,94.36043776956916,1553.0,1435.0,1000.0,1330.0,1471.0,1012.0,60.0,292.25,1649148871.0383315,1649148872.1806383,4d2ef4a6-6c9b-43d2-97e3-fd7e16d53c38
0.1447491270736269,0.2245315779194882,0.4655909922314316,-0.1674913265325528,0.1969604066901141,0.0360532393898651,0.1334083769001788,0.1200405357923655,-10.647274955262318,28.114252336606096,16.489596394299934,0.6656609083637997,0.8219564019509505,-1.0628916902766994,-1.0,11.98,0.0,179.2200004413805,1.1422330966165464,94.36927148089568,1553.0,1435.0,1000.0,1330.0,1471.0,1012.0,60.0,292.25,1649148872.2898166,1649148873.4131272,4d2ef4a6-6c9b-43d2-97e3-fd7e16d53c38
0.154659408721885,0.2273322500840803,0.4656260554190178,-0.1644200099796859,0.1959068674463297,0.0338754865585132,0.1325301535897037,0.1079946867116724,-10.535918526551438,28.1587711059912,16.967502087900595,0.6542681704417983,0.8270616388522831,-1.0591546659017974,-1.0,11.979666666666668,0.0,179.23499194769877,1.150481866273708,94.3396542628347,1553.0,1435.0,1000.0,1330.0,1471.0,1012.0,60.0,292.25,1649148873.5225935,1649148874.8473885,4d2ef4a6-6c9b-43d2-97e3-fd7e16d53c38
0.1896086421568266,0.2429923465355773,0.5997164472857078,-0.1272617916412627,0.319517754138079,-0.0266085171983946,0.2537479794941439,0.2310533308257925,-9.735142209772938,28.62787606743548,16.38809870037196,0.4446299911991578,0.8891976610237882,-1.5811145270642648,-1.0,11.978,0.0,179.19776741672223,1.135274236643263,94.29318393245164,1553.0,1435.0,1000.0,1210.0,1471.0,1012.0,60.0,292.25,1649148875.9424436,1649148877.092764,f4bd2ab3-8d81-480e-b50e-14dc477d8bfb
0.173018823124928,0.2343246168358642,0.590188574184353,-0.1253196194995979,0.3116279890375604,-0.0214860041466235,0.244843573270383,0.2263669162556748,-9.8250412153098,28.73286282172023,16.09164534177885,0.4518889336382006,0.8591107876105643,-1.546258710178497,-1.0,11.977666666666668,0.0,179.2095608766891,1.1309493276585023,94.28849918159092,1553.0,1435.0,1000.0,1210.0,1471.0,1012.0,60.0,292.25,1649148877.201843,1649148878.3213356,f4bd2ab3-8d81-480e-b50e-14dc477d8bfb
0.172813374760706,0.2408578749537174,0.5980914877309748,-0.1259085715447109,0.3178736193511118,-0.0262524066520417,0.2516918522203316,0.2354066445750573,-9.742078598629307,28.701746738557578,16.303581525662135,0.4427695074873079,0.8817218911553524,-1.574133448993269,-1.0,11.977666666666668,0.0,179.2125752668428,1.132296807773666,94.27527897099743,1553.0,1435.0,1000.0,1210.0,1471.0,1012.0,60.0,292.25,1649148878.429813,1649148879.549899,f4bd2ab3-8d81-480e-b50e-14dc477d8bfb
0.1941449421755946,0.2462006282517878,0.65684752692117,-0.0908793469673998,0.3728225649030716,-0.0688421310153422,0.29870336930373,0.281149860743748,-9.40430125475132,29.11443308913775,15.979442362799178,0.2738271267471537,0.9016615677656096,-1.795437946647244,-1.0,11.968000000000002,0.0,179.1923806741968,1.114224909855655,94.25488933850514,1553.0,1435.0,1000.0,1071.0,1471.0,1012.0,60.0,292.25,1649148881.4878871,1649148882.619393,7810d573-072a-4f31-8f78-c7a25850d6b9
0.1850723421159311,0.2391003326457168,0.646999154393393,-0.083936834991051,0.3652094703539794,-0.0672642873892827,0.288552576445689,0.2697104956684362,-9.485032610201449,29.18752743630496,16.046065530358295,0.2616762960254284,0.8735341930412607,-1.757982409105329,-1.0,11.961666666666666,0.0,179.21112726673877,1.1261526968762208,94.2771899061452,1553.0,1435.0,1000.0,1071.0,1471.0,1012.0,60.0,292.25,1649148882.7288144,1649148883.850804,7810d573-072a-4f31-8f78-c7a25850d6b9
0.1908517417495547,0.2444326765629943,0.6525079097211538,-0.0874623293529315,0.3690028689445467,-0.0689171881503554,0.2935348362983687,0.2801669957537722,-9.440272582002937,29.17645174558944,16.132564230352926,0.2661518554425028,0.8932333901892268,-1.7769797229411477,-1.0,11.967,0.0,179.21164180765624,1.1267604058428422,94.27352892475008,1553.0,1435.0,1000.0,1071.0,1471.0,1012.0,60.0,292.25,1649148883.9594395,1649148885.007722,7810d573-072a-4f31-8f78-c7a25850d6b9
0.0241717486196,0.1635084810751966,0.1015518258305454,-0.1301545049969089,-0.1294181779558273,0.0800800051097566,-0.2410900654350445,-0.257368153394465,-13.249021365927147,28.319399868675585,16.30409426056492,0.6622662123921381,0.5854696846084915,0.4018574605408848,-1.0,11.973,0.0,179.24452082050084,1.1391348469180378,94.39165932317518,1553.0,1435.0,1000.0,1613.0,1471.0,1012.0,60.0,292.25,1649148887.012644,1649148888.1594603,23375dc2-92de-4033-82ce-e34edfc81449
0.0252104956126687,0.1657963541499683,0.1036030224162565,-0.1320347686798913,-0.129050014430091,0.0806059529594607,-0.239170355557371,-0.2678871120566118,-13.155629373064794,28.37445544411041,16.46543394895495,0.6682293372246186,0.5923221138362678,0.3963573613382685,-1.0,11.989333333333333,0.0,179.26429649487778,1.1553819341048266,94.3813791295644,1553.0,1435.0,1000.0,1613.0,1471.0,1012.0,60.0,292.25,1649148888.2680004,1649148889.4006226,23375dc2-92de-4033-82ce-e34edfc81449
0.024246805735971,0.1617739489524497,0.1020843480244819,-0.1258674818750919,-0.1292094423820352,0.0796767784292829,-0.2417951643445533,-0.2690239265349185,-13.245477417133126,28.45058171414109,16.563942360902146,0.6526289759415157,0.5761441837258898,0.401994021577457,-1.0,11.992444444444445,0.0,179.2506907580511,1.1487335512895962,94.35733382804632,1553.0,1435.0,1000.0,1613.0,1471.0,1012.0,60.0,292.25,1649148889.5102682,1649148890.610782,23375dc2-92de-4033-82ce-e34edfc81449
-0.0133913378903578,0.1490498464023676,0.0152344701378357,-0.1099931695165878,-0.208252288685836,0.0810464342401293,-0.3354522451898787,-0.3579009088722726,-13.86416409730976,28.68448675578288,16.369966453961936,0.6167819046719973,0.5270628588815685,0.7591842291489739,-1.0,11.990444444444444,0.0,179.25790191999482,1.142838932024333,94.38143984235704,1553.0,1435.0,1000.0,1694.0,1471.0,1012.0,60.0,292.25,1649148891.520689,1649148892.6584527,e5c7fca1-5dbb-43a0-8555-1b5f352b36ec
0.001253570742326,0.1476117077927083,0.015861772537174,-0.1089193592090556,-0.2076923733048681,0.0811319008050343,-0.3337752382653695,-0.353287907076682,-13.745762778710528,28.66514798421038,16.33086077318525,0.614508109440932,0.521084772571567,0.7550498045147295,-1.0,11.98857142857143,0.0,179.26492053565337,1.1417909841633958,94.37132942773418,1553.0,1435.0,1000.0,1694.0,1471.0,1012.0,60.0,292.25,1649148892.7665129,1649148894.0904932,e5c7fca1-5dbb-43a0-8555-1b5f352b36ec
0.0009380020004077,0.1485452652008291,0.0178340769952823,-0.1127061839553075,-0.2062328678747235,0.0831830974015678,-0.3320133126833067,-0.3629259033748254,-13.831010058242091,28.69464972101746,16.27128963634426,0.6279009418029197,0.526309290316295,0.7477888446058927,-1.0,11.988555555555555,0.0,179.26192414250605,1.1422480020814536,94.32931487425112,1553.0,1435.0,1000.0,1694.0,1471.0,1012.0,60.0,292.25,1649148894.2037723,1649148895.3205483,e5c7fca1-5dbb-43a0-8555-1b5f352b36ec
-0.0347716664119211,0.1415852221777651,-0.0658491588927734,-0.0911193106906649,-0.2824602519897382,0.0746912311324679,-0.4264795908133162,-0.448585841491721,-14.530065823100848,28.96320426448436,16.23509086304634,0.5573796440703184,0.4975151484176037,1.0988795797611834,-1.0,11.985,0.0,179.265076654263,1.1333772583229975,94.280516208271,1553.0,1435.0,1000.0,1774.0,1471.0,1012.0,60.0,292.25,1649148896.910771,1649148897.9823434,6e6ed490-c4d6-49f4-9176-e8df8fdde501
-0.0426608844018477,0.1352985019437797,-0.0695472298700997,-0.0885991437951608,-0.2847612741478647,0.0787728055558049,-0.4288490959586928,-0.4568722615155404,-14.539275253818056,28.99134980712007,16.245886906764678,0.5608661338245691,0.4733613751328714,1.109686841688508,-1.0,11.98011111111111,0.0,179.26953600888106,1.1388623271133411,94.24867538418022,1553.0,1435.0,1000.0,1774.0,1471.0,1012.0,60.0,292.25,1649148898.091287,1649148899.14169,6e6ed490-c4d6-49f4-9176-e8df8fdde501
-0.0367067162716832,0.1362117884484404,-0.0682898857359084,-0.0882890536666268,-0.2829292222184449,0.0766876415092907,-0.4271835940756692,-0.4530339371009544,-14.524887831573748,28.89814380015865,16.129636613449136,0.5549144491941149,0.4777551970464813,1.103103883279392,-1.0,11.978,0.0,179.28174990493687,1.1350807976225503,94.23941061202603,1553.0,1435.0,1000.0,1774.0,1471.0,1012.0,60.0,292.25,1649148899.251704,1649148900.436536,6e6ed490-c4d6-49f4-9176-e8df8fdde501
-0.05813799616569657,0.12328662033563109,-0.13659188797970534,-0.0561519950249729,-0.3448206928265094,0.0622684525635008,-0.5078645613957148,-0.5233416772453895,-15.050034963497973,29.403945642700098,15.909631149092036,0.4496718976605743,0.42666655892705885,1.393210655011952,-1.0,11.975000000000001,0.0,179.2705089313828,1.131008427767571,94.18696993739852,1553.0,1435.0,1000.0,1856.0,1471.0,1012.0,60.0,292.25,1649148902.5802639,1649148903.7216032,85c1afa6-894a-4b8e-b1f6-172a2630c9ee
-0.05676834027275185,0.12958703714891445,-0.13470176276232704,-0.06295918491721499,-0.34390302324672845,0.06324090821866565,-0.5051937317816013,-0.5276697915307214,-15.044562027348372,29.27894825168642,16.053313188052964,0.46650363948231033,0.449940580977942,1.3865420593103597,-1.0,11.961222222222224,0.0,179.27421696519227,1.1361749915559929,94.15860719741507,1553.0,1435.0,1000.0,1856.0,1471.0,1012.0,60.0,292.25,1649148903.8299916,1649148904.9500043,85c1afa6-894a-4b8e-b1f6-172a2630c9ee
-0.06243871576831322,0.12520413849835557,-0.1365918879880196,-0.05969940383488876,-0.34562878993021906,0.06402161205891894,-0.5070975539355369,-0.5313404701051126,-14.999324998487298,29.376077177037985,15.964559447044076,0.46146310485436604,0.4334489664149394,1.3935445451355133,-1.0,11.966666666666665,0.0,179.2799664666536,1.1369263597965638,94.12851945521126,1553.0,1435.0,1000.0,1856.0,1471.0,1012.0,60.0,292.25,1649148905.0587146,1649148906.1821063,85c1afa6-894a-4b8e-b1f6-172a2630c9ee
