raw_voltage_G-,raw_voltage_G0,raw_voltage_G1,raw_voltage_G2,raw_voltage_G3,raw_voltage_G4,raw_voltage_G5,raw_voltage_G6,load_x,load_y,load_z,load_l,load_m,load_n,rpm,voltage,current,roll,pitch,yaw,aileron1_pwm,elevator_pwm,throttle_pwm,rudder_pwm,aileron2_pwm,pbaro,pdiff,Tt,sample_start_time,sample_end_time,uid
0.0399567585387658,0.1721148503444697,0.1560624841946686,-0.1408652145627205,-0.0772720892624317,0.0784851778375592,-0.1859953788173628,-0.2079509651704484,-13.442360296760606,28.206348718444087,16.298464351971973,0.6847097770006426,0.6239395905546644,0.1789361906470974,-1.0,11.99288888888889,0.0,179.26427979885975,1.1504910206244707,94.5129338853482,1553.0,1435.0,1000.0,1528.0,1471.0,1012.0,60.0,292.25,1649148378.924329,1649148380.040532,cdccc71f-f5ce-4735-a492-440e6eca51bb
0.0373681089238599,0.1665129580707615,0.1514467440891354,-0.1379341508125177,-0.0806003531537178,0.0810738273967964,-0.1907891747612367,-0.2129639061699542,-13.540814614627868,28.292190663662154,16.23316848782029,0.6841943121470907,0.6035526054909407,0.1957382058721898,-1.0,11.991666666666667,0.0,179.25622928255805,1.1582464395517391,94.40467311027378,1553.0,1435.0,1000.0,1528.0,1471.0,1012.0,60.0,292.25,1649148380.149285,1649148381.2669508,cdccc71f-f5ce-4735-a492-440e6eca51bb
0.0391486615674803,0.1707999807656205,0.1557474633580335,-0.1381806888776947,-0.0777514688347007,0.0777318671319304,-0.1875156969544356,-0.2200176341949517,-13.470589984789733,28.307570162036114,16.351478657932116,0.6776109189541003,0.6183891919728124,0.1820610660831594,-1.0,11.992,0.0,179.25744505623032,1.1614737395084722,94.31387712890708,1553.0,1435.0,1000.0,1528.0,1471.0,1012.0,60.0,292.25,1649148381.3757527,1649148382.7046082,cdccc71f-f5ce-4735-a492-440e6eca51bb
0.1833893090609999,0.4248913979208217,0.1712004681202459,-0.2284541669159598,-0.118846625481996,-0.0879866336529042,-0.2379738240596665,-0.2608525585392588,-13.248994923024462,27.829912327962447,16.238295885258097,0.5065506782217759,1.5829073679724717,0.3189565637736526,-1.0,11.988666666666669,0.0,179.17496369181325,1.1576199949967696,94.19299947661582,1663.0,1435.0,1000.0,1528.0,1555.0,1012.0,60.0,292.25,1649148383.4216635,1649148384.547959,2c868d00-dedb-4754-ad44-01ef38a31c05
0.1728309063493064,0.4229848371239802,0.1734488950970028,-0.2250223567915311,-0.1161774399786392,-0.0888807450297134,-0.2353440845141427,-0.2594324992658453,-13.186938349100236,27.827817118010227,16.313296536126163,0.4969414282205563,1.574372629220672,0.3084614301199286,-1.0,11.97111111111111,0.0,179.16694656754748,1.1542868033919669,94.14145355676956,1663.0,1435.0,1000.0,1528.0,1555.0,1012.0,60.0,292.25,1649148384.657219,1649148385.7712142,2c868d00-dedb-4754-ad44-01ef38a31c05
0.186242576050663,0.4233530005887835,0.171779010737581,-0.2273102301909719,-0.1181760419275018,-0.0886177710908653,-0.2376188092171051,-0.2657438741743772,-13.247679341594718,27.863545990782303,16.087311772239453,0.5027803508061052,1.578362703488236,0.3163471722341732,-1.0,11.971666666666668,0.0,179.17370238354653,1.1517768511675943,94.10536663174474,1663.0,1435.0,1000.0,1528.0,1555.0,1012.0,60.0,292.25,1649148385.8807824,1649148386.999548,2c868d00-dedb-4754-ad44-01ef38a31c05
0.3147234110566818,0.6815857007708157,0.1997545045279269,-0.3227692299239462,-0.1517265863288922,-0.2545055722861005,-0.2784882494573127,-0.3014436854826823,-12.976039853831573,27.717184285363142,15.928994550716917,0.3458746707410995,2.559896958360837,0.4125358548794617,-1.0,11.966444444444445,0.0,179.0682806904371,1.165291340935817,94.11330331156029,1779.0,1435.0,1000.0,1528.0,1638.0,1012.0,60.0,292.25,1649148388.9347956,1649148390.0717676,a9cb3941-8420-4bee-b828-d3ef3cdfa3e3
0.3232974561554267,0.6760385950828756,0.1983026693778159,-0.3169481916264036,-0.1507130409128602,-0.2537111718278057,-0.2797620295824312,-0.2936640389063426,-13.090145985816212,27.711127867406947,16.021402988756666,0.3343738102988811,2.538271705188273,0.4143808335011241,-1.0,11.954333333333333,0.0,179.05368229945103,1.155968500315736,94.15585387226967,1779.0,1435.0,1000.0,1528.0,1638.0,1012.0,60.0,292.25,1649148390.180288,1649148391.3013804,a9cb3941-8420-4bee-b828-d3ef3cdfa3e3
0.313846831354484,0.6762851331133627,0.1959194682813257,-0.3178247714876183,-0.1536714977961542,-0.2538207442741659,-0.2821178379811578,-0.3145512939061848,-13.033632954393468,27.730742778297827,15.906703801012917,0.3361264614024745,2.539770139517558,0.4249049360576301,-1.0,11.955666666666666,0.0,179.05060567868497,1.1552718921681988,94.17368749619256,1779.0,1435.0,1000.0,1528.0,1638.0,1012.0,60.0,292.25,1649148391.409963,1649148392.5342534,a9cb3941-8420-4bee-b828-d3ef3cdfa3e3
0.3559001940749109,0.7475735222278597,0.223282451825882,-0.368487802487888,-0.1516000301336053,-0.2902398985021874,-0.2746060964135804,-0.3021394708284696,-12.940948537568396,28.19865381103386,14.156358267613928,0.3728031169538511,2.829982518676372,0.3796753974451585,-1.0,11.943333333333332,0.0,178.9811381013664,1.168613386051349,94.16696583113936,1904.0,1435.0,1000.0,1528.0,1723.0,1012.0,60.0,292.25,1649148394.4631913,1649148395.6082108,0e5e507e-c117-4263-b68f-7f026feba8fc
0.3530326827790307,0.7396591035702896,0.2196966929583011,-0.3641602369870452,-0.1527401317433864,-0.2865829167360832,-0.2775979730371757,-0.300169905251564,-13.076417043453633,28.242032762332663,14.115228594230956,0.3712931855137817,2.800862582570954,0.3892855852595477,-1.0,11.922999999999998,0.0,178.96448002889073,1.1687108941165314,94.1977889570438,1904.0,1435.0,1000.0,1528.0,1723.0,1012.0,60.0,292.25,1649148395.7202368,1649148397.036302,0e5e507e-c117-4263-b68f-7f026feba8fc
0.3553216514833568,0.7464032883732251,0.2193904379175069,-0.3656608322413093,-0.1548740557513737,-0.292619812831356,-0.2793396276872508,-0.2925672186789199,-12.962524294689688,28.215185962576925,13.991902824591843,0.3609569009064237,2.8266091894730945,0.3958088872917639,-1.0,11.91788888888889,0.0,178.9702325659917,1.1650859253681225,94.21806551195984,1904.0,1435.0,1000.0,1528.0,1723.0,1012.0,60.0,292.25,1649148397.1451845,1649148398.264951,0e5e507e-c117-4263-b68f-7f026feba8fc
0.3985189503907017,0.8173870662799375,0.2451038078826094,-0.3855679621875638,-0.1507130409355045,-0.3354933349863964,-0.2778992974007339,-0.3086754694315423,-12.952542310799124,28.781801543995908,15.27537938058822,0.3147661155068924,3.0854861377968383,0.3630397160346716,-1.0,11.884333333333334,0.0,178.93261795532248,1.1723293884147905,94.21764128132142,2045.0,1435.0,1000.0,1528.0,1813.0,1012.0,60.0,292.25,1649148399.9202807,1649148401.1081524,fdddda68-d7fc-4c2a-ab22-bfac4896d948
0.3951359006856281,0.8038822607482827,0.2349683550344351,-0.3801989101282217,-0.156766920313222,-0.3299462278093155,-0.2852954400782643,-0.3061416057164206,-13.021622667924946,28.750290654340088,14.819219993789254,0.3142988848588573,3.038062655825952,0.3933658317567154,-1.0,11.847666666666669,0.0,178.92578928397228,1.153205688796466,94.14325900344016,2045.0,1435.0,1000.0,1528.0,1813.0,1012.0,60.0,292.25,1649148401.2416525,1649148402.2728798,fdddda68-d7fc-4c2a-ab22-bfac4896d948
0.395081114471326,0.8130315610431399,0.2413920406964176,-0.3953610033105874,-0.1542741464454964,-0.3264536047694927,-0.2776664558629231,-0.2927189764974849,-12.915112094710716,28.705228432810525,14.659513544329604,0.3563985329846943,3.075312954629504,0.3711941965254937,-1.0,11.845555555555556,0.0,178.94193888680982,1.1630851542600007,94.06358408786204,2045.0,1435.0,1000.0,1528.0,1813.0,1012.0,60.0,292.25,1649148402.380915,1649148403.490157,fdddda68-d7fc-4c2a-ab22-bfac4896d948
-0.1172556332196194,-0.1267226950380617,0.1359225171356383,-0.0280811712049273,-0.0339191925010232,0.2668703776241649,-0.1332181514270202,-0.1477343134968596,-13.587380611762862,29.1324271902893,16.333077064449288,0.8586920730657416,-0.5113104403904869,0.0365942930444469,-1.0,11.922666666666666,0.0,179.32294353473114,1.1796367303313515,94.02266138890488,1444.0,1435.0,1000.0,1528.0,1381.0,1012.0,60.0,292.25,1649148404.60366,1649148405.7444546,f9f4699f-e5e4-466a-a4e2-914a51f9380f
-0.1194120195076701,-0.1280375647500813,0.1386048511027201,-0.0261614615051301,-0.0293828921661131,0.2682772880450658,-0.1289448248572012,-0.14925956220706,-13.62382401550184,28.99608607414549,16.62966818492471,0.8567818681344431,-0.518681367348798,0.0209815846553761,-1.0,11.97888888888889,0.0,179.3219281132745,1.1796311096548473,94.0872089532912,1444.0,1435.0,1000.0,1528.0,1381.0,1012.0,60.0,292.25,1649148405.8535912,1649148406.9653008,f9f4699f-e5e4-466a-a4e2-914a51f9380f
-0.1287212970741304,-0.129260393582779,0.1348048779832112,-0.0242417517933161,-0.0333275011514318,0.2658053332920643,-0.1341122628307227,-0.1550712863555305,-13.63480854801406,29.078498282341386,16.32395734246471,0.8471995067487538,-0.5209563233714344,0.0382875833217801,-1.0,11.975666666666667,0.0,179.32903454565096,1.1823224057732764,94.14626049212542,1444.0,1435.0,1000.0,1528.0,1381.0,1012.0,60.0,292.25,1649148407.0778873,1649148408.1463473,f9f4699f-e5e4-466a-a4e2-914a51f9380f
-0.2756393650045601,-0.4088521162076537,0.121916964505158,0.0896478729817683,0.0120157788321665,0.4386087741292057,-0.082463085218765,-0.1052952503485035,-13.81240169320926,30.205260577754075,16.98993134869502,0.985449296608508,-1.5890609900893071,-0.111920756479825,-1.0,11.967666666666666,0.0,179.43408437290557,1.1954564326603878,94.20096575391776,1331.0,1435.0,1000.0,1528.0,1283.0,1012.0,60.0,292.25,1649148409.1083865,1649148410.2406418,7e8efb76-f4f1-4d2b-9d2e-1aba8c23a95e
-0.2826930936148906,-0.4131939261704134,0.1178764797982108,0.0924145777897855,0.0090299290141329,0.4395127469210664,-0.0856954732080933,-0.1085550312576071,-13.778193525353942,30.207331418523967,16.847719390086493,0.9810467247742768,-1.6049238638948706,-0.0984226693780838,-1.0,11.957333333333333,0.0,179.41545768812907,1.1930841514364738,94.15622270248484,1331.0,1435.0,1000.0,1528.0,1283.0,1012.0,60.0,292.25,1649148410.3488083,1649148411.4726918,7e8efb76-f4f1-4d2b-9d2e-1aba8c23a95e
-0.2781869252458431,-0.4166180665297121,0.1175614589557427,0.0952908550460226,0.0098791156574905,0.4404578093791033,-0.0858872250332227,-0.0993372466015114,-13.836769410207836,30.22482923043422,16.879769295018438,0.9767581620121906,-1.6180097490717795,-0.0992689137140302,-1.0,11.954,0.0,179.42128308058116,1.187918488853567,94.12675271294594,1331.0,1435.0,1000.0,1528.0,1283.0,1012.0,60.0,292.25,1649148411.58023,1649148412.9074204,7e8efb76-f4f1-4d2b-9d2e-1aba8c23a95e
-0.3828593302008566,-0.5890835338197167,0.1016307179787451,0.1727257167766247,0.0268672313815299,0.540073966791115,-0.0681189527192703,-0.0910634289138383,-13.918129666640809,31.359423162321896,17.148571764170025,1.0326649019667602,-2.2771912220946944,-0.1463230383897286,-1.0,11.939,0.0,179.49341898513538,1.181875550133202,94.07470211801102,1209.0,1435.0,1000.0,1528.0,1173.0,1012.0,60.0,292.25,1649148415.0474994,1649148416.1875114,e9d5603b-4493-451a-9116-8d8073cdb2de
-0.3643656854721742,-0.5743887655290876,0.1019884720950052,0.1678552206998117,0.0233565294531982,0.5273761624364156,-0.0723824176462147,-0.0906125382954188,-13.858918198781009,31.37282404831185,16.73747399101763,1.0151888100557398,-2.218229872394056,-0.1347672736789667,-1.0,11.900333333333332,0.0,179.5050318245442,1.1772065585110352,93.9631848605223,1209.0,1435.0,1000.0,1528.0,1173.0,1012.0,60.0,292.25,1649148416.2958844,1649148417.4119673,e9d5603b-4493-451a-9116-8d8073cdb2de
-0.3688954121779614,-0.5624968618027747,0.0966079161007571,0.1598925896489812,0.0162167873214099,0.5216394963640617,-0.0808863373567927,-0.1033443121698736,-14.007183414472369,31.30866833440738,16.484297620263604,1.0194512977579535,-2.169696538952094,-0.1046659601773352,-1.0,11.899333333333333,0.0,179.4938394212243,1.1757312376503122,93.92006511738212,1209.0,1435.0,1000.0,1528.0,1173.0,1012.0,60.0,292.25,1649148417.5224702,1649148418.6544278,e9d5603b-4493-451a-9116-8d8073cdb2de
-0.4285340751688603,-0.6755378849444612,0.0825393591209012,0.220491093293399,0.0224388600129491,0.5757250097021281,-0.0801346701988713,-0.1007616887032578,-14.206444797544592,32.422982049242385,16.29663023341148,1.010849472001882,-2.598929436009852,-0.1090418839339008,-1.0,11.874666666666666,0.0,179.5214364211108,1.160509864635756,93.77480596648364,1074.0,1435.0,1000.0,1528.0,1047.0,1012.0,60.0,292.25,1649148419.5511627,1649148420.6967514,17f59143-9f82-4c47-b5f6-0ab6767dc318
-0.4259043353254613,-0.6689635344252033,0.0827858971849202,0.2152042219098655,0.0205350383663876,0.5731500569295472,-0.0819563125599617,-0.095502209998014,-14.249195475388136,32.47452282279631,16.14787800995657,1.0172978102567567,-2.5719832280754207,-0.1037029484194935,-1.0,11.817777777777776,0.0,179.5133707266109,1.1625852935060552,93.54630046998103,1074.0,1435.0,1000.0,1528.0,1047.0,1012.0,60.0,292.25,1649148420.8144405,1649148422.1322243,17f59143-9f82-4c47-b5f6-0ab6767dc318
-0.4214113152982303,-0.6696719206773496,0.0854709704816882,0.2148672865950524,0.0228042841838839,0.5733533138363157,-0.0787299510880871,-0.1034626502185463,-14.1830709308994,32.483452232707535,16.056349412845076,1.0187261872711348,-2.57408505012457,-0.1152226294296701,-1.0,11.821333333333332,0.0,179.4966883690181,1.16727104043603,93.3601778150982,1074.0,1435.0,1000.0,1528.0,1047.0,1012.0,60.0,292.25,1649148422.24521,1649148423.2542143,17f59143-9f82-4c47-b5f6-0ab6767dc318
0.0300229184735246,0.1635873732505114,0.1460996077660084,-0.1385433737944979,-0.0854489351325751,0.0832882869617447,-0.1952800028252241,-0.2191580377902565,-13.52709011354728,28.295480708981867,16.022853356057325,0.6902736977898569,0.5940828469919777,0.2153771463405396,-1.0,11.822,0.0,179.24356155837742,1.1383535847418809,93.19222801686702,1553.0,1435.0,1000.0,1528.0,1471.0,1012.0,60.0,292.25,1649148423.918031,1649148424.9913762,72ee8d3f-0967-42ae-86a9-7df73190fdba
0.0397003589696874,0.1706876689886489,0.1509120304545347,-0.1425668751181573,-0.0825036270296727,0.079041258119649,-0.1910987170196521,-0.2126888786537273,-13.440936695859884,28.232330546576176,15.916399967224892,0.6896534847468865,0.6218463840250724,0.1996122904171169,-1.0,11.994777777777776,0.0,179.22819970402418,1.1542737952018287,93.4466639470986,1553.0,1435.0,1000.0,1528.0,1471.0,1012.0,60.0,292.25,1649148425.099651,1649148426.2204337,72ee8d3f-0967-42ae-86a9-7df73190fdba
0.0492989072528016,0.1668219524217451,0.148834536506147,-0.1407655036117958,-0.0829375340301271,0.0821443504029305,-0.1916904084105665,-0.2236811904333564,-13.468283101430435,28.17891244753372,16.045316197446354,0.6921123188064477,0.6060441710400523,0.203610250087265,-1.0,11.995555555555557,0.0,179.23125962877234,1.166730566144051,93.67182416872772,1553.0,1435.0,1000.0,1528.0,1471.0,1012.0,60.0,292.25,1649148426.3284206,1649148427.4449184,72ee8d3f-0967-42ae-86a9-7df73190fdba
0.0546257728261591,0.1671703928588914,0.138243261964934,-0.3673241425400836,-0.116909931974831,0.301451446674037,-0.1400708141079509,-0.163135820912093,-13.354633570512163,27.6836729762271,17.774754900218994,1.692507942488228,0.618433067935436,0.191601281877398,-1.0,11.992,0.0,179.24355245145853,1.2539383503189698,93.93002277428208,1553.0,1537.0,1000.0,1528.0,1471.0,1012.0,60.0,292.25,1649148428.5623596,1649148429.9109604,35a05221-c52b-4423-8469-dca42acae2a1
0.055433869798412,0.1712108775096358,0.1427494296238931,-0.3692005714205191,-0.1135405783525951,0.2993558733433425,-0.1364412258184307,-0.1529729736483712,-13.352812663463206,27.685612180389253,17.825278060002606,1.692277875801073,0.6336433969938167,0.1762461198744787,-1.0,11.992444444444445,0.0,179.2415792856983,1.2475825035572536,94.07366089361751,1553.0,1537.0,1000.0,1528.0,1471.0,1012.0,60.0,292.25,1649148430.025864,1649148431.1353464,35a05221-c52b-4423-8469-dca42acae2a1
0.0527219511717893,0.1686496211358437,0.138161082616378,-0.3675021978412485,-0.117403008111315,0.3007940119047191,-0.1418239737271119,-0.1649574635582438,-13.460128799742064,27.759228350748845,17.85656709188576,1.69188895936344,0.6240206373011096,0.1950690444191422,-1.0,11.991666666666667,0.0,179.24122108022186,1.243186648354083,94.18001452809372,1553.0,1537.0,1000.0,1528.0,1471.0,1012.0,60.0,292.25,1649148431.2435925,1649148432.3379564,35a05221-c52b-4423-8469-dca42acae2a1
0.0677596767479872,0.1669402906812198,0.1324118153208676,-0.5797874025728921,-0.147247811332901,0.5084382065609713,-0.0904585886632958,-0.1137054851200229,-13.305236240528265,27.543049422479275,19.52398814673452,2.6359810157326056,0.6275037199380233,0.1709028944077362,-1.0,11.989666666666668,0.0,179.25981740860203,1.3034253120115338,94.29872776932798,1553.0,1645.0,1000.0,1528.0,1471.0,1012.0,60.0,292.25,1649148433.445927,1649148434.6229603,c463083f-5a9f-4360-879a-963fc3b4553e
0.0560704858197541,0.1645209306531926,0.1304789570208897,-0.5792220084931051,-0.1480893279530478,0.5111468377357675,-0.0906295217278871,-0.1038965575694488,-13.272753654701969,27.468012726407583,19.63862235005892,2.640233234621053,0.6169903274695255,0.174854549711854,-1.0,11.984333333333334,0.0,179.25788674179668,1.3002084352080654,94.36126725809837,1553.0,1645.0,1000.0,1528.0,1471.0,1012.0,60.0,292.25,1649148434.7350705,1649148435.846841,c463083f-5a9f-4360-879a-963fc3b4553e
0.0619123419884172,0.1674854136982217,0.1329563904812128,-0.580771363648707,-0.1468917007803996,0.5085707892356178,-0.089735958190852,-0.1106916944786338,-13.294744152733642,27.530974806271345,19.49494648235211,2.638446245978572,0.6298868628571709,0.1686753360405534,-1.0,11.982666666666669,0.0,179.25761808768934,1.2943018868276892,94.42959874728489,1553.0,1645.0,1000.0,1528.0,1471.0,1012.0,60.0,292.25,1649148435.9551525,1649148437.074525,c463083f-5a9f-4360-879a-963fc3b4553e
0.0673126210669284,0.1626932619336881,0.1248907612386689,-0.6805195992106537,-0.1698504219863087,0.6121814101160797,-0.0752323976781026,-0.0977298183215981,-13.331749845714633,27.997754690169884,20.517746333202577,3.099117864630821,0.6148879892615705,0.190060967155777,-1.0,11.978444444444444,0.0,179.2624189517659,1.3348010547664892,94.49416604332885,1553.0,1761.0,1000.0,1528.0,1471.0,1012.0,60.0,292.25,1649148439.0089242,1649148440.1532445,adae8335-2f49-408f-856d-dba348c42073
0.0689112834101162,0.16508851602227,0.128929602343155,-0.6842352029837192,-0.1666284432789298,0.6129522523606927,-0.0698622507528887,-0.086667929270996,-13.237945719943069,27.9202238449667,20.511234021799066,3.1089648683531927,0.6239776407755633,0.1728666674498886,-1.0,11.97411111111111,0.0,179.23486900429373,1.3073072310535627,94.50761696253431,1553.0,1761.0,1000.0,1528.0,1471.0,1012.0,60.0,292.25,1649148440.2655575,1649148441.3754714,adae8335-2f49-408f-856d-dba348c42073
0.0679388277471184,0.1701425459750363,0.1248480279765382,-0.6707714807964072,-0.1701758522480024,0.5943523275959302,-0.0809153740222356,-0.1031448904828937,-13.34610952854336,28.0097265271111,20.27492138231136,3.037095467712513,0.6438784112102259,0.1992832103339491,-1.0,11.967333333333336,0.0,179.23821579698702,1.3249492657986537,94.48597285196443,1553.0,1761.0,1000.0,1528.0,1471.0,1012.0,60.0,292.25,1649148441.4836352,1649148442.602931,adae8335-2f49-408f-856d-dba348c42073
0.0543217092503414,0.1658358002324261,0.1154499975168991,-0.7249490616560103,-0.1879693270407362,0.6525479036640011,-0.0787036536743364,-0.107696530819548,-13.398488927013531,28.367679779986123,20.82386471800246,3.292046140849473,0.6293116592210264,0.2327746423343547,-1.0,11.953,0.0,179.25080155889768,1.3468015311266597,94.49338208939407,1553.0,1887.0,1000.0,1528.0,1471.0,1012.0,60.0,292.25,1649148443.512236,1649148444.6479588,c8985fd0-f37b-4b80-9e2e-cd7dcda2dd50
0.0700212525156943,0.1644157410857767,0.1122285670026643,-0.7251594407467887,-0.190927783963551,0.6532053384147497,-0.0814122851995442,-0.0961519745773437,-13.373034996272906,28.35823768147693,20.66922425275319,3.293763211933871,0.6249975124302766,0.244681743255598,-1.0,11.935666666666666,0.0,179.24873884176827,1.3369490899706218,94.44044281095714,1553.0,1887.0,1000.0,1528.0,1471.0,1012.0,60.0,292.25,1649148444.7614849,1649148445.8855972,c8985fd0-f37b-4b80-9e2e-cd7dcda2dd50
0.0655901418937722,0.1700696802858209,0.117488045395909,-0.7217670756520611,-0.1866413085986164,0.6448690658077071,-0.0781514083926877,-0.1016349814860236,-13.293289520849674,28.331655579954404,20.74842155032102,3.2675165870851903,0.6448521787917527,0.2279236174052845,-1.0,11.941,0.0,179.2436571810258,1.331714390302042,94.37537159873442,1553.0,1887.0,1000.0,1528.0,1471.0,1012.0,60.0,292.25,1649148445.9948246,1649148447.1107323,c8985fd0-f37b-4b80-9e2e-cd7dcda2dd50
0.0285338286058246,0.1699644907182724,0.1612534797396354,0.0791837023237868,-0.0526182827745104,-0.1328116375462315,-0.2465889604245917,-0.2731191983480457,-13.724100837277296,29.204678597657463,14.544122745030952,-0.2800237710848097,0.606670491106991,0.2231413764901416,-1.0,11.949444444444444,0.0,179.25721890107783,1.1134190186813973,94.33422426244456,1553.0,1335.0,1000.0,1528.0,1471.0,1012.0,60.0,292.25,1649148448.0207033,1649148449.1645985,58aec100-ca1a-42fb-a4a3-83f0ededb003
0.0315881611920145,0.1697727389058589,0.1640475776022962,0.0832104905153379,-0.0502350814934763,-0.1365644948628268,-0.2457945599316068,-0.2647779932743431,-13.743616458316923,29.312644741992887,14.523674385272995,-0.296698625375013,0.6059538434160365,0.2148809558066134,-1.0,11.991888888888887,0.0,179.24766726097852,1.092977673593659,94.47805210925696,1553.0,1335.0,1000.0,1528.0,1471.0,1012.0,60.0,292.25,1649148449.2812798,1649148450.391636,58aec100-ca1a-42fb-a4a3-83f0ededb003
0.0321634166468395,0.1743747824325102,0.1690057316504387,0.0790056470690842,-0.0460987206507947,-0.136030329030291,-0.2403707220871134,-0.2637644475351093,-13.740697395516,29.23553243489103,14.730953922222383,-0.2862429796961267,0.6221872499270682,0.1956122021277088,-1.0,11.993000000000002,0.0,179.23450017407853,1.0928218361872832,94.61215832015073,1553.0,1335.0,1000.0,1528.0,1471.0,1012.0,60.0,292.25,1649148450.501091,1649148451.615842,58aec100-ca1a-42fb-a4a3-83f0ededb003
0.0241372332717668,0.1737310442020792,0.1821407308721263,0.3049714619978081,-0.0135009102813511,-0.3552300791653103,-0.293143569188501,-0.3100451252986813,-13.8368930331759,30.14863071579504,12.898333331571031,-1.2821710814799705,0.6097231053860962,0.2073222687845367,-1.0,11.985333333333337,0.0,179.23490391414947,1.0264606668488243,94.75189184801064,1553.0,1236.0,1000.0,1528.0,1471.0,1012.0,60.0,292.25,1649148452.5263977,1649148453.6628916,7b211f02-7262-4264-b91d-8ac62cde6e1c
0.0221599980646371,0.1729097985777913,0.182876509970727,0.3035026431559548,-0.0125920066354808,-0.3517100629843876,-0.2915416194705151,-0.3121719272733347,-13.86432374047192,30.14312401944544,13.10115571896656,-1.270929184203203,0.6052668672019199,0.2029574168370793,-1.0,11.979666666666668,0.0,179.23997798579288,1.0309055310308832,94.82477755555377,1553.0,1236.0,1000.0,1528.0,1471.0,1012.0,60.0,292.25,1649148453.772334,1649148454.8996625,7b211f02-7262-4264-b91d-8ac62cde6e1c
0.010988536850186,0.171334146531325,0.1815791719901844,0.3014377501045872,-0.0132954618974416,-0.3486420333524174,-0.2914451956824533,-0.3073469029653962,-13.875793666307878,30.091832368508147,13.04361314450794,-1.259796582756776,0.6001195120888995,0.2052697877671992,-1.0,11.976333333333336,0.0,179.2273178507113,1.0228433939211987,94.88786345945772,1553.0,1236.0,1000.0,1528.0,1471.0,1012.0,60.0,292.25,1649148455.0152545,1649148456.1206696,7b211f02-7262-4264-b91d-8ac62cde6e1c
0.0107419988028057,0.1798534056716445,0.1907421693213851,0.4387183465425997,0.0031814983853341,-0.489428988979412,-0.328645054503098,-0.3593253516197818,-13.961072040915065,30.97630310813436,12.0694198911051,-1.879713761372306,0.6250034485745108,0.2237399370991723,-1.0,11.974666666666668,0.0,179.25470842710288,0.9637683644537524,95.03023192251746,1553.0,1133.0,1000.0,1528.0,1471.0,1012.0,60.0,292.25,1649148458.0556004,1649148459.1922495,20215f36-e2ed-4fbd-8211-f3b34b4725cc
0.0111665921060215,0.1757855279141654,0.1859072843239279,0.4242684784302733,-0.0023108217087668,-0.4716782447378705,-0.3289874685314242,-0.3541754447464911,-14.022547926925547,30.99035713804429,12.114855860476572,-1.807401388490461,0.6112516675619741,0.2376950931049724,-1.0,11.964444444444446,0.0,179.2571612239248,0.9577804348437342,95.0540503099731,1553.0,1133.0,1000.0,1528.0,1471.0,1012.0,60.0,292.25,1649148459.3007658,1649148460.4226334,20215f36-e2ed-4fbd-8211-f3b34b4725cc
0.0095230050531289,0.1754294174056891,0.1875234781822528,0.4247615543864498,1.7593288186739872e-05,-0.472869846048748,-0.3260974941863315,-0.3399858072512522,-13.95496732079538,30.878575136398208,11.978819468919028,-1.811839541656021,0.6106832589501225,0.2280684546203271,-1.0,11.969,0.0,179.23878042595845,0.9758646057579105,95.08183931406626,1553.0,1133.0,1000.0,1528.0,1471.0,1012.0,60.0,292.25,1649148460.5323708,1649148461.6502206,20215f36-e2ed-4fbd-8211-f3b34b4725cc
0.0153226759149703,0.1719630924756991,0.184138784751231,0.4645610109665437,-0.0022308338126174,-0.5080480960480281,-0.3440575204794964,-0.3700656463792001,-14.042201648636569,31.425240622490097,11.61699292618924,-1.9773138019662144,0.5964012502044412,0.2604497025023403,-1.0,11.960333333333333,0.0,179.2539297855375,0.9458373391873728,95.11361942536443,1553.0,1026.0,1000.0,1528.0,1471.0,1012.0,60.0,292.25,1649148463.584306,1649148464.580808,73926b38-d71d-467b-a399-8a73f2420f27
0.0104839556512874,0.1731201777071527,0.1818640603875765,0.449571498671541,-0.0053339261652169,-0.4940841763553985,-0.3422035539905015,-0.3593363081886492,-14.08675624705602,31.324129221362817,11.800770144750675,-1.912899020917324,0.6011271665878697,0.2654153923635533,-1.0,11.957333333333333,0.0,179.2575012155635,0.9765193078489776,95.13026687310146,1553.0,1026.0,1000.0,1528.0,1471.0,1012.0,60.0,292.25,1649148464.690707,1649148465.7679057,73926b38-d71d-467b-a399-8a73f2420f27
0.0112213783507823,0.1746213204760581,0.1872906366878622,0.4553185741131704,-0.0012698832484713,-0.5000027350413857,-0.3401912552669315,-0.3698306138169669,-14.091047087588166,31.51141529063665,11.947135056954393,-1.9376298859332808,0.605130109901872,0.2499765113001285,-1.0,11.951,0.0,179.24623899253208,0.9669127416450932,95.12248501090713,1553.0,1026.0,1000.0,1528.0,1471.0,1012.0,60.0,292.25,1649148465.8760912,1649148467.186458,73926b38-d71d-467b-a399-8a73f2420f27
0.0426960702633744,0.1711560912765161,0.1513508681791379,-0.157533927626832,-0.0840381895278189,0.0947977789551826,-0.1862282203332269,-0.2093069244257164,-13.391013705240304,28.21290079482166,16.282489843925532,0.7587990302426112,0.621875519380862,0.1946543571829946,-1.0,11.974777777777778,0.0,179.2550332405434,1.150971232726585,95.08953390162122,1553.0,1435.0,1000.0,1528.0,1471.0,1012.0,60.0,292.25,1649148468.0912378,1649148469.228391,6cad701a-926d-4685-a5ce-87caf382f748
0.0461138884504655,0.1685231913716337,0.151290814040717,-0.1565656862230578,-0.082553693221752,0.0959145752540225,-0.1859226816857925,-0.2046722188182103,-13.504540132018118,28.17517862865899,16.20331531271965,0.7588016829746086,0.6133821198645241,0.1917935879101054,-1.0,11.990222222222222,0.0,179.24691745798964,1.154340116812988,95.08080643768176,1553.0,1435.0,1000.0,1528.0,1471.0,1012.0,60.0,292.25,1649148469.3372834,1649148470.4640846,6cad701a-926d-4685-a5ce-87caf382f748
0.0341253117206421,0.1716475237792052,0.1523583869993955,-0.1558865054305666,-0.082674560089989,0.0935179725335894,-0.1866413085796118,-0.2186452387874341,-13.508671482009014,28.25266474562457,16.38703755413352,0.7524781608030693,0.62348655191436,0.1921345978677468,-1.0,11.991555555555555,0.0,179.23365171280165,1.146782429490598,95.06424322894448,1553.0,1435.0,1000.0,1528.0,1471.0,1012.0,60.0,292.25,1649148470.5727403,1649148471.6372478,6cad701a-926d-4685-a5ce-87caf382f748
0.0783575258744445,0.1867027804363593,0.2435051456614094,-0.1709943586544685,-0.0005478006276595,0.0873775314612274,-0.0899983842665161,-0.1156909389775116,-12.82328334811743,28.060611920920355,16.35516382039024,0.7763646700126184,0.6830194667552053,-0.1793646190201466,-1.0,11.992,0.0,179.23272887835378,1.1581231404076595,95.0282375072798,1553.0,1435.0,1000.0,1435.0,1471.0,1012.0,60.0,292.25,1649148473.4214797,1649148474.5492308,64f788ff-7611-4cce-86f4-feab79e8ed71
0.0734136161121163,0.1827450230165982,0.2439916473971825,-0.1685355522457956,0.0001753776762246,0.0880612636609031,-0.089682815538068,-0.1130086041898057,-12.825699645048976,28.15014662704529,16.225057299627633,0.7729504476004945,0.6690753312701068,-0.1821413423296123,-1.0,11.992,0.0,179.23326163310904,1.168983212335784,95.0271424002829,1553.0,1435.0,1000.0,1435.0,1471.0,1012.0,60.0,292.25,1649148474.6586294,1649148475.7826316,64f788ff-7611-4cce-86f4-feab79e8ed71
0.0670074617477601,0.1898518930643283,0.2498291203632231,-0.1718742256539794,0.0039622022614686,0.0847171119461268,-0.0843395138319719,-0.1086509068408903,-12.717720218055712,28.10365088068344,16.345484603003694,0.7730229135711628,0.6946791571772758,-0.201768870023015,-1.0,11.992666666666668,0.0,179.2316664044829,1.1652621347623346,95.01586803469291,1553.0,1435.0,1000.0,1435.0,1471.0,1012.0,60.0,292.25,1649148475.8908212,1649148477.0109937,64f788ff-7611-4cce-86f4-feab79e8ed71
0.12675787602259,0.212237547491005,0.3841698889117493,-0.1780026143575127,0.1239440551325586,0.0611458826244412,0.0507058178127674,0.0237246926826956,-11.735475673082563,28.172910463427275,16.341600608475602,0.741521578732527,0.7809935087542113,-0.737277588199169,-1.0,11.992,0.0,179.23367144445925,1.165013734063145,94.97017406914554,1553.0,1435.0,1000.0,1330.0,1471.0,1012.0,60.0,292.25,1649148477.92292,1649148479.0599124,7c2e64c0-7ab4-4c44-9ffa-7a6a83a48f6e
0.1159452650159926,0.2050139828054824,0.3771797138071133,-0.1711483079834222,0.1198350876394777,0.0620356110713197,0.0433261120263631,0.0273696208237278,-11.891808034005797,28.209808651446185,16.30426153165092,0.7278711741865761,0.7540517407258868,-0.7126366062116012,-1.0,11.984,0.0,179.22632519655193,1.1595280605164686,94.9400339621581,1553.0,1435.0,1000.0,1330.0,1471.0,1012.0,60.0,292.25,1649148479.1684964,1649148480.2879803,7c2e64c0-7ab4-4c44-9ffa-7a6a83a48f6e
0.1111898199619575,0.2063600805270073,0.380198982951869,-0.1714808604609058,0.1219848994329301,0.0607119756458991,0.0469452906742106,0.0231592985398736,-11.755155111387944,28.184285472516443,16.285209211739712,0.7256938393243136,0.7585340070753918,-0.7245941326782672,-1.0,11.981222222222222,0.0,179.2179422777106,1.1564637483203986,94.92017708442106,1553.0,1435.0,1000.0,1330.0,1471.0,1012.0,60.0,292.25,1649148480.397067,1649148481.5143232,7c2e64c0-7ab4-4c44-9ffa-7a6a83a48f6e
0.1554351817879505,0.2311322231159268,0.5132374802484247,-0.1626186384489787,0.2405203917582496,0.02162090155368,0.1743824524938398,0.1443902771064107,-10.790865067647964,28.43867760542941,16.333343047076326,0.6266638717220737,0.8515401027018252,-1.2451202705986495,-1.0,11.982111111111111,0.0,179.21535743056472,1.1404106219048835,94.87137765953103,1553.0,1435.0,1000.0,1210.0,1471.0,1012.0,60.0,292.25,1649148483.4514225,1649148484.5850916,28d58b79-830a-455f-abc9-b2b245cf0fe8
0.1520428182455302,0.228344699647515,0.5092797230421039,-0.1591079362677973,0.2374698943880607,0.0200430579892832,0.1687416619978191,0.1493867814405751,-10.915303193386316,28.52699537225883,16.1430946002714,0.6154943961372078,0.8429704590700376,-1.2282373473522603,-1.0,11.984444444444444,0.0,179.22167459663706,1.1460303853458906,94.8900384952534,1553.0,1435.0,1000.0,1210.0,1471.0,1012.0,60.0,292.25,1649148484.695947,1649148485.8173697,28d58b79-830a-455f-abc9-b2b245cf0fe8
0.1533050930425588,0.2275031831298224,0.5111205403486995,-0.1588844084170103,0.2402179717660647,0.0216209015524019,0.1724232968243531,0.1523057921089531,-10.86750038608862,28.41463634840027,16.30170698813707,0.6179319625491358,0.8381574177834112,-1.2395280392465085,-1.0,11.979777777777777,0.0,179.22202824865408,1.1489353857511635,94.91784950773388,1553.0,1435.0,1000.0,1210.0,1471.0,1012.0,60.0,292.25,1649148485.9265203,1649148487.0462685,28d58b79-830a-455f-abc9-b2b245cf0fe8
0.1757630655196672,0.2350373857088709,0.5949171736185956,-0.1069865007476662,0.3179399106910474,-0.039625726848065,0.2373252587287906,0.2148804349847345,-10.473869122060291,29.157630157066084,15.999781873177117,0.3724815700656738,0.8652403047173024,-1.5511075463024155,-1.0,11.982,0.0,179.237417423764,1.1480647382174312,94.91985302989042,1553.0,1435.0,1000.0,1071.0,1471.0,1012.0,60.0,292.25,1649148487.9149024,1649148488.8792832,d12e34c2-682c-4635-89c4-0175f19ba133
0.1824283585500916,0.2321331675694725,0.5886134700992168,-0.1048706562557172,0.3132578794072811,-0.0389354202775489,0.231256587843989,0.2072876112374085,-10.544392063318428,29.12602555064481,15.923528035623386,0.3686889064521907,0.8548620378972904,-1.5279740697334716,-1.0,11.962666666666664,0.0,179.2321688028418,1.1374305131346754,94.89939281877668,1553.0,1435.0,1000.0,1071.0,1471.0,1012.0,60.0,292.25,1649148488.9879887,1649148490.1237135,d12e34c2-682c-4635-89c4-0175f19ba133
0.16885506946315,0.2333795543406042,0.5911199400792788,-0.1051856771223143,0.3150521284629039,-0.0392504411377273,0.2334754302244153,0.2147796284405142,-10.517278697733673,29.152852129124067,16.028778602993665,0.3690246902394274,0.858610148830282,-1.5366892067288551,-1.0,11.96711111111111,0.0,179.21779960264794,1.1302975189114588,94.87604419655396,1553.0,1435.0,1000.0,1071.0,1471.0,1012.0,60.0,292.25,1649148490.236379,1649148491.3532364,d12e34c2-682c-4635-89c4-0175f19ba133
0.0040016482822059,0.1524635765694913,0.0517708622115661,-0.1379253850085945,-0.173492611155237,0.0990272761918257,-0.2938689390369871,-0.312079886947288,-14.250910426725332,28.54456039508375,16.049835532914816,0.7208414627731236,0.5511939232212436,0.6023350002238588,-1.0,11.96888888888889,0.0,179.25233607473118,1.149654441030817,94.93726090535506,1553.0,1435.0,1000.0,1613.0,1471.0,1012.0,60.0,292.25,1649148493.488449,1649148494.6264842,67692b87-5f31-4ad3-8bec-fdcd69d63c5f
0.0059082092900181,0.1512801939428522,0.0490227846930795,-0.1343883854749097,-0.1751493470272264,0.0984224361718741,-0.296327745590775,-0.3200348487473192,-14.238938022621696,28.49929339384264,16.242347169525797,0.7111034998479845,0.5443540938613777,0.6120245781783159,-1.0,11.987000000000002,0.0,179.24922150846962,1.1464457580827594,94.9273237390226,1553.0,1435.0,1000.0,1613.0,1471.0,1012.0,60.0,292.25,1649148494.7565763,1649148495.828131,67692b87-5f31-4ad3-8bec-fdcd69d63c5f
0.0040580781021388,0.1460913898315969,0.0478322798188324,-0.1313461056690385,-0.1753120621532678,0.1012762510786832,-0.297266233918355,-0.3109080087018561,-14.294824508648247,28.57336624938155,16.31470661479558,0.7110689265064254,0.5241983693547635,0.6146366008053875,-1.0,11.987000000000002,0.0,179.24403663597968,1.137713633962146,94.91383411541182,1553.0,1435.0,1000.0,1613.0,1471.0,1012.0,60.0,292.25,1649148495.9391584,1649148497.081029,67692b87-5f31-4ad3-8bec-fdcd69d63c5f
-0.0253895235013681,0.1359011505076102,-0.035620852997584,-0.115882690013387,-0.2517662602074721,0.0999613814736847,-0.3882798811271211,-0.4118516642864967,-14.887555588249894,28.81215208780584,16.06135140962814,0.6703213410784737,0.4852291505249539,0.9601425460633002,-1.0,11.990333333333332,0.0,179.25975214235,1.145996779866537,94.93719108564352,1553.0,1435.0,1000.0,1694.0,1471.0,1012.0,60.0,292.25,1649148497.958728,1649148498.93122,7039e97d-40a4-4a4e-9ef7-68c5bc8206d5
-0.0278707921289557,0.1339502127487908,-0.0397835112104192,-0.1143629197770848,-0.2545543320132362,0.1007892014648355,-0.3921817574876926,-0.4146923303984154,-14.957922513629535,28.77446959602949,16.076002759497197,0.6682631740366896,0.4778284873749782,0.9749337851292814,-1.0,11.98575,0.0,179.2603979746815,1.1436995684691649,94.91725547100356,1553.0,1435.0,1000.0,1694.0,1471.0,1012.0,60.0,292.25,1649148499.060887,1649148500.1493723,7039e97d-40a4-4a4e-9ef7-68c5bc8206d5
-0.02793708348619,0.1359970264136036,-0.0389902065128648,-0.1132940402870807,-0.2552999727569371,0.097838414910793,-0.392416242618868,-0.4071400465849737,-14.83996852760546,28.84612743726549,16.082202621156984,0.6597961254928336,0.4845353891505857,0.975520729423657,-1.0,11.988555555555555,0.0,179.2399961996307,1.1412963053411638,94.91708983891618,1553.0,1435.0,1000.0,1694.0,1471.0,1012.0,60.0,292.25,1649148500.2576344,1649148501.3826258,7039e97d-40a4-4a4e-9ef7-68c5bc8206d5
-0.0577051849063976,0.1253772629915892,-0.1302070997802449,-0.0895118824779313,-0.3373648329366848,0.0892446463089199,-0.4927430089288681,-0.518093702164889,-15.463790238695106,29.00706082080062,15.75862642898957,0.5829973172988971,0.4432798959342793,1.3524434928617788,-1.0,11.983333333333334,0.0,179.25746782352758,1.1468501266259652,94.89213232768896,1553.0,1435.0,1000.0,1774.0,1471.0,1012.0,60.0,292.25,1649148503.5217693,1649148504.659546,18529231-c7a3-4ccf-b4eb-e0c39cf6b3a9
-0.0512228774142348,0.1258111699612212,-0.1274590220809818,-0.091142320900477,-0.3346430523649285,0.0918217907423781,-0.4890482243552609,-0.5135311034407405,-15.464198862953989,28.973524519089896,15.99706231039282,0.5924186966623111,0.4431713384108433,1.3401177888495226,-1.0,11.985666666666669,0.0,179.2580552197962,1.1401970954875498,94.88871950983368,1553.0,1435.0,1000.0,1774.0,1471.0,1012.0,60.0,292.25,1649148504.767463,1649148505.8891249,18529231-c7a3-4ccf-b4eb-e0c39cf6b3a9
-0.0489744502485011,0.1244963003664579,-0.1290894605305485,-0.085356894256772,-0.3364707214535237,0.0880218175709328,-0.4939395406006139,-0.5173179289689253,-15.560426272595528,29.164167041093123,16.00416355433288,0.571964445409116,0.4380454760183007,1.3515499055398963,-1.0,11.985666666666669,0.0,179.254271294996,1.1422935366759204,94.8765822636786,1553.0,1435.0,1000.0,1774.0,1471.0,1012.0,60.0,292.25,1649148505.9980648,1649148507.1177638,18529231-c7a3-4ccf-b4eb-e0c39cf6b3a9
-0.07671053040481426,0.10935722051683909,-0.19459681845426702,-0.05360443503374468,-0.3945529062103846,0.07495146575484019,-0.5695812719198036,-0.5922764769105245,-16.022072221734064,29.550717139479815,15.648523684362692,0.4699794374455739,0.3796284969291755,1.6251148809695117,-1.0,11.976888888888888,0.0,179.28225533893544,1.143151650338207,94.87988428068732,1553.0,1435.0,1000.0,1856.0,1471.0,1012.0,60.0,292.25,1649148508.0274067,1649148509.16543,57af2bb2-6c96-4390-8477-c3779c3da818
-0.07849108312267118,0.1138770847727476,-0.19535012929039977,-0.05322093137623796,-0.39618279705146087,0.07071922917982502,-0.5730328057958419,-0.6047677424199872,-16.105416184755608,29.61016742650048,15.71015517074771,0.45992841094384446,0.3965304205553722,1.633830454096559,-1.0,11.959888888888889,0.0,179.2830613012575,1.1416208104745433,94.82093595360058,1553.0,1435.0,1000.0,1856.0,1471.0,1012.0,60.0,292.25,1649148509.2745755,1649148510.3944309,57af2bb2-6c96-4390-8477-c3779c3da818
-0.07935396635136628,0.11169933199290731,-0.19587059853381927,-0.05213890321982098,-0.39533361021643926,0.07291067852536727,-0.5715946666695509,-0.5989603997775141,-16.071782321724978,29.501479663262586,15.86455904664871,0.4617072229008854,0.38658793462377533,1.6313675646214219,-1.0,11.964222222222222,0.0,179.26658536715962,1.1358912659721894,94.81794964311345,1553.0,1435.0,1000.0,1856.0,1471.0,1012.0,60.0,292.25,1649148510.5030022,1649148511.6195953,57af2bb2-6c96-4390-8477-c3779c3da818
