raw_voltage_G-,raw_voltage_G0,raw_voltage_G1,raw_voltage_G2,raw_voltage_G3,raw_voltage_G4,raw_voltage_G5,raw_voltage_G6,load_x,load_y,load_z,load_l,load_m,load_n,rpm,voltage,current,roll,pitch,yaw,aileron1_pwm,elevator_pwm,throttle_pwm,rudder_pwm,aileron2_pwm,pbaro,pdiff,Tt,sample_start_time,sample_end_time,uid
0.0189780135753033,0.1361854910567119,0.0641963801412487,-0.1345198724391439,-0.1516131788184782,0.1126230278880039,-0.2783140292124632,-0.3053083068026567,-15.094312246510322,28.340851891356195,16.275550310764164,0.7425906629668187,0.4944750572490578,0.5313225516573854,-1.0,11.992333333333333,0.0,179.01446790669627,1.1500941107427018,95.8972697961372,1553.0,1435.0,1000.0,1528.0,1471.0,1012.0,60.0,292.25,1649147797.1107335,1649147798.3002205,f87ace0d-20d8-4dd4-b4f3-e24768467222
0.0053428153164082,0.1358699223547598,0.0703762673526042,-0.1331261105554539,-0.1454727372061062,0.1118604035180338,-0.2714898549460297,-0.3007062623785677,-15.026733600254454,28.313746841972343,16.35561593948107,0.7379077736151614,0.4923232683520037,0.5049643576446181,-1.0,11.993444444444444,0.0,179.03304753905854,1.1583620547330025,95.91982004513696,1553.0,1435.0,1000.0,1528.0,1471.0,1012.0,60.0,292.25,1649147798.4155016,1649147799.5314305,f87ace0d-20d8-4dd4-b4f3-e24768467222
-0.0035325548059612,0.1314256631312048,0.0663001715354286,-0.1297468953748718,-0.1486284245398236,0.1127939609403174,-0.2761444940349766,-0.2951049169726585,-15.094310277079495,28.40224981820916,16.27737181920758,0.7327201658792023,0.4761534054423825,0.5207438352000241,-1.0,11.994666666666664,0.0,179.02116604554234,1.1544845349968451,95.91284945763402,1553.0,1435.0,1000.0,1528.0,1471.0,1012.0,60.0,292.25,1649147799.6640158,1649147800.7509716,f87ace0d-20d8-4dd4-b4f3-e24768467222
0.1329377631027869,0.3866023975309385,0.0819339712691206,-0.2522664585862897,-0.1932419547076805,-0.0222431499120555,-0.3173130679421761,-0.3349849189165831,-14.799088125899647,27.83581632032233,16.49273754416615,0.7028543050995352,1.4452892886305768,0.6493585968429262,-1.0,11.984333333333334,0.0,178.95512722318725,1.1511013146279654,95.88600681419584,1663.0,1435.0,1000.0,1528.0,1555.0,1012.0,60.0,292.25,1649147802.4794474,1649147803.6167002,82b0cf47-9d42-408f-a2b3-58212ba9c418
0.134476708376432,0.3896572777204353,0.0851964914959041,-0.251382756508957,-0.1913370371568702,-0.0248005713941142,-0.315701804537799,-0.3423142225572313,-14.779955881032,27.91640541584649,16.687949586293882,0.6958514573686454,1.4549807644459882,0.6406557832587056,-1.0,11.971444444444444,0.0,178.96343121539817,1.1507335634878098,95.85707792742124,1663.0,1435.0,1000.0,1528.0,1555.0,1012.0,60.0,292.25,1649147803.726093,1649147804.8554504,82b0cf47-9d42-408f-a2b3-58212ba9c418
0.1344356187179295,0.3884656772153465,0.0822106417484899,-0.2521086742133375,-0.193405217704973,-0.023841812276483,-0.3187150479091352,-0.3476421848554841,-14.882870285664085,27.89676799030291,16.541018046187208,0.6992893291349062,1.4524419474710122,0.6514112846962946,-1.0,11.973666666666666,0.0,178.95265924816715,1.1460957108877965,95.81278718629332,1663.0,1435.0,1000.0,1528.0,1555.0,1012.0,60.0,292.25,1649147804.9641693,1649147806.0768335,82b0cf47-9d42-408f-a2b3-58212ba9c418
0.2723736545070788,0.6392496422993191,0.1028376587335107,-0.3733917191075653,-0.2351934223427764,-0.1586844386392273,-0.3579556947843015,-0.3743504788712706,-14.657962454916964,27.70494795104013,16.35678401065237,0.6697041124070177,2.4093122396896454,0.765339384101782,-1.0,11.968555555555556,0.0,178.8408551227333,1.1511027850159117,95.79391689143638,1779.0,1435.0,1000.0,1528.0,1638.0,1012.0,60.0,292.25,1649147806.9872217,1649147808.124549,b17cbcff-f0ef-4cad-bfb8-070f7addf2c6
0.2802628718030085,0.6338121090687283,0.1006188162717298,-0.3700771513363515,-0.2352208154679448,-0.1558355542378796,-0.3593664405785289,-0.3805824141306335,-14.764950187967814,27.69082382882108,16.425000252940006,0.6683819883378055,2.3885218215680752,0.7698081335271137,-1.0,11.948,0.0,178.84930937910593,1.155194056470782,95.7732062400531,1779.0,1435.0,1000.0,1528.0,1638.0,1012.0,60.0,292.25,1649147808.2333286,1649147809.5584786,b17cbcff-f0ef-4cad-bfb8-070f7addf2c6
0.275417029649925,0.6321148316935111,0.0969892282985231,-0.3704601071730964,-0.2384340284839851,-0.1531121303169559,-0.3615452895092631,-0.385817787617786,-14.704789638707956,27.65139271830765,16.503354946896337,0.6749663907034893,2.3808521270321346,0.7821944292155475,-1.0,11.947333333333331,0.0,178.8314825853722,1.1516041517317055,95.73577224994196,1779.0,1435.0,1000.0,1528.0,1638.0,1012.0,60.0,292.25,1649147809.6674502,1649147810.785436,b17cbcff-f0ef-4cad-bfb8-070f7addf2c6
0.3120361464285774,0.7069177573525035,0.1248644638489368,-0.4231600922032454,-0.2367641438597515,-0.1912433527577315,-0.3543661000856218,-0.3734317134663562,-14.616065170825054,28.11970631120237,14.733238101150077,0.7124136999675345,2.6847326887535585,0.7376636676257856,-1.0,11.931666666666668,0.0,178.79114955941338,1.1528146841824176,95.64529652855636,1904.0,1435.0,1000.0,1528.0,1723.0,1012.0,60.0,292.25,1649147811.4299445,1649147812.630381,6b77bde7-288a-4e06-b1c7-5eba597644f4
0.3245986291309735,0.7059107864619049,0.1256561249036731,-0.424657948218106,-0.2366178646219175,-0.1891729807461346,-0.3530660225457301,-0.3750079137664375,-14.572872306826005,28.16470436141259,14.698522594181318,0.7207988237926733,2.6811932782321257,0.7343620731377726,-1.0,11.914444444444444,0.0,178.7693233104657,1.1527535563609392,95.57951042320052,1904.0,1435.0,1000.0,1528.0,1723.0,1012.0,60.0,292.25,1649147812.7398224,1649147813.8648434,6b77bde7-288a-4e06-b1c7-5eba597644f4
0.3195582959044845,0.7071434766160888,0.1256424283552095,-0.4222473533900236,-0.2360563056467201,-0.1931449831178376,-0.3530934156416855,-0.3833765125418513,-14.520088528159116,28.07497913624121,14.621816845774946,0.7058543540949839,2.6858236804941256,0.7337907244720462,-1.0,11.91477777777778,0.0,178.7715924510899,1.1634356046258525,95.52716461231144,1904.0,1435.0,1000.0,1528.0,1723.0,1012.0,60.0,292.25,1649147813.978344,1649147815.0873382,6b77bde7-288a-4e06-b1c7-5eba597644f4
0.3646309277256501,0.7926735460954113,0.1508462869707072,-0.4408319437986923,-0.2350416644603151,-0.2533183544386061,-0.3569169476181504,-0.370157687625207,-14.386237149482746,28.5708472364325,15.623393983476358,0.6173282249704952,3.000683483534683,0.7149859317553748,-1.0,11.888222222222222,0.0,178.73526798726397,1.1542788941277715,95.39290054815687,2045.0,1435.0,1000.0,1528.0,1813.0,1012.0,60.0,292.25,1649147817.0225084,1649147818.1616628,de847456-38ef-45b8-8564-d64f8dccbc84
0.3795283994714459,0.7940147129873807,0.1502545956529947,-0.4459336391292728,-0.2371060100184856,-0.249689313828081,-0.3569695424117147,-0.3860939103490844,-14.34809559073886,28.617319240418265,15.655002988220035,0.6372941829223273,3.00575497436617,0.7188488004524765,-1.0,11.857888888888889,0.0,178.7316237018868,1.1613562270524396,95.27138009917374,2045.0,1435.0,1000.0,1528.0,1813.0,1012.0,60.0,292.25,1649147818.270049,1649147819.338238,de847456-38ef-45b8-8564-d64f8dccbc84
0.3657880129285433,0.785757332516747,0.141471266805122,-0.4418838398046088,-0.2426679091739755,-0.2453107974849642,-0.3640566909488066,-0.3893810848328187,-14.44727971610729,28.57123826688183,15.597427425324597,0.6371960065861765,2.974940854079403,0.7473922521858752,-1.0,11.858444444444444,0.0,178.73139602891447,1.144480288143317,95.19145018986664,2045.0,1435.0,1000.0,1528.0,1813.0,1012.0,60.0,292.25,1649147819.4464824,1649147820.616804,de847456-38ef-45b8-8564-d64f8dccbc84
-0.1602458465187808,-0.1572462998693477,0.0506948605664311,0.0057153617867992,-0.0999809845622495,0.2682099009776964,-0.2303037503708116,-0.246095884647878,-15.419548286985318,29.42550390731945,16.000526909156843,0.7821892583753663,-0.6194365858280829,0.3757091022266455,-1.0,11.914222222222222,0.0,179.08803056187716,1.1372792054718115,95.05976414266878,1444.0,1435.0,1000.0,1528.0,1381.0,1012.0,60.0,292.25,1649147821.5275352,1649147822.6657307,72d68b5a-7a24-4952-a404-781d73b5ef06
-0.1627369768139574,-0.1577667691382994,0.0524545944139741,0.0072756737675223,-0.0984004016145006,0.2676198532717284,-0.2284278694995026,-0.2446796602971341,-15.36206094135316,29.439570123988425,16.061887355312077,0.7775632493681894,-0.6224196909212135,0.3685584023825176,-1.0,11.984,0.0,179.102745824989,1.148926006099022,95.11802262064936,1444.0,1435.0,1000.0,1528.0,1381.0,1012.0,60.0,292.25,1649147822.7752788,1649147823.8910573,72d68b5a-7a24-4952-a404-781d73b5ef06
-0.1592920180640674,-0.1559785463045843,0.0526912709479286,0.0058819119133082,-0.0979401972199085,0.2661603480599062,-0.2271655945197947,-0.2591432282012575,-15.295056170432106,29.31566938986298,15.928023806623026,0.7766303533968802,-0.6148160774353638,0.3659248215656311,-1.0,11.983555555555556,0.0,179.10981431187005,1.1446053066926565,95.17872251180329,1444.0,1435.0,1000.0,1528.0,1381.0,1012.0,60.0,292.25,1649147823.9998057,1649147825.328226,72d68b5a-7a24-4952-a404-781d73b5ef06
-0.3267932795318573,-0.44092398465871,0.038214556343854,0.1532919443886686,-0.0502893198683388,0.4118347436167758,-0.185760345847271,-0.2066010316244322,-15.547730065421838,30.62311787388959,16.332478791795157,0.7793429264616235,-1.7043759304514814,0.228474931307838,-1.0,11.975666666666667,0.0,179.20593632296954,1.1316352162035923,95.22505472058307,1331.0,1435.0,1000.0,1528.0,1283.0,1012.0,60.0,292.25,1649147826.930502,1649147828.191801,63b0d444-5a32-486e-855e-c7026d680d7c
-0.31237354038064,-0.4354097489521169,0.0406004968603083,0.1525150756149841,-0.0493037154768843,0.4076271611567356,-0.1844202744289748,-0.2061430186613883,-15.470485638134868,30.600539322267235,16.414874601879394,0.7716614976957032,-1.684724660815102,0.2228121357673144,-1.0,11.957666666666666,0.0,179.20978399620196,1.1359083177291798,95.2266651274074,1331.0,1435.0,1000.0,1528.0,1283.0,1012.0,60.0,292.25,1649147828.3003623,1649147829.628831,63b0d444-5a32-486e-855e-c7026d680d7c
-0.3101957872584382,-0.4358480389211082,0.0380666335105808,0.1518850339391146,-0.0515499511666935,0.4087228857572523,-0.1871048001695194,-0.2065265225525384,-15.527699933173864,30.610212101407843,16.407217993509978,0.7754528886532217,-1.6859786034000055,0.2330343797135736,-1.0,11.95411111111111,0.0,179.1968491357338,1.1375566819068434,95.2238176974334,1331.0,1435.0,1000.0,1528.0,1283.0,1012.0,60.0,292.25,1649147829.737788,1649147830.860082,63b0d444-5a32-486e-855e-c7026d680d7c
-0.4056854713093472,-0.585599128172103,0.024487317346984,0.2243343474665542,-0.0367987570860365,0.4862432092948096,-0.173505759878481,-0.2050363369641249,-15.517110831634112,31.6387991969156,16.040345110588262,0.7923128226570243,-2.2542230712124915,0.1936738442419008,-1.0,11.94688888888889,0.0,179.26489906934455,1.1256711448238,95.2303443226403,1209.0,1435.0,1000.0,1528.0,1173.0,1012.0,60.0,292.25,1649147832.4295871,1649147833.5223377,c268884b-f959-43d8-ab6b-ece8dfab3912
-0.4042774648792602,-0.5955088654027162,0.0227538808747421,0.2310648360398567,-0.0367165777358711,0.4908063543414232,-0.1746409307707991,-0.2043487694065779,-15.570114910199484,31.77604117320456,16.17726273587033,0.7882031102524194,-2.293165188814919,0.1965006700786154,-1.0,11.901000000000002,0.0,179.25884296828048,1.1257258456269963,95.1274300678662,1209.0,1435.0,1000.0,1528.0,1173.0,1012.0,60.0,292.25,1649147833.6382754,1649147834.747594,c268884b-f959-43d8-ab6b-ece8dfab3912
-0.4087973301222472,-0.5889893014540885,0.0239865711644125,0.2245178813434071,-0.0366480949264727,0.4919979548360936,-0.1729973435688085,-0.1916520584101028,-15.575344144011176,31.680778933468776,16.40984841378818,0.8051134395400906,-2.269854649249845,0.1934819291433576,-1.0,11.902111111111113,0.0,179.25615187374746,1.1192202445961346,95.05169085906982,1209.0,1435.0,1000.0,1528.0,1173.0,1012.0,60.0,292.25,1649147834.8562028,1649147835.9785874,c268884b-f959-43d8-ab6b-ece8dfab3912
-0.4641445877510683,-0.6912357907147672,0.0083933129496466,0.2836218156035796,-0.0344977351843557,0.5322767906433256,-0.1783576292205419,-0.206311760115942,-15.744273193768516,32.80872500807279,15.538061190642912,0.7687782147177887,-2.6526652424331782,0.2057760413823705,-1.0,11.850888888888887,0.0,179.29387273180373,1.116883774433494,94.81872221339958,1074.0,1435.0,1000.0,1528.0,1047.0,1012.0,60.0,292.25,1649147838.1182797,1649147839.2557428,270831c9-e98c-4474-a715-f9840d8b7ea6
-0.4684573610816946,-0.6985070225042717,-0.0017969268569407,0.288407940765678,-0.0423475071099553,0.5377860938577245,-0.1881534088929437,-0.2132542725380946,-15.875773612450194,32.878298969943245,15.857692852512018,0.7703005943594371,-2.6830730436203383,0.2437976779489316,-1.0,11.81,0.0,179.28165883574795,1.123744818034445,94.58850233941531,1074.0,1435.0,1000.0,1528.0,1047.0,1012.0,60.0,292.25,1649147839.364645,1649147840.481011,270831c9-e98c-4474-a715-f9840d8b7ea6
-0.4637895728167818,-0.6948911296133667,0.0067102798004778,0.2818204443677806,-0.0354444413334526,0.5388116920698262,-0.1783050344383121,-0.210821764092169,-15.787498237408665,32.81205001263183,15.715895162727186,0.7874712903668499,-2.667530039086984,0.2090459002708004,-1.0,11.811333333333332,0.0,179.2784182904417,1.1141093302482936,94.42854006796352,1074.0,1435.0,1000.0,1528.0,1047.0,1012.0,60.0,292.25,1649147840.589255,1649147841.7134628,270831c9-e98c-4474-a715-f9840d8b7ea6
0.0003857567578462,0.1471909495255116,0.0661160897895797,-0.1510083387535464,-0.1531647250921477,0.1173565584424443,-0.2757368844049084,-0.300548477987055,-15.105249210547406,28.272170675723352,16.341148794711515,0.7900667224983023,0.5373988468928491,0.5284498827587524,-1.0,11.852777777777778,0.0,179.038359908413,1.1430356082701207,94.17512259482818,1553.0,1435.0,1000.0,1528.0,1471.0,1012.0,60.0,292.25,1649147843.4417136,1649147844.5511053,9bef5ba5-b2c6-4b08-838c-9fbfe2276863
0.0056057892475794,0.1489265773818259,0.0664869925969741,-0.1508500065125985,-0.1534112631621691,0.1143290711971324,-0.2763515860246537,-0.2915958581506939,-15.085161882169094,28.29155902527216,16.172072255998746,0.7830365515441743,0.545269202517691,0.5291343213830483,-1.0,11.989333333333336,0.0,179.0352362352326,1.1431607928310024,94.39299576352278,1553.0,1435.0,1000.0,1528.0,1471.0,1012.0,60.0,292.25,1649147844.6596527,1649147845.8152325,9bef5ba5-b2c6-4b08-838c-9fbfe2276863
0.0018058159750732,0.1460601616802136,0.0646039897219696,-0.1487204654219665,-0.1547162713770577,0.1168569080021372,-0.2773673229638458,-0.3006273700531565,-15.052269619062692,28.305867670002662,16.399283019820793,0.7839670840073885,0.5318905124857826,0.5349341489038993,-1.0,11.991,0.0,179.03715020602002,1.148147957432006,94.57914422134247,1553.0,1435.0,1000.0,1528.0,1471.0,1012.0,60.0,292.25,1649147845.9304726,1649147847.038559,9bef5ba5-b2c6-4b08-838c-9fbfe2276863
0.0069206588926232,0.1452011135471007,0.0531876342309419,-0.3494638269847447,-0.1863788824900283,0.3116827752831236,-0.234344235618857,-0.2488899831208451,-15.055035456380075,27.90483416810527,17.8230715052573,1.6715932726902971,0.5400544013647451,0.532672513804547,-1.0,11.992444444444446,0.0,179.04228650827585,1.2246871877088092,94.89519301134705,1553.0,1537.0,1000.0,1528.0,1471.0,1012.0,60.0,292.25,1649147848.9720166,1649147850.3141077,9c1b7819-b994-4e94-ada1-a9bb84734924
0.0153489733234808,0.1439037755529271,0.0521653230992088,-0.3472789515738672,-0.1867070520598844,0.3110499943181031,-0.2348049879004164,-0.2503730463164107,-15.013355633756971,27.86310830418381,17.832984822248157,1.6649378364809542,0.5344712124491164,0.5350914620936766,-1.0,11.992666666666668,0.0,179.0388531998531,1.2192948363648557,95.02891749055718,1553.0,1537.0,1000.0,1528.0,1471.0,1012.0,60.0,292.25,1649147850.4223163,1649147851.592187,9c1b7819-b994-4e94-ada1-a9bb84734924
0.0144548619409636,0.1441273033838164,0.0529805422657713,-0.3467924497307341,-0.186338888533182,0.3102347752061535,-0.2351600027391568,-0.2596428785581702,-15.05831460499885,27.93887274788685,17.81302769383499,1.6625255329624176,0.5357977324640635,0.5339248708774625,-1.0,11.993,0.0,179.0513053936199,1.2171571413082165,95.10129548737198,1553.0,1537.0,1000.0,1528.0,1471.0,1012.0,60.0,292.25,1649147851.7007875,1649147852.7697022,9c1b7819-b994-4e94-ada1-a9bb84734924
0.0261232342682747,0.1397087936997869,0.036162811860118,-0.5695264856157338,-0.2264002307357498,0.5318686332442432,-0.1919259892385572,-0.2201546000025658,-15.083304896862655,27.68334815529065,19.65143606259382,2.660748979176137,0.5294615821180817,0.5500509774519303,-1.0,11.997,0.0,179.04765807260313,1.2862668807472075,95.25854465590348,1553.0,1645.0,1000.0,1528.0,1471.0,1012.0,60.0,292.25,1649147854.4291751,1649147855.440858,aca08ff7-a1b3-4266-b436-df34204de27b
0.0230415085621268,0.1409414839393412,0.0380803300618105,-0.5724301569042559,-0.2254962577802867,0.533169806190634,-0.1889264426372159,-0.2063484671075931,-14.974223502781266,27.66098340268311,19.646625863653345,2.6702242225250115,0.533834186589001,0.5421376037603943,-1.0,11.986,0.0,179.0404469106594,1.2722367828444534,95.2955407549978,1553.0,1645.0,1000.0,1528.0,1471.0,1012.0,60.0,292.25,1649147855.5492296,1649147856.6627426,aca08ff7-a1b3-4266-b436-df34204de27b
0.0234113156291356,0.1415578290601547,0.039491075606784,-0.5706359071771478,-0.2247292504126255,0.5322110471797167,-0.1881320421581622,-0.2028010581023707,-14.927388360106873,27.715043337287263,19.83853079739487,2.6645051571429588,0.5339829593349305,0.5384103942147469,-1.0,11.984444444444444,0.0,179.04706460505523,1.2791753064038014,95.31774721780933,1553.0,1645.0,1000.0,1528.0,1471.0,1012.0,60.0,292.25,1649147856.771024,1649147857.8927147,aca08ff7-a1b3-4266-b436-df34204de27b
0.0276298557493824,0.1357093986891793,0.039134965069644,-0.668456761680076,-0.2391928179343778,0.6327437775989018,-0.1664092983445534,-0.1887072979327552,-15.037842537741748,28.15947961199623,20.587262254031334,3.114067749396522,0.5182223719160742,0.5268981637333087,-1.0,11.973888888888888,0.0,179.0364565623643,1.3086100066319717,95.35879665472108,1553.0,1761.0,1000.0,1528.0,1471.0,1012.0,60.0,292.25,1649147859.7494211,1649147860.7945747,9ec2a2be-ef3d-4522-b274-d865f82e0ebd
0.0330208212331042,0.1386837432788579,0.0423826930521187,-0.6630975701371733,-0.2361461550940731,0.6242256147119614,-0.1638940621115408,-0.1820129673600715,-14.864441428708306,28.079187826385056,20.514450493293708,3.0825424072238,0.5283407066426496,0.5151987357270241,-1.0,11.961333333333336,0.0,179.02499854057663,1.3093462678221903,95.32691788513496,1553.0,1761.0,1000.0,1528.0,1471.0,1012.0,60.0,292.25,1649147860.903057,1649147861.9952147,9ec2a2be-ef3d-4522-b274-d865f82e0ebd
0.0283530340368676,0.1387363380632318,0.0456304210352595,-0.6749839961261362,-0.2348312853153918,0.6338373107296991,-0.1578062152671567,-0.181250342927291,-14.817216937809574,28.092970055377577,20.36777859160904,3.131207506879241,0.5311732709176039,0.50003567169829,-1.0,11.969666666666669,0.0,179.03808821866602,1.3127122348486353,95.31947222002972,1553.0,1761.0,1000.0,1528.0,1471.0,1012.0,60.0,292.25,1649147862.1106951,1649147863.215359,9ec2a2be-ef3d-4522-b274-d865f82e0ebd
0.0211102937798129,0.1378597583338894,0.038450137139975,-0.6941652119882079,-0.2482599407997605,0.6551513452696764,-0.1651218217139138,-0.185872110505935,-14.896205562085283,28.62165510776971,20.702771702678184,3.225531937812132,0.5273909832174555,0.5384553765988231,-1.0,11.96577777777778,0.0,179.0410828771621,1.3436238093312456,95.317560525972,1553.0,1887.0,1000.0,1528.0,1471.0,1012.0,60.0,292.25,1649147864.946641,1649147866.085952,2b65e42d-4242-4886-a40f-e4209e25ccfc
0.0264519516746474,0.128107808851754,0.0402717794485451,-0.7035473583390613,-0.2456849874656623,0.6729568697041177,-0.1573558723716786,-0.1859953792275927,-14.89922240783924,28.6126135642117,20.68450074620732,3.2867334892185176,0.4922690031435506,0.5201216219961933,-1.0,11.928666666666668,0.0,179.03066911540756,1.2994106193095452,95.21132528144146,1553.0,1887.0,1000.0,1528.0,1471.0,1012.0,60.0,292.25,1649147866.1949034,1649147867.3230493,2b65e42d-4242-4886-a40f-e4209e25ccfc
0.0313772341994008,0.1345682014586152,0.0367681997253903,-0.7067118123196354,-0.2501889643588686,0.6720211209114269,-0.1624345567133988,-0.1862074017615532,-14.976985084545689,28.60437055721325,21.00438107835144,3.2915517178778257,0.5143820610499066,0.5394170572682517,-1.0,11.935,0.0,179.0350616859538,1.302676173068817,95.17858363129012,1553.0,1887.0,1000.0,1528.0,1471.0,1012.0,60.0,292.25,1649147867.4315653,1649147868.7540314,2b65e42d-4242-4886-a40f-e4209e25ccfc
0.0013982063899637,0.1468622321275756,0.0785021615799441,0.09466190909589,-0.1189781124467991,-0.1200300082178757,-0.3362997883633573,-0.3583238585453286,-15.395055236376706,29.30207068287349,14.513161255105944,-0.2905376762509571,0.5249739515523731,0.55014228329774,-1.0,11.942222222222222,0.0,179.02809337518056,1.0810491988109894,95.11206745460302,1553.0,1335.0,1000.0,1528.0,1471.0,1012.0,60.0,292.25,1649147869.4296522,1649147870.5888145,8179b326-a0e9-4b34-b952-380e2c44da3a
-0.0087394386165838,0.1482954399795477,0.0781339980882006,0.0963317934988204,-0.1198196290607858,-0.1232119929076366,-0.3376278069007075,-0.3625971856971083,-15.351960167392845,29.322615333436048,14.472061179703452,-0.3013218685461165,0.530180015316956,0.5538329196253458,-1.0,11.990111111111112,0.0,179.03482187042292,1.0626320443168078,95.25321331380133,1553.0,1335.0,1000.0,1528.0,1471.0,1012.0,60.0,292.25,1649147870.7006972,1649147872.0259542,8179b326-a0e9-4b34-b952-380e2c44da3a
0.0007802176410358,0.1514379782926816,0.0840246139506344,0.0972390535270581,-0.1147968267860806,-0.1276299551388368,-0.3327759371968756,-0.3646220853859313,-15.307037246306775,29.32098553512325,14.441659476903626,-0.3129958998594609,0.5421796436374264,0.5324315029089055,-1.0,11.992,0.0,179.04661836602946,1.0654143384763668,95.4033697103347,1553.0,1335.0,1000.0,1528.0,1471.0,1012.0,60.0,292.25,1649147872.1350508,1649147873.3933284,8179b326-a0e9-4b34-b952-380e2c44da3a
-0.0199815741821121,0.1497154991328281,0.0951878569382171,0.3150077516255286,-0.0843575932916101,-0.3366285058345546,-0.3848579322634055,-0.4000972747560509,-15.453791920462743,30.2044678794366,12.83148114568143,-1.267794356619896,0.5249396484748954,0.5488738561248444,-1.0,11.987555555555556,0.0,179.0432776446154,1.0063011856440218,95.57355753388391,1553.0,1236.0,1000.0,1528.0,1471.0,1012.0,60.0,292.25,1649147874.5775712,1649147875.720939,eac0b3a8-2f9e-4ac0-a16e-d2223fa54573
-0.0125832409170208,0.1528848826983075,0.0995641812809936,0.3148603766647587,-0.0808331946620144,-0.3395475168879824,-0.3815822626736018,-0.3971552532444276,-15.452476581716835,30.21712788839929,12.867971502452884,-1.273713007059521,0.53678983640357,0.5338736243478329,-1.0,11.98,0.0,179.04084154381144,1.0023437076342998,95.65341155220024,1553.0,1236.0,1000.0,1528.0,1471.0,1012.0,60.0,292.25,1649147875.8299572,1649147876.8831604,eac0b3a8-2f9e-4ac0-a16e-d2223fa54573
-0.0246362127662893,0.1478308527254036,0.0956469655767534,0.3166409291519361,-0.0836683824303267,-0.3355344245911027,-0.3844037542902933,-0.4029078093649857,-15.465155710039866,30.2477301573097,12.941281897017411,-1.2686984243060822,0.5168071070413521,0.5465780968530219,-1.0,11.977,0.0,179.04708737235245,1.0080708924011592,95.6828792650094,1553.0,1236.0,1000.0,1528.0,1471.0,1012.0,60.0,292.25,1649147876.9931252,1649147877.9683764,eac0b3a8-2f9e-4ac0-a16e-d2223fa54573
-0.0166374223332478,0.1566514361955299,0.1135346707894476,0.4253778996107784,-0.0613019012855636,-0.4484077861026198,-0.405277313722613,-0.4278218544267595,-15.62778922101122,31.0778536088733,12.337993990839935,-1.7614082595620644,0.5441478784384306,0.5221661222073751,-1.0,11.968777777777778,0.0,179.04363585009185,0.9790665178066348,95.78294608980954,1553.0,1133.0,1000.0,1528.0,1471.0,1012.0,60.0,292.25,1649147880.1018274,1649147881.2405236,b7bf2b47-4a67-4518-b6eb-be67cdcd4e83
-0.0204861553938871,0.1495977087319719,0.1091106824422337,0.4238164920581767,-0.0637535853776655,-0.4417923468190518,-0.4052499206060584,-0.43179385706635,-15.52177983475672,30.93307565896517,12.075928970477484,-1.7441887791530444,0.5191738091875205,0.5303935282526281,-1.0,11.973555555555556,0.0,179.0400947764622,0.9758349371237032,95.84904486604738,1553.0,1133.0,1000.0,1528.0,1471.0,1012.0,60.0,292.25,1649147881.349331,1649147882.4756482,b7bf2b47-4a67-4518-b6eb-be67cdcd4e83
-0.0187324479884393,0.1487030495402468,0.1092043668890897,0.4204076926789211,-0.0643058306736662,-0.4364271302591199,-0.4038709508460511,-0.4274465682316909,-15.495080065778266,30.964329642935738,12.272824160974272,-1.7241863274169893,0.5143104070701865,0.5292000503349553,-1.0,11.968222222222222,0.0,179.05332712961425,0.9794388816960734,95.88730986250752,1553.0,1133.0,1000.0,1528.0,1471.0,1012.0,60.0,292.25,1649147882.5911248,1649147883.6978006,b7bf2b47-4a67-4518-b6eb-be67cdcd4e83
-0.0164577234950354,0.1539625278852772,0.113964194869749,0.4611423503442306,-0.0607425338027645,-0.4829472281066938,-0.417124839382232,-0.4444083904588513,-15.51540400988596,31.533057589110275,11.685493026047316,-1.9167072870013435,0.5346820822358285,0.5366468093250297,-1.0,11.957999999999998,0.0,179.03869686441203,0.9322996552350938,95.97247017889906,1553.0,1026.0,1000.0,1528.0,1471.0,1012.0,60.0,292.25,1649147885.6298606,1649147886.77548,2d217fda-cbc5-43fb-a068-898a7a680d52
-0.0172126778251937,0.1565418637321184,0.1173971002526541,0.4507987101554311,-0.0589734862182195,-0.475444799391631,-0.411331193873123,-0.4342592386033839,-15.478197774230688,31.492564711251248,11.793013368375464,-1.8765772382530248,0.5446303378788319,0.5217246500128678,-1.0,11.96,0.0,179.0508348694771,0.9170922034741584,95.99527086816836,1553.0,1026.0,1000.0,1528.0,1471.0,1012.0,60.0,292.25,1649147886.9081829,1649147887.9970872,2d217fda-cbc5-43fb-a068-898a7a680d52
-0.0189954219146862,0.1582358540448917,0.1128202583081462,0.4568953218336319,-0.0629909609508896,-0.4814877223580089,-0.4187815754546789,-0.4421468140178947,-15.5568830608109,31.53872737757984,11.921476386621324,-1.903849963991856,0.5493621942402873,0.5444087330027194,-1.0,11.960888888888888,0.0,179.0593134109668,0.9455707957981996,95.9766214160946,1553.0,1026.0,1000.0,1528.0,1471.0,1012.0,60.0,292.25,1649147888.106107,1649147889.2277849,2d217fda-cbc5-43fb-a068-898a7a680d52
0.0087877738050771,0.1437854372902825,0.0662212793556091,-0.1333101923086938,-0.1503509038831944,0.103800252854694,-0.2795500068296654,-0.3019290911972656,-15.1660927741373,28.31707677849944,16.241999260766836,0.7199377050755886,0.5237639104783508,0.5294453357806299,-1.0,11.96188888888889,0.0,179.04131813923354,1.1338503556447268,95.95803419463329,1553.0,1435.0,1000.0,1528.0,1471.0,1012.0,60.0,292.25,1649147890.9568346,1649147891.9175186,37e1a14e-22b1-4bce-ae5d-b57ea3e796f7
0.011798825284377,0.1446401025237263,0.0664579558873879,-0.1368471918455592,-0.1508637030754326,0.1041815650397317,-0.2783797727079349,-0.3052557118801947,-15.082393418892256,28.281037173983403,15.957816969877111,0.7285428746960776,0.5293455949202832,0.5278999186771256,-1.0,11.99175,0.0,179.04758464806952,1.1090793405983534,95.94588879019663,1553.0,1435.0,1000.0,1528.0,1471.0,1012.0,60.0,292.25,1649147892.0262318,1649147893.113485,37e1a14e-22b1-4bce-ae5d-b57ea3e796f7
0.0072356797603975,0.1439958164247761,0.0655145369369998,-0.1359892393479462,-0.1515759241727901,0.1056728463178831,-0.2798989951859127,-0.2960746334455289,-15.160582511244227,28.33220743878684,16.18256652962439,0.7302473580965084,0.525326011590701,0.5324898951633733,-1.0,11.992,0.0,179.06336750769412,1.1041033877054405,95.93361323271084,1553.0,1435.0,1000.0,1528.0,1471.0,1012.0,60.0,292.25,1649147893.221629,1649147894.547686,37e1a14e-22b1-4bce-ae5d-b57ea3e796f7
0.0347695978443431,0.155921683579786,0.1525556174384594,-0.1454069937187089,-0.0731154574712381,0.0973968378801649,-0.1884821262182325,-0.2040370356698732,-14.452907111505215,28.233846724451283,16.11891789361127,0.7369223080563831,0.5722864274088856,0.1786251343170348,-1.0,11.993333333333332,0.0,179.04308639931867,1.0992545225771622,95.89525261360234,1553.0,1435.0,1000.0,1435.0,1471.0,1012.0,60.0,292.25,1649147895.4619305,1649147896.5993743,b2523024-34fb-4b9f-b562-c5d5b7ce1e0f
0.030588312430739,0.158610044016265,0.1537614624205069,-0.1452755067450689,-0.072930279991975,0.0939896820093907,-0.1885840286284616,-0.2117449120249976,-14.422917084959709,28.27044484104499,16.029940994048623,0.7292729406353233,0.5830066274968096,0.1770812066782668,-1.0,11.993555555555556,0.0,179.05154520915073,1.1045766036068427,95.88642725028475,1553.0,1435.0,1000.0,1435.0,1471.0,1012.0,60.0,292.25,1649147896.7079265,1649147897.828563,b2523024-34fb-4b9f-b562-c5d5b7ce1e0f
0.0363271705088857,0.1571445122918223,0.1565281671621807,-0.1421800842788637,-0.0695472298840073,0.0956058759015122,-0.1865843309051348,-0.2057047288192294,-14.53593485400595,28.338700297907764,16.47863001310526,0.7265270998605544,0.5741286241604926,0.1662305019560481,-1.0,11.992444444444446,0.0,179.05502405216805,1.1092293853876984,95.87759429786811,1553.0,1435.0,1000.0,1435.0,1471.0,1012.0,60.0,292.25,1649147897.9369347,1649147898.9904957,b2523024-34fb-4b9f-b562-c5d5b7ce1e0f
0.0715465012612988,0.1789713473324288,0.2710516627938981,-0.1512318665917639,0.0322187508206343,0.0741630918505732,-0.0702490415695144,-0.1005699367185913,-13.58947518596552,28.27701243585341,16.170413303727816,0.7044817655783037,0.6603990351280911,-0.2913090679720501,-1.0,11.989333333333333,0.0,179.03943604266226,1.1046349092321013,95.81559970641156,1553.0,1435.0,1000.0,1330.0,1471.0,1012.0,60.0,292.25,1649147900.992605,1649147902.1324866,d146b661-a380-4118-90b5-38c2f1cdd88e
0.0750572031371759,0.1783533586314976,0.2713146367041182,-0.1496671716284293,0.0333232413139234,0.0741367944486125,-0.0703410824440737,-0.0917077149921254,-13.67461735265115,28.268073464497967,16.286571612736655,0.7008225980518623,0.6574781810327418,-0.2929939392415907,-1.0,11.987000000000002,0.0,179.04225918751914,1.109111991511339,95.78723544860831,1553.0,1435.0,1000.0,1330.0,1471.0,1012.0,60.0,292.25,1649147902.2407722,1649147903.3649533,d146b661-a380-4118-90b5-38c2f1cdd88e
0.0692586281149617,0.177656477755291,0.2749436766564235,-0.1505612830336004,0.0360844675410897,0.0747416344787878,-0.0661860942562432,-0.0878288494214769,-13.588278621332336,28.30495550415345,16.187566658763522,0.7046515268451016,0.6554716196688644,-0.3078039863675202,-1.0,11.983333333333334,0.0,179.04247623575282,1.1208046943300023,95.76524906967002,1553.0,1435.0,1000.0,1330.0,1471.0,1012.0,60.0,292.25,1649147903.47937,1649147904.5838203,d146b661-a380-4118-90b5-38c2f1cdd88e
0.1007968714759513,0.1931253704400592,0.3904516780530298,-0.1437140989505042,0.1398457592762319,0.0468324310410322,0.0465311067427759,0.016412373918283,-12.754227897080437,28.548748065256188,16.142375859555084,0.6342705443689058,0.7144703821699613,-0.7647147632204804,-1.0,11.982333333333337,0.0,179.03015912794956,1.1087628929537603,95.71379270119289,1553.0,1435.0,1000.0,1210.0,1471.0,1012.0,60.0,292.25,1649147905.4973304,1649147906.63117,8348fa98-4aff-4eb0-97d1-abb337a98e70
0.1100283518155498,0.197590448360723,0.3935334034931375,-0.144234568230221,0.1414756497030781,0.045325809590149,0.0474487761686747,0.0163438911755196,-12.816814207784306,28.641399785196324,16.496409961623545,0.6328515955073017,0.7287833315052513,-0.7714887784824332,-1.0,11.981000000000002,0.0,179.0430894349583,1.1043783028195335,95.71391564459796,1553.0,1435.0,1000.0,1210.0,1471.0,1012.0,60.0,292.25,1649147906.7418067,1649147907.863613,8348fa98-4aff-4eb0-97d1-abb337a98e70
0.1191776527912019,0.2003434565215195,0.3992722610868371,-0.1477956737186841,0.1468857902000101,0.0446820713289074,0.0536944068840639,0.0366558877232998,-12.82789701165837,28.55893630287498,16.36946804177342,0.6391512935164236,0.741113173067991,-0.7954237835476899,-1.0,11.981,0.0,179.03653852463432,1.1099152383588866,95.69557430994674,1553.0,1435.0,1000.0,1210.0,1471.0,1012.0,60.0,292.25,1649147907.972152,1649147909.0668266,8348fa98-4aff-4eb0-97d1-abb337a98e70
0.1438314576555619,0.2127799311836705,0.4986544816957407,-0.1208956307760741,0.2379679011837078,0.000935262755337,0.1446395545757943,0.127696911970626,-12.113863675296413,28.87128666422811,16.129488278643976,0.4875068185537206,0.7878243255756257,-1.1826629773418549,-1.0,11.981777777777776,0.0,179.03155248654022,1.1037531152090985,95.635572615908,1553.0,1435.0,1000.0,1071.0,1471.0,1012.0,60.0,292.25,1649147911.0271728,1649147912.1717284,e256f0fc-f130-4da9-bd14-e69d04868067
0.1363695727557361,0.2139600266215203,0.5040991371810334,-0.1245005652373226,0.2415196925962481,0.002108236055853,0.1508331382195857,0.1291772359576756,-11.979632388532982,28.91246584946092,16.03236279027448,0.4988706706424618,0.7929508707518571,-1.2036894870326895,-1.0,11.976125,0.0,179.04566878000736,1.1087144991069264,95.63654440004493,1553.0,1435.0,1000.0,1071.0,1471.0,1012.0,60.0,292.25,1649147912.2855816,1649147913.3894317,e256f0fc-f130-4da9-bd14-e69d04868067
0.1351204466344256,0.2169025951378672,0.5003939444946616,-0.1210188998063984,0.2375980941540517,-0.0021875526540998,0.1442971406722694,0.1239988411719229,-12.063124882923466,28.98458272672585,16.247337761427577,0.4816494935207752,0.8020105794197754,-1.1833898793433235,-1.0,11.974333333333334,0.0,179.05593170841772,1.1062758858961312,95.63905449456487,1553.0,1435.0,1000.0,1071.0,1471.0,1012.0,60.0,292.25,1649147913.4986503,1649147914.617919,e256f0fc-f130-4da9-bd14-e69d04868067
-0.0335389760839142,0.1252589247319643,-0.0255264890246647,-0.1170742906915795,-0.2340292147304649,0.1119321734831368,-0.3773911149627001,-0.400017834482499,-15.81897799545056,28.68663506507844,16.211933796467253,0.6991349820870627,0.4513566160898443,0.9050354098737866,-1.0,11.981666666666667,0.0,179.1024134224494,1.1156453994755406,95.7348972268183,1553.0,1435.0,1000.0,1613.0,1471.0,1012.0,60.0,292.25,1649147916.5572894,1649147917.69398,56d15e57-a580-4c6f-9942-e2f85dde7c03
-0.0221905551532716,0.1264028612803341,-0.0316050218930407,-0.1156120460027642,-0.2396305599742327,0.1092832591014507,-0.3842136460165206,-0.4064086498574467,-15.829719834337796,28.652369839329783,16.13696774171475,0.6893368761494656,0.4558215626949293,0.9307162401050748,-1.0,11.992111111111113,0.0,179.112209431539,1.1209597135366338,95.72886465196136,1553.0,1435.0,1000.0,1613.0,1471.0,1012.0,60.0,292.25,1649147917.806311,1649147918.928545,56d15e57-a580-4c6f-9942-e2f85dde7c03
-0.0184694740167955,0.1302159831060347,-0.0234002352105647,-0.1187545845967182,-0.2318859769999335,0.107100575562567,-0.3759825606213594,-0.3972308580469683,-15.85274807025213,28.56750735262648,16.010938620108,0.6913351902664812,0.4723086832941904,0.8975393049723088,-1.0,11.99088888888889,0.0,179.100836407661,1.1253895299581775,95.73854454783512,1553.0,1435.0,1000.0,1613.0,1471.0,1012.0,60.0,292.25,1649147919.0367897,1649147920.1534426,56d15e57-a580-4c6f-9942-e2f85dde7c03
-0.0671590978913493,0.1136749235708552,-0.1228306807044099,-0.0976114797928598,-0.3228223725423659,0.1089282443115157,-0.4831970530766907,-0.5124660586085485,-16.464879076002763,28.91267123645845,15.938037885320172,0.6447659504020143,0.4063476082690392,1.3070945532405136,-1.0,11.988666666666669,0.0,179.11225496613346,1.117891227336071,95.74708228429762,1553.0,1435.0,1000.0,1694.0,1471.0,1012.0,60.0,292.25,1649147921.0622532,1649147922.199817,34bb668e-9559-418f-a3d8-366cb5abc0d9
-0.0615577530305201,0.11168947047541,-0.1251580000838191,-0.0958627031017179,-0.3231247925950153,0.1099143965050539,-0.4856821572780295,-0.5169892117825692,-16.64445539794893,28.865635299341903,16.013547838151045,0.642531104990617,0.3991390570917824,1.3139924275779904,-1.0,11.988222222222223,0.0,179.1130396789781,1.126004294415348,95.72807993911672,1553.0,1435.0,1000.0,1694.0,1471.0,1012.0,60.0,292.25,1649147922.308281,1649147923.26712,34bb668e-9559-418f-a3d8-366cb5abc0d9
-0.0727522247797529,0.1070698952733139,-0.125579854127969,-0.091639779934976,-0.3232760026375678,0.1109734143980366,-0.4850323923983105,-0.5046595672245262,-16.505817196151266,28.911467299805736,16.072985694230397,0.6357470615875577,0.3797588998306356,1.313488320367733,-1.0,11.990777777777778,0.0,179.1190881909431,1.128674673079444,95.73223421195192,1553.0,1435.0,1000.0,1694.0,1471.0,1012.0,60.0,292.25,1649147923.3797758,1649147924.451254,34bb668e-9559-418f-a3d8-366cb5abc0d9
-0.0904070897097911,0.0954004275267394,-0.2175796460931796,-0.0615484393343065,-0.4074002807497274,0.0988656567921251,-0.590619192426238,-0.6163824280096413,-17.232072187998416,29.388368802780445,15.902942696062576,0.5388483997719516,0.3331095455041091,1.701715966797566,-1.0,11.985444444444443,0.0,179.11385323039926,1.1154832654885245,95.71559587113376,1553.0,1435.0,1000.0,1774.0,1471.0,1012.0,60.0,292.25,1649147925.5679595,1649147926.702359,74cfff5c-b2e6-4a87-9df2-2e9112a975a3
-0.0846682313388317,0.0991806776434868,-0.2158401829433547,-0.0644110201812832,-0.4058799624054239,0.0982493116714324,-0.5885510113870733,-0.6139307434898824,-17.237352723088776,29.29240723417297,15.98294444810854,0.543381238518957,0.3470771928497771,1.694910347676311,-1.0,11.978111111111112,0.0,179.12150304226964,1.1248283042234075,95.69178431386727,1553.0,1435.0,1000.0,1774.0,1471.0,1012.0,60.0,292.25,1649147926.8115275,1649147927.9343443,74cfff5c-b2e6-4a87-9df2-2e9112a975a3
-0.0961733411514618,0.097085104211054,-0.2161415072641866,-0.064013819966126,-0.4063319489266181,0.0989889258284932,-0.588687977008803,-0.60689070992543,-17.20871413582566,29.34157078325833,15.845840153636884,0.5444507317993801,0.3401628009808042,1.695688112325608,-1.0,11.972333333333331,0.0,179.13170582706985,1.1310700417657087,95.66583035393116,1553.0,1435.0,1000.0,1774.0,1471.0,1012.0,60.0,292.25,1649147928.0425937,1649147929.1623828,74cfff5c-b2e6-4a87-9df2-2e9112a975a3
-0.12001685962968164,0.08623359489876076,-0.29137068647443337,-0.02871230863490236,-0.47369054341908085,0.08161840256267211,-0.6783763609101247,-0.6951804015605991,-17.921281284207495,29.81681764370437,15.849244721462732,0.4248316985627424,0.2953688033298601,2.015983683438476,-1.0,11.961222222222224,0.0,179.13051737415424,1.1070157281924777,95.62198129836958,1553.0,1435.0,1000.0,1856.0,1471.0,1012.0,60.0,292.25,1649147931.0982187,1649147932.2334204,23780a11-d492-4f69-a6cb-344b9d461c16
-0.12814111084543553,0.08301873870124378,-0.29048643659171103,-0.029060201233103104,-0.4728424523727012,0.08347072512916848,-0.6756337610932969,-0.6993562100443761,-17.787411343477057,29.800264167939034,15.632807779093858,0.42974605533137167,0.28438052361766913,2.009121443894349,-1.0,11.954444444444444,0.0,179.14471202506934,1.1125830319861094,95.57384516073895,1553.0,1435.0,1000.0,1856.0,1471.0,1012.0,60.0,292.25,1649147932.342143,1649147933.4700053,23780a11-d492-4f69-a6cb-344b9d461c16
-0.11655875226846042,0.08994152720280119,-0.28484893222583185,-0.032170415853234005,-0.4682469818655531,0.0788308789791679,-0.6707501142392874,-0.6993616889281772,-17.773057344168368,29.701352838313433,15.572008003346703,0.42595813221338275,0.3115211065535977,1.98899970326619,-1.0,11.953666666666669,0.0,179.14973297301924,1.1137739750748266,95.54097070135377,1553.0,1435.0,1000.0,1856.0,1471.0,1012.0,60.0,292.25,1649147933.5789738,1649147934.699545,23780a11-d492-4f69-a6cb-344b9d461c16
