raw_voltage_G-,raw_voltage_G0,raw_voltage_G1,raw_voltage_G2,raw_voltage_G3,raw_voltage_G4,raw_voltage_G5,raw_voltage_G6,load_x,load_y,load_z,load_l,load_m,load_n,rpm,voltage,current,roll,pitch,yaw,aileron1_pwm,elevator_pwm,throttle_pwm,rudder_pwm,aileron2_pwm,pbaro,pdiff,Tt,sample_start_time,sample_end_time,uid
0.1460366035486492,0.234297223719283,0.3995598887970697,-0.2028284509530945,0.1231633513072254,0.0681031864858168,0.0852649742810375,0.0649803709758159,-9.117288521420004,27.60018471461811,17.338127805207165,0.8116030064458908,0.8403901490774662,-0.8004743003896202,-1.0,11.98488888888889,0.0,179.234916056708,1.2554496719684431,90.93148093618728,1553.0,1435.0,1000.0,1528.0,1471.0,1012.0,60.0,292.25,1649149617.4463804,1649149618.5849297,df274a5c-b566-4a97-a2bb-214cdcccad79
0.1333585213883458,0.2399681465527797,0.3986071562550159,-0.2064169496533593,0.1213669107152407,0.0640122983930149,0.0835512608852852,0.060251771063993,-9.103440721404992,27.51649918036427,17.06755702092919,0.8098666474025975,0.8643396118889612,-0.7939717093853197,-1.0,11.98488888888889,0.0,179.24515526918375,1.252421004822104,90.95136437577108,1553.0,1435.0,1000.0,1528.0,1471.0,1012.0,60.0,292.25,1649149618.6931994,1649149619.8168766,df274a5c-b566-4a97-a2bb-214cdcccad79
0.133450562268077,0.2347086683186479,0.3976735988969199,-0.2029982883157443,0.1219454533407242,0.0685880446496223,0.0830516104318836,0.0524545939724579,-9.213215097840465,27.577506849835395,17.427079176667537,0.8127972923773982,0.8417248327380813,-0.7929769226360354,-1.0,11.99175,0.0,179.23947027506458,1.2586554675014607,90.97087632895504,1553.0,1435.0,1000.0,1528.0,1471.0,1012.0,60.0,292.25,1649149619.9254456,1649149621.0504282,df274a5c-b566-4a97-a2bb-214cdcccad79
0.2827419487668229,0.4763427897787824,0.4340341239440219,-0.2488488929273314,0.1064946398110799,-0.1312913194708944,0.045586044187499,0.0226990944284596,-8.875044424012215,27.301408265451773,16.665511666429158,0.4670984521738995,1.7603015370234063,-0.7400413564181614,-1.0,11.972,0.0,179.13003926091238,1.2305175249332905,91.01191096712364,1663.0,1435.0,1000.0,1528.0,1555.0,1012.0,60.0,292.25,1649149622.976269,1649149624.1142838,022ff707-6428-404a-b178-71840f96927d
0.2741405104588763,0.4786027217441004,0.4339108549290675,-0.2511088253385976,0.1054400048215417,-0.1317159127944233,0.045243630231412,0.0234661013906185,-8.841303006340835,27.306787686441453,16.62209059036581,0.4712817739739414,1.7691942050470335,-0.7377355682119701,-1.0,11.972,0.0,179.12903901765392,1.231267778524934,91.05285263882848,1663.0,1435.0,1000.0,1528.0,1555.0,1012.0,60.0,292.25,1649149624.2230656,1649149625.3424823,022ff707-6428-404a-b178-71840f96927d
0.274154207018241,0.4788903494493226,0.4330616683659223,-0.2540809789172517,0.1050291080658783,-0.1287848490690104,0.0453668992550854,0.0316703403706364,-8.895101935508926,27.24606360305441,16.687942550226666,0.4841113008842477,1.7703811871350166,-0.736104965388436,-1.0,11.973666666666666,0.0,179.11688887003038,1.215154935386051,91.1113471377904,1663.0,1435.0,1000.0,1528.0,1555.0,1012.0,60.0,292.25,1649149625.4509003,1649149626.571551,022ff707-6428-404a-b178-71840f96927d
0.4115323236039186,0.7321895490920902,0.4765263236416271,-0.2905291697854554,0.0932681473004417,-0.3493827434073858,0.0053822614584289,-0.0210071729640105,-8.631542173647015,27.25458604458818,15.851392374692209,0.0728366306191318,2.7331992266577174,-0.6930730328721141,-1.0,11.959,0.0,178.95577988570793,1.213207015238226,91.23471477348906,1779.0,1435.0,1000.0,1528.0,1638.0,1012.0,60.0,292.25,1649149628.5060718,1649149629.8456075,48ae0da0-e6da-48ab-9f02-772427c203aa
0.419502076460479,0.7301810859344546,0.4793149427214989,-0.2877197312790157,0.096687903999903,-0.3485735505829531,0.0079479008497839,-0.0139939869628605,-8.687599727312096,27.292409993594003,16.07475958496083,0.068714572207304,2.723914855352264,-0.7051430608372501,-1.0,11.96,0.0,178.9473681282901,1.2121007024621937,91.33568470107944,1779.0,1435.0,1000.0,1528.0,1638.0,1012.0,60.0,292.25,1649149629.955125,1649149631.077401,48ae0da0-e6da-48ab-9f02-772427c203aa
0.4109143349308675,0.7290075649076033,0.470977574316116,-0.2878468353363048,0.0891394567270057,-0.3469370854796821,0.0014508012210499,-0.0226507600716708,-8.58029017424522,27.18886373987872,16.070858932455657,0.0716304726101386,2.7182738472089847,-0.6742776370627463,-1.0,11.958666666666666,0.0,178.9469218892643,1.1963628438235243,91.39011903203472,1779.0,1435.0,1000.0,1528.0,1638.0,1012.0,60.0,292.25,1649149631.1861436,1649149632.305341,48ae0da0-e6da-48ab-9f02-772427c203aa
0.4772100557572253,0.8520004582220124,0.5048617614687514,-0.3216784359378706,0.0895339175417345,-0.4478402006370903,-0.0076743942821748,-0.0273448444324382,-8.501601149413677,27.69698904097252,14.5193650750771,-0.0739485745120227,3.1990879739511007,-0.6957666959092995,-1.0,11.927888888888887,0.0,178.7843724939369,1.183518471503871,91.45136382050242,1904.0,1435.0,1000.0,1528.0,1723.0,1012.0,60.0,292.25,1649149632.9323568,1649149633.8861978,467fe342-a655-463d-87be-af647e7709ae
0.4769076357905555,0.8395880900350479,0.4969068009629244,-0.3228881162154306,0.0849844686479246,-0.4380181222644955,-0.0124473711679028,-0.041676923886493,-8.670836549505513,27.679658705097083,13.980813233734215,-0.0498303364927443,3.158149366079889,-0.6743143151317912,-1.0,11.927666666666664,0.0,178.76970124759973,1.1956131949882132,91.5425551939311,1904.0,1435.0,1000.0,1528.0,1723.0,1012.0,60.0,292.25,1649149633.995299,1649149635.172224,467fe342-a655-463d-87be-af647e7709ae
0.4728709863750786,0.8453472184986063,0.495263214077871,-0.323387766734205,0.0825256624993171,-0.441147512759321,-0.015471571382188,-0.0442014734207935,-8.672230578008751,27.65084996356752,14.254944989560284,-0.0559652254358317,3.177286677546128,-0.6633291641021895,-1.0,11.932777777777778,0.0,178.7733273191391,1.1925203050909288,91.6476346186721,1904.0,1435.0,1000.0,1528.0,1723.0,1012.0,60.0,292.25,1649149635.2808714,1649149636.4036562,467fe342-a655-463d-87be-af647e7709ae
0.5103239485580414,0.8899788204610362,0.5104746106847394,-0.3267960189393114,0.082238034812627,-0.4848680339407296,-0.022622818608942,-0.0395243727521202,-8.666611267262484,28.33761200799757,13.833296056218828,-0.1412772223387141,3.3497752097134623,-0.6689924447209554,-1.0,11.87022222222222,0.0,178.77003365013928,1.1444382872231085,91.79202633554598,2045.0,1435.0,1000.0,1528.0,1813.0,1012.0,60.0,292.25,1649149638.5413294,1649149639.6750517,13f67898-2652-4a56-881f-d4cef934e596
0.5099503064684661,0.8847933038011098,0.5120409489907891,-0.3229012648534726,0.0846557513305704,-0.4846302614370325,-0.0197317489338727,-0.0427288194858147,-8.56324046203738,28.33806242464026,13.671350641983649,-0.1494213285207919,3.330649831987732,-0.6792864241398955,-1.0,11.864777777777778,0.0,178.75131437835404,1.1415554375007688,91.78524547551996,2045.0,1435.0,1000.0,1528.0,1813.0,1012.0,60.0,292.25,1649149639.78346,1649149640.9084594,13f67898-2652-4a56-881f-d4cef934e596
0.5092008308560515,0.8877188884673394,0.518911690016928,-0.3243443346322225,0.0907846873189047,-0.4862513866126693,-0.0131858894539591,-0.0286630011809038,-8.560985548470994,28.317936127775933,13.7113562167383,-0.1495927918151274,3.34186492489526,-0.7059121374720311,-1.0,11.870666666666668,0.0,178.73853888896645,1.1360345339332172,91.79210298544666,2045.0,1435.0,1000.0,1528.0,1813.0,1012.0,60.0,292.25,1649149641.0174685,1649149642.137634,13f67898-2652-4a56-881f-d4cef934e596
-0.0105972398575769,-0.0501529021380071,0.3699068417466226,-0.1454398655024311,0.1513234750603914,0.2984929901819853,0.1404621043899125,0.122355254199447,-9.320514414897591,28.17178108270248,18.07336509411292,1.2021926289538185,-0.2404846881169867,-0.9102530252162128,-1.0,11.978,0.0,179.30585743706737,1.1816824905674437,91.79347585346984,1444.0,1435.0,1000.0,1528.0,1381.0,1012.0,60.0,292.25,1649149644.0712185,1649149645.2143128,a100dc21-f8c9-49c0-b8f9-316acc236380
-0.0120134640455552,-0.0480934875156024,0.3705083945549896,-0.151586881420436,0.1504649747942535,0.3026348292634339,0.1412477389773054,0.1172908146697551,-9.35096095570398,28.224703381400413,18.149163070181057,1.225743594529222,-0.2324210715898659,-0.9107630899249908,-1.0,11.97625,0.0,179.28050605159802,1.200767346449355,91.85461572264276,1444.0,1435.0,1000.0,1528.0,1381.0,1012.0,60.0,292.25,1649149645.3276107,1649149646.433807,a100dc21-f8c9-49c0-b8f9-316acc236380
-0.0152348947135021,-0.0507495242516286,0.3691803763329582,-0.1454201424475731,0.1501888521813827,0.2977829606412303,0.1393148806740355,0.1165150417210557,-9.302116310014778,28.21942727380261,17.884135723115403,1.2008113835027674,-0.2412231402243702,-0.9064295717735024,-1.0,11.97777777777778,0.0,179.2697940382497,1.1912454431675654,91.89327402416262,1444.0,1435.0,1000.0,1528.0,1381.0,1012.0,60.0,292.25,1649149646.5411766,1649149647.6643455,a100dc21-f8c9-49c0-b8f9-316acc236380
-0.1629303722535471,-0.3271384327597345,0.343047892314654,-0.0714510516387027,0.179428812368555,0.5099267484063442,0.1894820859946965,0.1757033483997236,-9.46341460801042,29.092679277418355,19.308789940061228,1.5153042286419285,-1.300083663526047,-1.0133177814008605,-1.0,11.951666666666666,0.0,179.37175965563912,1.2164485447557294,91.96038746294715,1331.0,1435.0,1000.0,1528.0,1283.0,1012.0,60.0,292.25,1649149649.6008148,1649149650.734347,7fbdcf51-a992-4ac2-bd02-feda3b143334
-0.1649328092529997,-0.3294361678006248,0.3420677666499279,-0.0718926286716349,0.1791291316733278,0.5111468377391438,0.1895297500115099,0.1746585749572244,-9.456297658742416,29.055445921686715,19.101324522465283,1.518716905056539,-1.306921576805963,-1.0121957010253688,-1.0,11.95411111111111,0.0,179.36218221260293,1.2108242159973086,91.93577449681806,1331.0,1435.0,1000.0,1528.0,1283.0,1012.0,60.0,292.25,1649149650.8424585,1649149652.1721945,7fbdcf51-a992-4ac2-bd02-feda3b143334
-0.1685185686014896,-0.3266453565739994,0.3465268179503202,-0.0705059890382881,0.1822229102202364,0.5072833128417423,0.191509176586765,0.1750322170599344,-9.48639308898768,29.172938877147885,19.145852299371214,1.5078999841559098,-1.2965220307531136,-1.0249626173024526,-1.0,11.952000000000002,0.0,179.3688408881338,1.2178162545631226,91.9044891947798,1331.0,1435.0,1000.0,1528.0,1283.0,1012.0,60.0,292.25,1649149652.2801695,1649149653.401467,7fbdcf51-a992-4ac2-bd02-feda3b143334
-0.3260043576013182,-0.6087934357338226,0.3094590021509746,0.0157960290307529,0.2005615056970189,0.7135578483132902,0.2277135622301901,0.2073330838616249,-9.534310298041229,30.29744337867272,20.44897357068931,1.7825425501487828,-2.378915713554654,-1.0830005970892378,-1.0,11.910777777777778,0.0,179.47148345316091,1.2448112965971287,91.84025430127544,1209.0,1435.0,1000.0,1528.0,1173.0,1012.0,60.0,292.25,1649149654.5162263,1649149655.6536858,a02f092a-9231-4338-ba58-79fb020616f5
-0.326766982129034,-0.6087408409503836,0.3075392926299683,0.0152832298701739,0.1985629039599949,0.7147938256398568,0.2257412578979305,0.2109884213587633,-9.55141454427116,30.31521048680161,20.54970761864536,1.7865063448383014,-2.3795484562907943,-1.0747288219201323,-1.0,11.912222222222224,0.0,179.46004212739123,1.2248648556330008,91.7014253940256,1209.0,1435.0,1000.0,1528.0,1173.0,1012.0,60.0,292.25,1649149655.7640908,1649149656.8830996,a02f092a-9231-4338-ba58-79fb020616f5
-0.3246237443061546,-0.6134086296520301,0.3019642457810313,0.0216997937255511,0.1944868082863659,0.7134132126668632,0.2190748692071488,0.2002985315961248,-9.61842762776124,30.389567183415547,20.49558999188108,1.769102687225711,-2.397243740173648,-1.052748363903622,-1.0,11.912333333333333,0.0,179.46936609451825,1.2274609441319058,91.61147711502586,1209.0,1435.0,1000.0,1528.0,1173.0,1012.0,60.0,292.25,1649149656.991768,1649149658.137389,a02f092a-9231-4338-ba58-79fb020616f5
-0.3180850061978944,-0.5929339115548676,0.3034237509632408,0.0179600852642115,0.185797711846041,0.683777149934684,0.2018363813152471,0.1893451201932061,-9.935291096740144,31.19850128074117,18.577328933965244,1.7159122758253411,-2.30064023569233,-1.0191735099578605,-1.0,11.798555555555556,0.0,179.4886651734731,1.2146309911005004,91.4764048118195,1074.0,1435.0,1000.0,1528.0,1047.0,1012.0,60.0,292.25,1649149659.0214548,1649149660.1690438,fa7d888b-256a-4ddd-9ec9-6831769aa6ba
-0.3215469489196834,-0.5851652210558496,0.2977566632520624,0.0113912156950867,0.1775381394724651,0.6828950916467252,0.1943553213165779,0.1739353965531608,-9.933899154770724,31.25071085077468,18.622856397338,1.728819811867499,-2.2714658928371345,-0.9886211999962752,-1.0,11.803222222222225,0.0,179.46592367917654,1.2305876529519562,91.19300812059714,1074.0,1435.0,1000.0,1528.0,1047.0,1012.0,60.0,292.25,1649149660.2811823,1649149661.597559,fa7d888b-256a-4ddd-9ec9-6831769aa6ba
-0.3204950530503763,-0.5906087830105262,0.2962971580527982,0.0136001966857746,0.1774986933757927,0.685064626315188,0.1940529013178201,0.1644157408360207,-9.94744480040774,31.24778621428931,18.45563037200199,1.7285865893249446,-2.290669114319608,-0.9870308581432552,-1.0,11.807222222222224,0.0,179.4633722240666,1.2197475616987477,90.99138473084793,1074.0,1435.0,1000.0,1528.0,1047.0,1012.0,60.0,292.25,1649149661.7055757,1649149663.02688,fa7d888b-256a-4ddd-9ec9-6831769aa6ba
0.133134993555021,0.231434643114788,0.396463918941015,-0.1997768574392064,0.1208409628841982,0.0659846027870388,0.081223941677505,0.0585818866047822,-9.16565979218328,27.64971331023517,17.01007566270586,0.8000561488149254,0.8323324647165795,-0.7881738654615235,-1.0,11.987222222222222,0.0,179.19226835553047,1.1845751231128132,90.7961809600086,1553.0,1435.0,1000.0,1528.0,1471.0,1012.0,60.0,292.25,1649149663.9352796,1649149665.0755005,5fa48dbb-677c-4beb-802e-35bcb39951c2
0.1436670989815408,0.2333806500605707,0.3944916146586062,-0.1996585191019026,0.1186451306553274,0.0643147184073913,0.078883473764499,0.045998584215384,-9.138960290159096,27.6255597289076,17.042762392893806,0.7957970790599621,0.8390124865631756,-0.7788510760492341,-1.0,11.985333333333331,0.0,179.1797175034756,1.186085436835065,91.06668301298784,1553.0,1435.0,1000.0,1528.0,1471.0,1012.0,60.0,292.25,1649149665.1838686,1649149666.1415226,5fa48dbb-677c-4beb-802e-35bcb39951c2
0.1441273033334351,0.2327232152831034,0.3970950563093071,-0.1989616381576131,0.1211302341953536,0.0654586549565586,0.0811056034085577,0.0536116794464571,-9.181952692308736,27.682091836138,17.223052441290132,0.7973071547313316,0.8353332920394763,-0.7888209171834107,-1.0,11.988444444444443,0.0,179.1734944422318,1.1881655258865165,91.27787322103455,1553.0,1435.0,1000.0,1528.0,1471.0,1012.0,60.0,292.25,1649149666.2496226,1649149667.3294866,5fa48dbb-677c-4beb-802e-35bcb39951c2
0.1432425056693129,0.2329001748089417,0.395560494001231,-0.4207681246942434,0.0961537382233744,0.2772633256696209,0.1420782982493674,0.118136714220694,-8.870622047307391,27.1137811316444,18.555099355191444,1.7701268617921817,0.8491897826744405,-0.8391160820988054,-1.0,11.985777777777775,0.0,179.17518984696576,1.2459154393651437,91.49924648222384,1553.0,1537.0,1000.0,1528.0,1471.0,1012.0,60.0,292.25,1649149667.930233,1649149669.171733,121a3567-7729-4bdd-98bd-3fc16e67d1a5
0.1560350910359529,0.2354614311396394,0.3970260256578675,-0.422713036689184,0.0970029248538326,0.2776331326263497,0.1428590020736803,0.1282173810377898,-8.92626365289267,27.13225437925126,18.718453859409724,1.7755385785239135,0.8580747423837313,-0.8429051788969998,-1.0,11.984333333333334,0.0,179.18110175514735,1.252456151837208,91.66282268265648,1553.0,1537.0,1000.0,1528.0,1471.0,1012.0,60.0,292.25,1649149669.280402,1649149670.4055092,121a3567-7729-4bdd-98bd-3fc16e67d1a5
0.161864894052256,0.2410463395870804,0.4011580031201983,-0.4240542037314775,0.0996321161913544,0.2731423053639683,0.145718295563039,0.1257454262975003,-8.874731762558817,27.120750854532915,18.709189783139003,1.7686263840299994,0.8791657984949786,-0.8554978897457555,-1.0,11.98488888888889,0.0,179.1531647636222,1.2484445422067196,91.76582041752044,1553.0,1537.0,1000.0,1528.0,1471.0,1012.0,60.0,292.25,1649149670.5187025,1649149671.6272411,121a3567-7729-4bdd-98bd-3fc16e67d1a5
0.1680053350010055,0.2379038013458761,0.4033275378289199,-0.6526969475960231,0.0749520136076699,0.4996022834844815,0.2105808118247684,0.1951310943695386,-8.60551555617712,26.93436934110288,20.791746105967285,2.7926141755413183,0.8753014708215203,-0.916373397660107,-1.0,11.98,0.0,179.161749552499,1.3196467622730004,91.95723419228034,1553.0,1645.0,1000.0,1528.0,1471.0,1012.0,60.0,292.25,1649149673.4319065,1649149674.4986677,b699ba57-65c0-4ec1-861e-274cc419d3ec
0.1725547837402406,0.2411646778507484,0.4025912108979813,-0.6602443020886093,0.0730586013557568,0.5029157546275052,0.2110410161731541,0.185769222743948,-8.579326244349234,26.877616426035743,20.72852306043429,2.816675189061951,0.888788322245504,-0.9131652127819042,-1.0,11.979444444444445,0.0,179.17006265162885,1.329276083916151,92.02629954734768,1553.0,1645.0,1000.0,1528.0,1471.0,1012.0,60.0,292.25,1649149674.6079867,1649149675.722102,b699ba57-65c0-4ec1-861e-274cc419d3ec
0.1753423072462241,0.2402705665483396,0.4052209499339989,-0.6631896110684484,0.0760959501695267,0.5078991100541671,0.2151960039996889,0.2017317393118256,-8.63150292105711,26.836449847807994,20.9536109673091,2.834385010678057,0.884337850348472,-0.9266387713324684,-1.0,11.98,0.0,179.15795044950065,1.3173859933736607,92.07029279579176,1553.0,1645.0,1000.0,1528.0,1471.0,1012.0,60.0,292.25,1649149675.8318057,1649149676.9557192,b699ba57-65c0-4ec1-861e-274cc419d3ec
0.1769771284168528,0.2370228387423509,0.3874247388373429,-0.8231320635951819,0.0374913780374916,0.6662592532037414,0.2344341892793771,0.2109308955179016,-8.75915664302331,27.19493269363348,22.07739225694675,3.552637556904594,0.881670586973558,-0.8776376011859252,-1.0,11.968444444444446,0.0,179.18418292937298,1.36763382153861,92.18567594035068,1553.0,1761.0,1000.0,1528.0,1471.0,1012.0,60.0,292.25,1649149679.0926514,1649149680.2257264,5e2528b8-4ca4-4724-bbe1-e4b149329941
0.1778126184771094,0.2364612798669751,0.3889176636029378,-0.8246112926639128,0.0387240683068397,0.6672454053262588,0.236872176588884,0.2103556401574886,-8.699292136061285,27.174658810240903,21.96085302261348,3.55814184766686,0.8804500021930558,-0.8850178666955943,-1.0,11.967,0.0,179.1807617635087,1.373587446049203,92.1485682814999,1553.0,1761.0,1000.0,1528.0,1471.0,1012.0,60.0,292.25,1649149680.336416,1649149681.457798,5e2528b8-4ca4-4724-bbe1-e4b149329941
0.1726627126107197,0.2326125470945189,0.3890546291782679,-0.8179273689043861,0.0395595583860063,0.6667934189373584,0.2360366865484992,0.2057535967106204,-8.720984852910245,27.2851803763072,22.23140036674282,3.542820567505722,0.8629582189016819,-0.8852390127059122,-1.0,11.96588888888889,0.0,179.16946463062152,1.3541041061403627,92.13662531628115,1553.0,1761.0,1000.0,1528.0,1471.0,1012.0,60.0,292.25,1649149681.5664637,1649149682.690294,5e2528b8-4ca4-4724-bbe1-e4b149329941
0.166348599323879,0.2339460439719921,0.3515085298729765,-0.821907590702473,-0.0019021163849524,0.6714951731114834,0.1909761065268459,0.1631403172263922,-8.974904748544372,27.90271260921671,22.240377738590777,3.564462207081008,0.8677975602827562,-0.7137224845996631,-1.0,11.916,0.0,179.18380954569835,1.3769459544142104,92.15375239507996,1553.0,1887.0,1000.0,1528.0,1471.0,1012.0,60.0,292.25,1649149683.4305124,1649149684.5306518,9a5a8a24-8830-4af2-a6b3-0c88a438c2b3
0.1594455340140499,0.2280105036293064,0.3468966249858214,-0.8235840502740461,-0.0058308373466552,0.6785450650625572,0.1876467471927208,0.1578156433664686,-9.041623907865558,27.981602885457164,22.165235294424026,3.5843337059045104,0.8465892584203201,-0.6982625107880301,-1.0,11.93011111111111,0.0,179.18482648497476,1.361125931920057,92.0601537594238,1553.0,1887.0,1000.0,1528.0,1471.0,1012.0,60.0,292.25,1649149684.638801,1649149685.960101,9a5a8a24-8830-4af2-a6b3-0c88a438c2b3
0.1587355044240383,0.2279633874717298,0.3508379464012898,-0.8148993322617973,-0.0016654398662848,0.6689969210685678,0.1897795751846734,0.1616808120304783,-8.928501155145009,27.9951229093144,21.96094199830956,3.543597410337953,0.8466033488547143,-0.7124892100204591,-1.0,11.928,0.0,179.179854107259,1.3474261021227945,92.00393674909516,1553.0,1887.0,1000.0,1528.0,1471.0,1012.0,60.0,292.25,1649149686.0684135,1649149687.3979862,9a5a8a24-8830-4af2-a6b3-0c88a438c2b3
0.1191639562240451,0.2334206440100048,0.4007514892983124,0.0208226660738516,0.1445299821899374,-0.1492201159753579,0.0205076452535181,-0.0029408635699628,-9.295127743223144,28.488615463998386,15.345525874769748,-0.1757119003226045,0.8285758939385263,-0.7404445256257685,-1.0,11.99,0.0,179.1829094785477,1.1011772919763247,91.9606424566762,1553.0,1335.0,1000.0,1528.0,1471.0,1012.0,60.0,292.25,1649149687.929406,1649149689.043154,0e46b036-d373-4ce8-b2b9-b23d07b9a16b
0.1345041015263225,0.2393786467029715,0.4064629537742767,0.0211513835162025,0.1486389496548343,-0.1538221599733512,0.0233976191461447,-0.0038174436812612,-9.351122158763769,28.564999214425143,15.59657431991768,-0.1859922313535228,0.849416204802738,-0.7569337743712609,-1.0,11.989,0.0,179.18949378090758,1.1130413661385383,92.12971468266096,1553.0,1335.0,1000.0,1528.0,1471.0,1012.0,60.0,292.25,1649149689.1566265,1649149690.2718296,0e46b036-d373-4ce8-b2b9-b23d07b9a16b
0.1244042594433353,0.2356816717921689,0.4069434290104396,0.0236720981282268,0.1499916217415446,-0.1523889520532551,0.025407726110841,0.0080514463573101,-9.272603695194611,28.532960624021246,15.62487652769476,-0.1886021638755874,0.8344632873012446,-0.7626103229426626,-1.0,11.988444444444443,0.0,179.17862315538858,1.117182405482205,92.2574710943563,1553.0,1335.0,1000.0,1528.0,1471.0,1012.0,60.0,292.25,1649149690.38531,1649149691.4484012,0e46b036-d373-4ce8-b2b9-b23d07b9a16b
0.1170015436104971,0.2330256352808679,0.4081136628819153,0.2299751378994348,0.1707402637663048,-0.3505924236119957,-0.0341821664401563,-0.0580470511743438,-9.559803166207116,29.35645547804417,13.852548739263463,-1.094270713702308,0.8169301918778512,-0.7091736025642374,-1.0,11.975888888888887,0.0,179.17571501262196,1.0603764810651168,92.50298983317153,1553.0,1236.0,1000.0,1528.0,1471.0,1012.0,60.0,292.25,1649149693.6365063,1649149694.7675192,6354b375-98dd-47f5-a8b3-c702cec730fa
0.1120050391136776,0.2338277057141779,0.4041164595440672,0.2208104970240595,0.1667693576322927,-0.3426506097718803,-0.0366278240139635,-0.0575605493364436,-9.702713948811402,29.30770372986683,13.870099022069653,-1.0563425684303678,0.8216685186078451,-0.6948728464465591,-1.0,11.975666666666667,0.0,179.16556990497477,1.0439319468646646,92.59884394907355,1553.0,1236.0,1000.0,1528.0,1471.0,1012.0,60.0,292.25,1649149694.876312,1649149696.2052891,6354b375-98dd-47f5-a8b3-c702cec730fa
0.1087178651247462,0.2330913787585336,0.403866634333643,0.2215862700857049,0.1666641680632922,-0.3427952454274521,-0.0361544709413213,-0.0593882181839064,-9.632162335353152,29.27666930251438,13.849397228910156,-1.058603494718427,0.8184790991569787,-0.695112405202352,-1.0,11.97411111111111,0.0,179.156598072045,1.042476571104956,92.70423528578668,1553.0,1236.0,1000.0,1528.0,1471.0,1012.0,60.0,292.25,1649149696.3133872,1649149697.36763,6354b375-98dd-47f5-a8b3-c702cec730fa
0.1027554793230016,0.2270654411342779,0.400669309952891,0.3357613236069135,0.172142243452499,-0.4461341568308925,-0.0756832884157056,-0.0903523039139928,-9.908260997861415,30.15440715961114,13.092527406663562,-1.5429709799424305,0.7902952455818774,-0.6432836853061663,-1.0,11.967444444444446,0.0,179.17811772139,1.0205659527198223,92.82344713083036,1553.0,1133.0,1000.0,1528.0,1471.0,1012.0,60.0,292.25,1649149699.494374,1649149700.5054195,1eab29a6-96a7-4e1c-a199-1abaaa6d9461
0.099448034401676,0.2278713466042475,0.39363694946127,0.3346387537491981,0.1655728263014714,-0.4458021521994566,-0.0832005079994167,-0.1071705827584216,-9.986125733651646,30.136426705298547,13.049669760495792,-1.5402080647258864,0.7939409280598967,-0.6140669494877955,-1.0,11.969111111111111,0.0,179.16352388386338,1.0202326134007975,92.86257576676552,1553.0,1133.0,1000.0,1528.0,1471.0,1012.0,60.0,292.25,1649149700.6129477,1649149701.7349885,1eab29a6-96a7-4e1c-a199-1abaaa6d9461
0.0965509383660759,0.2264353994679685,0.3968068807176926,0.342760264571064,0.1689372488206806,-0.4511334018640562,-0.0810934293577508,-0.1026929040513447,-9.87812528053333,30.184476140727256,13.174009067412763,-1.56995768118707,0.7858906762634756,-0.6258417738721027,-1.0,11.967999999999998,0.0,179.1573509106735,1.0034383521705,92.88109923979462,1553.0,1133.0,1000.0,1528.0,1471.0,1012.0,60.0,292.25,1649149701.843601,1649149702.9704216,1eab29a6-96a7-4e1c-a199-1abaaa6d9461
0.0904674749795333,0.2240713735659248,0.3911781434516223,0.4057337489986519,0.1662960045586833,-0.5085477461496939,-0.1081304374173686,-0.1388589429890954,-9.95418317470795,30.81657992461493,12.79361193411969,-1.837217035455428,0.7728344154109815,-0.5766597994333589,-1.0,11.953777777777775,0.0,179.1796613441424,1.004051990120776,92.9423941163162,1553.0,1026.0,1000.0,1528.0,1471.0,1012.0,60.0,292.25,1649149705.1027374,1649149706.2481449,4c18f1d1-427c-41f9-b241-1fff8b0f36e4
0.0853131861117985,0.2233087492185474,0.3894819617607861,0.4004874196403743,0.1648759454048471,-0.5017367196001934,-0.1082487757330788,-0.1368340435292095,-10.038572731108816,30.78712223529213,12.962574869247495,-1.810372598691348,0.7696117917187414,-0.5721919528988386,-1.0,11.958555555555554,0.0,179.1767729330334,0.9994982816567872,92.93651560017057,1553.0,1026.0,1000.0,1528.0,1471.0,1012.0,60.0,292.25,1649149706.3555005,1649149707.4642107,4c18f1d1-427c-41f9-b241-1fff8b0f36e4
0.0901546455577064,0.2225866666891434,0.3858907243830775,0.3936840655963989,0.1605138655724337,-0.4945104133990574,-0.1102671007283527,-0.1324966174125637,-10.04744726654126,30.81205205230617,12.976822374109297,-1.7788031768500183,0.767450475709888,-0.5586250933633085,-1.0,11.958666666666666,0.0,179.17984500034012,0.999402528570767,92.9557873583687,1553.0,1026.0,1000.0,1528.0,1471.0,1012.0,60.0,292.25,1649149707.5728362,1649149708.907534,4c18f1d1-427c-41f9-b241-1fff8b0f36e4
0.1303129546738608,0.2325851539772402,0.3956563699104041,-0.2012944362562295,0.1194378874520773,0.0653775713151177,0.0803753029158145,0.0633641769640188,-9.126411285960684,27.64890358702723,16.878880429108285,0.8020686191638587,0.8376682071220589,-0.7839851209044163,-1.0,11.988,0.0,179.16686612309726,1.1323809993415608,92.93133983459948,1553.0,1435.0,1000.0,1528.0,1471.0,1012.0,60.0,292.25,1649149710.0209074,1649149711.1578166,fa5afbbb-1fb7-4e0b-ada9-26a0714c1747
0.1407634286265456,0.2384609773228763,0.402805972922658,-0.1999110836842318,0.1251630488160179,0.0610905485010809,0.085004739672932,0.0623780244646392,-9.166044539709985,27.70983247370062,17.313543632660885,0.7901238469152397,0.8564181822692262,-0.8068365892106512,-1.0,11.988111111111111,0.0,179.1590812252633,1.1755735266851015,92.89271207920343,1553.0,1435.0,1000.0,1528.0,1471.0,1012.0,60.0,292.25,1649149711.2658794,1649149712.5887115,fa5afbbb-1fb7-4e0b-ada9-26a0714c1747
0.1345999774095986,0.233995899442414,0.3958070320405309,-0.1990618969711646,0.1191228666055856,0.0640079154742888,0.0782112466677948,0.0551599382361679,-9.23012284029703,27.765725902307377,17.164149674990885,0.7947299569813104,0.8409017301342298,-0.7802081166459391,-1.0,11.98988888888889,0.0,179.16503715021952,1.1759247478188284,92.88062416219232,1553.0,1435.0,1000.0,1528.0,1471.0,1012.0,60.0,292.25,1649149712.697132,1649149714.0219915,fa5afbbb-1fb7-4e0b-ada9-26a0714c1747
0.1826924281761942,0.25277497602553,0.5217709833258549,-0.2039712919581989,0.233814557010345,0.0433293991616599,0.207885329201081,0.1857429255392223,-8.250213756922696,27.609181992905864,17.178487166340894,0.7650669241395021,0.9128592960268244,-1.289754371550872,-1.0,11.987555555555556,0.0,179.162531229704,1.1721014664251426,92.85577896963149,1553.0,1435.0,1000.0,1435.0,1471.0,1012.0,60.0,292.25,1649149714.9314249,1649149716.0775597,fcdc5653-f64e-448e-9665-fa74a4f19eeb
0.178708373374263,0.2538137229768074,0.5169980070301675,-0.2056411765259745,0.2281606179022431,0.04255362609338,0.2022839848516707,0.1780509384672646,-8.233099600430934,27.664344829929224,16.95373402390049,0.7671913155704503,0.9185300330975296,-1.2677889083639302,-1.0,11.987444444444444,0.0,179.15248781598447,1.156661361345604,92.81843225415972,1553.0,1435.0,1000.0,1435.0,1471.0,1012.0,60.0,292.25,1649149716.1968625,1649149717.298995,fcdc5653-f64e-448e-9665-fa74a4f19eeb
0.1770384890003882,0.253379816020863,0.5153281227615933,-0.2037740614574043,0.2272007631266386,0.0417252582442811,0.1997068404988558,0.1775512880770834,-8.326316584086491,27.680051836698304,17.00387731496149,0.7611001528918938,0.9167824891645076,-1.260573055328684,-1.0,11.98688888888889,0.0,179.15901444119137,1.1542055288840305,92.81644315129144,1553.0,1435.0,1000.0,1435.0,1471.0,1012.0,60.0,292.25,1649149717.4079416,1649149718.5307558,fcdc5653-f64e-448e-9665-fa74a4f19eeb
0.2161295613600241,0.2711174062696451,0.654296680098363,-0.1826572532661429,0.3547562576142115,-0.0016522911577216,0.3314173234299602,0.3095115966646065,-7.53747513169405,27.99152091832695,17.1064974221849,0.625388575361987,0.9830317084071836,-1.808365390584022,-1.0,11.974444444444444,0.0,179.15174104863522,1.142286054298549,92.80488571230588,1553.0,1435.0,1000.0,1330.0,1471.0,1012.0,60.0,292.25,1649149720.4631472,1649149721.5585449,1064e174-a48a-421c-837a-3a7354069b26
0.2102460679047256,0.2692234462566065,0.6511793436675583,-0.1794484232425763,0.3520054409894649,-0.003160008353433,0.3278584098881692,0.2992189075514285,-7.509483229714529,28.02628933727429,17.022183678758257,0.614838110964223,0.975885249105119,-1.7956169169505511,-1.0,11.976666666666668,0.0,179.13676016705566,1.1364148782346553,92.77805672924607,1553.0,1435.0,1000.0,1330.0,1471.0,1012.0,60.0,292.25,1649149721.667187,1649149722.829633,1064e174-a48a-421c-837a-3a7354069b26
0.2178065679157272,0.2705383158100459,0.6543706415077553,-0.1842422191645189,0.355032380218166,-0.0002015516291405,0.3333644260641113,0.302410205587392,-7.440225102275014,27.901131580855395,17.03298465417801,0.6316655913095576,0.981021296148112,-1.8116971000382736,-1.0,11.98,0.0,179.13684971842477,1.1450053233618596,92.77579214208126,1553.0,1435.0,1000.0,1330.0,1471.0,1012.0,60.0,292.25,1649149722.938298,1649149724.0581963,1064e174-a48a-421c-837a-3a7354069b26
0.2424138038850776,0.2766793044619218,0.7553969957466239,-0.1465246330065956,0.4478227222388801,-0.0483827588693672,0.4235239336210518,0.3994881187514399,-6.680782700081436,28.454977109513703,16.70200142201172,0.4473458220791748,1.0033821695356568,-2.203248133267815,-1.0,11.955,0.0,179.1266393445255,1.1311198689443414,92.75577058089422,1553.0,1435.0,1000.0,1210.0,1471.0,1012.0,60.0,292.25,1649149725.9909933,1649149727.1295855,f55af7f8-fee7-48f2-959b-9903e2245c14
0.2475554917248597,0.2825775901038292,0.7524653846273698,-0.145083754934658,0.4442791488996575,-0.0540564215145952,0.4170640892517388,0.4031483867404099,-6.811358985685764,28.50556066279984,16.869464437064213,0.4314963922636161,1.024581899613308,-2.184377664476781,-1.0,11.970555555555556,0.0,179.12253364192443,1.1316014921445658,92.727866981405,1553.0,1435.0,1000.0,1210.0,1471.0,1012.0,60.0,292.25,1649149727.2383308,1649149728.3640523,f55af7f8-fee7-48f2-959b-9903e2245c14
0.2490801925353907,0.2805581696252659,0.7561201739720717,-0.1469059452048383,0.4485459004685259,-0.050736375564982,0.4225377814785639,0.4007109474251106,-6.812049410686846,28.44443219199434,16.857509130999535,0.4428418964258088,1.017573699337113,-2.2032169696784454,-1.0,11.96888888888889,0.0,179.13095905972057,1.1503758323300304,92.70499571351426,1553.0,1435.0,1000.0,1210.0,1471.0,1012.0,60.0,292.25,1649149728.4727235,1649149729.6288805,f55af7f8-fee7-48f2-959b-9903e2245c14
0.2422560195418307,0.2816758087394571,0.7928181817450768,-0.1017270219802114,0.4829954816177226,-0.0966910710449324,0.4434836528350171,0.4228664987571345,-6.621275647111662,29.064215399708097,16.60810650415845,0.2436551857958081,1.0194002015895025,-2.329925777396092,-1.0,11.959333333333332,0.0,179.11183908350398,1.143138879307415,92.69842810717232,1553.0,1435.0,1000.0,1071.0,1471.0,1012.0,60.0,292.25,1649149730.4983685,1649149731.6426425,8bc80477-3850-4754-8bfe-57c474a14b0c
0.250924844939326,0.2796465267391734,0.7924045457182194,-0.099323549777263,0.4835745720585917,-0.0960500720807876,0.4432793001913149,0.4138043084756418,-6.660290387908735,29.05468879810377,16.729067650713947,0.2395898451937449,1.0106709186942255,-2.3299369719350174,-1.0,11.958444444444446,0.0,179.10758918802043,1.140333782276721,92.66962975290184,1553.0,1435.0,1000.0,1071.0,1471.0,1012.0,60.0,292.25,1649149731.7570784,1649149733.0693223,8bc80477-3850-4754-8bfe-57c474a14b0c
0.2567984768088287,0.2830038269774448,0.7988402840698449,-0.0999125018148158,0.4882812570314541,-0.1012273715439987,0.4482960752588757,0.4231689185872638,-6.584289038927125,29.101226270325505,16.426925004886016,0.2299033467059796,1.0258840929321094,-2.3522541117202844,-1.0,11.95811111111111,0.0,179.1176234948211,1.1459424348023597,92.64470639262046,1553.0,1435.0,1000.0,1071.0,1471.0,1012.0,60.0,292.25,1649149733.1776638,1649149734.297696,8bc80477-3850-4754-8bfe-57c474a14b0c
0.0941754073072671,0.2116064100991831,0.267830232393031,-0.1747285887422619,0.0050009492732972,0.0683382194197927,-0.0574948056895613,-0.0726026584059765,-10.177363541018762,27.957746419806067,16.834188776976077,0.7439418689440334,0.7554505631256409,-0.2608093626888236,-1.0,11.992,0.0,179.1570473467104,1.170213251142719,92.64279090401322,1553.0,1435.0,1000.0,1613.0,1471.0,1012.0,60.0,292.25,1649149735.9083242,1649149737.172097,4d103695-3d2b-48d9-87c8-c25e6052c8b7
0.0994874804882629,0.2112382466204949,0.2708018375743091,-0.1734268676834447,0.0085379486181968,0.0683382194311032,-0.0531294383742373,-0.0756268588870312,-10.097434847473744,27.865899075673248,16.98214631575116,0.7406084234976502,0.752219223189466,-0.275623722777388,-1.0,11.992111111111113,0.0,179.1817377216501,1.1693141326294776,92.64621814115677,1553.0,1435.0,1000.0,1613.0,1471.0,1012.0,60.0,292.25,1649149737.280235,1649149738.3955977,4d103695-3d2b-48d9-87c8-c25e6052c8b7
0.1022618553608535,0.215301193579119,0.2658447793767967,-0.1762012428270174,0.00302864481088,0.0668787141547835,-0.0587570805680347,-0.0819908280071194,-10.109423189271144,27.82481686426805,16.93724806432378,0.7430546718501817,0.7679671643195985,-0.2529378292969078,-1.0,11.991222222222223,0.0,179.17835753692086,1.1736691727091706,92.63735786798344,1553.0,1435.0,1000.0,1613.0,1471.0,1012.0,60.0,292.25,1649149738.5047638,1649149739.627992,4d103695-3d2b-48d9-87c8-c25e6052c8b7
0.0708698912645063,0.2042880652330594,0.1755800795432156,-0.1572189067791569,-0.0800798839084439,0.0655145369211662,-0.1583009349757191,-0.1811604936663814,-10.77023227029087,28.1753871322998,16.96268908137277,0.6946704982585773,0.7230593111639999,0.1232926830911802,-1.0,11.990666666666666,0.0,179.15977335109915,1.1590149188391368,92.65340274125371,1553.0,1435.0,1000.0,1694.0,1471.0,1012.0,60.0,292.25,1649149741.5576203,1649149742.6955378,52e86b40-88ef-4812-bfa2-7354f331f9b4
0.0650351573315319,0.2015624501875947,0.1761553349819186,-0.1540686980465711,-0.0781486690589536,0.0649392814658895,-0.1565614718920459,-0.1716550811337616,-10.727955861194776,28.097348525409696,16.9232876941357,0.6857980399311909,0.71253387557541,0.1171053802086087,-1.0,11.989333333333333,0.0,179.1756801027662,1.1663688507092556,92.67780852497798,1553.0,1435.0,1000.0,1694.0,1471.0,1012.0,60.0,292.25,1649149742.8034542,1649149743.925729,52e86b40-88ef-4812-bfa2-7354f331f9b4
0.0681168830109121,0.1985902970946248,0.176045762514291,-0.1536030150200442,-0.0779569172317233,0.0684456004494019,-0.1567532237353447,-0.1716276880364143,-10.810806425031036,28.184041409405086,17.06686003044106,0.6931771630654637,0.7006376007484971,0.1170200090738845,-1.0,11.98988888888889,0.0,179.1731453436742,1.1549760951736745,92.6773835354296,1553.0,1435.0,1000.0,1694.0,1471.0,1012.0,60.0,292.25,1649149744.0342472,1649149745.152644,52e86b40-88ef-4812-bfa2-7354f331f9b4
0.0328104421102052,0.1850591934683851,0.0818287816914811,-0.1275379142617624,-0.1627369767313127,0.0622898191931919,-0.2604975434725177,-0.284375579168371,-11.479502472153284,28.44414184160798,16.95739900370563,0.6172266266073018,0.6464131370098349,0.5064939430682787,-1.0,11.979666666666668,0.0,179.17762746558958,1.1500517777994088,92.690514194654,1553.0,1435.0,1000.0,1774.0,1471.0,1012.0,60.0,292.25,1649149746.9337585,1649149748.0196495,b12aae0c-0171-40bf-8419-077f8f1e75b1
0.0372037502574523,0.1856059600656695,0.0855115123333293,-0.1303462568612126,-0.1594377494265683,0.0630080666977747,-0.2564230907058394,-0.2742834061261569,-11.490959772707509,28.43093396091324,16.798219433624457,0.6252402348135776,0.6505347492230017,0.4909935910259809,-1.0,11.98311111111111,0.0,179.1834483045822,1.1700462672470728,92.67479413482428,1553.0,1435.0,1000.0,1774.0,1471.0,1012.0,60.0,292.25,1649149748.1281357,1649149749.4533014,b12aae0c-0171-40bf-8419-077f8f1e75b1
0.0404892807446114,0.1844149073755719,0.0823284321341683,-0.1278666316983429,-0.1619480549025967,0.0615534921969343,-0.2601293799470618,-0.2816537988444073,-11.514767494314738,28.437345439479703,16.72370331931256,0.6162383286593777,0.6463895406149928,0.5037818176741883,-1.0,11.978666666666664,0.0,179.19449196156023,1.164340331957631,92.67742755220426,1553.0,1435.0,1000.0,1774.0,1471.0,1012.0,60.0,292.25,1649149749.560901,1649149750.6822376,b12aae0c-0171-40bf-8419-077f8f1e75b1
0.009139501384155417,0.17340232680566312,0.00911210834988691,-0.10476108379484005,-0.22926281182670125,0.054146393318793846,-0.34317710553545083,-0.36395478944175647,-12.019109015607578,28.839292516433655,16.557731485935744,0.5462116753655165,0.6026467821117589,0.8116294397402907,-1.0,11.975666666666667,0.0,179.19161569300977,1.148933476618427,92.66839348866206,1553.0,1435.0,1000.0,1856.0,1471.0,1012.0,60.0,292.25,1649149751.593053,1649149752.7351968,bcc62fc8-d447-468c-953c-4da2c6615f7a
0.0015165446685842482,0.17089804812012255,0.009182234739969042,-0.10149034541415176,-0.2278098807187963,0.055294712791457014,-0.34300562458978284,-0.3722088843763588,-12.100360740482142,28.83297443782689,16.801601591429375,0.5413737008710748,0.5912695201819836,0.8093261419429032,-1.0,11.975555555555555,0.0,179.19321547509537,1.1608485993299065,92.63658833333696,1553.0,1435.0,1000.0,1856.0,1471.0,1012.0,60.0,292.25,1649149752.8440616,1649149753.8247173,bcc62fc8-d447-468c-953c-4da2c6615f7a
0.00015455885286635532,0.16923857313552748,0.005222285661160492,-0.10248745492479346,-0.23053659190369827,0.0566391669880536,-0.3459438108320076,-0.3609963316832137,-12.14420252836962,28.7517378528476,16.605823105273586,0.5458551205025568,0.5869613093656313,0.8221382325028218,-1.0,11.973555555555556,0.0,179.20295077139235,1.1624147047883473,92.60264760553135,1553.0,1435.0,1000.0,1856.0,1471.0,1012.0,60.0,292.25,1649149753.9331646,1649149754.9893496,bcc62fc8-d447-468c-953c-4da2c6615f7a
