raw_voltage_G-,raw_voltage_G0,raw_voltage_G1,raw_voltage_G2,raw_voltage_G3,raw_voltage_G4,raw_voltage_G5,raw_voltage_G6,load_x,load_y,load_z,load_l,load_m,load_n,rpm,voltage,current,roll,pitch,yaw,aileron1_pwm,elevator_pwm,throttle_pwm,rudder_pwm,aileron2_pwm,pbaro,pdiff,Tt,sample_start_time,sample_end_time,uid
-0.1430270796097607,0.0371100658539373,-0.2822191925431766,-0.1101158906814884,-0.4388464902106104,0.2071621509407792,-0.633473546922788,-0.6571806555404099,-20.756116809563256,28.52244864775021,16.436226794653386,0.8811135403253195,0.1365682917872336,1.884837234765099,-1.0,11.991444444444449,0.0,179.22319241645266,1.0180737400145443,98.46254313769172,1553.0,1435.0,1000.0,1528.0,1471.0,1012.0,60.0,292.25,1649149813.035161,1649149814.1785214,d1d2fb16-2083-4476-b77f-cb70d35bac03
-0.1378727903392792,0.0359003857906639,-0.281390824566075,-0.1098134706666282,-0.4383073935474033,0.208989819639229,-0.6327109222912641,-0.6615460239473256,-20.76239123726205,28.587594309814,16.572429094927685,0.8850300291715879,0.130884891940021,1.8819052506268243,-1.0,11.991555555555555,0.0,179.23156622837507,1.0199441209141358,98.43741487173524,1553.0,1435.0,1000.0,1528.0,1471.0,1012.0,60.0,292.25,1649149814.3079612,1649149815.4161808,d1d2fb16-2083-4476-b77f-cb70d35bac03
-0.1394544690020178,0.0311909610586398,-0.2847338810397795,-0.1090481068982738,-0.4402309386580036,0.2130264692139715,-0.6343249253042771,-0.6494322352296151,-20.77274264516184,28.55522185989404,16.57184495442942,0.8919880800765284,0.1129934142002699,1.8908222322518853,-1.0,11.992,0.0,179.23543970454435,1.022641938914585,98.43500609168794,1553.0,1435.0,1000.0,1528.0,1471.0,1012.0,60.0,292.25,1649149815.5428553,1649149816.627681,d1d2fb16-2083-4476-b77f-cb70d35bac03
-0.0007083243807395,0.271387502391716,-0.2622030392131845,-0.2934859832612846,-0.4811562654031836,0.154802400810065,-0.6442960234899631,-0.6589513470023018,-20.410430804622703,27.7721401168228,17.663187870342124,1.173484572648518,1.0257628885607386,1.959609353861364,-1.0,11.969555555555557,0.0,179.1803124888433,1.0459294688897434,98.36138424153428,1663.0,1435.0,1000.0,1528.0,1555.0,1012.0,60.0,292.25,1649149818.4145372,1649149819.491376,1cf1a9a0-4ae8-415b-a524-6ea4f6ffdd55
-0.0074881209995353,0.2703054743265685,-0.2626961153503888,-0.290089236361823,-0.4807590650562432,0.1524876824283147,-0.6452821760437015,-0.6710728058507799,-20.435936540461324,27.75779232827336,17.622705192004386,1.1604819053466338,1.0217942317597293,1.960974352857426,-1.0,11.968666666666666,0.0,179.18454417048906,1.0572954254192064,98.28862375412596,1663.0,1435.0,1000.0,1528.0,1555.0,1012.0,60.0,292.25,1649149819.5995624,1649149820.7213628,1cf1a9a0-4ae8-415b-a524-6ea4f6ffdd55
0.001579000964934,0.2714011989512386,-0.2615456042850581,-0.291760216603095,-0.4803892578876763,0.1540901798062182,-0.6444603822134541,-0.6638410203441544,-20.45558793384772,27.809362146367103,17.79137313807865,1.1682683979153508,1.0248275975683745,1.958053244432317,-1.0,11.969111111111111,0.0,179.16827010642663,1.0710800159667944,98.1853922750104,1663.0,1435.0,1000.0,1528.0,1555.0,1012.0,60.0,292.25,1649149820.8298752,1649149821.9617815,1cf1a9a0-4ae8-415b-a524-6ea4f6ffdd55
0.1485189677509114,0.5213239276971943,-0.23026868721597,-0.464407561654001,-0.5150695010197506,0.0745575527065021,-0.6542221969949371,-0.6837015854313847,-20.11035652809098,27.24333867027749,18.783750705326632,1.3771351921172026,1.9741806756371627,2.0071541368867063,-1.0,11.956555555555555,0.0,179.10987502466267,1.0917962287367564,97.97997281790244,1779.0,1435.0,1000.0,1528.0,1638.0,1012.0,60.0,292.25,1649149824.0937312,1649149825.4327593,2a50950d-6805-41fd-a2e6-38d88358b2c6
0.1456262546582297,0.5232173397820721,-0.2287565869728383,-0.4611072380831084,-0.513938712839614,0.0701921855888743,-0.6548401859090811,-0.6799936517090373,-20.143305916947828,27.306714469081623,18.86174922538136,1.3603721737947387,1.980514624332244,2.00475168569944,-1.0,11.956222222222223,0.0,179.10974145651892,1.0890308321806128,97.90254048110182,1779.0,1435.0,1000.0,1528.0,1638.0,1012.0,60.0,292.25,1649149825.5454216,1649149826.6609137,2a50950d-6805-41fd-a2e6-38d88358b2c6
0.1479009790563859,0.5240062614830424,-0.2267448362088581,-0.4718497254456891,-0.5134390622257903,0.0780551058941052,-0.6494360697757992,-0.6754310520382841,-20.030495288314977,27.238349595188737,18.712034163795423,1.4019535184594218,1.985451040261201,1.9935316538376635,-1.0,11.956333333333331,0.0,179.10413463012023,1.0891305458277147,97.84893715649554,1779.0,1435.0,1000.0,1528.0,1638.0,1012.0,60.0,292.25,1649149826.7722583,1649149827.9069536,2a50950d-6805-41fd-a2e6-38d88358b2c6
0.1844543534087758,0.5957849874864563,-0.2078370089982504,-0.5334908295385797,-0.521209943809264,0.0529936909215321,-0.6493308801807954,-0.665911392634095,-20.056070026363155,27.7985174862043,17.14583857693435,1.4890767713249071,2.277524562334376,1.9838806472921748,-1.0,11.921666666666669,0.0,179.07580755890243,1.1193783587322337,97.72072767558524,1904.0,1435.0,1000.0,1528.0,1723.0,1012.0,60.0,292.25,1649149829.00865,1649149830.145543,64d3bdad-b254-4ae1-8c7d-2f803a60be52
0.1869482226897517,0.6026935309722983,-0.2124708292154987,-0.534285230235728,-0.5271493211442608,0.047298113975643,-0.6568009860154801,-0.6724698553567263,-20.089403781603,27.820536759749466,17.14777745094184,1.477968787603973,2.3034589663683,2.009721895491229,-1.0,11.917777777777776,0.0,179.07306485849574,1.1315449059245668,97.58770215240015,1904.0,1435.0,1000.0,1528.0,1723.0,1012.0,60.0,292.25,1649149830.254366,1649149831.370971,64d3bdad-b254-4ae1-8c7d-2f803a60be52
0.2018774709826851,0.6111169136900297,-0.2107039729743961,-0.5362164455905097,-0.5273958592742758,0.0421756010431848,-0.6573214553819234,-0.6890153044664672,-20.07162345551976,27.827323597976243,17.34456239954537,1.4709874530030955,2.33353172643224,2.0096798009563988,-1.0,11.921666666666669,0.0,179.0566602619292,1.1433732757472133,97.47739535621436,1904.0,1435.0,1000.0,1528.0,1723.0,1012.0,60.0,292.25,1649149831.4791148,1649149832.6104631,64d3bdad-b254-4ae1-8c7d-2f803a60be52
0.2534324107413016,0.6836314185635792,-0.1771348003823825,-0.5687030484691128,-0.5170286573154328,0.0038307151826553,-0.6437689798038138,-0.6732746657257276,-19.866877547921288,28.227471714037875,17.916593805342266,1.462621591288516,2.6051208559850774,1.9397801545059457,-1.0,11.85775,0.0,179.0395523456056,1.1364735618326216,97.17785342588644,2045.0,1435.0,1000.0,1528.0,1813.0,1012.0,60.0,292.25,1649149834.538353,1649149835.6796007,73597c78-00e2-430e-80be-b2508765382b
0.2426899264735885,0.6838943924626047,-0.1782129936526207,-0.5645875052770442,-0.5181725943295358,-0.0004689085593494,-0.6472139395023294,-0.6724068515044911,-19.92183727950942,28.32034483445422,17.862535852137295,1.4442018033477495,2.6064017856454686,1.9476279326135904,-1.0,11.863333333333332,0.0,179.03101821396518,1.1384610416416356,96.92943659986094,2045.0,1435.0,1000.0,1528.0,1813.0,1012.0,60.0,292.25,1649149835.788482,1649149837.1130092,73597c78-00e2-430e-80be-b2508765382b
0.2375433079010276,0.6797366655417786,-0.1844613641349318,-0.559788229670572,-0.5223966139760591,-0.0030641324670713,-0.6523906924905315,-0.6680184721503833,-19.8494577553163,28.219013888393388,17.499786582744093,1.4265397462273837,2.5925218095317097,1.968388584163204,-1.0,11.858666666666668,0.0,179.03135972342363,1.1378395181430991,96.76916013970732,2045.0,1435.0,1000.0,1528.0,1813.0,1012.0,60.0,292.25,1649149837.2274792,1649149838.3344784,73597c78-00e2-430e-80be-b2508765382b
-0.3059788901782241,-0.2510567783924129,-0.3049795890379753,0.1176195323113402,-0.3881056608987587,0.2716039079745723,-0.6210348760945325,-0.6457938806481605,-21.094459751711817,29.77608573462112,15.217753838428813,0.5190201050717452,-0.9604993067891512,1.793700211430658,-1.0,11.976888888888888,0.0,179.35386000655424,1.1016469979194037,96.5831202060044,1444.0,1435.0,1000.0,1528.0,1381.0,1012.0,60.0,292.25,1649149838.9299042,1649149840.180617,b62e92b9-fea8-401b-8a76-2178b11af9e2
-0.305292418535658,-0.2557382626918216,-0.3120996091384784,0.1211910468615195,-0.3937037194223385,0.2732913239121453,-0.6280108097009732,-0.6510895194649282,-21.14710842871821,29.80615084218464,15.21872559605599,0.5145739208570071,-0.9785842888096962,1.8203796518386848,-1.0,11.976888888888888,0.0,179.36974854438347,1.1079464600465652,96.59764422381949,1444.0,1435.0,1000.0,1528.0,1381.0,1012.0,60.0,292.25,1649149840.2898066,1649149841.40618,b62e92b9-fea8-401b-8a76-2178b11af9e2
-0.3096068351409489,-0.2553410624376503,-0.3085658964715236,0.124669972669266,-0.3903891516011195,0.2682235975210547,-0.625216710742253,-0.6403788068627646,-21.063406766416,29.807588014050594,15.033052777100943,0.4955364771704348,-0.9762456399564716,1.8069446841466088,-1.0,11.976,0.0,179.36799090903708,1.1057203164117675,96.60428240878284,1444.0,1435.0,1000.0,1528.0,1381.0,1012.0,60.0,292.25,1649149841.51517,1649149842.5295782,b62e92b9-fea8-401b-8a76-2178b11af9e2
-0.4706400451722468,-0.5341877105803038,-0.3365364649901904,0.3507722029035778,-0.346739854970288,0.3293661269491636,-0.6201013183625642,-0.6469509654850419,-21.36980612920236,31.05527637353272,14.38128937668792,0.1295208694452239,-2.0437349748344302,1.7449329097422412,-1.0,11.952333333333334,0.0,179.47477256870127,1.0744563112827654,96.59865509181664,1331.0,1435.0,1000.0,1528.0,1283.0,1012.0,60.0,292.25,1649149843.5482223,1649149844.561548,f5238d53-f39a-445d-b650-a51859c63553
-0.4695092570290942,-0.5326230152775298,-0.3361157066267332,0.3453154943613499,-0.3474630333824327,0.3335474120610666,-0.6203248462550599,-0.6446104967572839,-21.49237201202777,31.14782039434944,14.479570040476206,0.1518141793710731,-2.037169903038193,1.7458190255310513,-1.0,11.948555555555556,0.0,179.4727599396258,1.0788815505289275,96.54405683632127,1331.0,1435.0,1000.0,1528.0,1283.0,1012.0,60.0,292.25,1649149844.6961448,1649149845.7115374,f5238d53-f39a-445d-b650-a51859c63553
-0.4679577105126624,-0.5314264835931043,-0.3356949482777457,0.3433957848115478,-0.3474104385958961,0.3334159250878925,-0.6186155151585336,-0.6333420607765388,-21.376596076089665,31.066784508564325,14.384859099904396,0.1553760404636434,-2.032400537817983,1.7428487166761757,-1.0,11.958888888888888,0.0,179.46770408182022,1.0675751565692584,96.47837166598318,1331.0,1435.0,1000.0,1528.0,1283.0,1012.0,60.0,292.25,1649149845.8197412,1649149846.9373446,f5238d53-f39a-445d-b650-a51859c63553
-0.5989056130821858,-0.7547451152069836,-0.3669543354811133,0.5305811568270924,-0.3258646526961119,0.3796040044459745,-0.6325854618025485,-0.6559791933686302,-21.810630556606966,32.800436206468,14.15572957878864,-0.1533964453741867,-2.8898772271100817,1.749284251268681,-1.0,11.909777777777778,0.0,179.56719717073003,1.0601370449892125,96.34898815144555,1209.0,1435.0,1000.0,1528.0,1173.0,1012.0,60.0,292.25,1649149849.07986,1649149850.2195642,ec34bc97-9bd1-4bba-ab08-01a98c74cebf
-0.6039941602375606,-0.759622187951436,-0.3663051185727539,0.5332366453451374,-0.3234272127899215,0.3791076412090335,-0.6297130187320645,-0.6572989935968531,-21.72196891480729,32.68110570457499,13.768211806167551,-0.1612778435498416,-2.905649994551995,1.7399872452833598,-1.0,11.91411111111111,0.0,179.54695249003012,1.063229353846099,96.21781057388591,1209.0,1435.0,1000.0,1528.0,1173.0,1012.0,60.0,292.25,1649149850.3281505,1649149851.5915902,ec34bc97-9bd1-4bba-ab08-01a98c74cebf
-0.6063565434666636,-0.7625795501906317,-0.36426980950173,0.5364158902601908,-0.3207695320806534,0.3799601149490397,-0.6275040368772788,-0.6583213052924345,-21.72984141881982,32.717970606668665,13.909499307576652,-0.1661695329206562,-2.9182001890731457,1.7302965911609849,-1.0,11.91522222222222,0.0,179.55206602498876,1.0481502052914478,96.14639942829362,1209.0,1435.0,1000.0,1528.0,1173.0,1012.0,60.0,292.25,1649149851.6995575,1649149852.8805408,ec34bc97-9bd1-4bba-ab08-01a98c74cebf
-0.6356562313892595,-0.8044329650467807,-0.3694345087155286,0.5526178218201526,-0.3247552312373665,0.3976210040898427,-0.6329081528405214,-0.6546955509335766,-21.784768408509706,33.728913470280006,12.659473714012949,-0.1568131603154933,-3.066013310440482,1.7433210408745785,-1.0,11.802666666666669,0.0,179.5759823118225,1.0583905324161318,95.98826157626011,1074.0,1435.0,1000.0,1528.0,1047.0,1012.0,60.0,292.25,1649149853.9950297,1649149855.132615,1f864255-bb17-4539-997f-3c97c8dfbf83
-0.6457752524000226,-0.824803044530498,-0.385581658588796,0.563987060098913,-0.3354659417751742,0.408585920160543,-0.6477338609294068,-0.6719904764037263,-22.053897962371355,33.916018548732424,12.749045546872168,-0.1575046187077846,-3.1437228000804858,1.7985246457278112,-1.0,11.81411111111111,0.0,179.57177491529376,1.075376762279196,95.74090323982848,1074.0,1435.0,1000.0,1528.0,1047.0,1012.0,60.0,292.25,1649149855.2422867,1649149856.3592436,1f864255-bb17-4539-997f-3c97c8dfbf83
-0.6543356045940836,-0.8444439193170563,-0.3920190424399666,0.5842031786459914,-0.3356166039723517,0.4090652996772664,-0.6536096867080565,-0.6797427305987765,-22.188752836309643,34.003127515189185,12.680109065340687,-0.2018519536488552,-3.218718225535829,1.8134440615308247,-1.0,11.816333333333334,0.0,179.5729952424255,1.054724143787912,95.55789135665762,1074.0,1435.0,1000.0,1528.0,1047.0,1012.0,60.0,292.25,1649149856.472224,1649149857.5923548,1f864255-bb17-4539-997f-3c97c8dfbf83
-0.1483709293088029,0.0320812373677083,-0.3140582172808996,-0.0990085289288634,-0.4637753282945067,0.2072739148404441,-0.6681965268206084,-0.6853857150677513,-21.305885680931187,28.43229435902772,16.953093843880243,0.8539318393461105,0.1136297694445801,2.0114998651640774,-1.0,11.989666666666666,0.0,179.31069321099977,1.1194994522943935,95.30818722970103,1553.0,1435.0,1000.0,1528.0,1471.0,1012.0,60.0,292.25,1649149859.5247543,1649149860.6686928,00f8560b-1f3c-4573-86bc-17607082c260
-0.1455768311322884,0.033190658625421,-0.3119626435057872,-0.1052952496535652,-0.4629946242852044,0.2103008541749653,-0.6638410196055967,-0.6793318336043992,-21.15258086863079,28.370955298644247,16.73985233123589,0.8746559772428147,0.1195015118700308,2.0012894497269054,-1.0,11.988333333333332,0.0,179.30638867400285,1.1351977764700545,95.53102518701232,1553.0,1435.0,1000.0,1528.0,1471.0,1012.0,60.0,292.25,1649149860.8017008,1649149861.8920166,00f8560b-1f3c-4573-86bc-17607082c260
-0.1419225890381873,0.0366498614848925,-0.3098051612689851,-0.1006751262108688,-0.4606338848846716,0.2029677170262023,-0.6636629642546873,-0.687843426387206,-21.159651623900228,28.336126405966297,16.79343401012725,0.8476370976482687,0.1316181238796487,1.9954236341471343,-1.0,11.99325,0.0,179.31705780894134,1.1552742444924635,95.72071196741332,1553.0,1435.0,1000.0,1528.0,1471.0,1012.0,60.0,292.25,1649149862.0003948,1649149863.1251297,00f8560b-1f3c-4573-86bc-17607082c260
-0.1535723347938047,0.0228437303192189,-0.3447938475693843,-0.3404416285140004,-0.5156480437868582,0.450426163849165,-0.6295420854016123,-0.6447156867563442,-21.311176901054846,27.81638226414038,18.664568346877864,1.939598100893711,0.0916188579205731,2.068441056003293,-1.0,11.986,0.0,179.31093454435043,1.2219788279754225,96.02656072366612,1553.0,1537.0,1000.0,1528.0,1471.0,1012.0,60.0,292.25,1649149865.0545244,1649149866.1959505,1a15d9f0-b9cc-4eab-bc99-b3617859a9b9
-0.1418568455445155,0.0271039079381432,-0.3380091192084602,-0.343242301168702,-0.5111774859074587,0.44741511268948,-0.6235462779081105,-0.6467142889288457,-21.201589192310283,27.86008756663568,18.511489834839352,1.939807822204048,0.1089538898474114,2.0449006321129315,-1.0,11.98311111111111,0.0,179.29169921382783,1.226335160573552,96.10957180719882,1553.0,1537.0,1000.0,1528.0,1471.0,1012.0,60.0,292.25,1649149866.3038542,1649149867.4273126,1a15d9f0-b9cc-4eab-bc99-b3617859a9b9
-0.1414886820293814,0.0271696514219202,-0.3405994127808972,-0.3414146320972017,-0.5137809284320047,0.4471389900941716,-0.627162170598655,-0.6551294576047598,-21.24138909865292,27.91856770574412,18.696147610221523,1.93533265805936,0.107457300434717,2.057358320248062,-1.0,11.983555555555556,0.0,179.30450809525135,1.2319502519754388,96.18444965324986,1553.0,1537.0,1000.0,1528.0,1471.0,1012.0,60.0,292.25,1649149867.535602,1649149868.6511538,1a15d9f0-b9cc-4eab-bc99-b3617859a9b9
-0.1362905637433323,0.0170013262232251,-0.3648176719158018,-0.5630343149845607,-0.5602539127196855,0.6724637936401292,-0.5907424615077588,-0.6056580192225454,-21.303194207842694,27.731175862542432,20.34899545883613,2.939371496550988,0.0808558312074442,2.10100578524592,-1.0,11.970222222222224,0.0,179.3031572356155,1.288360962200084,96.34299959336327,1553.0,1645.0,1000.0,1528.0,1471.0,1012.0,60.0,292.25,1649149870.5843103,1649149871.7323952,84e41d3f-72fb-4de9-aad1-3aa4a426b5b5
-0.1458671981977342,0.0157828803462724,-0.3594546464533512,-0.5660075648152959,-0.5564616084400216,0.6780826692884335,-0.5829299419812349,-0.6006543907040179,-21.105925543564304,27.763762258924213,20.63794065619449,2.9593332051234347,0.0730353958087341,2.077765383075896,-1.0,11.97722222222222,0.0,179.30308438026435,1.3088099082448674,96.36862949876875,1553.0,1645.0,1000.0,1528.0,1471.0,1012.0,60.0,292.25,1649149871.8451183,1649149872.9467208,84e41d3f-72fb-4de9-aad1-3aa4a426b5b5
-0.129428587413266,0.0191105962713463,-0.353805636922696,-0.5643217918202558,-0.5506389258352304,0.6712995862732783,-0.5780594443810967,-0.6054251776966489,-21.08278279235274,27.66316282239501,20.39959715772388,2.939876074317106,0.0876138437150635,2.0553386508991087,-1.0,11.97577777777778,0.0,179.30953359666066,1.3134888842755088,96.41307581642778,1553.0,1645.0,1000.0,1528.0,1471.0,1012.0,60.0,292.25,1649149873.054921,1649149874.1787968,84e41d3f-72fb-4de9-aad1-3aa4a426b5b5
-0.1301682016159376,0.0128238757988695,-0.3648998512798754,-0.7456779897394261,-0.5827025790590702,0.8546143092233501,-0.5418457326325216,-0.5652394619003777,-21.10834455154638,27.736990851034715,21.93819830007244,3.7610732752486817,0.0722059241380045,2.062343574740671,-1.0,11.962,0.0,179.29828503400756,1.348541130504799,96.43087832504446,1553.0,1761.0,1000.0,1528.0,1471.0,1012.0,60.0,292.25,1649149875.9052143,1649149876.8495643,6024b282-1348-4614-93df-2327de03bc14
-0.1250319917841079,0.012933448268671,-0.3623522909056941,-0.7362273603996727,-0.5802782874308597,0.8436981529964328,-0.5425031676112552,-0.5660749521653753,-21.04384751598336,27.82823556934361,21.644786866305868,3.715942328730685,0.073760365932904,2.056194991138836,-1.0,11.965333333333334,0.0,179.30038873227193,1.353108961807853,96.38230657312675,1553.0,1761.0,1000.0,1528.0,1471.0,1012.0,60.0,292.25,1649149876.9601004,1649149878.069981,6024b282-1348-4614-93df-2327de03bc14
-0.1247443640576361,0.0112076818623645,-0.3552985619729268,-0.7354055667394871,-0.5724712466282827,0.8452184708742357,-0.5334223467231825,-0.5635273919784255,-20.979394873788657,27.73456579823248,21.79092173673176,3.7172909397818255,0.0658807228595378,2.0231053713737253,-1.0,11.969,0.0,179.30672714782168,1.3529717532681196,96.35459421893432,1553.0,1761.0,1000.0,1528.0,1471.0,1012.0,60.0,292.25,1649149878.1782234,1649149879.2992551,6024b282-1348-4614-93df-2327de03bc14
-0.1103766732123705,0.0197132448520705,-0.3087713448917218,-0.76394920681822,-0.5395036204500286,0.8630376920245517,-0.4863609589337133,-0.5023311507717753,-20.705738004896467,28.38687828860317,22.123120164963456,3.8285522770964646,0.0993755863733304,1.84894625652168,-1.0,11.909666666666668,0.0,179.28058118367892,1.3648351871000992,96.27330358416252,1553.0,1887.0,1000.0,1528.0,1471.0,1012.0,60.0,292.25,1649149881.5436428,1649149882.848847,ec25257f-934e-4b35-9f56-976938d760b5
-0.1203324283184564,0.0153489733708739,-0.3054529421935349,-0.7555986854070362,-0.534503279439759,0.8582855344736048,-0.4846171127360826,-0.503695876332259,-20.790435152489344,28.4431345734492,21.95215593913436,3.79950509108256,0.0843048272597209,1.8343510892331645,-1.0,11.913,0.0,179.28479768712648,1.3609270026604805,96.16896789113116,1553.0,1887.0,1000.0,1528.0,1471.0,1012.0,60.0,292.25,1649149882.9635718,1649149884.1156652,ec25257f-934e-4b35-9f56-976938d760b5
-0.1190833021059371,0.0243295330064894,-0.3018764963380608,-0.7632906759278107,-0.5342271568114841,0.8583907240241223,-0.4797652426329191,-0.5036432815576477,-20.52924903047587,28.35594488834697,22.243022058508288,3.816870644466779,0.1147331333745407,1.823839765188444,-1.0,11.923666666666668,0.0,179.29897715984347,1.3669146951111526,96.09023174710896,1553.0,1887.0,1000.0,1528.0,1471.0,1012.0,60.0,292.25,1649149884.2240374,1649149885.3395555,ec25257f-934e-4b35-9f56-976938d760b5
-0.1433294996339381,0.0405287268873205,-0.2694781041987223,0.1051414197995385,-0.4062508653350859,-0.0018363729467811,-0.6842275328791526,-0.7087893074184755,-21.042706167182995,29.2802224821056,15.226614676840171,-0.0687810884053842,0.1364573060245598,1.8954197511366977,-1.0,11.987333333333334,0.0,179.30496951247528,1.1053001293401716,95.96151000201093,1553.0,1335.0,1000.0,1528.0,1471.0,1012.0,60.0,292.25,1649149887.4806528,1649149888.6169722,8d665a05-5b2a-4138-b452-6b22ee54e902
-0.157372308298666,0.0426062209096792,-0.2710690966765361,0.1082445120967202,-0.4076183300314819,-0.0048079783114342,-0.6865548530466742,-0.7117740628733139,-21.018356682223867,29.24698530103917,15.484789394177785,-0.0827046410345937,0.1413051548389962,1.903437980602535,-1.0,11.984000000000002,0.0,179.31414169762073,1.1074038987523391,96.09214875353602,1553.0,1335.0,1000.0,1528.0,1471.0,1012.0,60.0,292.25,1649149888.7265975,1649149889.8529594,8d665a05-5b2a-4138-b452-6b22ee54e902
-0.1572013752276035,0.0419619347897169,-0.2719632081122201,0.1043524980420149,-0.4085124415389378,-0.0024149155682443,-0.6866863400041919,-0.7043844929036155,-21.05500873559346,29.228567237026336,15.222383407761974,-0.0687745744586924,0.1418959980062234,1.905561517233431,-1.0,11.991333333333332,0.0,179.29203313418728,1.1154053230694017,96.26102745749432,1553.0,1335.0,1000.0,1528.0,1471.0,1012.0,60.0,292.25,1649149889.9659195,1649149891.0839145,8d665a05-5b2a-4138-b452-6b22ee54e902
-0.1538358565988578,0.0493662943779177,-0.2433154825854915,0.3227222007098081,-0.3631603880339633,-0.2226062836911864,-0.7248729084063706,-0.7462532459324116,-21.18511477346102,30.15082613709141,13.491342487771323,-1.0489637262523528,0.1608756483985798,1.85900954955742,-1.0,11.974333333333334,0.0,179.3014542417825,1.0640832816459256,96.4918741910624,1553.0,1236.0,1000.0,1528.0,1471.0,1012.0,60.0,292.25,1649149893.010291,1649149894.147443,880f5a90-e94b-448d-bc03-faacab00871f
-0.1484048967716122,0.0484179446643198,-0.2446007678270128,0.3224367644756135,-0.3649508025288632,-0.2200127030621818,-0.7254092659157405,-0.7479198437841685,-21.10923864271536,30.18515703962589,13.682632635461331,-1.0422594581223563,0.1550405733360071,1.86415531960472,-1.0,11.975333333333332,0.0,179.30807952527735,1.0616769917717694,96.56675810839268,1553.0,1236.0,1000.0,1528.0,1471.0,1012.0,60.0,292.25,1649149894.2561977,1649149895.3766773,880f5a90-e94b-448d-bc03-faacab00871f
-0.1571504240346586,0.0487088595713281,-0.2403981152277507,0.3196952614784328,-0.3610237244728942,-0.2187438537518285,-0.7206269734551655,-0.751115526164789,-21.124653783830908,30.167687965166483,13.579603086284829,-1.0331547488719506,0.1577576011849936,1.8461310920685527,-1.0,11.975333333333332,0.0,179.30358070734405,1.0589479398854285,96.66154064350496,1553.0,1236.0,1000.0,1528.0,1471.0,1012.0,60.0,292.25,1649149895.4847176,1649149896.6041925,880f5a90-e94b-448d-bc03-faacab00871f
-0.1475370827309005,0.0539929918756528,-0.2067588158761364,0.4470206517963408,-0.3212576775285515,-0.3472263570135802,-0.7264085673010641,-0.7439226386452273,-20.983527154768527,30.91421994868818,12.816304787431926,-1.6025137459995664,0.1698112761097581,1.7548175075435972,-1.0,11.971333333333332,0.0,179.3092679781929,1.0258932393971518,96.78636235058696,1553.0,1133.0,1000.0,1528.0,1471.0,1012.0,60.0,292.25,1649149898.5400088,1649149899.6816428,df139d23-174f-4cb1-bcd9-d9ba505d158e
-0.1592186045655294,0.0505305018624901,-0.2083755577328964,0.4531408215275552,-0.3220980984200604,-0.3511485040674269,-0.7300776027500988,-0.7536767837072063,-21.05326800601046,31.027097353510595,12.556429769578438,-1.624541693931901,0.1587676053358734,1.7625629843394268,-1.0,11.964555555555556,0.0,179.30358526080352,1.009884129756288,96.83631607744672,1553.0,1133.0,1000.0,1528.0,1471.0,1012.0,60.0,292.25,1649149899.789779,1649149900.9068215,df139d23-174f-4cb1-bcd9-d9ba505d158e
-0.1398713922790956,0.056280865013498,-0.202919396136534,0.4470600978937816,-0.3183255177624412,-0.3518678474756474,-0.7236604885558369,-0.7480776280433559,-20.939372654002167,30.92642776652381,12.505489080112763,-1.6127879905417557,0.1810731775781604,1.7415422382046728,-1.0,11.965,0.0,179.29760201509055,0.9930090683367464,96.84872804898843,1553.0,1133.0,1000.0,1528.0,1471.0,1012.0,60.0,292.25,1649149901.0151374,1649149902.1312034,df139d23-174f-4cb1-bcd9-d9ba505d158e
-0.1331129619135594,0.061763871347162,-0.1733216781452577,0.4671513039976525,-0.2934613294683452,-0.3791776946139477,-0.7031748115602133,-0.7215041014942095,-20.646906030834103,31.3499257520714,12.2032913651848,-1.7150974658758085,0.201656011071497,1.6386082283212466,-1.0,11.95322222222222,0.0,179.31579612121968,0.9918948225805844,96.94074208075712,1553.0,1026.0,1000.0,1528.0,1471.0,1012.0,60.0,292.25,1649149904.0694249,1649149905.2135963,1304103f-73ba-4dfd-b00c-4925dba7aa36
-0.1353482404608622,0.0624476035314341,-0.1679701584833415,0.4642059963152997,-0.2889907722617655,-0.375535505115702,-0.697665506016169,-0.7200577455231811,-20.692689458763883,31.4081888407534,12.471936223494156,-1.6995966068956303,0.2028663500459658,1.6177602573164012,-1.0,11.961222222222222,0.0,179.31769491380894,0.9886101656359771,96.9290556270872,1553.0,1026.0,1000.0,1528.0,1471.0,1012.0,60.0,292.25,1649149905.3445892,1649149906.438927,1304103f-73ba-4dfd-b00c-4925dba7aa36
-0.1418305481731247,0.0648669636435779,-0.1685487010401012,0.4571451470096019,-0.2904765750155118,-0.37307669855372,-0.6955485649462037,-0.7118135091431858,-20.531081472130268,31.265659410229144,12.241083374140022,-1.679072896436732,0.2136728907639767,1.6176352666692946,-1.0,11.947777777777778,0.0,179.312435668148,0.9980950098054344,96.92009062434664,1553.0,1026.0,1000.0,1528.0,1471.0,1012.0,60.0,292.25,1649149906.5472612,1649149907.670743,1304103f-73ba-4dfd-b00c-4925dba7aa36
-0.1409364367243952,0.0355979657792955,-0.2895824634660019,-0.1172687818501634,-0.4436589141141839,0.2168527396591706,-0.6363925585042416,-0.6586927555182526,-20.85227549516777,28.25229976727884,16.63091200950584,0.91684989590731,0.1302613948908672,1.9056574622985472,-1.0,11.988555555555555,0.0,179.31710751754028,1.1300485490298378,96.88988904565664,1553.0,1435.0,1000.0,1528.0,1471.0,1012.0,60.0,292.25,1649149908.5751307,1649149909.7195702,882ad58f-4182-4ac5-84b7-9816ee14f36c
-0.1465903765602209,0.0365463155029224,-0.2911301748238128,-0.1185946088059972,-0.4458328324053102,0.2175326367952625,-0.6386119496723941,-0.6536507771830148,-20.881260657286376,28.3063666720891,16.671079338258455,0.921641619200134,0.1337334687453758,1.9140053765131697,-1.0,11.994444444444444,0.0,179.3108480286209,1.147381754874332,96.90835180589308,1553.0,1435.0,1000.0,1528.0,1471.0,1012.0,60.0,292.25,1649149909.8353386,1649149910.9433906,882ad58f-4182-4ac5-84b7-9816ee14f36c
-0.1416727637980012,0.0349273822631689,-0.2879125788021132,-0.1171767409981171,-0.442462382481627,0.2179966761586461,-0.6341835767596273,-0.6506326020124247,-20.783439673335483,28.276468476206297,16.726392692784323,0.9195060891222054,0.1265077925518707,1.8986989397086576,-1.0,11.992,0.0,179.29615705062616,1.1555203758731598,96.92406503553369,1553.0,1435.0,1000.0,1528.0,1471.0,1012.0,60.0,292.25,1649149911.0511143,1649149912.1751587,882ad58f-4182-4ac5-84b7-9816ee14f36c
-0.1050273449498652,0.0561362293660294,-0.1672864260029197,-0.1360582701109486,-0.3346167549691197,0.2077801396206916,-0.5081138388395494,-0.5242472944903837,-19.906909130683083,28.122849175271977,16.70351791785177,0.9445658640160024,0.2100219048648289,1.4109306090736933,-1.0,11.991500000000002,0.0,179.31418571439536,1.1679097476114433,96.91845308649312,1553.0,1435.0,1000.0,1435.0,1471.0,1012.0,60.0,292.25,1649149914.10717,1649149915.0916665,89b9e549-1684-4849-acf6-ea69d1c0321f
-0.0959678927630408,0.0530232755307673,-0.1696279898645925,-0.1313871954145799,-0.3356987832832855,0.2075204528963765,-0.5113297916612186,-0.5356274943669487,-20.001499018797976,28.175896455359624,16.82286176587979,0.9336519857176928,0.1972355254932761,1.4199197037228632,-1.0,11.991777777777775,0.0,179.298931625249,1.1530757847645954,96.92821779054904,1553.0,1435.0,1000.0,1435.0,1471.0,1012.0,60.0,292.25,1649149915.2004175,1649149916.2690983,89b9e549-1684-4849-acf6-ea69d1c0321f
-0.0998577155992742,0.0574198708346977,-0.16509442858733,-0.1328390307843248,-0.3332607954519849,0.2044798169901445,-0.5084261204742456,-0.5408184908209955,-19.95220666417008,28.25497906560845,16.840369353276625,0.9308718483255656,0.2136888793254068,1.4068310899473058,-1.0,11.990222222222222,0.0,179.3003765897134,1.146893633508022,96.96005330227044,1553.0,1435.0,1000.0,1435.0,1471.0,1012.0,60.0,292.25,1649149916.3784082,1649149917.4926963,89b9e549-1684-4849-acf6-ea69d1c0321f
-0.0542865237841902,0.0765298571549987,-0.0403752025769679,-0.1401738123990693,-0.2198286212263864,0.1851117881655846,-0.3801112520697016,-0.3986903639090189,-19.041397802333293,28.10320206028728,16.75994404424573,0.9095444662021944,0.288436301519165,0.902467110132848,-1.0,11.989777777777778,0.0,179.30872308087913,1.1515711628666518,96.93890324205056,1553.0,1435.0,1000.0,1330.0,1471.0,1012.0,60.0,292.25,1649149918.6180108,1649149919.7482622,688c2410-aec3-4a7a-b300-c546d2d8fd22
-0.0580076049280558,0.0718226239318857,-0.0407565147763672,-0.1373862884736656,-0.2192632272267546,0.1877941221686204,-0.3796773449800957,-0.4086965237851968,-19.0451340183592,28.139728303660814,16.850217307623524,0.9095197172724244,0.2696409117632234,0.9011635864947664,-1.0,11.990222222222222,0.0,179.29847931494396,1.1695615846912828,96.93332373640855,1553.0,1435.0,1000.0,1330.0,1471.0,1012.0,60.0,292.25,1649149919.8565805,1649149920.976796,688c2410-aec3-4a7a-b300-c546d2d8fd22
-0.0615051582838348,0.0762405858415194,-0.0351288725987849,-0.1399371357535176,-0.2156473353639864,0.1836654316782184,-0.3753382743989898,-0.4070792337253708,-18.98057526274012,28.178181129862526,16.582477926334267,0.9065210304382852,0.288798469940852,0.8825535540551619,-1.0,11.991555555555555,0.0,179.29131672323433,1.146298719288127,96.9226534631052,1553.0,1435.0,1000.0,1330.0,1471.0,1012.0,60.0,292.25,1649149921.084748,1649149922.2024505,688c2410-aec3-4a7a-b300-c546d2d8fd22
-0.0234659787776632,0.0948459908437839,0.0737160361620452,-0.1338098428793988,-0.1171635922766548,0.1555666687471783,-0.2685445466221778,-0.2831396020539898,-18.191458661552407,28.239995400530088,16.80679497034355,0.835820189476353,0.3571535953187612,0.4511438687460014,-1.0,11.982444444444443,0.0,179.2861713140596,1.147820321795257,96.91282633870937,1553.0,1435.0,1000.0,1210.0,1471.0,1012.0,60.0,292.25,1649149923.9354565,1649149925.0730171,6c898096-eaf4-4f95-9cbb-8222256effba
-0.0204450657247927,0.0930857091541348,0.0711438224823394,-0.1342497763681505,-0.1193616161273351,0.155870732335438,-0.2712701621285177,-0.2843092880358913,-18.238443739737463,28.26138618597945,16.527006064614387,0.8374413150962301,0.3532552429569487,0.4608714566072109,-1.0,11.989666666666668,0.0,179.28067225286784,1.1504112520783825,96.91497025919882,1553.0,1435.0,1000.0,1210.0,1471.0,1012.0,60.0,292.25,1649149925.1808803,1649149926.3025932,6c898096-eaf4-4f95-9cbb-8222256effba
-0.0217303508138732,0.0925712664232199,0.0730586013640658,-0.1323371887676479,-0.1170452539876353,0.1559479809457884,-0.2683604648388064,-0.2840337132085197,-18.163101853832945,28.20593374506511,16.73541182340541,0.8330994625416666,0.3488303894713435,0.4512875514567226,-1.0,11.987111111111112,0.0,179.2798769152845,1.1490996067404269,96.9260495849425,1553.0,1435.0,1000.0,1210.0,1471.0,1012.0,60.0,292.25,1649149926.411273,1649149927.527359,6c898096-eaf4-4f95-9cbb-8222256effba
0.0178209282262199,0.1110320356712486,0.1820349934273221,-0.1207268892462225,-0.0192452471130956,0.122353062877861,-0.1659978536828842,-0.188113962960016,-17.51645040517557,28.519229410992704,16.857254260501012,0.7392653066460321,0.4178971308398808,0.0266220805274537,-1.0,11.983333333333333,0.0,179.28260747313266,1.1522445056823287,96.8917756956874,1553.0,1435.0,1000.0,1071.0,1471.0,1012.0,60.0,292.25,1649149929.4653225,1649149930.807867,d23763fa-9b54-4aea-aeef-4b42be9b8dde
0.0024895482106552,0.1112687122002462,0.1788398603391264,-0.1221600971661527,-0.0228874360817852,0.1222741707348156,-0.1701265446793634,-0.1880745169115886,-17.565757305022938,28.58087521801732,16.662833128874155,0.7425147409125347,0.420831893065734,0.0414986433831918,-1.0,11.981111111111112,0.0,179.27611727560134,1.1496029300208264,96.86772508179996,1553.0,1435.0,1000.0,1071.0,1471.0,1012.0,60.0,292.25,1649149930.9160497,1649149932.044386,d23763fa-9b54-4aea-aeef-4b42be9b8dde
0.0052902205305176,0.1063773972809687,0.176630879464605,-0.118596800272207,-0.023281896956666,0.1243516646826642,-0.1710732508779048,-0.1968841440914087,-17.57830711052774,28.545091772525776,16.731613284855747,0.7388026638435732,0.4013863532864847,0.0459372172187517,-1.0,11.97577777777778,0.0,179.26735641962594,1.150152629811372,96.84090672347884,1553.0,1435.0,1000.0,1071.0,1471.0,1012.0,60.0,292.25,1649149932.1737387,1649149933.2659512,d23763fa-9b54-4aea-aeef-4b42be9b8dde
-0.1932271625232822,0.0161247464640632,-0.4312322977046759,-0.0762722404736792,-0.5727725710018167,0.2046304791590959,-0.7967387826628217,-0.8192148472099561,-22.0124787627639,28.9247263866606,16.383172629491188,0.7936875648679823,0.0536163322504652,2.499464555757578,-1.0,11.977666666666668,0.0,179.30217217055522,1.1480613231228465,96.88761231593332,1553.0,1435.0,1000.0,1613.0,1471.0,1012.0,60.0,292.25,1649149935.6092663,1649149936.7469988,f965d5b4-f5a8-4032-9b57-456a1837a807
-0.1817494453678728,0.0160425671087871,-0.426356321804816,-0.0751217295679852,-0.5676089668666733,0.2049181068429314,-0.7909725288924552,-0.8216254420809809,-21.9696775615196,28.872944808895667,16.60445674456005,0.7916949756651762,0.051210517966051,2.477938561476275,-1.0,11.983,0.0,179.2984170843315,1.140949602092982,96.86149594927691,1553.0,1435.0,1000.0,1613.0,1471.0,1012.0,60.0,292.25,1649149936.8553588,1649149937.979552,f965d5b4-f5a8-4032-9b57-456a1837a807
-0.1909809266922618,0.0178505128647283,-0.4259454249403903,-0.078463689995681,-0.5684033674873766,0.2066438731698245,-0.7906712043973426,-0.8176945277988977,-21.957940127025868,28.916512019489783,16.666256017593685,0.8034366786802191,0.0577988681003387,2.478298393212811,-1.0,11.985333333333331,0.0,179.31275896376872,1.153699893300005,96.85368221286642,1553.0,1435.0,1000.0,1613.0,1471.0,1012.0,60.0,292.25,1649149938.0892515,1649149939.2035646,f965d5b4-f5a8-4032-9b57-456a1837a807
-0.2253379256156225,0.005540045835974,-0.5179096201958575,-0.0472914170666698,-0.6522367431056542,0.1925408013110559,-0.8960268294067343,-0.9136986876236562,-22.63697639615992,29.3624266123812,16.266064499333545,0.6993993990220294,0.0103196199747463,2.865405205058324,-1.0,11.960666666666668,0.0,179.3170012701532,1.140239784169862,96.845069344323,1553.0,1435.0,1000.0,1694.0,1471.0,1012.0,60.0,292.25,1649149941.1392057,1649149942.2816074,c666b617-a22e-4e2d-a395-0d7e9d77b81e
-0.2119503599525952,0.0060577757571676,-0.5154798500245246,-0.0433731054823341,-0.6492404828659223,0.1892218513665531,-0.8938337352627478,-0.9182273199386642,-22.59937018005672,29.3136863021309,16.39739489843762,0.6829402701645447,0.0105020562350311,2.85521818162039,-1.0,11.963333333333331,0.0,179.3134662678028,1.1207728201138758,96.7550049521074,1553.0,1435.0,1000.0,1694.0,1471.0,1012.0,60.0,292.25,1649149942.3896608,1649149943.716111,c666b617-a22e-4e2d-a395-0d7e9d77b81e
-0.2191580377122473,0.007420309429879,-0.5176334975697767,-0.0432942132570046,-0.6511979958185151,0.1867290778045353,-0.896855197816383,-0.923428728323162,-22.643585695463425,29.294162058349738,16.223793096521646,0.6768741176626988,0.0173173866499525,2.8650197631362664,-1.0,11.960222222222225,0.0,179.3159691526786,1.131038701158111,96.71853477757918,1553.0,1435.0,1000.0,1694.0,1471.0,1012.0,60.0,292.25,1649149943.8312142,1649149944.9395068,c666b617-a22e-4e2d-a395-0d7e9d77b81e
-0.2390969420942039,0.003578698608148,-0.5849351188642168,-0.0069128654878316,-0.7139841399050887,0.160924762323513,-0.9811219536793626,-1.0052553065627057,-23.148953236588767,29.864799704144836,16.1951923249535,0.5369936744454497,-0.0019968433612871,3.161480389650484,-1.0,11.939666666666666,0.0,179.30136620823316,1.107837141445943,96.64723595065324,1553.0,1435.0,1000.0,1774.0,1471.0,1012.0,60.0,292.25,1649149946.054794,1649149947.1912048,2619b132-709d-464a-acb2-094f372e7f26
-0.239398266431427,-0.0027354150121105,-0.5880442385797854,-0.0018862284024437,-0.7146689680603012,0.1630066391656408,-0.9838338738732538,-1.016500187443296,-23.265503672986476,29.87469322631269,16.24772570845853,0.5301935455079666,-0.0261351155400495,3.169781011610701,-1.0,11.943,0.0,179.3077516761972,1.1106822472583378,96.5736839202111,1553.0,1435.0,1000.0,1774.0,1471.0,1012.0,60.0,292.25,1649149947.29957,1649149948.3662484,2619b132-709d-464a-acb2-094f372e7f26
-0.2398228597918484,-0.0034202429537152,-0.5924819249634076,-0.0047077195688736,-0.7192710135985022,0.1663349027619877,-0.9874223744682018,-1.0186231553630063,-23.255484873525035,29.876198209736515,16.22516863361446,0.5438276480506752,-0.0285085386836246,3.1870744498636143,-1.0,11.93988888888889,0.0,179.31671288438827,1.1142107277267534,96.52186023933857,1553.0,1435.0,1000.0,1774.0,1471.0,1012.0,60.0,292.25,1649149948.4746964,1649149949.4268644,2619b132-709d-464a-acb2-094f372e7f26
-0.2485848232986482,0.0013324629645098751,-0.61812901328644,0.0251053060696508,-0.7442119093509595,0.1332927779322544,-1.0275401681509673,-1.0505109559248254,-23.40060989896447,30.26019925206723,15.835826807512024,0.40346012004642645,-0.011495113640495642,3.3131521046473984,-1.0,11.898333333333333,0.0,179.31290619229082,1.1095252060981573,96.40986866315751,1553.0,1435.0,1000.0,1856.0,1471.0,1012.0,60.0,292.25,1649149951.5836565,1649149952.7220027,c64567e6-73e7-4cc3-85e2-539269149abc
-0.24511356705064383,0.0010694890327443386,-0.6140397674418946,0.02033232923899703,-0.7404645293893711,0.13794741624472173,-1.0210447081263618,-1.0520362066601,-23.336965170829505,30.189748878969578,15.877320701545433,0.4244616247849385,-0.012453949649845523,3.2932840705112563,-1.0,11.904999999999998,0.0,179.33164367791392,1.101232253654802,96.28691159771893,1553.0,1435.0,1000.0,1856.0,1471.0,1012.0,60.0,292.25,1649149952.830223,1649149953.9498813,c64567e6-73e7-4cc3-85e2-539269149abc
-0.2459813811132998,0.0014639499246894916,-0.6052958815933941,0.021160697141355714,-0.7322860369008606,0.13529137971147998,-1.0117485738368868,-1.0426480303480101,-23.21998863732846,30.159204539909204,15.732412396244966,0.41689324982915565,-0.01006628606259505,3.2569350277907176,-1.0,11.901,0.0,179.33589888576682,1.1117646721592263,96.19857334608858,1553.0,1435.0,1000.0,1856.0,1471.0,1012.0,60.0,292.25,1649149954.0589707,1649149955.1751034,c64567e6-73e7-4cc3-85e2-539269149abc
