raw_voltage_G-,raw_voltage_G0,raw_voltage_G1,raw_voltage_G2,raw_voltage_G3,raw_voltage_G4,raw_voltage_G5,raw_voltage_G6,load_x,load_y,load_z,load_l,load_m,load_n,rpm,voltage,current,roll,pitch,yaw,aileron1_pwm,elevator_pwm,throttle_pwm,rudder_pwm,aileron2_pwm,pbaro,pdiff,Tt,sample_start_time,sample_end_time,uid
-0.0091207508083244,0.1276782847873819,0.0313903829525093,-0.130903980727033,-0.1784759674700267,0.1173039636665826,-0.3153407632064314,-0.3326444504645611,-15.875993409579484,28.459916500148108,15.96341688154292,0.7436653246422673,0.4683439395259098,0.6633135862798448,-1.0,11.99225,0.0,179.20353152719926,1.13966898312649,96.60922566333088,1553.0,1435.0,1000.0,1528.0,1471.0,1012.0,60.0,292.25,1649148194.4742727,1649148195.6130447,b8f5ec12-9e3e-456f-b498-c6b9f227c578
-0.0219538786582732,0.1243516647111919,0.0272090975135784,-0.1283662821846952,-0.181815736612515,0.1193025654497589,-0.319482603161048,-0.3438602902679672,-15.914201870532503,28.507485967764243,16.083879880262046,0.7425391365159988,0.4544931517865113,0.6792025108413197,-1.0,11.993000000000002,0.0,179.19942487596077,1.122659090689661,96.64747045381472,1553.0,1435.0,1000.0,1528.0,1471.0,1012.0,60.0,292.25,1649148195.7208233,1649148197.0419114,b8f5ec12-9e3e-456f-b498-c6b9f227c578
-0.0027902013180674,0.1304636168778948,0.03195796834431,-0.1312913194478688,-0.1787909883432459,0.1168766310367794,-0.3158661632648398,-0.3378217505072456,-15.89644533256796,28.508048054899188,16.23945828287415,0.7439598318937642,0.4765733218947996,0.6644059371668494,-1.0,11.994666666666667,0.0,179.20071805844367,1.1235846168960997,96.7194151130722,1553.0,1435.0,1000.0,1528.0,1471.0,1012.0,60.0,292.25,1649148197.1500995,1649148198.2736905,b8f5ec12-9e3e-456f-b498-c6b9f227c578
0.1239309063857678,0.3695222424123853,0.0418172991307127,-0.2590906327898027,-0.225206438561505,0.0035019978775498,-0.3539190443303013,-0.3841216058357294,-15.5890379204527,27.77893829150969,16.58965620344341,0.7733439698214781,1.3842564593068003,0.7971790026828026,-1.0,11.979333333333331,0.0,179.16327951487307,1.114339706837174,96.66821373832406,1663.0,1435.0,1000.0,1528.0,1555.0,1012.0,60.0,292.25,1649148200.2091944,1649148201.3485668,4336c374-2172-411a-8c48-693976ca8139
0.1228658620030026,0.3683257111451095,0.0402263068784969,-0.2590906327802444,-0.2275863528448544,0.0041068379225102,-0.3565487840423216,-0.3788358284472038,-15.607015985160691,27.90684216212004,16.491339880075433,0.7754470736694674,1.3806686677252085,0.8059849050405076,-1.0,11.97188888888889,0.0,179.1098492217258,1.1196137868151874,96.68502738733092,1663.0,1435.0,1000.0,1528.0,1555.0,1012.0,60.0,292.25,1649148201.4566193,1649148202.7804997,4336c374-2172-411a-8c48-693976ca8139
0.112603304798551,0.3686193653384713,0.0387925511215734,-0.2594637270864009,-0.2289340943602463,0.0048387820244372,-0.3575037082724364,-0.3796510479023566,-15.58373370158612,27.877513496149447,16.57843418746084,0.7776932474533561,1.3807878945920382,0.8113179718546609,-1.0,11.976000000000004,0.0,179.12488019135924,1.115143854890237,96.69329419295634,1663.0,1435.0,1000.0,1528.0,1555.0,1012.0,60.0,292.25,1649148202.9101117,1649148204.0158818,4336c374-2172-411a-8c48-693976ca8139
0.2501715342739127,0.6076056642708086,0.0560441884891431,-0.3838980772548774,-0.2714767062452866,-0.1132584292286464,-0.3954294860945906,-0.4178743154972676,-15.493625586618553,27.69330341937416,16.711379725946145,0.7927108684909995,2.2917268316300325,0.927897333915567,-1.0,11.973333333333333,0.0,179.0247587250458,1.1070620098388848,96.64106449528316,1779.0,1435.0,1000.0,1528.0,1638.0,1012.0,60.0,292.25,1649148205.9435291,1649148207.0785148,cea0dc4c-8020-4c52-927d-9e73568f7b3c
0.2485279473250263,0.600202948999599,0.0566884746048384,-0.3795327092705344,-0.2691230893099065,-0.1106155411230939,-0.3932862481841853,-0.4153760626258341,-15.481545864816797,27.708844583422955,16.637935857713043,0.7889320689451337,2.264031220036723,0.9198029053486224,-1.0,11.957,0.0,179.03009993297673,1.1120756414229225,96.61329446393772,1779.0,1435.0,1000.0,1528.0,1638.0,1012.0,60.0,292.25,1649148207.1885345,1649148208.309624,cea0dc4c-8020-4c52-927d-9e73568f7b3c
0.2440836882215537,0.604726100071009,0.0577666676945149,-0.3835036163073873,-0.2696490372298566,-0.1117068829879206,-0.3929443820124991,-0.4079470477054632,-15.459146785338971,27.72125857406792,16.598234130241348,0.795577998556557,2.2817465927131586,0.9190298829369692,-1.0,11.958,0.0,179.0515133349346,1.11399235140079,96.56670650251895,1779.0,1435.0,1000.0,1528.0,1638.0,1012.0,60.0,292.25,1649148208.4183626,1649148209.5339203,cea0dc4c-8020-4c52-927d-9e73568f7b3c
0.2982464521038299,0.6849824469711989,0.0841007668061564,-0.4338072513388322,-0.2704894581856678,-0.1548083123700439,-0.3904302412660961,-0.4208640011396965,-15.431194358449671,28.259547693421386,15.170244929926136,0.8168620946437394,2.603087105548927,0.8877532204556177,-1.0,11.948333333333334,0.0,179.0042150338422,1.1227148231360136,96.49122608200116,1904.0,1435.0,1000.0,1528.0,1723.0,1012.0,60.0,292.25,1649148210.449196,1649148211.5972538,1ee203e9-86bc-46e2-8eca-1bd28e11d8c3
0.2847142530679832,0.6710804413573982,0.0781427638735909,-0.4289038822614618,-0.2723795835181111,-0.1454809552023051,-0.3930051947842409,-0.4214803464202792,-15.535106773226047,28.24535393592384,15.169540473800206,0.8263179322426962,2.550706186234917,0.9004082509227814,-1.0,11.923111111111112,0.0,179.00246043413543,1.1125247856506872,96.40977607614876,1904.0,1435.0,1000.0,1528.0,1723.0,1012.0,60.0,292.25,1649148211.7060387,1649148212.818187,1ee203e9-86bc-46e2-8eca-1bd28e11d8c3
0.2922336632756545,0.675668788037659,0.0797041715479097,-0.4331361197448005,-0.2724480663136698,-0.1479600324501249,-0.3919916492189648,-0.4237676720597798,-15.477109361966574,28.230591691200555,14.912147664364833,0.8302620570048466,2.5704058641173675,0.8971317530933541,-1.0,11.925,0.0,179.01932948356554,1.119975869846969,96.35098560232282,1904.0,1435.0,1000.0,1528.0,1723.0,1012.0,60.0,292.25,1649148212.9446402,1649148214.0435078,1ee203e9-86bc-46e2-8eca-1bd28e11d8c3
0.3433218234239772,0.7668741628921172,0.1096859379027216,-0.458173434562287,-0.2683664913309541,-0.207307226099823,-0.3901015237858933,-0.4176042194189306,-15.258175272432291,28.646291878694868,16.01783451339863,0.7579141140475802,2.9061225993814417,0.8603712155610755,-1.0,11.919888888888888,0.0,178.96077047726146,1.116260353660188,96.16074813792,2045.0,1435.0,1000.0,1528.0,1813.0,1012.0,60.0,292.25,1649148215.978659,1649148217.1175833,58809802-d25e-420a-828b-72730be9f6ed
0.3441984031365013,0.7628610716095708,0.1048921424743953,-0.458200827733503,-0.2722426179245262,-0.2039652654774775,-0.3947994443134994,-0.4175083434053731,-15.363936188435952,28.70350845198867,15.893758246666016,0.7655533188184398,2.892619743692118,0.8781156816190281,-1.0,11.871444444444442,0.0,178.96699353850525,1.1076187769779464,95.96481277792957,2045.0,1435.0,1000.0,1528.0,1813.0,1012.0,60.0,292.25,1649148217.2267785,1649148218.344884,58809802-d25e-420a-828b-72730be9f6ed
0.3474587316938497,0.7653505578617587,0.1107690617267835,-0.4588982566311412,-0.2676372864579417,-0.2069428976004664,-0.3877374973402955,-0.4198860670132867,-15.130999065181772,28.62726440744036,15.775489164611818,0.7603210127794866,2.9018135156463583,0.8540999534012728,-1.0,11.875999999999998,0.0,178.98196683098573,1.1330703741290395,95.86238422549644,2045.0,1435.0,1000.0,1528.0,1813.0,1012.0,60.0,292.25,1649148218.4539502,1649148219.573449,58809802-d25e-420a-828b-72730be9f6ed
-0.1707971282632406,-0.1716386448210184,0.0164271664785907,0.0322318995083894,-0.124908174843297,0.2565618003388261,-0.2719500593767032,-0.3046771697834834,-16.106014901134383,29.54795630344695,15.521293008458882,0.6948831153269015,-0.669745615674953,0.5129517337234201,-1.0,11.894888888888888,0.0,179.3140718779092,1.111585267042824,95.62209892940528,1444.0,1435.0,1000.0,1528.0,1381.0,1012.0,60.0,292.25,1649148221.5089693,1649148222.6418216,a045d839-bae4-4c23-b39e-c62bad9c4aaa
-0.1881271114551994,-0.17708220554086,0.0182811326760222,0.035203504885637,-0.1223047328099014,0.2601250968271409,-0.2694255093591313,-0.2984972813508533,-16.12646072749452,29.628689281027874,15.674510686997882,0.6968287403089184,-0.6916224993947353,0.5028202216005436,-1.0,11.981111111111112,0.0,179.32690808008934,1.1222831812679968,95.66450453832226,1444.0,1435.0,1000.0,1528.0,1381.0,1012.0,60.0,292.25,1649148222.7507012,1649148223.877009,a045d839-bae4-4c23-b39e-c62bad9c4aaa
-0.1836943568646609,-0.1813796381447517,0.0139469936143508,0.0376009505053722,-0.1245526121633743,0.2612520496047917,-0.272845266565326,-0.3041966940378722,-16.191317462087948,29.56834392072865,15.521275473082946,0.6932801820515261,-0.7064942862116528,0.5159231462380518,-1.0,11.984666666666666,0.0,179.3325042817493,1.130889184048311,95.68493970540902,1444.0,1435.0,1000.0,1528.0,1381.0,1012.0,60.0,292.25,1649148223.9970467,1649148225.102761,a045d839-bae4-4c23-b39e-c62bad9c4aaa
-0.3426506098058374,-0.4683521713695613,0.0007933664114128,0.2028493787717884,-0.0732206470485423,0.3917566860534303,-0.2335558616086165,-0.2553301053576682,-16.40603170187318,30.870648832084857,15.818877913365142,0.6216990889924997,-1.8050911140343275,0.3744575592805594,-1.0,11.96888888888889,0.0,179.4161179397488,1.1154783681480254,95.66235454655352,1331.0,1435.0,1000.0,1528.0,1283.0,1012.0,60.0,292.25,1649148226.0140684,1649148227.1602352,dc5c7048-0e23-40b6-82e9-50d64e111814
-0.3446623606602774,-0.4660117028884444,0.0043172170604139,0.2035594083418158,-0.0710642607732434,0.3889560139720449,-0.2302818358839729,-0.2577889118249173,-16.25834784209716,30.88679623036678,15.864852147133766,0.614168128264658,-1.7976294254130911,0.3625064886821414,-1.0,11.951444444444444,0.0,179.41706202367408,1.114268238868202,95.57891619674272,1331.0,1435.0,1000.0,1528.0,1283.0,1012.0,60.0,292.25,1649148227.268651,1649148228.3909895,dc5c7048-0e23-40b6-82e9-50d64e111814
-0.3499086913334133,-0.4663141229696482,0.0044224066367576,0.2006009517891893,-0.0709985172838393,0.3906784930402149,-0.2289406687126416,-0.2589065511997495,-16.225734163398485,30.83552500877968,15.68643518610253,0.6243656526928036,-1.7970431629075043,0.3600936983292404,-1.0,11.951666666666666,0.0,179.43759660795877,1.1163465966564263,95.5067992649362,1331.0,1435.0,1000.0,1528.0,1283.0,1012.0,60.0,292.25,1649148228.5032804,1649148229.6151826,dc5c7048-0e23-40b6-82e9-50d64e111814
-0.4329032782694132,-0.6182867976252427,-0.011421772658498,0.2802688982923526,-0.057166088282893,0.4671381553274379,-0.2199075134200168,-0.239827790968945,-16.3890616094531,31.973985550398066,15.77732092882037,0.6231596853246468,-2.37747657637014,0.3318460508807168,-1.0,11.942333333333332,0.0,179.46546377977242,1.1196039328443534,95.35862438217204,1209.0,1435.0,1000.0,1528.0,1173.0,1012.0,60.0,292.25,1649148230.5195453,1649148231.6591136,efbeec10-abe1-46ed-a7df-87081830a2b3
-0.421137931976443,-0.6086712624659557,-0.0110492262766837,0.2750307867210038,-0.0591241483925126,0.4629475566400897,-0.2213872897761928,-0.2521908539242247,-16.37133287667989,31.948243007176547,15.831167526813273,0.6254241544417373,-2.341347089450037,0.3373285257598846,-1.0,11.89922222222222,0.0,179.46878325170903,1.1179066782674747,95.17657479676424,1209.0,1435.0,1000.0,1528.0,1173.0,1012.0,60.0,292.25,1649148231.767897,1649148233.0971577,efbeec10-abe1-46ed-a7df-87081830a2b3
-0.4219323325098947,-0.6110681611426428,-0.0136104828022671,0.2763045666000895,-0.0614799565740078,0.463262577435872,-0.2237841878439429,-0.2459178292835049,-16.341306707464124,31.98175758563536,15.68926263594001,0.6233458455658334,-2.3496103663545616,0.3469694106955248,-1.0,11.902333333333337,0.0,179.48527739964473,1.1197480071471584,95.06623764418214,1209.0,1435.0,1000.0,1528.0,1173.0,1012.0,60.0,292.25,1649148233.20593,1649148234.319381,efbeec10-abe1-46ed-a7df-87081830a2b3
-0.4802911906139757,-0.7068564479058239,-0.0285413756320655,0.3282879339054501,-0.0602954781368955,0.5060582927437257,-0.2293088323232771,-0.2426547608457956,-16.612587393004517,33.11997660250211,15.144859049836787,0.608830387129762,-2.709457087960044,0.3610151851702827,-1.0,11.904,0.0,179.51197433238062,1.1057217156519106,94.87427821319856,1074.0,1435.0,1000.0,1528.0,1047.0,1012.0,60.0,292.25,1649148235.9242935,1649148236.9834769,aeae7a35-beb4-4210-9b7e-a3bf6943fbf9
-0.4819742241136853,-0.7014523316229337,-0.0272922494406893,0.3269862130851898,-0.0602165859555221,0.5023503607417313,-0.2291378992464131,-0.2457972996004956,-16.57225347238313,33.09167307038362,15.205640813614432,0.6033390947210318,-2.68977356941241,0.3597296975003439,-1.0,11.815,0.0,179.49888768993085,1.115599627721728,94.6654717411722,1074.0,1435.0,1000.0,1528.0,1047.0,1012.0,60.0,292.25,1649148237.0923417,1649148238.4122498,aeae7a35-beb4-4210-9b7e-a3bf6943fbf9
-0.4763597294828011,-0.7034903803318141,-0.0287780521406765,0.3269467669899819,-0.0607030877187192,0.5036257841711876,-0.2313468804301509,-0.2612864659962975,-16.745979376168734,33.127812583226344,15.084249580947429,0.6063529126732152,-2.695200736928748,0.3650082770235617,-1.0,11.821222222222222,0.0,179.5019369899403,1.1219596840618389,94.48479654160737,1074.0,1435.0,1000.0,1528.0,1047.0,1012.0,60.0,292.25,1649148238.5210323,1649148239.6406424,aeae7a35-beb4-4210-9b7e-a3bf6943fbf9
-0.0078190298608207,0.1333059266495433,0.0361502110210792,-0.1307987911674868,-0.1748863730828666,0.1117289165500412,-0.3113172615327993,-0.3409149822808493,-15.766672662556571,28.39468426849958,16.00251819686857,0.7307660050747409,0.488618409078549,0.6470478899297761,-1.0,11.880333333333333,0.0,179.22976457625398,1.1179081249394862,94.20565505823794,1553.0,1435.0,1000.0,1528.0,1471.0,1012.0,60.0,292.25,1649148241.581195,1649148242.7165349,f99d8e30-029b-4864-b0b0-94e8ce51fbc7
-0.0125525606289984,0.1309391613822561,0.0349536796607481,-0.1294050292740936,-0.1755964027358156,0.112701920051939,-0.3121587782234129,-0.3344063766138956,-15.762891982903591,28.410658251277045,15.98557286293401,0.7298540046051801,0.4796178429702117,0.6505421501975219,-1.0,11.992,0.0,179.23572050121024,1.133931357419415,94.49231354424391,1553.0,1435.0,1000.0,1528.0,1471.0,1012.0,60.0,292.25,1649148242.82437,1649148243.9464684,f99d8e30-029b-4864-b0b0-94e8ce51fbc7
-0.0072415829207943,0.130326651295713,0.0327934584253956,-0.129757304778619,-0.1767912906107284,0.114520823012735,-0.3141814863050125,-0.3343839140041082,-15.868438143403162,28.380766070128843,16.09746436002499,0.7343949530791464,0.4769818152002067,0.6580132231986303,-1.0,11.991555555555555,0.0,179.2430348749014,1.1402573576774142,94.71653802995677,1553.0,1435.0,1000.0,1528.0,1471.0,1012.0,60.0,292.25,1649148244.054309,1649148245.1737523,f99d8e30-029b-4864-b0b0-94e8ce51fbc7
-0.0021256442646249,0.1263634151921553,0.0171371960871333,-0.3497903529895612,-0.2142930195038271,0.332469219062139,-0.267729327323737,-0.2866108579679217,-15.737276417022208,27.89930228499072,17.84774293985812,1.716868517367491,0.4717663537893072,0.6646442834850669,-1.0,11.992,0.0,179.24011458957628,1.2179979304802646,95.17164871255284,1553.0,1537.0,1000.0,1528.0,1471.0,1012.0,60.0,292.25,1649148246.948653,1649148248.0415783,f1df23ff-b0b8-43fe-b642-7a33581034db
0.0019625046050149,0.1268340289349044,0.0161384430240991,-0.3508608762331187,-0.2156621276402392,0.3322002186644579,-0.2694896092634856,-0.2949789086623239,-15.7807547897981,27.94322750531497,17.724073102069166,1.7188787304793738,0.4750044869909609,0.6702014343041244,-1.0,11.992555555555558,0.0,179.24388333617833,1.2256974865235404,95.26896828348684,1553.0,1537.0,1000.0,1528.0,1471.0,1012.0,60.0,292.25,1649148248.1504197,1649148249.276574,f1df23ff-b0b8-43fe-b642-7a33581034db
-0.0055706027448264,0.1250616942880219,0.0171108986943312,-0.3485017805409957,-0.2143324655971359,0.3318906764693329,-0.2680185986791718,-0.3002460582731988,-15.724666076588331,27.93748376260568,17.751178596558383,1.7129045061743249,0.4674910329773034,0.66485646030053,-1.0,11.991777777777775,0.0,179.2370910925037,1.2363323163626292,95.3929787158774,1553.0,1537.0,1000.0,1528.0,1471.0,1012.0,60.0,292.25,1649148249.3958776,1649148250.4990635,f1df23ff-b0b8-43fe-b642-7a33581034db
-0.0047948296595149,0.1218928585638198,0.0033573622226959,-0.5635093116806007,-0.2509384400993149,0.5447680509174415,-0.2241413940507267,-0.2399066832777555,-15.73611480163244,27.69937483767617,19.54430622709263,2.67428948830935,0.4653906487379515,0.6713410455384158,-1.0,11.990777777777778,0.0,179.24051074054816,1.2971538821190909,95.52112065380592,1553.0,1645.0,1000.0,1528.0,1471.0,1012.0,60.0,292.25,1649148251.421621,1649148252.5471792,db6dbbe6-d745-4aef-8b26-a827c0a4a7b8
-0.00614585822292,0.1163561618291532,-0.0009959520363538,-0.5603223954801669,-0.253902923603818,0.5476881569343938,-0.2278657626728641,-0.2493145764165133,-15.77362065730184,27.74045881822906,19.57398660719431,2.6737038906953607,0.4439594127157797,0.6859723066176554,-1.0,11.984,0.0,179.24301058978438,1.297077255934339,95.55142999770278,1553.0,1645.0,1000.0,1528.0,1471.0,1012.0,60.0,292.25,1649148252.655709,1649148253.7778652,db6dbbe6-d745-4aef-8b26-a827c0a4a7b8
0.0021131667414145,0.1166574861127951,-0.0024614838303993,-0.5613085480180487,-0.2563135182124225,0.5481538398793607,-0.2299750329274573,-0.2445344769887539,-15.7590036485825,27.82175172944804,19.53826821112475,2.6774424519106472,0.4453325658903455,0.6942107500402677,-1.0,11.980555555555554,0.0,179.23772705900643,1.2933799298694106,95.58004773141523,1553.0,1645.0,1000.0,1528.0,1471.0,1012.0,60.0,292.25,1649148253.8871346,1649148254.9311445,db6dbbe6-d745-4aef-8b26-a827c0a4a7b8
0.0043172169961172,0.1133988009553995,0.0049615031870505,-0.6556028106000124,-0.2636532309656855,0.6424628546301265,-0.2008550505856168,-0.2135698418032257,-15.71662297886617,28.219371017658023,20.2828029744862,3.105217652554795,0.4382987256528677,0.6523241715546501,-1.0,11.979666666666668,0.0,179.24674746217028,1.327862412627468,95.65454915815202,1553.0,1761.0,1000.0,1528.0,1471.0,1012.0,60.0,292.25,1649148256.0383806,1649148257.0563705,313270a4-0f77-4b88-8d58-49e523a381f5
0.0060133988392445,0.1167122723422403,0.0032258752458726,-0.6583114430468744,-0.2669798515622563,0.6404248069098801,-0.2032875596439859,-0.2356333565454047,-15.636018733032085,28.245377439927594,20.083367831993847,3.106842658425041,0.4521472516514188,0.6628259657230745,-1.0,11.971666666666668,0.0,179.2604412325462,1.319573195443815,95.64019513615628,1553.0,1761.0,1000.0,1528.0,1471.0,1012.0,60.0,292.25,1649148257.1648877,1649148258.2814653,313270a4-0f77-4b88-8d58-49e523a381f5
0.0122075305931776,0.121300619380245,0.0090984117950813,-0.6544040876036904,-0.2612168868270633,0.632702687925662,-0.2000343527524581,-0.2164702252016239,-15.698921769629916,28.23409814468988,20.1717631650487,3.080876057664463,0.468909126483924,0.6430145761992646,-1.0,11.96288888888889,0.0,179.2589143058118,1.32320294295305,95.64471216792737,1553.0,1761.0,1000.0,1528.0,1471.0,1012.0,60.0,292.25,1649148258.390082,1649148259.5099924,313270a4-0f77-4b88-8d58-49e523a381f5
0.0071704841109634,0.1089939877841871,-0.0001270423577477,-0.7136806251646327,-0.2784060701212003,0.7030257436813677,-0.1926897094835727,-0.2151082395662552,-15.631646067193952,28.57265945401096,20.68298610686796,3.374515054106281,0.424463766414911,0.6671652523478354,-1.0,11.960777777777777,0.0,179.24872973484938,1.3470606870021988,95.56842350835778,1553.0,1887.0,1000.0,1528.0,1471.0,1012.0,60.0,292.25,1649148261.4503393,1649148262.5787742,079a77b4-79b0-462f-ad58-babf7c077b68
0.0079331085271076,0.112675622671563,0.0104971043781797,-0.7015575218575362,-0.2671639333396722,0.6880625287772937,-0.1859575763416954,-0.2072716157637862,-15.632333125654291,28.559880449055992,20.72259088218181,3.31399422680464,0.4371066663926644,0.6283984490163861,-1.0,11.925444444444445,0.0,179.25639017145852,1.3358767502709297,95.47487420184564,1553.0,1887.0,1000.0,1528.0,1471.0,1012.0,60.0,292.25,1649148262.6862996,1649148264.0113869,079a77b4-79b0-462f-ad58-babf7c077b68
0.0097695431204377,0.1103707658352543,0.0036882710627315,-0.6948774334970068,-0.2733246461973828,0.6838182396120737,-0.1955281845608133,-0.2214283801856215,-15.711822875268483,28.69318695314536,20.60846987946601,3.2898745654501407,0.4287842675983365,0.6592056843696789,-1.0,11.932111111111109,0.0,179.24867205769638,1.3190013093964343,95.41860406782348,1553.0,1887.0,1000.0,1528.0,1471.0,1012.0,60.0,292.25,1649148264.1197033,1649148265.2443826,079a77b4-79b0-462f-ad58-babf7c077b68
-0.0107643378372538,0.133345372738524,0.0476027254955965,0.0929394298981883,-0.1441841648789842,-0.1025948359576201,-0.3670151481292508,-0.3815970552653128,-16.069947888608297,29.41966018551686,14.648348447083215,-0.2485502698958364,0.4761112830908547,0.6683450941267304,-1.0,11.94022222222222,0.0,179.23968808220812,1.104031279406234,95.30361176186705,1553.0,1335.0,1000.0,1528.0,1471.0,1012.0,60.0,292.25,1649148266.9190917,1649148267.9088411,ec40f0dc-d964-45e7-8e64-7fb27b1ded44
-0.0199815741521657,0.1304789570223226,0.0475764281046059,0.0953982360675136,-0.1430665256121722,-0.1040148952310794,-0.366831066337188,-0.3833195345626874,-16.088563221964115,29.39363505174762,14.370270218592823,-0.2575153279527582,0.4676519963142657,0.6658767627002667,-1.0,11.993111111111112,0.0,179.25357006224124,1.0941622963858002,95.46718492666004,1553.0,1335.0,1000.0,1528.0,1471.0,1012.0,60.0,292.25,1649148268.0220623,1649148269.136576,ec40f0dc-d964-45e7-8e64-7fb27b1ded44
-0.0139665933534931,0.132600279967451,0.0477227073512049,0.0975781803084503,-0.1431114503281951,-0.1081715270643016,-0.3680089705897792,-0.3896769306523431,-16.08368849586159,29.39623480750809,14.356195513512125,-0.2717485267542298,0.4754394083739635,0.6676739268932009,-1.0,11.993000000000002,0.0,179.24614792334313,1.0923456320781193,95.59830027360724,1553.0,1335.0,1000.0,1528.0,1471.0,1012.0,60.0,292.25,1649148269.245507,1649148270.365795,ec40f0dc-d964-45e7-8e64-7fb27b1ded44
-0.0313475266519189,0.1367777302340049,0.0655693231724288,0.3204074825157499,-0.1074866990943458,-0.3274260605796599,-0.4165632802941927,-0.4435044172615183,-16.15001042085404,30.324624050993293,12.810611068885066,-1.260327764282204,0.4789873415828984,0.6638077581597922,-1.0,11.991111111111111,0.0,179.24866446859733,1.0100691970520803,95.79194372567618,1553.0,1236.0,1000.0,1528.0,1471.0,1012.0,60.0,292.25,1649148271.4808185,1649148272.6244762,9c561c73-5d75-4451-9964-75c0701d069e
-0.0312242576396918,0.1361613851125072,0.065815861216395,0.3212703656564781,-0.1069936229706043,-0.3267001428245566,-0.4167824252961336,-0.4446960182805043,-16.21312664415623,30.35995109531852,12.94084961997486,-1.2604075302457114,0.4758780817000216,0.6631701683938677,-1.0,11.97466666666667,0.0,179.25389335786195,1.01952344766588,95.86907705197312,1553.0,1236.0,1000.0,1528.0,1471.0,1012.0,60.0,292.25,1649148272.7558117,1649148273.8433597,9c561c73-5d75-4451-9964-75c0701d069e
-0.0366207018684035,0.1300253270114747,0.0600633066371381,0.3236946563574022,-0.1107738733520381,-0.3220570087379326,-0.4215625252246077,-0.4465450543036211,-16.310582492196065,30.378164082290965,13.023267376228128,-1.2556440155046136,0.4521605806896152,0.682285622532666,-1.0,11.974333333333334,0.0,179.26296840253914,1.0228595207567388,95.96126183847107,1553.0,1236.0,1000.0,1528.0,1471.0,1012.0,60.0,292.25,1649148273.9525,1649148275.2805874,9c561c73-5d75-4451-9964-75c0701d069e
-0.048132933654336,0.1356332458275013,0.0834066252191274,0.4367252235180256,-0.0830427236234623,-0.4410817692204988,-0.4349676239894553,-0.462882312662898,-16.124619341209144,31.11492657655586,11.70951977746022,-1.7721471924642225,0.4710970510045016,0.6314256493582495,-1.0,11.973,0.0,179.24603408685698,0.9409756318804988,96.0685777707103,1553.0,1133.0,1000.0,1528.0,1471.0,1012.0,60.0,292.25,1649148276.9249637,1649148277.9472418,00ed2d46-b13c-4bbe-b7f5-ed8cb16f66be
-0.0348127560783241,0.1360518126478084,0.0824571797893429,0.4481552746371879,-0.0827507129750282,-0.4508183809439401,-0.4400939730601864,-0.4558861090970865,-16.245531925015623,31.198888294228592,11.856088070850332,-1.81933823816144,0.4707576397421933,0.6398595192370348,-1.0,11.96577777777778,0.0,179.2476171729246,0.9663633857355995,96.10356275854902,1553.0,1133.0,1000.0,1528.0,1471.0,1012.0,60.0,292.25,1649148278.059775,1649148279.122302,00ed2d46-b13c-4bbe-b7f5-ed8cb16f66be
-0.0324843410396662,0.1361065988753142,0.0792247919421034,0.4542228495554636,-0.0844901760663433,-0.4533385483684102,-0.4439153138596403,-0.4771157805589838,-16.272477987323487,31.144023215357247,12.27312696634328,-1.839160097434949,0.4665047388293795,0.6527273067834702,-1.0,11.967,0.0,179.23915684527267,0.9463491646303333,96.14131245518176,1553.0,1133.0,1000.0,1528.0,1471.0,1012.0,60.0,292.25,1649148279.230625,1649148280.4005156,00ed2d46-b13c-4bbe-b7f5-ed8cb16f66be
-0.0292908513644349,0.1410768059268068,0.0875616131496662,0.4958286079557055,-0.0778884344887284,-0.5006190804515104,-0.4528235576491187,-0.4769382736619075,-16.16122611303083,31.702864019759133,11.681354884447174,-2.035176752790912,0.4850189129441958,0.6450349310197392,-1.0,11.959222222222223,0.0,179.22620073532704,0.9309642346726832,96.201195000365,1553.0,1026.0,1000.0,1528.0,1471.0,1012.0,60.0,292.25,1649148281.5159092,1649148282.6539974,0181a920-f438-411b-988d-0589b9058ab0
-0.0280285764700268,0.1423785268255692,0.0922819950919002,0.4794453339161776,-0.0758109403446213,-0.4874440832530171,-0.4443163491276662,-0.461830416893443,-16.111504480269865,31.703696471280185,11.641628973591812,-1.968354864631612,0.4922177228696197,0.6236507146927991,-1.0,11.96175,0.0,179.2406023789195,0.9267623817436724,96.21671603607142,1553.0,1026.0,1000.0,1528.0,1471.0,1012.0,60.0,292.25,1649148282.761968,1649148283.8782473,0181a920-f438-411b-988d-0589b9058ab0
-0.0397298207606846,0.1447217340058958,0.0923187018642077,0.4939839555253965,-0.0748067086308938,-0.5036323245647341,-0.4498733181794274,-0.4759926620853984,-16.176437493107382,31.780968911472787,11.548122166001392,-2.0370610877726807,0.5005081248322925,0.6303468172481166,-1.0,11.950333333333331,0.0,179.23026849243277,0.94321656240053,96.225701719107,1553.0,1026.0,1000.0,1528.0,1471.0,1012.0,60.0,292.25,1649148283.987111,1649148285.115144,0181a920-f438-411b-988d-0589b9058ab0
-0.028856944352214,0.1257585751752499,0.02801116799066,-0.1162431834656417,-0.1793569301938779,0.1052729068061134,-0.321073595657238,-0.3435052755633167,-15.838963378686008,28.40815380818247,15.87027808316694,0.6830511563855438,0.4596870986585732,0.6770941016976159,-1.0,11.963,0.0,179.23244201040862,1.1378092684684935,96.20385422068186,1553.0,1435.0,1000.0,1528.0,1471.0,1012.0,60.0,292.25,1649148287.0438144,1649148288.1825285,bcfbc5cd-8062-4caf-b603-33042900d9a2
-0.0104876673741702,0.1280804157383509,0.0314785887927045,-0.1183617672737927,-0.1765173594138004,0.1042894939200347,-0.3180850061007729,-0.3430675332260515,-15.865585938832268,28.40469554874478,15.801636077399651,0.6857456884738711,0.4696728130912223,0.6643932677127052,-1.0,11.989444444444445,0.0,179.23955451406434,1.1228918270140358,96.2198869513936,1553.0,1435.0,1000.0,1528.0,1471.0,1012.0,60.0,292.25,1649148288.2908204,1649148289.4119728,bcfbc5cd-8062-4caf-b603-33042900d9a2
-0.0120792075392705,0.1298346709231595,0.0336256613317335,-0.1171372948653082,-0.1751099009322452,0.1028666954380606,-0.3164321051551769,-0.3398499371408853,-15.8064533652496,28.42839157197632,16.017912334480744,0.680114595750103,0.4739027158403189,0.6577558508893736,-1.0,11.994,0.0,179.24415806156497,1.124716412443879,96.23033562300392,1553.0,1435.0,1000.0,1528.0,1471.0,1012.0,60.0,292.25,1649148289.5199516,1649148290.6547709,bcfbc5cd-8062-4caf-b603-33042900d9a2
0.0143578903206598,0.139352683185663,0.1149865059974914,-0.1247306674422535,-0.1010082265102553,0.0955099999849627,-0.2323445378299784,-0.2493419695186969,-15.324395937749012,28.40778218719193,15.938571882441629,0.684856519812838,0.5129847580623994,0.3275188963474646,-1.0,11.990333333333334,0.0,179.24399261920502,1.1298505565496786,96.17993489820846,1553.0,1435.0,1000.0,1435.0,1471.0,1012.0,60.0,292.25,1649148292.5752766,1649148293.7125256,56ed89a1-926c-486d-a3bf-5b94aad7d0fb
0.0112076817874397,0.1409825736142417,0.1191228666097885,-0.124895026152356,-0.097542996999314,0.0940033785637122,-0.2281807835519973,-0.2582173406190404,-15.259097948757306,28.395538655481506,15.961646899996586,0.682003040221696,0.5187134133614876,0.3115115252431972,-1.0,11.991,0.0,179.2399142373607,1.1260946758421777,96.2063153655128,1553.0,1435.0,1000.0,1435.0,1471.0,1012.0,60.0,292.25,1649148293.8206444,1649148294.9419005,56ed89a1-926c-486d-a3bf-5b94aad7d0fb
0.015796028989764,0.1439547267519862,0.1201911981576259,-0.1244567362372689,-0.097269065810296,0.0916338739586331,-0.2280575145119749,-0.2559574080847246,-15.229683979215949,28.40852003099843,16.10035921101875,0.6758659409988242,0.5284371899328703,0.3100810161013869,-1.0,11.99288888888889,0.0,179.23163453026677,1.1287273817441328,96.19334483627894,1553.0,1435.0,1000.0,1435.0,1471.0,1012.0,60.0,292.25,1649148295.0586002,1649148296.1715782,56ed89a1-926c-486d-a3bf-5b94aad7d0fb
0.052073282176179,0.1581043670892294,0.2309612900699812,-0.1311143598827905,0.0027919682723299,0.077555455455583,-0.1138238232057686,-0.1383592923316644,-14.381780336386011,28.38584635539565,16.06044843958088,0.6650335782616117,0.5837009633246388,-0.1376422866790697,-1.0,11.987666666666668,0.0,179.22913619885034,1.122503348147024,96.13845060591954,1553.0,1435.0,1000.0,1330.0,1471.0,1012.0,60.0,292.25,1649148297.0791786,1649148298.223154,241c6659-92cd-4376-b04b-df97e5e966d4
0.0478048866405746,0.160075575740095,0.2304347943799483,-0.1330581756069198,0.00235970487076,0.0791152195357295,-0.1153348276523906,-0.1348524252697919,-14.541842361895265,28.405634609230063,16.29492654031935,0.6729851172222675,0.5903551843252939,-0.1337523814507732,-1.0,11.982,0.0,179.22759257609792,1.1329814275162544,96.14831339908103,1553.0,1435.0,1000.0,1330.0,1471.0,1012.0,60.0,292.25,1649148298.3310888,1649148299.4428444,241c6659-92cd-4376-b04b-df97e5e966d4
0.053309259630723,0.1577362036037273,0.2307903570218739,-0.1319164304570445,0.0022660204048037,0.0791464476637279,-0.1141656893367254,-0.1405814221100098,-14.403110235228668,28.436392211956573,16.12783480303728,0.6707445930068515,0.5819626235898213,-0.1361983809753317,-1.0,11.98825,0.0,179.21659597153422,1.1357997076421045,96.13300523760375,1553.0,1435.0,1000.0,1330.0,1471.0,1012.0,60.0,292.25,1649148299.5522969,1649148300.6720035,241c6659-92cd-4376-b04b-df97e5e966d4
0.0858539262482714,0.1797575297646244,0.3504166403077142,-0.1299079669446273,0.1085217304521246,0.0500374257397081,0.0021405599300176,-0.0181440443842149,-13.559135326796266,28.64032272174256,16.221374022601154,0.6085503488417261,0.6650933450277648,-0.6062609717129666,-1.0,11.982888888888889,0.0,179.20480251156732,1.133339632992726,96.06982845423832,1553.0,1435.0,1000.0,1210.0,1471.0,1012.0,60.0,292.25,1649148301.9945114,1649148303.1327374,e8382ec5-f1dd-4b0e-967f-0b7e9325e372
0.0947566892223753,0.1805382335785398,0.3536216347868275,-0.1311132641682016,0.1112884352408804,0.0503524466000404,0.0058797204896949,-0.0223351910943562,-13.514029812477672,28.62050933316633,16.24384160676378,0.6120316264249612,0.6678543250443094,-0.6195665910651198,-1.0,11.981444444444444,0.0,179.21377889795653,1.142100714269508,96.07056990921822,1553.0,1435.0,1000.0,1210.0,1471.0,1012.0,60.0,292.25,1649148303.2407868,1649148304.3372247,e8382ec5-f1dd-4b0e-967f-0b7e9325e372
0.0953719386300585,0.1781429794973338,0.3498780916612611,-0.1288527839820258,0.1078237538361154,0.0498643012456238,0.0012272733851927,-0.0218881352378724,-13.550451598789662,28.70192932767096,16.103694306903424,0.606148274592434,0.6598563190336081,-0.6036471732232923,-1.0,11.984,0.0,179.21246370708633,1.1456779487705149,96.05004575994477,1553.0,1435.0,1000.0,1210.0,1471.0,1012.0,60.0,292.25,1649148304.4511468,1649148305.591957,e8382ec5-f1dd-4b0e-967f-0b7e9325e372
0.1188160636615957,0.1887276795790735,0.4260221856926993,-0.1034363525557682,0.1783270612148232,0.0108258218037155,0.0692191820508334,0.0479182940765457,-13.046203220235991,28.928976060370545,15.905175124817331,0.4666091249801222,0.6994475775994674,-0.8987909407388471,-1.0,11.981111111111112,0.0,179.20878678858318,1.1564609735560485,96.0107951292419,1553.0,1435.0,1000.0,1071.0,1471.0,1012.0,60.0,292.25,1649148307.5245883,1649148308.663461,259ef725-e4d6-4950-9406-00db21867b0b
0.1132015704776291,0.1950522022198038,0.4326885741314735,-0.1077228277771155,0.182403156901763,0.0085642460153791,0.0746364448739344,0.0446574171045311,-12.993585438644262,28.97580374370676,15.949149008612356,0.4718721642709755,0.7233573921276646,-0.9203354967715884,-1.0,11.979333333333336,0.0,179.2082069814136,1.158273950035896,96.02519240910236,1553.0,1435.0,1000.0,1071.0,1471.0,1012.0,60.0,292.25,1649148308.7715771,1649148309.890362,259ef725-e4d6-4950-9406-00db21867b0b
0.111702619113577,0.1925145039484401,0.4299667942336275,-0.1069602033534419,0.18111458470724,0.009537249547905,0.0722433821670353,0.0423958416949931,-13.086739824896028,28.94097958012244,15.81512913254663,0.4719037041261938,0.7154195870116999,-0.9120033686844436,-1.0,11.976,0.0,179.19492150456804,1.1610284965519522,96.02668594380089,1553.0,1435.0,1000.0,1071.0,1471.0,1012.0,60.0,292.25,1649148309.9983797,1649148311.1279042,259ef725-e4d6-4950-9406-00db21867b0b
-0.0477012181336794,0.1099461725293018,-0.0778062550709759,-0.0993783359490344,-0.2762694066621373,0.1117678147886149,-0.4358206458002089,-0.4586117256199235,-16.718196099418858,28.81170562195678,15.94935269491119,0.6565793318688417,0.397125291547407,1.114274147959002,-1.0,11.984222222222222,0.0,179.2613352284176,1.1651088349609633,96.06208605535916,1553.0,1435.0,1000.0,1613.0,1471.0,1012.0,60.0,292.25,1649148313.0546272,1649148314.1929195,fc0752f5-4ed9-40de-88eb-7f2376fa85fb
-0.0519608480339692,0.1108638419385501,-0.0737520735548182,-0.1002823088711947,-0.2723795835172907,0.110357069275443,-0.430999456136062,-0.4626933004111292,-16.6485239360517,28.74319724553916,15.793009813050782,0.6552062098740837,0.4018268003909342,1.0965448703721064,-1.0,11.992333333333336,0.0,179.2573266662847,1.168331083423623,96.06693397185003,1553.0,1435.0,1000.0,1613.0,1471.0,1012.0,60.0,292.25,1649148314.3013108,1649148315.422517,fc0752f5-4ed9-40de-88eb-7f2376fa85fb
-0.0447931646946261,0.1034189406736223,-0.0817410026187212,-0.1002149217979325,-0.2783666240055396,0.1175406401904095,-0.4365586165507769,-0.4522450150131109,-16.688814531292138,28.724991227513584,15.734340509027222,0.6706485254485031,0.3741939846191389,1.1225005906484418,-1.0,11.993333333333332,0.0,179.25317239344955,1.1566900932003936,96.05321895199668,1553.0,1435.0,1000.0,1613.0,1471.0,1012.0,60.0,292.25,1649148315.530433,1649148316.6520555,fc0752f5-4ed9-40de-88eb-7f2376fa85fb
-0.0929962872424379,0.089731148066695,-0.1833804316118694,-0.0782171518583108,-0.3708414194378494,0.1173171123551737,-0.547178626155239,-0.5677563421654237,-17.415852328651393,29.02280112677933,15.858605210515984,0.6170917380698998,0.3177541366441715,1.5425809153578296,-1.0,11.991,0.0,179.27578639088154,1.1563613784886195,96.0581275812802,1553.0,1435.0,1000.0,1694.0,1471.0,1012.0,60.0,292.25,1649148318.4200895,1649148319.432373,2893aa06-9988-4bfd-a6e3-29cd297ff70d
-0.0811887574367578,0.0923740359764806,-0.1788704284026871,-0.0824247348595203,-0.3672912707989151,0.1168437593017681,-0.5417350643560315,-0.5630228101992826,-17.335102336216313,28.953059202294,15.647507251623509,0.6252885646032723,0.329768771359799,1.523917637584569,-1.0,11.987555555555556,0.0,179.26889093545944,1.154294380633077,96.02330500016171,1553.0,1435.0,1000.0,1694.0,1471.0,1012.0,60.0,292.25,1649148319.5409148,1649148320.7510512,2893aa06-9988-4bfd-a6e3-29cd297ff70d
-0.0903933931120387,0.0929761366891845,-0.1754216346446235,-0.0794087525066647,-0.3635712848165839,0.1146166989172641,-0.5394488341437514,-0.556446269241914,-17.393498088610954,28.9774511624734,15.8315737992157,0.6138141157819615,0.3306566655434571,1.511202751815448,-1.0,11.988,0.0,179.27177479310902,1.1615521918201888,96.00177396716812,1553.0,1435.0,1000.0,1694.0,1471.0,1012.0,60.0,292.25,1649148320.8601315,1649148321.9717517,2893aa06-9988-4bfd-a6e3-29cd297ff70d
-0.1272617916876739,0.0764641136758093,-0.2707666765848698,-0.0485010971173756,-0.4493128547884489,0.106469438149313,-0.6461225971590205,-0.6627031096692048,-18.109511165757027,29.378585336841525,15.640692169561612,0.5233068048406243,0.2656431254306117,1.907170831386664,-1.0,11.983,0.0,179.27697484379712,1.1610235517795842,95.96586310924192,1553.0,1435.0,1000.0,1774.0,1471.0,1012.0,60.0,292.25,1649148324.1151235,1649148325.2516186,8cd9665d-85ac-4458-9f97-71b35d21f03f
-0.1246846470722425,0.0762405858423883,-0.273291226592579,-0.0471599300597845,-0.4521792712207569,0.106180166828463,-0.6502249918385631,-0.6699348950540195,-18.176246641925587,29.48772433868352,15.717481979917787,0.5202078669587705,0.2642731928406905,1.9203587251100835,-1.0,11.97411111111111,0.0,179.27027822277088,1.1581918454702484,95.9281855090504,1553.0,1435.0,1000.0,1774.0,1471.0,1012.0,60.0,292.25,1649148325.359101,1649148326.4818888,8cd9665d-85ac-4458-9f97-71b35d21f03f
-0.1224981283119273,0.074006403222718,-0.2691471952738118,-0.0419623598256347,-0.4473257576086181,0.1025226378906811,-0.6466518323564293,-0.6695387911078824,-18.159288151243857,29.50284480752193,15.59623556586084,0.5005602556385831,0.2564712593029128,1.9026217583390743,-1.0,11.972333333333331,0.0,179.2702402772755,1.1525791968096268,95.89951465164442,1553.0,1435.0,1000.0,1774.0,1471.0,1012.0,60.0,292.25,1649148326.5907896,1649148327.5357227,8cd9665d-85ac-4458-9f97-71b35d21f03f
-0.14840489675547222,0.06534031671418199,-0.34509626772061885,-0.012039761405052345,-0.5167788320412978,0.08739068014000162,-0.7359150785478961,-0.7563876076102551,-18.77019966411716,29.953401787884655,15.516821422349299,0.39794353869913196,0.22050465563557126,2.226327763558176,-1.0,11.965333333333334,0.0,179.27035411376164,1.15978429933205,95.84284457210083,1553.0,1435.0,1000.0,1856.0,1471.0,1012.0,60.0,292.25,1649148329.4414701,1649148330.576347,67e16561-0f5b-467d-af81-d0ca328b8cf0
-0.14227760384779192,0.06490640974318257,-0.3453592416624401,-0.011750490063586243,-0.5162791814416369,0.08710140883656953,-0.7344818700133489,-0.756874109553425,-18.67789980554381,29.826852989555803,15.458698101170915,0.39582617676582676,0.21868467767724944,2.223949641468758,-1.0,11.957999999999998,0.0,179.25906760561315,1.163612727083548,95.77158217285047,1553.0,1435.0,1000.0,1856.0,1471.0,1012.0,60.0,292.25,1649148330.6850536,1649148331.8064728,67e16561-0f5b-467d-af81-d0ca328b8cf0
-0.13482229257414954,0.06686556547262376,-0.33798282181582606,-0.012118653562364294,-0.5095864932372973,0.0852342939908853,-0.7283808724067409,-0.7502734611752621,-18.745134513730502,29.874505153150125,15.469637853035627,0.39311209509033895,0.22692537745180147,2.196275248657997,-1.0,11.962222222222222,0.0,179.27004296069947,1.164305682977154,95.713363917095,1553.0,1435.0,1000.0,1856.0,1471.0,1012.0,60.0,292.25,1649148331.9143865,1649148333.0357502,67e16561-0f5b-467d-af81-d0ca328b8cf0
