raw_voltage_G-,raw_voltage_G0,raw_voltage_G1,raw_voltage_G2,raw_voltage_G3,raw_voltage_G4,raw_voltage_G5,raw_voltage_G6,load_x,load_y,load_z,load_l,load_m,load_n,rpm,voltage,current,roll,pitch,yaw,aileron1_pwm,elevator_pwm,throttle_pwm,rudder_pwm,aileron2_pwm,pbaro,pdiff,Tt,sample_start_time,sample_end_time,uid
-0.0287123086923275,0.1138195592275389,-0.0128944266544252,-0.1337572480097594,-0.2162521754542413,0.1362906806231077,-0.3590601854718847,-0.3823202335257859,-16.56912616945888,28.527768500728563,16.022663783885733,0.7906725348960988,0.4182910403354239,0.8352474247777875,-1.0,11.987000000000002,0.0,179.27343377016743,1.0991470182455385,97.13751679510555,1553.0,1435.0,1000.0,1528.0,1471.0,1012.0,60.0,292.25,1649148558.0009868,1649148559.1373158,eff9ab72-2631-4950-aab7-5614cbe413c8
-0.0327226611638468,0.1107427643612085,-0.0175359165383675,-0.132889434029274,-0.2193421193993123,0.139025609359954,-0.3622290218214096,-0.3833326833826348,-16.586758325799654,28.456030291090137,16.067349828833276,0.7941522803850865,0.4060776248729061,0.850010103941894,-1.0,11.984111111111112,0.0,179.26789524566044,1.1031516435332815,97.11370675565888,1553.0,1435.0,1000.0,1528.0,1471.0,1012.0,60.0,292.25,1649148559.2460592,1649148560.3457935,eff9ab72-2631-4950-aab7-5614cbe413c8
-0.031723360219826,0.111071481764454,-0.0160238164350165,-0.13484858987732,-0.2185137514490199,0.1409584676664911,-0.3606511780012409,-0.3818074343252029,-16.591784967380327,28.498260614127265,16.14281480585553,0.803279788350661,0.4070150374403171,0.8446823506702872,-1.0,11.987666666666668,0.0,179.25974910671033,1.1018136023600955,97.08025400692398,1553.0,1435.0,1000.0,1528.0,1471.0,1012.0,60.0,292.25,1649148560.45399,1649148561.5936463,eff9ab72-2631-4950-aab7-5614cbe413c8
0.0989889257464199,0.3551556492405117,-0.002817594361734,-0.2731465908898406,-0.2647505993794373,0.0343274729931764,-0.3963745488255668,-0.4216857950541886,-16.400934093587413,27.936316835978342,16.79763499425814,0.8727649528861736,1.33317973494018,0.9701288076046346,-1.0,11.988,0.0,179.201472414892,1.10969255759079,97.03188260722196,1663.0,1435.0,1000.0,1528.0,1555.0,1012.0,60.0,292.25,1649148563.5288246,1649148564.6661978,bec7218b-5a6e-4cdf-9361-e843db39f21d
0.1153015267878174,0.3619354452433257,0.0038115401082652,-0.277693848955763,-0.2602992172728475,0.0317388234046636,-0.3903343653125635,-0.4189875722664608,-16.3279493695217,27.91164400889815,16.82740525405009,0.8774134234207706,1.358807369174384,0.9473133296516372,-1.0,11.972125,0.0,179.1791101858219,1.1098066223428276,96.9507308529633,1663.0,1435.0,1000.0,1528.0,1555.0,1012.0,60.0,292.25,1649148564.7746809,1649148565.9011328,bec7218b-5a6e-4cdf-9361-e843db39f21d
0.1081261737811609,0.3610413339666001,0.0023449125949621,-0.2745009067855697,-0.2611023835624001,0.0311405577199718,-0.3926551106418923,-0.4216085461791505,-16.392028904390266,27.94444802720645,17.021036447819927,0.8690095887531952,1.3537057595297546,0.9538453252241452,-1.0,11.972444444444443,0.0,179.17464950311145,1.1134518059610068,96.9113176258127,1663.0,1435.0,1000.0,1528.0,1555.0,1012.0,60.0,292.25,1649148566.013078,1649148567.1216228,bec7218b-5a6e-4cdf-9361-e843db39f21d
0.2482912708005079,0.6038582862009116,0.0176236978350521,-0.4123387129215433,-0.3068072580574093,-0.079203304114993,-0.4291427502646573,-0.4581093351409457,-16.24783397022548,27.601623786732453,17.034810388464912,0.9305434559407004,2.2812078711420267,1.0756542435949086,-1.0,11.96188888888889,0.0,179.09285115761136,1.1193621844648238,96.8277434311284,1779.0,1435.0,1000.0,1528.0,1638.0,1012.0,60.0,292.25,1649148569.0558736,1649148570.202668,01cc4e8b-8d37-4880-b110-59f27eb48fc6
0.2461173531105479,0.6058300425873303,0.0177957266291235,-0.4135500367755183,-0.3074016887776827,-0.0801620632644434,-0.4296708896576841,-0.4440933694646431,-16.246697819720406,27.62756689159592,17.01291682034494,0.9312990737647174,2.288949642736687,1.0771685732896945,-1.0,11.955,0.0,179.07559354630845,1.1229575913007317,96.76516144340324,1779.0,1435.0,1000.0,1528.0,1638.0,1012.0,60.0,292.25,1649148570.317625,1649148571.4244375,01cc4e8b-8d37-4880-b110-59f27eb48fc6
0.2486594342789805,0.604910181800703,0.0175448056712578,-0.4138113671729732,-0.3075698825407069,-0.0784012336111487,-0.4295898060168705,-0.4582408219457447,-16.25656178995179,27.641923747181533,17.100069329623203,0.9359369969401772,2.2848135015792765,1.0776207822129016,-1.0,11.948555555555556,0.0,179.0865142598814,1.1287587460676651,96.70534188774236,1779.0,1435.0,1000.0,1528.0,1638.0,1012.0,60.0,292.25,1649148571.53329,1649148572.6540067,01cc4e8b-8d37-4880-b110-59f27eb48fc6
0.2869467919811393,0.6859001163072462,0.0427919462309087,-0.4739107841047298,-0.3107299530265121,-0.1149513240079609,-0.4269041842380418,-0.4536809630257738,-16.28004120149365,28.199388475895493,15.419942828596907,0.9940466229942916,2.61264161065022,1.0503444768187034,-1.0,11.941,0.0,179.05854084068065,1.1368415516143693,96.57093135397557,1904.0,1435.0,1000.0,1528.0,1723.0,1012.0,60.0,292.25,1649148573.5654728,1649148574.703642,78f29de1-cdb2-4a10-bbc6-56eea9cde6bd
0.2969282954072287,0.687194714898753,0.0406865112365889,-0.4746109524174793,-0.3131186332036036,-0.1163483731466903,-0.4279462186573677,-0.4550982828480201,-16.135689265784066,28.11376958111696,15.298225368455842,0.9918675212305058,2.617505514054652,1.058066444252293,-1.0,11.918,0.0,179.03903837387057,1.1322019321772263,96.45849277985884,1904.0,1435.0,1000.0,1528.0,1723.0,1012.0,60.0,292.25,1649148574.8118994,1649148575.9453285,78f29de1-cdb2-4a10-bbc6-56eea9cde6bd
0.2942065154488706,0.6996728264228347,0.043618670519364,-0.4775299636622169,-0.3134999454447933,-0.1250659592738864,-0.4289323710781023,-0.4460651265018065,-16.109081906975078,28.156910414861645,15.421671226351076,0.9793275746239342,2.663569608695598,1.0576522898533254,-1.0,11.912666666666668,0.0,179.05576778387766,1.1336940083457572,96.35303238234413,1904.0,1435.0,1000.0,1528.0,1723.0,1012.0,60.0,292.25,1649148576.0587883,1649148577.368365,78f29de1-cdb2-4a10-bbc6-56eea9cde6bd
0.3322456912117162,0.7706231845588541,0.0678517176784526,-0.4938606486120813,-0.3096473768733349,-0.175149347155859,-0.4277752855700689,-0.4537045211394029,-15.908471474475416,28.526910970637363,16.138627234371583,0.9074962304828756,2.925455532623076,1.0271666497155452,-1.0,11.896,0.0,179.01957233473604,1.148899716985498,96.2034398558722,2045.0,1435.0,1000.0,1528.0,1813.0,1012.0,60.0,292.25,1649148578.4794204,1649148579.616474,a39169cd-6d16-43e9-8d8b-ab6454f720d1
0.3515348272364321,0.769755370687854,0.0747021883793433,-0.498212868011942,-0.3034674887114388,-0.1677334817498768,-0.4183213709467956,-0.4481952155129775,-15.84834372867747,28.510467703140367,16.56464066258677,0.9343084899771704,2.918969243119895,0.9964575984819666,-1.0,11.854,0.0,179.0083025226055,1.1457837633417969,96.03150350389548,2045.0,1435.0,1000.0,1528.0,1813.0,1012.0,60.0,292.25,1649148579.7245655,1649148581.0474825,a39169cd-6d16-43e9-8d8b-ab6454f720d1
0.3377155484760467,0.7629049005916161,0.0706523899506831,-0.491059975432107,-0.3055712804284082,-0.1692192845727052,-0.4230154565007298,-0.4505093872767836,-15.908135716049506,28.579808582611,16.301546679184106,0.9150204991326988,2.894894569706816,1.0103192035649504,-1.0,11.85588888888889,0.0,178.9961888026575,1.1397488761812349,95.89908738536636,2045.0,1435.0,1000.0,1528.0,1813.0,1012.0,60.0,292.25,1649148581.1578214,1649148582.2803223,a39169cd-6d16-43e9-8d8b-ab6454f720d1
-0.1975810249623739,-0.1913879883628043,-0.0266611119671649,0.055465645834072,-0.158319014430726,0.256785328157471,-0.3198902128178234,-0.3360894096149879,-16.801805348347465,29.73912446547927,15.49455331559622,0.6417430353640197,-0.7442449309658622,0.6826604224913947,-1.0,11.888777777777776,0.0,179.3584498936765,1.1046427592064596,95.64316247389569,1444.0,1435.0,1000.0,1528.0,1381.0,1012.0,60.0,292.25,1649148583.915106,1649148585.1485949,2124a458-80ab-4026-b34a-56f929f7f177
-0.1998426009525336,-0.1922136169899449,-0.0282110145812484,0.0554612629449375,-0.1588761904776693,0.2575539789832121,-0.3209886769850609,-0.3352467971623018,-16.860420566297957,29.684397069327968,15.479032097234809,0.6430082342218085,-0.7468877561000445,0.6869556224213613,-1.0,11.983555555555556,0.0,179.3614855333076,1.116367134655806,95.67320544041496,1444.0,1435.0,1000.0,1528.0,1381.0,1012.0,60.0,292.25,1649148585.2570407,1649148586.375742,2124a458-80ab-4026-b34a-56f929f7f177
-0.2058006045179311,-0.1904467607660566,-0.0274029176053302,0.0548312212433567,-0.158602259285777,0.2559103920461434,-0.3213584841344135,-0.3488748755048679,-16.90603848880757,29.72168425027852,15.410536702817115,0.6409896322362048,-0.739201592602754,0.6860719734343333,-1.0,11.982,0.0,179.35996619567223,1.1121935689078108,95.70976744304204,1444.0,1435.0,1000.0,1528.0,1381.0,1012.0,60.0,292.25,1649148586.4833343,1649148587.6037605,2124a458-80ab-4026-b34a-56f929f7f177
-0.3626947050104185,-0.4752393505598966,-0.0402228968286635,0.2351327137261717,-0.1058020222986618,0.369427462225969,-0.2859665714880948,-0.3001562087076584,-17.056731149345087,31.015427035880435,15.553517693027516,0.4972466180585655,-1.8305373782588168,0.5479269127994981,-1.0,11.969444444444443,0.0,179.45688657999472,1.1237388890507904,95.74825024664568,1331.0,1435.0,1000.0,1528.0,1283.0,1012.0,60.0,292.25,1649148589.5387914,1649148590.786141,3bee0f19-2606-4310-857d-ee549299f0e0
-0.3688033712148379,-0.478147952454557,-0.0439647967580584,0.2382062213319147,-0.1077491251745728,0.3694302015381939,-0.289017069442495,-0.3070965299631567,-17.08733885884355,30.947045100843194,15.52595644556833,0.4896602592064624,-1.841602286081244,0.5596656133856236,-1.0,11.955777777777776,0.0,179.44920034044873,1.1081536305934216,95.71858825290012,1331.0,1435.0,1000.0,1528.0,1283.0,1012.0,60.0,292.25,1649148590.9007823,1649148592.0051067,3bee0f19-2606-4310-857d-ee549299f0e0
-0.3565750815289575,-0.472730688280467,-0.0386527232955791,0.2363522552447824,-0.1038571108604555,0.3656565259944513,-0.284178348550221,-0.3078723030660089,-16.9989598822842,30.89790863831609,15.540568433639052,0.4853479908667608,-1.8214750953939047,0.540976115530335,-1.0,11.955666666666666,0.0,179.46235528479016,1.1194423206078985,95.67960532766726,1331.0,1435.0,1000.0,1528.0,1283.0,1012.0,60.0,292.25,1649148592.114086,1649148593.2416964,3bee0f19-2606-4310-857d-ee549299f0e0
-0.4573379443868494,-0.6419402146088403,-0.0550699669824498,0.3293650311847474,-0.0877499572209021,0.4461418806760937,-0.2730370185278167,-0.294650191570807,-16.99281476432496,32.166835331200495,15.553202181236337,0.4639948015709416,-2.4687402729777794,0.5053957199664778,-1.0,11.952888888888888,0.0,179.52489856811005,1.1319831763963093,95.63461411269446,1209.0,1435.0,1000.0,1528.0,1173.0,1012.0,60.0,292.25,1649148593.9423802,1649148595.0772698,af9f1b97-3e92-4661-a137-71f22561cbd9
-0.4313418703059407,-0.6127528383045165,-0.0455645548769461,0.3130387343708689,-0.0852023971084451,0.4314865642260554,-0.2687773881559007,-0.2902809882870357,-16.936426916322205,32.04005806074269,15.452433652894385,0.4675356796844383,-2.356165297495419,0.48624198698046,-1.0,11.902333333333331,0.0,179.49692970236876,1.097496673787334,95.51624086309889,1209.0,1435.0,1000.0,1528.0,1173.0,1012.0,60.0,292.25,1649148595.187125,1649148596.3115897,af9f1b97-3e92-4661-a137-71f22561cbd9
-0.4242645829909551,-0.5896226306017321,-0.0475280936015837,0.2910113824479473,-0.0925623802114871,0.4264166465225563,-0.2722393307584443,-0.3021526192585787,-16.887187558130485,31.824043698760764,15.051714678892427,0.5042623593580662,-2.263626000330453,0.5060356695066867,-1.0,11.909,0.0,179.48433938699867,1.1105921741386584,95.40272311909328,1209.0,1435.0,1000.0,1528.0,1173.0,1012.0,60.0,292.25,1649148596.4233782,1649148597.5377738,af9f1b97-3e92-4661-a137-71f22561cbd9
-0.4598581117037272,-0.6540381151001496,-0.0602823294125247,0.3224104671020925,-0.0964806918805257,0.4580392583402209,-0.2810884045189175,-0.309081983272237,-17.194060158856345,32.84526899670905,14.591429704820056,0.5104008544253044,-2.5036288991580644,0.5325552798063703,-1.0,11.900666666666668,0.0,179.51566263453236,1.1120849262113253,95.21888630085265,1074.0,1435.0,1000.0,1528.0,1047.0,1012.0,60.0,292.25,1649148599.471522,1649148600.6068394,261724f9-ded6-41b3-8c79-29ba01d1a568
-0.467089896371521,-0.6551031598801624,-0.0596117458656374,0.3220160062410657,-0.0952315656521536,0.4600904547720472,-0.2789320180277655,-0.2996543664205569,-17.159338817520567,32.776549047861046,14.694500274232484,0.5155117193705221,-2.508692813048836,0.5269351388037979,-1.0,11.82,0.0,179.50093674668182,1.1093257669459864,95.0236590038062,1074.0,1435.0,1000.0,1528.0,1047.0,1012.0,60.0,292.25,1649148600.716835,1649148601.6674547,261724f9-ded6-41b3-8c79-29ba01d1a568
-0.468786078593253,-0.6557080001101415,-0.0620968495875003,0.3248429757476693,-0.0972301676190769,0.4583416783202914,-0.2821008542944477,-0.3041380725268178,-17.1729434723651,32.78912305839244,14.70985723953988,0.5051602474007018,-2.511506539176671,0.5375151108883461,-1.0,11.835888888888888,0.0,179.50405890204243,1.1107726405431348,94.87742768931584,1074.0,1435.0,1000.0,1528.0,1047.0,1012.0,60.0,292.25,1649148601.7751565,1649148602.868425,261724f9-ded6-41b3-8c79-29ba01d1a568
-0.0352921356267013,0.1186845767459937,-0.0033106704754983,-0.1372219297574982,-0.2078139987558448,0.1338329701872695,-0.3469984460097657,-0.3718303114769671,-16.313631485681583,28.325765140056035,15.98181461432987,0.792225404871818,0.4361222402051861,0.7942795158005728,-1.0,11.841,0.0,179.2812368818392,1.124679332580104,94.65894966942471,1553.0,1435.0,1000.0,1528.0,1471.0,1012.0,60.0,292.25,1649148604.4125698,1649148605.5236497,77995644-5d18-4640-91f6-e6ecf6a44d5b
-0.0327582722426269,0.1193967977773596,-0.0064197893375087,-0.1380300267336295,-0.210731366034257,0.1343123497483606,-0.3514087386306236,-0.3744326585849365,-16.45717445787609,28.37236725268544,16.014618948703145,0.7952125945440689,0.4394219028003538,0.8087763152747901,-1.0,11.991222222222223,0.0,179.2802533345987,1.140055143760893,94.90683165369272,1553.0,1435.0,1000.0,1528.0,1471.0,1012.0,60.0,292.25,1649148605.6323726,1649148606.9571044,77995644-5d18-4640-91f6-e6ecf6a44d5b
-0.0288569443778646,0.1149371983857538,-0.010475066494534,-0.1344146828992355,-0.2127020270981093,0.1359488145199556,-0.3537612599458518,-0.3691320890179084,-16.43805844625301,28.28462491912125,16.07559009658741,0.7899703808723725,0.4213163122829297,0.8199651666188656,-1.0,11.992,0.0,179.2885618802691,1.148831415093798,95.13661439557012,1553.0,1435.0,1000.0,1528.0,1471.0,1012.0,60.0,292.25,1649148607.065852,1649148608.189099,77995644-5d18-4640-91f6-e6ecf6a44d5b
-0.0273481314602867,0.1042894939210687,-0.0316077612062704,-0.3312337044505351,-0.2522730329318208,0.3383362764929111,-0.3193176965676642,-0.3431634099013512,-16.503168428084717,28.010334158589217,17.652846183287114,1.6860855981612943,0.390750880642488,0.85290572173309,-1.0,11.992,0.0,179.30347597777677,1.20658536028131,95.4519346320632,1553.0,1537.0,1000.0,1528.0,1471.0,1012.0,60.0,292.25,1649148609.9164371,1649148610.8634045,aa82e1c6-99d1-49c7-b402-3c59c42eebe6
-0.0281699249703459,0.1077410266297659,-0.0294437048830309,-0.3337401750945468,-0.2511088253053091,0.3388704422378692,-0.3177562886488895,-0.3499569035959101,-16.532285260882404,28.02844265339338,17.89557150255463,1.6931917577017916,0.4021971371426887,0.846857277038522,-1.0,11.98611111111111,0.0,179.294035138524,1.2096479886460223,95.53732945161624,1553.0,1537.0,1000.0,1528.0,1471.0,1012.0,60.0,292.25,1649148610.9719994,1649148612.2855146,aa82e1c6-99d1-49c7-b402-3c59c42eebe6
-0.0287649034935639,0.1104666417472707,-0.0287649034206727,-0.3357343943377721,-0.2506228713449219,0.3369266267811717,-0.3161165363972987,-0.3379959707834442,-16.437302929528677,27.90508106097565,17.74783405808777,1.692562497218158,0.4133434539788381,0.843156448128824,-1.0,11.987888888888888,0.0,179.30105353735112,1.2215415298569992,95.64083413829864,1553.0,1537.0,1000.0,1528.0,1471.0,1012.0,60.0,292.25,1649148612.3943243,1649148613.5127604,aa82e1c6-99d1-49c7-b402-3c59c42eebe6
-0.0254580062785936,0.0999613814754404,-0.04875585311551,-0.5586514148424123,-0.2930066035862053,0.5642883843732494,-0.2749819299872648,-0.2912534443146872,-16.522104220697745,27.7248699995432,19.507891898062294,2.7043687275027444,0.3851186759340647,0.86883894372317,-1.0,11.986666666666666,0.0,179.29854458119604,1.293211617881426,95.82226748886131,1553.0,1645.0,1000.0,1528.0,1471.0,1012.0,60.0,292.25,1649148615.4469063,1649148616.5836856,7b3e77af-1a5e-4389-8541-b33fe99f0df2
-0.0318154010903058,0.0942017047351516,-0.0537211297152149,-0.5555149020931568,-0.2960910690294533,0.5677256723838271,-0.2776828917057433,-0.3070965297071271,-16.4649052640517,27.661411819807466,19.57575040164048,2.7043892682744506,0.3618080978225403,0.8831462429289778,-1.0,11.98488888888889,0.0,179.2953753734211,1.2960097661432768,95.83575104119282,1553.0,1645.0,1000.0,1528.0,1471.0,1012.0,60.0,292.25,1649148616.6916802,1649148617.800689,7b3e77af-1a5e-4389-8541-b33fe99f0df2
-0.0144733660122409,0.103111589903951,-0.0452906236752659,-0.559678657036064,-0.2897742153017431,0.5619051834054964,-0.2710373205907225,-0.2975675588664964,-16.457495220565153,27.621510752943447,19.50285322780804,2.7008496471208776,0.3968656435035201,0.8545492067353001,-1.0,11.982333333333337,0.0,179.3059773448328,1.295416239305557,95.85627424182888,1553.0,1645.0,1000.0,1528.0,1471.0,1012.0,60.0,292.25,1649148617.9148047,1649148619.0470629,7b3e77af-1a5e-4389-8541-b33fe99f0df2
-0.0091207508131171,0.1006051197188426,-0.0478436622861847,-0.6698691512147361,-0.3095158898823981,0.6727837452175148,-0.2490187302183687,-0.2730282528704716,-16.437418666056686,28.10461790594673,20.55991519133904,3.2018253975271267,0.3913671984501751,0.8536055856087738,-1.0,11.981666666666667,0.0,179.28585560753797,1.322482761166502,95.88501036548696,1553.0,1761.0,1000.0,1528.0,1471.0,1012.0,60.0,292.25,1649148620.978382,1649148622.1106288,95f51ab8-084a-4b67-a2b0-bb8962b739b1
-0.017746295731756,0.1015123797465631,-0.0461737778128983,-0.6705791811091015,-0.3078986000152343,0.6713373887721381,-0.2469412359780259,-0.2748164758080345,-16.394092546603762,28.04908293193669,20.4026897991489,3.199888642631177,0.3960491480370291,0.8461035248261938,-1.0,11.967999999999998,0.0,179.2858677500965,1.324470476652616,95.87598009649427,1553.0,1761.0,1000.0,1528.0,1471.0,1012.0,60.0,292.25,1649148622.2190733,1649148623.5538473,95f51ab8-084a-4b67-a2b0-bb8962b739b1
-0.0131836980384237,0.0962791987126653,-0.0493689111160958,-0.6767590708239435,-0.3110279901951074,0.6818168986610589,-0.2470332768693732,-0.2688732643294387,-16.38483187806402,28.071911470820933,20.341585057206352,3.2373649756846072,0.3774562719044889,0.8540757552079183,-1.0,11.963666666666668,0.0,179.29197849267393,1.3210088514038891,95.86368347925854,1553.0,1761.0,1000.0,1528.0,1471.0,1012.0,60.0,292.25,1649148623.6668098,1649148624.777345,95f51ab8-084a-4b67-a2b0-bb8962b739b1
-0.0238418123485273,0.0867715957069654,-0.0412775318916937,-0.7084781217217304,-0.3098807662801043,0.7251407528949233,-0.2315227442975509,-0.260901866286352,-16.383723113497048,28.603429077985425,21.10792968354028,3.41031897744735,0.33942429797332,0.8188350163775923,-1.0,11.955,0.0,179.27860953573847,1.334655782808986,95.78451703331864,1553.0,1887.0,1000.0,1528.0,1471.0,1012.0,60.0,292.25,1649148626.979572,1649148628.056926,fae6d4e1-cafa-42da-afd7-f6dfce5f524e
-0.0189932304777589,0.0934555162265755,-0.0411542628468907,-0.700698473152205,-0.3089357035852537,0.7096225534907439,-0.2357001950844946,-0.250848591046712,-16.45825841336148,28.515716788930764,20.83729889448119,3.357242553543817,0.3664676858994207,0.8238067186789944,-1.0,11.932,0.0,179.29260231661812,1.3480420642346629,95.68547929035346,1553.0,1887.0,1000.0,1528.0,1471.0,1012.0,60.0,292.25,1649148628.170766,1649148629.2979176,fae6d4e1-cafa-42da-afd7-f6dfce5f524e
-0.0167469948095958,0.0898396247890122,-0.0466602796001247,-0.7092040405682211,-0.3167427431744394,0.7207030683862469,-0.2389873696621341,-0.2633809442990321,-16.34268859920066,28.681537322436338,20.758984608826022,3.402199198850484,0.3534829948759544,0.8460159406258526,-1.0,11.929,0.0,179.29038629968738,1.330298311845995,95.6002081731154,1553.0,1887.0,1000.0,1528.0,1471.0,1012.0,60.0,292.25,1649148629.4271362,1649148630.5220556,fae6d4e1-cafa-42da-afd7-f6dfce5f524e
-0.0360361327323853,0.1158970531965485,0.0041857301038819,0.099750454468415,-0.178489116162871,-0.089801153819612,-0.4103401106370862,-0.4400035766827067,-16.77639918988651,29.408055361128003,14.598267287705168,-0.2377675597204083,0.4125222473039936,0.8333258977206023,-1.0,11.96,0.0,179.27902845400757,1.0916007738616014,95.55026279426464,1553.0,1335.0,1000.0,1528.0,1471.0,1012.0,60.0,292.25,1649148631.5249257,1649148632.6694477,f3603bc4-a0f9-49af-83c8-496b6c2312a4
-0.0352077648189563,0.116067986243916,0.0066839824236886,0.1016175692905815,-0.1759645662666403,-0.0917077148923232,-0.4088543076599428,-0.4223054271613982,-16.818175674080965,29.44427482998775,14.610576876468366,-0.245918178088902,0.4132790426043655,0.8243768448315882,-1.0,11.991,0.0,179.28746601436225,1.0785174990745727,95.72068891552487,1553.0,1335.0,1000.0,1528.0,1471.0,1012.0,60.0,292.25,1649148632.801523,1649148633.885725,f3603bc4-a0f9-49af-83c8-496b6c2312a4
-0.036785608446244,0.1146216296836811,0.0043172170657924,0.1031033719478261,-0.1779763169661219,-0.092049581002322,-0.4115497909480611,-0.4327060480462181,-16.834667815798134,29.47138053966545,14.535330627157714,-0.2499964621565023,0.4083054443427251,0.8338901097133281,-1.0,11.991,0.0,179.2911269957574,1.0873664716050493,95.84741169192586,1553.0,1335.0,1000.0,1528.0,1471.0,1012.0,60.0,292.25,1649148633.9947166,1649148634.9579096,f3603bc4-a0f9-49af-83c8-496b6c2312a4
-0.0553647168611582,0.1190790376255908,0.0262623913768089,0.3222921288387596,-0.1388063477242153,-0.3085954810448248,-0.4550325389465511,-0.4752815364074267,-16.894071784091015,30.38958665502677,12.9726323410617,-1.2241395303722309,0.4137139880999937,0.8123744501953206,-1.0,11.986222222222224,0.0,179.29609937347314,1.0068804947789385,96.07546411921348,1553.0,1236.0,1000.0,1528.0,1471.0,1012.0,60.0,292.25,1649148637.1288269,1649148638.2083418,a5303b72-ae0c-4e0d-aa41-9a9333bd8b02
-0.0469068177148193,0.1203144671801264,0.0286844908094078,0.3198733167594541,-0.1366055845410855,-0.3073879922310607,-0.4513525467632943,-0.4742121095220052,-16.837919011303857,30.315429744690604,13.023790834145672,-1.2163044642443532,0.4179468461841447,0.8011059559077139,-1.0,11.975,0.0,179.29586714704135,1.0206136098904377,96.15403026741632,1553.0,1236.0,1000.0,1528.0,1471.0,1012.0,60.0,292.25,1649148638.3169005,1649148639.419696,a5303b72-ae0c-4e0d-aa41-9a9333bd8b02
-0.0438798781617668,0.1234235859215224,0.0289036357492048,0.3185995368971639,-0.1378382748993656,-0.3107436496085473,-0.4514621192589493,-0.4813343211050847,-16.699193887278213,30.30956782233352,12.812961568761676,-1.2209634632812272,0.430665266698799,0.8028093125836814,-1.0,11.97577777777778,0.0,179.30340008678598,1.0151821746862328,96.19614066037916,1553.0,1236.0,1000.0,1528.0,1471.0,1012.0,60.0,292.25,1649148639.5286644,1649148640.656044,a5303b72-ae0c-4e0d-aa41-9a9333bd8b02
-0.058638742363011,0.124798720368858,0.0441577670550532,0.4330830349353226,-0.1154805590501235,-0.4230286054267799,-0.4740324096030286,-0.4961222251081703,-16.91146153034077,31.11682105758664,11.992490967978638,-1.725656179251546,0.4314823974436338,0.7832327559766576,-1.0,11.974,0.0,179.2983191849534,0.9884651901276568,96.33284803498184,1553.0,1133.0,1000.0,1528.0,1471.0,1012.0,60.0,292.25,1649148642.582286,1649148643.7248752,055ad9e1-55b1-48ae-b2fc-9d435ef962f2
-0.0483170154230991,0.1201835280849436,0.0424089904561257,0.4396573824275409,-0.1151386929202012,-0.424159393871094,-0.4745715062862609,-0.4886143178543712,-16.84909056720118,31.03958621230969,12.041262473421384,-1.7435872351954005,0.4123772975418094,0.7855617655492811,-1.0,11.963111111111113,0.0,179.29940063157198,0.99458617798885,96.36678990115232,1553.0,1133.0,1000.0,1528.0,1471.0,1012.0,60.0,292.25,1649148643.8506088,1649148644.9555297,055ad9e1-55b1-48ae-b2fc-9d435ef962f2
-0.0523799627346994,0.1230762412007154,0.0472608593714311,0.437040792207372,-0.1125352509144169,-0.4252507354160943,-0.470692639951153,-0.4976080281822868,-16.779395737074775,31.137891268222905,11.978618214690526,-1.7392188753790143,0.42392007015906,0.7701265877565447,-1.0,11.967333333333332,0.0,179.28375039145376,0.9746969161430864,96.384123403446,1553.0,1133.0,1000.0,1528.0,1471.0,1012.0,60.0,292.25,1649148645.090831,1649148646.1840189,055ad9e1-55b1-48ae-b2fc-9d435ef962f2
-0.044359257721542,0.1318858674878787,0.0544531962225712,0.4867428596801618,-0.1056847797628249,-0.4801991498462996,-0.4847354510334841,-0.5178044315734718,-16.88615309565499,31.70741346400488,11.868004305942367,-1.970748796208167,0.4530437217671758,0.7720233688261132,-1.0,11.963375,0.0,179.28917868429664,0.9464459063743782,96.4104833801828,1553.0,1026.0,1000.0,1528.0,1471.0,1012.0,60.0,292.25,1649148648.1122732,1649148649.05712,281996f7-1e89-44c6-b4ba-d0e61356ac41
-0.0425239188258033,0.1351067501244131,0.0614603555270147,0.4840265584255603,-0.0999672880827721,-0.4827176736146789,-0.4773486214275952,-0.4913191151326805,-16.776216958456065,31.658056966860432,11.658587850149738,-1.970237268835314,0.4669797560504758,0.7443348222896798,-1.0,11.953666666666669,0.0,179.28490697015323,0.968857780306862,96.4149799213864,1553.0,1026.0,1000.0,1528.0,1471.0,1012.0,60.0,292.25,1649148649.1660757,1649148650.2703145,281996f7-1e89-44c6-b4ba-d0e61356ac41
-0.0556315258694252,0.1312854103692605,0.0550092764607058,0.487669842656459,-0.1054322152524697,-0.4813617141990291,-0.4841695091582352,-0.4998931633463725,-16.82153276999579,31.72556021355396,11.744276532759631,-1.9752914886371504,0.451352300683536,0.7699142957825504,-1.0,11.954333333333333,0.0,179.27453115389412,0.9602799639148416,96.40057732915656,1553.0,1026.0,1000.0,1528.0,1471.0,1012.0,60.0,292.25,1649148650.378104,1649148651.5038908,281996f7-1e89-44c6-b4ba-d0e61356ac41
-0.0386132772743009,0.1078894973260763,-0.0133546310301677,-0.1330866644915067,-0.2145165473625577,0.142772987686366,-0.3570089884866136,-0.3719459105845658,-16.64064382656648,28.462904262938903,16.213132674945765,0.8032679259766003,0.3947549284346806,0.8301238670257581,-1.0,11.973888888888888,0.0,179.28500411062143,1.1470401861259945,96.4024450064396,1553.0,1435.0,1000.0,1528.0,1471.0,1012.0,60.0,292.25,1649148652.618005,1649148653.762965,6a7b5571-ff22-42b3-96a3-550885ac01d4
-0.0370748797621629,0.1111109278516284,-0.0124868170596987,-0.132481824409467,-0.2146085882441795,0.1381314980375235,-0.3571010293834661,-0.3874613747915286,-16.55433676071624,28.455155135436208,16.08389475359122,0.7914881929016946,0.40735223835797,0.8294737057106477,-1.0,11.992,0.0,179.28815965801795,1.1432180430971703,96.40790839886571,1553.0,1435.0,1000.0,1528.0,1471.0,1012.0,60.0,292.25,1649148653.894477,1649148654.9902718,6a7b5571-ff22-42b3-96a3-550885ac01d4
-0.0298825426870948,0.1125967305004256,-0.0165760616873556,-0.1342568985165999,-0.2183428183782191,0.1383550258722801,-0.3608089623740367,-0.3866067094740746,-16.57011177943973,28.38079837262545,16.06123548417331,0.7952865322751269,0.4131954341592278,0.8455650041281589,-1.0,11.992222222222225,0.0,179.27648307017688,1.146272228589159,96.39969395802392,1553.0,1435.0,1000.0,1528.0,1471.0,1012.0,60.0,292.25,1649148655.0993032,1649148656.2164557,6a7b5571-ff22-42b3-96a3-550885ac01d4
-0.006425268021331,0.1288222213344464,0.0767665336864356,-0.1426063212231383,-0.1345724672346877,0.1263634151825938,-0.2662566731562121,-0.2805098621839621,-16.011211977281445,28.388591606651755,16.243830307919495,0.7921839768719403,0.4754223487061253,0.472143476856547,-1.0,11.992,0.0,179.28175142275668,1.1636992783869369,96.36340971642308,1553.0,1435.0,1000.0,1435.0,1471.0,1012.0,60.0,292.25,1649148657.9411137,1649148659.088657,c283f8b7-8bf8-4551-bd96-2d98fb41e307
-0.0077209624810942,0.124615186491396,0.0759787076432033,-0.1407145524005597,-0.1346332799559413,0.1288337264424579,-0.2654491239533091,-0.2787347879825757,-15.934180740035629,28.37953293070223,16.256414490637017,0.793409231156233,0.4587036539015361,0.471733293682322,-1.0,11.991444444444443,0.0,179.26212449472166,1.1635979994881498,96.34035251560492,1553.0,1435.0,1000.0,1435.0,1471.0,1012.0,60.0,292.25,1649148659.2031252,1649148660.3059914,c283f8b7-8bf8-4551-bd96-2d98fb41e307
-0.0037955287055621,0.1253772629959625,0.0749125675277154,-0.1425668751394277,-0.1352430507905709,0.1307550796267836,-0.2660857400843091,-0.2880966609640142,-16.00090934332336,28.33105719019134,16.387526586026333,0.8015180269281565,0.4610318004500889,0.4751576181366866,-1.0,11.992666666666668,0.0,179.2556479575687,1.1469603582900705,96.35392561930556,1553.0,1435.0,1000.0,1435.0,1471.0,1012.0,60.0,292.25,1649148660.414348,1649148661.544118,c283f8b7-8bf8-4551-bd96-2d98fb41e307
0.0333550172778136,0.1462831416465142,0.1930705842080874,-0.1472889010266094,-0.0302381053050057,0.1097133310265506,-0.1471930250903241,-0.1709017704957751,-15.060111383760178,28.391241859567344,16.59691695835942,0.7716755453714826,0.5389999891352203,0.0052135685249317,-1.0,11.992333333333336,0.0,179.24860679144433,1.143756335523165,96.3000096238173,1553.0,1435.0,1000.0,1330.0,1471.0,1012.0,60.0,292.25,1649148662.4484303,1649148663.5863943,5bae937a-39b2-43e5-8d33-2d1a232e9a05
0.0300229184871319,0.1392491372052733,0.1877152300031628,-0.1446706666851045,-0.0334721368232323,0.1117026191671354,-0.1511529744202008,-0.1672206825994205,-15.08610470619352,28.36537327752549,16.20750329315402,0.7697263402260028,0.5155912333756294,0.0211715449459495,-1.0,11.985625,0.0,179.25938198404248,1.1473642317631407,96.3081039671662,1553.0,1435.0,1000.0,1330.0,1471.0,1012.0,60.0,292.25,1649148663.6953764,1649148665.019688,5bae937a-39b2-43e5-8d33-2d1a232e9a05
0.0402657529218809,0.1452317938372143,0.1873470665254282,-0.147392447018824,-0.0348133038768938,0.1093490025736573,-0.1523626545625024,-0.1768981239689101,-15.084228792427965,28.31172509180569,16.344426175086518,0.7702259172716198,0.5371138718422278,0.0261389220571633,-1.0,11.987444444444444,0.0,179.25134342057177,1.152349104811962,96.31382785541813,1553.0,1435.0,1000.0,1330.0,1471.0,1012.0,60.0,292.25,1649148665.1279542,1649148666.1852808,5bae937a-39b2-43e5-8d33-2d1a232e9a05
0.0716095054261276,0.1567062224291457,0.3005200807462337,-0.1421526911909351,0.0669800686942838,0.0866483266570402,-0.0420719323034149,-0.0567135542237755,-14.393457692263832,28.668179815894465,16.253964315054333,0.7157264004464511,0.5825980933722336,-0.4221615575114328,-1.0,11.985333333333331,0.0,179.2432974577295,1.1499144862539046,96.28788072567116,1553.0,1435.0,1000.0,1210.0,1471.0,1012.0,60.0,292.25,1649148666.9516132,1649148668.092763,7a9879c1-aad5-4aad-aebf-01b39977baab
0.0683771175936482,0.1613356590911246,0.3017527709439949,-0.1432484159341742,0.0677333794171823,0.0833885457722984,-0.0408940282177969,-0.0696157129935149,-14.32978293171327,28.56792402208897,16.302077721309196,0.7103094178920153,0.5992955462023387,-0.4258408800741464,-1.0,11.984,0.0,179.25692140839396,1.163008006324688,96.2774654460968,1553.0,1435.0,1000.0,1210.0,1471.0,1012.0,60.0,292.25,1649148668.2013311,1649148669.5322683,7a9879c1-aad5-4aad-aebf-01b39977baab
0.0734399135089849,0.16153617670358,0.2988743023732974,-0.14627480775493,0.0647223279885046,0.0866149070822095,-0.0429129010245646,-0.0605584522860388,-14.333527049757333,28.54888150173513,16.373841996910148,0.7241262722849118,0.5996278752486309,-0.414837463750721,-1.0,11.982444444444443,0.0,179.25798995354413,1.1597237881248716,96.2708985986648,1553.0,1435.0,1000.0,1210.0,1471.0,1012.0,60.0,292.25,1649148669.6471417,1649148670.755519,7a9879c1-aad5-4aad-aebf-01b39977baab
0.093031470728423,0.1742904116349877,0.3886141478932005,-0.1216998927560149,0.146020715579597,0.0452491088516213,0.0372152554132598,0.0067760228543498,-13.743352017270656,28.940290735764293,16.133171555544433,0.5830586721627327,0.6480899206925873,-0.760308139579822,-1.0,11.977444444444444,0.0,179.2556919743434,1.148478581276517,96.20339128563812,1553.0,1435.0,1000.0,1071.0,1471.0,1012.0,60.0,292.25,1649148672.4096258,1649148673.7206247,b045bd85-6787-4e16-8ffb-b2ece2252114
0.0926370098468876,0.1748295081607118,0.3933213807758441,-0.1233434798967682,0.1495708634555214,0.0457619080035578,0.0432373583129246,0.0209503178774521,-13.57710387469518,28.923674326594163,16.106644745872646,0.5881222233763417,0.6496707958094331,-0.7799977503970316,-1.0,11.974666666666666,0.0,179.2568956054571,1.1450589450900313,96.20136651400416,1553.0,1435.0,1000.0,1071.0,1471.0,1012.0,60.0,292.25,1649148673.8290226,1649148674.9649532,b045bd85-6787-4e16-8ffb-b2ece2252114
0.0911818874513568,0.1749911275456716,0.3893833465601434,-0.1226761835157625,0.1464885900072028,0.0468598241524849,0.0383131715405298,0.0086053354090179,-13.73458500724564,28.940905899272675,16.338959274926097,0.588960033064886,0.6490010650983223,-0.7631847521180409,-1.0,11.97488888888889,0.0,179.25402085472643,1.1388951499668525,96.21406004112166,1553.0,1435.0,1000.0,1071.0,1471.0,1012.0,60.0,292.25,1649148675.077306,1649148676.1863887,b045bd85-6787-4e16-8ffb-b2ece2252114
-0.0735603217940748,0.0907162045471842,-0.1254839782038147,-0.1180878360822647,-0.3168934053268912,0.1525287721846157,-0.4754447990042728,-0.4970168852455438,-17.417155708566966,28.73320693838749,16.28449355468129,0.7871858694416902,0.3262576344210526,1.2885370688432052,-1.0,11.982,0.0,179.29868118497944,1.1549607272480418,96.29811083122804,1553.0,1435.0,1000.0,1613.0,1471.0,1012.0,60.0,292.25,1649148677.092121,1649148678.2297251,be7ec50a-2bb6-40d4-8224-6d7b81110c15
-0.0706709433264202,0.0875564680685012,-0.1304832224233521,-0.1192782457661503,-0.3209392502652313,0.1548291984484565,-0.479252443211028,-0.5012622239905681,-17.430617147302403,28.69644356351171,15.982356561270626,0.794492930640284,0.3170088268292031,1.3054702209373636,-1.0,11.994999999999996,0.0,179.3071460660908,1.1478759000880343,96.30576443764797,1553.0,1435.0,1000.0,1613.0,1471.0,1012.0,60.0,292.25,1649148678.3378694,1649148679.4677372,be7ec50a-2bb6-40d4-8224-6d7b81110c15
-0.0641348976090881,0.0902965419989266,-0.1271566020465059,-0.1182286367306536,-0.3182860716194259,0.1516220600276885,-0.4764123241250897,-0.4985941805705596,-17.357879843545422,28.676252818012504,16.069045022873382,0.7850006308985364,0.326083953849545,1.2938003938556062,-1.0,11.991333333333332,0.0,179.30564797793284,1.157521656873875,96.29967873909747,1553.0,1435.0,1000.0,1613.0,1471.0,1012.0,60.0,292.25,1649148679.575856,1649148680.8923502,be7ec50a-2bb6-40d4-8224-6d7b81110c15
-0.1073678130699297,0.0726115457044365,-0.2347786905071992,-0.0933907480788323,-0.415599590234241,0.152148007861848,-0.5931464821546624,-0.6159068829688312,-18.130560950128093,29.012856700146948,16.0681466419715,0.7266377495403188,0.2553562409390145,1.73664837010964,-1.0,11.989777777777778,0.0,179.3154788968782,1.139239718780919,96.27585048581304,1553.0,1435.0,1000.0,1694.0,1471.0,1012.0,60.0,292.25,1649148682.0072303,1649148683.146314,8aad80f3-7d3f-4568-a017-8a254cc5e7b8
-0.1048038171018152,0.0758329762623452,-0.2328589806530167,-0.0950474839358627,-0.4133906088205656,0.1498601347615621,-0.5913188128242427,-0.6143421876791266,-18.173083444546776,28.907746602994123,15.99071231725173,0.7245988363741164,0.2687497227875805,1.7287001248800653,-1.0,11.984555555555554,0.0,179.32127696857367,1.1327052435996592,96.24633647949952,1553.0,1435.0,1000.0,1694.0,1471.0,1012.0,60.0,292.25,1649148683.2546835,1649148684.3690598,8aad80f3-7d3f-4568-a017-8a254cc5e7b8
-0.1052377241379291,0.0753727718928125,-0.2360804115871882,-0.0931277741358644,-0.4168224192380713,0.1499521756485976,-0.5954869508327468,-0.618286797969913,-18.18709506786463,28.98726865795935,16.161557982863105,0.720862205809068,0.2651694163341642,1.743859754281363,-1.0,11.983,0.0,179.31403089677417,1.1258349507842071,96.23576714121388,1553.0,1435.0,1000.0,1694.0,1471.0,1012.0,60.0,292.25,1649148684.481392,1649148685.613784,8aad80f3-7d3f-4568-a017-8a254cc5e7b8
-0.1380163302435251,0.060405720603621,-0.327330184626216,-0.0560150294391611,-0.4996466241083297,0.1329016042462935,-0.7022872741304345,-0.720791332874899,-18.932474739889376,29.57448098163452,15.74580817390228,0.5977376297607401,0.2076501047283983,2.1302794547966464,-1.0,11.97888888888889,0.0,179.32989970294585,1.1148234407555797,96.20529766732643,1553.0,1435.0,1000.0,1774.0,1471.0,1012.0,60.0,292.25,1649148687.536829,1649148688.678693,863a0db5-d2f6-4c22-a9fe-7fe07006165d
-0.1432900535674623,0.0585687381679434,-0.3341039557652598,-0.0556671368545499,-0.5047083256405785,0.1361591936489475,-0.7086183739057297,-0.7360465661814655,-19.067499729109876,29.528801942202755,15.949260643355595,0.6035974705811715,0.1994397546153822,2.155413256425029,-1.0,11.977333333333332,0.0,179.33218553958807,1.1199447426827829,96.17321171533546,1553.0,1435.0,1000.0,1774.0,1471.0,1012.0,60.0,292.25,1649148688.7870407,1649148690.1106389,863a0db5-d2f6-4c22-a9fe-7fe07006165d
-0.13594814972982,0.0610357622928856,-0.3305625730420514,-0.0603157490241712,-0.5031529440745345,0.1373940753403045,-0.7040952206677783,-0.7237771838744362,-18.91466665925288,29.534002182868488,15.890121360029864,0.6171368601351438,0.2089319667307197,2.142306555106542,-1.0,11.974,0.0,179.32452662079874,1.1269615881162076,96.14594332343904,1553.0,1435.0,1000.0,1774.0,1471.0,1012.0,60.0,292.25,1649148690.2248094,1649148691.3322115,863a0db5-d2f6-4c22-a9fe-7fe07006165d
-0.16175246809179028,0.06120012099658684,-0.37774722562816593,-0.013350248189804287,-0.545845128892066,0.09498953074028325,-0.7718247313170821,-0.7970127148109617,-19.382602119130098,30.0810851772612,15.586546662466858,0.4168987834338604,0.2067864832371217,2.3606568698845387,-1.0,11.96577777777778,0.0,179.34558788855944,1.1214946145839777,96.07432271871218,1553.0,1435.0,1000.0,1856.0,1471.0,1012.0,60.0,292.25,1649148692.916495,1649148694.0033653,b9d85937-e5ab-421f-a51e-f166b743872f
-0.16501170143067106,0.06048844781320821,-0.3707230811928811,-0.011934571821749356,-0.5388423504003573,0.09370205426701807,-0.7639349621992346,-0.7866953658311641,-19.291450523280126,30.042788914866552,15.547129794539925,0.41094771791069845,0.20409182198454098,2.330260968469658,-1.0,11.955333333333334,0.0,179.3264527341447,1.120042772498527,96.01933893698369,1553.0,1435.0,1000.0,1856.0,1471.0,1012.0,60.0,292.25,1649148694.1127129,1649148695.2273433,b9d85937-e5ab-421f-a51e-f166b743872f
-0.15238895207203174,0.06250019833146477,-0.37386562021186875,-0.014985069417113235,-0.5426423247272993,0.09261071248943235,-0.7678664241248292,-0.7892067680664263,-19.322342293967324,30.05586518760729,15.245832510959971,0.4152431304864126,0.21470272723864092,2.3450826131894846,-1.0,11.959444444444443,0.0,179.31918844850742,1.116575431709557,96.02287925170347,1553.0,1435.0,1000.0,1856.0,1471.0,1012.0,60.0,292.25,1649148695.334772,1649148696.4570372,b9d85937-e5ab-421f-a51e-f166b743872f
