raw_voltage_G-,raw_voltage_G0,raw_voltage_G1,raw_voltage_G2,raw_voltage_G3,raw_voltage_G4,raw_voltage_G5,raw_voltage_G6,load_x,load_y,load_z,load_l,load_m,load_n,rpm,voltage,current,roll,pitch,yaw,aileron1_pwm,elevator_pwm,throttle_pwm,rudder_pwm,aileron2_pwm,pbaro,pdiff,Tt,sample_start_time,sample_end_time,uid
0.0257123375169753,0.1597605549017205,0.1049195356078961,-0.1393448964573485,-0.1212928309992942,0.0924419708951272,-0.2391243351147336,-0.2607375074574407,-14.22619321852199,28.3071479352382,16.362195689644835,0.7103803197820374,0.5791587343495562,0.3822706379105201,-1.0,11.993777777777778,0.0,179.1444312284035,1.1565370661322705,95.02744141078657,1553.0,1435.0,1000.0,1528.0,1471.0,1012.0,60.0,292.25,1649148010.0488613,1649148011.1816092,388d6c26-5a4f-4a80-be97-3f1c14e5b2f6
0.0260958411531973,0.1552954769402081,0.1033581279537187,-0.1372493228296645,-0.121758514017171,0.093921199216403,-0.240644653288733,-0.270010078928987,-14.300752055561365,28.35467228786997,16.212911019942965,0.709153211783561,0.5639066037256093,0.386393795427735,-1.0,11.993666666666666,0.0,179.15824946000433,1.1524849852593566,95.08764042140132,1553.0,1435.0,1000.0,1528.0,1471.0,1012.0,60.0,292.25,1649148011.290678,1649148012.4216568,388d6c26-5a4f-4a80-be97-3f1c14e5b2f6
0.0185441065600767,0.1552116540036315,0.1036161711128139,-0.1363212439560237,-0.1209372683145585,0.093399634270761,-0.2398014930503527,-0.2552249159716845,-14.277646265110208,28.29216671523635,16.253424900215474,0.7055042479987563,0.5629706382789343,0.3838199553726602,-1.0,11.991,0.0,179.16188160282297,1.1546737881550977,95.1048471857404,1553.0,1435.0,1000.0,1528.0,1471.0,1012.0,60.0,292.25,1649148012.5548327,1649148013.6415155,388d6c26-5a4f-4a80-be97-3f1c14e5b2f6
0.1537477658115605,0.4105308313494689,0.1210540813310406,-0.2406720464118433,-0.163067337742222,-0.0569600920081705,-0.285062598483784,-0.3100177321918624,-14.002000747189271,27.90335459564032,16.67780810465635,0.6015129220041519,1.5288072310645422,0.5128045976205535,-1.0,11.98488888888889,0.0,179.0567012430642,1.1417189944438624,95.13087096538806,1663.0,1435.0,1000.0,1528.0,1555.0,1012.0,60.0,292.25,1649148015.5789254,1649148016.7177455,faec89a5-caf1-4fa1-a97f-90df76a00255
0.1607341062002397,0.4081268115804083,0.1222610220492842,-0.2381447571242669,-0.1606200364554516,-0.0571660882572969,-0.2838364823900411,-0.3078197086588666,-14.073866890201892,27.88848341887121,16.654446919626977,0.5952706907522901,1.5202714937807074,0.5057345333370435,-1.0,11.97288888888889,0.0,179.0568818636223,1.147361762341449,95.15342728566708,1663.0,1435.0,1000.0,1528.0,1555.0,1012.0,60.0,292.25,1649148016.850835,1649148017.9414666,faec89a5-caf1-4fa1-a97f-90df76a00255
0.1622259353077682,0.4135440739937053,0.1235879446172875,-0.2427539235703238,-0.161971612962975,-0.0589597896488003,-0.2840216598844602,-0.2994028977063288,-14.020279550784508,27.973632352834034,16.55381205309037,0.6022786216549304,1.541755218695877,0.5065060084883451,-1.0,11.976333333333333,0.0,179.06818051432927,1.1586425668076654,95.16409452333082,1663.0,1435.0,1000.0,1528.0,1555.0,1012.0,60.0,292.25,1649148018.0502002,1649148019.1809387,faec89a5-caf1-4fa1-a97f-90df76a00255
0.2966127267241558,0.6674979698416176,0.1440352625105889,-0.3519467395546825,-0.2013284036829435,-0.2079947933587635,-0.3263462236893716,-0.3437551006011609,-13.853645142650455,27.6218594481248,16.365900695294037,0.5124294295040894,2.509457044937825,0.6222675037766853,-1.0,11.967,0.0,178.94078837938963,1.149251139704669,95.21769101774792,1779.0,1435.0,1000.0,1528.0,1638.0,1012.0,60.0,292.25,1649148020.9257023,1649148022.055745,14bc0e2c-7634-49eb-ad4b-63e76b7c154e
0.3214637610439104,0.6683526350142117,0.147493369528966,-0.351355048122965,-0.1983173519487459,-0.2081262803317206,-0.3227960751396269,-0.3529854868308059,-13.80891285577675,27.6276995837954,16.570260433778234,0.5110652486399213,2.51068119434114,0.6088236262808258,-1.0,11.949,0.0,178.9392584170156,1.1552548997010446,95.2096609920137,1779.0,1435.0,1000.0,1528.0,1638.0,1012.0,60.0,292.25,1649148022.182372,1649148023.2759297,14bc0e2c-7634-49eb-ad4b-63e76b7c154e
0.3102610725510992,0.669746396680348,0.1470594625642581,-0.3526041744805273,-0.1997374112825987,-0.2093885553017814,-0.3244002163354439,-0.3565224874613639,-13.820675224122374,27.697744829720104,16.412906475667896,0.5114581999861105,2.517513998026025,0.6135320020389033,-1.0,11.951333333333334,0.0,178.9670557691177,1.1546211506382127,95.21018312203026,1779.0,1435.0,1000.0,1528.0,1638.0,1012.0,60.0,292.25,1649148023.3859298,1649148024.5026217,14bc0e2c-7634-49eb-ad4b-63e76b7c154e
0.3430802161627674,0.7365023210499725,0.1675056845918495,-0.4015830772300672,-0.2031692213676796,-0.2427599501005961,-0.3229670082473162,-0.34667411166569,-13.765958232485618,28.169333570348563,14.63509933222212,0.5508410792487046,2.7905932186743097,0.5932805152734592,-1.0,11.927,0.0,178.91314432708887,1.1628243738429402,95.19658573321256,1904.0,1435.0,1000.0,1528.0,1723.0,1012.0,60.0,292.25,1649148026.8429291,1649148027.9766178,ffca011e-c717-4c84-a17a-ebdef3289f0a
0.3464035488912659,0.7303865342961066,0.1664718683827561,-0.3984427296229407,-0.2028969337442371,-0.2412609985769151,-0.3225089952655681,-0.3457657557792413,-13.71118587728824,28.16387644658664,14.405101025517531,0.5470288235240469,2.7688538289136546,0.5926704171130042,-1.0,11.91588888888889,0.0,178.92824966989332,1.1511854706219578,95.1196952580861,1904.0,1435.0,1000.0,1528.0,1723.0,1012.0,60.0,292.25,1649148028.0852315,1649148029.129307,ffca011e-c717-4c84-a17a-ebdef3289f0a
0.3375840615057789,0.7256152016056041,0.1667036141511953,-0.3961132184837636,-0.2014993367601958,-0.2371060100289727,-0.3214680566151685,-0.3456748105950412,-13.773163963920076,28.20525281300344,14.640701751692813,0.5514030174298737,2.749037553227533,0.588683932941877,-1.0,11.918333333333337,0.0,178.91029386147522,1.150848147025917,95.08539632480402,1904.0,1435.0,1000.0,1528.0,1723.0,1012.0,60.0,292.25,1649148029.2389495,1649148030.4432747,ffca011e-c717-4c84-a17a-ebdef3289f0a
0.3903629243408114,0.8148290972284772,0.190358117833703,-0.4225026572735554,-0.2045103885140386,-0.2942896974165817,-0.3277399857413291,-0.3477786026988695,-13.671049753227196,28.81570470704436,15.542173193232362,0.4878514422142727,3.079690472501846,0.5811271142842227,-1.0,11.896333333333336,0.0,178.8837335325228,1.130510215271081,94.99914090141556,2045.0,1435.0,1000.0,1528.0,1813.0,1012.0,60.0,292.25,1649148032.581755,1649148033.7229507,bf3b5ac6-ed85-44bd-813d-d7d8a5a86faf
0.3911365059078309,0.8120864985862206,0.1895231756585588,-0.4206311590969189,-0.203444796140547,-0.2944036527809623,-0.3277136883465189,-0.3507239115592535,-13.732382399696451,28.723401841156456,15.38736355950066,0.4826647156891035,3.070925313618781,0.5802376159827458,-1.0,11.856444444444444,0.0,178.88250865193166,1.1270359850031044,94.88060524509972,2045.0,1435.0,1000.0,1528.0,1813.0,1012.0,60.0,292.25,1649148033.857989,1649148034.944545,bf3b5ac6-ed85-44bd-813d-d7d8a5a86faf
0.3777138795245995,0.8068215419498165,0.1839547030111256,-0.4162044305306065,-0.2071401280304796,-0.2930011250852425,-0.3320790562041539,-0.3561806207567602,-13.710111589657645,28.68952832884084,15.3949060606057,0.4753413561087576,3.050055437868409,0.598518455009325,-1.0,11.857444444444443,0.0,178.87168963228635,1.1118953766038904,94.78529526760154,2045.0,1435.0,1000.0,1528.0,1813.0,1012.0,60.0,292.25,1649148035.0530293,1649148036.1716816,bf3b5ac6-ed85-44bd-813d-d7d8a5a86faf
-0.1527965616707271,-0.14837859928765,0.0848135357230268,-0.0025069564157316,-0.0729182270173865,0.2661997941523115,-0.1899547803317461,-0.2066273291580893,-14.484885846958916,29.2645527412044,16.15717577122894,0.7973471888433125,-0.5910084472183788,0.236834329430993,-1.0,11.8915,0.0,179.26837563563208,1.1119824111194467,94.65929117888324,1444.0,1435.0,1000.0,1528.0,1381.0,1012.0,60.0,292.25,1649148038.1068342,1649148039.2409923,79619a88-dc2e-489d-9018-245f0c8fc0b7
-0.1474976366423356,-0.1450125328010751,0.0884425758437835,-0.0058861714042019,-0.0704594207167836,0.2665285115448258,-0.1869174312264413,-0.2053519055125623,-14.516798193322508,29.28714257812233,16.25591475758525,0.8060386702478806,-0.5783864061499561,0.2246993666492607,-1.0,11.982666666666669,0.0,179.26952538414238,1.120407630294659,94.69272343705065,1444.0,1435.0,1000.0,1528.0,1381.0,1012.0,60.0,292.25,1649148039.3496764,1649148040.680259,79619a88-dc2e-489d-9018-245f0c8fc0b7
-0.1294464982420446,-0.1465524475307739,0.0873932087550923,-0.006468254085729,-0.071187656226702,0.2694015015099448,-0.1868203331449688,-0.2082881105879011,-14.495362469616738,29.26787600285628,16.370023169767908,0.8136567060335488,-0.5853202635970973,0.2269758097489865,-1.0,11.98075,0.0,179.24869786063323,1.1173083178258305,94.73557670794946,1444.0,1435.0,1000.0,1528.0,1381.0,1012.0,60.0,292.25,1649148040.7892745,1649148041.9071205,79619a88-dc2e-489d-9018-245f0c8fc0b7
-0.2987454625636878,-0.4267398254745361,0.0720067056777272,0.1257656973829954,-0.0260743513794334,0.4229399124122448,-0.1432210228082259,-0.1581091834216696,-14.720643910147762,30.43346248578125,16.57516459966003,0.8672705873836698,-1.6536534444692412,0.0913373758071465,-1.0,11.967111111111112,0.0,179.33453664248236,1.131569855087785,94.8167536010988,1331.0,1435.0,1000.0,1528.0,1283.0,1012.0,60.0,292.25,1649148044.0465355,1649148045.1796122,05ce01b0-6f78-4d62-a471-49b75a1f2c42
-0.3005534085596391,-0.4272192051380717,0.0721710643742032,0.1259026629649788,-0.0250608060207504,0.4241862991408016,-0.1420157255714918,-0.1626838345769195,-14.727160742509028,30.355431943668304,16.709671102806315,0.8692714947682578,-1.6566051801509851,0.0881771382501579,-1.0,11.952666666666667,0.0,179.34279965355827,1.1389164350181722,94.7874095906046,1331.0,1435.0,1000.0,1528.0,1283.0,1012.0,60.0,292.25,1649148045.2888412,1649148046.2808635,05ce01b0-6f78-4d62-a471-49b75a1f2c42
-0.3058079570903677,-0.4239490141040242,0.0725983970050925,0.1243911107851561,-0.0259773797410216,0.4213938450022185,-0.1425800238237198,-0.161606189080764,-14.674206230478305,30.38159471194143,16.569296735012607,0.8666051627801905,-1.64325700131197,0.0898572328820555,-1.0,11.954,0.0,179.34249760741497,1.1352702642242145,94.77298271325772,1331.0,1435.0,1000.0,1528.0,1283.0,1012.0,60.0,292.25,1649148046.3906498,1649148047.6428587,05ce01b0-6f78-4d62-a471-49b75a1f2c42
-0.3954031888207149,-0.5883866527725345,0.0591867268669107,0.206728243992879,-0.0075692045844259,0.5071627831242665,-0.1262624906745939,-0.149640874361266,-14.709960496910073,31.498650293874285,16.633738134990217,0.8803365783168742,-2.271284953438325,0.0402659183611151,-1.0,11.939333333333334,0.0,179.40779118024065,1.138141066251768,94.72383646653984,1209.0,1435.0,1000.0,1528.0,1173.0,1012.0,60.0,292.25,1649148049.5764797,1649148050.7129924,dd08aab4-697d-4790-89f9-b9239857e787
-0.4013332520005181,-0.5833507004750033,0.0617375739310625,0.2046507500534935,-0.0071090002112414,0.5049406536608434,-0.1253683792999083,-0.1404893810702315,-14.678978958437405,31.573092613955488,16.759474814073037,0.8806856148061177,-2.253311994651372,0.0356485831554878,-1.0,11.903,0.0,179.3864217950574,1.1269548527907758,94.59514887238764,1209.0,1435.0,1000.0,1528.0,1173.0,1012.0,60.0,292.25,1649148050.8214958,1649148051.9391098,dd08aab4-697d-4790-89f9-b9239857e787
-0.3933125457431423,-0.5856911691049749,0.0543480066611631,0.2031386500388325,-0.0129996162436903,0.5083987604698873,-0.1318506869393234,-0.1460249829954087,-14.78459403525823,31.51754159750859,16.675002355207422,0.8910645348532578,-2.260877209577916,0.0625073774965606,-1.0,11.902444444444445,0.0,179.3935889402265,1.1308066407378727,94.49241296144184,1209.0,1435.0,1000.0,1528.0,1173.0,1012.0,60.0,292.25,1649148052.049425,1649148053.167205,dd08aab4-697d-4790-89f9-b9239857e787
-0.4532015827240636,-0.679879695676957,0.0454216854613671,0.2512946520384829,-0.0072826725841494,0.5519340896873824,-0.1303188637497242,-0.1543152363436659,-14.935153218782546,32.643829088646264,16.00741064847364,0.8871057093310024,-2.613634795667678,0.0522235588086975,-1.0,11.871,0.0,179.43080436428417,1.1367053747177924,94.26696966641715,1074.0,1435.0,1000.0,1528.0,1047.0,1012.0,60.0,292.25,1649148055.1077783,1649148056.23876,fcfd030c-0730-45eb-8abb-5c0719ef017f
-0.4461752465353957,-0.673894297317951,0.0407922486628407,0.2521301420589169,-0.0122819165575642,0.5452227766073159,-0.1370849641547832,-0.1629303725213453,-14.947341787423872,32.58975485464463,15.95329431346317,0.8695360903936399,-2.591017278700418,0.0756455295463688,-1.0,11.812222222222225,0.0,179.42804345003964,1.1301550572922077,94.0294050623454,1074.0,1435.0,1000.0,1528.0,1047.0,1012.0,60.0,292.25,1649148056.3491602,1649148057.477987,fcfd030c-0730-45eb-8abb-5c0719ef017f
-0.4433400582431337,-0.6786333083436645,0.0428878221096837,0.254102446306811,-0.0090769217930646,0.546975935932232,-0.1342497764218605,-0.1602184536481119,-14.986171936659014,32.608122469932546,15.819658103261869,0.8692118965315415,-2.607441879914457,0.0636077074672464,-1.0,11.814777777777778,0.0,179.42923949205428,1.1209829195786576,93.8601438677936,1074.0,1435.0,1000.0,1528.0,1047.0,1012.0,60.0,292.25,1649148057.5919468,1649148058.7005303,fcfd030c-0730-45eb-8abb-5c0719ef017f
0.0137278486055434,0.1537477658626777,0.0996600571872353,-0.13385257606464,-0.1235527633119765,0.0928939573331482,-0.2439866139885585,-0.274269709189691,-14.351039148395692,28.262081348590726,16.270193611586237,0.698368515794467,0.5572957512214689,0.3985628812171266,-1.0,11.840777777777776,0.0,179.14843523707694,1.1062012162759862,93.5938347920548,1553.0,1435.0,1000.0,1528.0,1471.0,1012.0,60.0,292.25,1649148060.4640653,1649148061.412294,d7238417-f27e-4c17-821e-e9a59af2fc23
0.0181759430504409,0.1555666687877633,0.1025379780368081,-0.1364395822432115,-0.1221469484520557,0.0920453185743646,-0.2414187828755752,-0.2548961987864461,-14.287712876440844,28.304787083825307,16.084483030635315,0.7027258395252071,0.5658171684121893,0.3890313775641752,-1.0,11.991333333333332,0.0,179.1658051670462,1.119591055091856,93.84965573286809,1553.0,1435.0,1000.0,1528.0,1471.0,1012.0,60.0,292.25,1649148061.5222018,1649148062.5924504,d7238417-f27e-4c17-821e-e9a59af2fc23
0.0113123235213877,0.1519113313412289,0.097765001372249,-0.1322188504400724,-0.1252763383525169,0.0943331916946639,-0.2461128679866521,-0.2601556777811461,-14.370418525099923,28.323089048354447,16.416656138082246,0.6982410410044949,0.548926825634859,0.406481052271143,-1.0,11.992,0.0,179.1771523879873,1.1264294144013445,94.04885516437189,1553.0,1435.0,1000.0,1528.0,1471.0,1012.0,60.0,292.25,1649148062.7011082,1649148063.8298476,d7238417-f27e-4c17-821e-e9a59af2fc23
0.0300130569425183,0.1544325937723591,0.0883330033817331,-0.3500116894161173,-0.1576708932176268,0.3023143298107189,-0.1962677987184327,-0.2270713625038023,-14.220865851973157,27.82782114213998,17.983695478920414,1.6534619484502489,0.569644587777904,0.3934051694014718,-1.0,11.988,0.0,179.1696619471975,1.1887578076376688,94.48902822325316,1553.0,1537.0,1000.0,1528.0,1471.0,1012.0,60.0,292.25,1649148065.425525,1649148066.5094674,67e72e28-26f5-43cb-9600-5168d248ef95
0.0394636824153944,0.1570787688125169,0.090743597664063,-0.3502111113476022,-0.1559522489101172,0.2993871014922196,-0.1945962705522642,-0.2188687665199544,-14.19169457377146,27.821258091234235,17.9257219749924,1.6474158895982831,0.580053964232659,0.385658274576476,-1.0,11.98688888888889,0.0,179.17316659315165,1.1864170804647645,94.61102147310883,1553.0,1537.0,1000.0,1528.0,1471.0,1012.0,60.0,292.25,1649148066.6183612,1649148067.7113378,67e72e28-26f5-43cb-9600-5168d248ef95
0.0236441571574514,0.1560350910804725,0.0913599427924615,-0.3511622005416718,-0.155191815920671,0.3013007845384208,-0.1936380592272585,-0.2228665185569329,-14.22629501181402,27.83296976805343,17.933992261027925,1.6539538444711923,0.5764675032987214,0.3822661388906592,-1.0,11.989,0.0,179.1815024595787,1.187745137229476,94.71839280577134,1553.0,1537.0,1000.0,1528.0,1471.0,1012.0,60.0,292.25,1649148067.8208263,1649148068.94652,67e72e28-26f5-43cb-9600-5168d248ef95
0.0400816711759181,0.1494919713031947,0.0790149607280108,-0.5770656216575322,-0.1917167057981635,0.5269121230791122,-0.14365821698934,-0.1744393177664977,-14.101113976495562,27.58111416147696,19.669415319784104,2.6685707881583176,0.5626864835954187,0.3775473918427096,-1.0,11.987000000000002,0.0,179.17707194353704,1.2724921441704535,94.8814142430614,1553.0,1645.0,1000.0,1528.0,1471.0,1012.0,60.0,292.25,1649148070.0568666,1649148071.1920469,0de10fba-6360-41a2-871f-9bc40e20c695
0.0472608593282151,0.1545673679066012,0.0826834469495928,-0.5788932909545548,-0.1897838472694386,0.5232436371722439,-0.1406866114205654,-0.1632497760311169,-13.99445500515054,27.568541526000928,19.64077632068436,2.66459842944399,0.5816786018716574,0.3663207397357693,-1.0,11.983555555555556,0.0,179.17079879423935,1.2676498720719995,94.91483891212972,1553.0,1645.0,1000.0,1528.0,1471.0,1012.0,60.0,292.25,1649148071.3018408,1649148072.4233234,0de10fba-6360-41a2-871f-9bc40e20c695
0.0396477641760895,0.1544621783401182,0.081723592129205,-0.5779991793583164,-0.1900862673134025,0.5243875736366232,-0.1419751837533472,-0.1609224566069908,-14.085530892799223,27.569048398193,19.897456242367568,2.665102747454611,0.5794828167602251,0.3701689235044451,-1.0,11.984,0.0,179.17445825781468,1.283892773396328,94.97599870268776,1553.0,1645.0,1000.0,1528.0,1471.0,1012.0,60.0,292.25,1649148072.531453,1649148073.657863,0de10fba-6360-41a2-871f-9bc40e20c695
0.0523888508757838,0.1526608070071954,0.079054406802134,-0.6905520582730983,-0.2107823172610131,0.6345604889552485,-0.1203850230671622,-0.1416596151382425,-14.0442325361308,28.082760900874163,20.6407816566637,3.16997955147212,0.5795433736103197,0.3709178950710541,-1.0,11.976777777777777,0.0,179.1733350711512,1.3000275656327007,95.04719431786624,1553.0,1761.0,1000.0,1528.0,1471.0,1012.0,60.0,292.25,1649148075.5864952,1649148076.7428296,bd5e0043-b61d-49d6-b5db-d6bd58217579
0.0384775302088604,0.1462310947234694,0.0821574990954317,-0.6866468939642785,-0.2055228382151916,0.6374532018479028,-0.1157435330002952,-0.1452360609601788,-14.099020688827796,28.054951133725325,20.69802425163397,3.167622474485944,0.5550239192720299,0.3522260248225786,-1.0,11.971333333333332,0.0,179.17752728948173,1.297206578925812,95.03305354955458,1553.0,1761.0,1000.0,1528.0,1471.0,1012.0,60.0,292.25,1649148076.85663,1649148077.9517536,bd5e0043-b61d-49d6-b5db-d6bd58217579
0.042316949532239,0.1518324391672162,0.0782128902559041,-0.6888427271058007,-0.2103352615357838,0.6345867863459379,-0.1212659857610583,-0.1438948940767359,-14.13596167453958,28.03725542724265,20.747237856531424,3.165810045328746,0.5758776335873824,0.3727298018263678,-1.0,11.963555555555557,0.0,179.19162479992866,1.292232327651208,95.0212707143264,1553.0,1761.0,1000.0,1528.0,1471.0,1012.0,60.0,292.25,1649148078.0603244,1649148079.1799347,bd5e0043-b61d-49d6-b5db-d6bd58217579
0.0423432469349398,0.1500573652208593,0.0732558318100771,-0.7164287031676156,-0.2221559407058875,0.6631720492019126,-0.123054208582624,-0.1487467630487337,-14.143045883406128,28.48823339258207,20.92100838071357,3.2950390441452906,0.5708198648903352,0.3977314423550989,-1.0,11.953666666666669,0.0,179.1790845726125,1.3296114390896183,94.96984394333565,1553.0,1887.0,1000.0,1528.0,1471.0,1012.0,60.0,292.25,1649148080.0922976,1649148081.2256591,db4c3025-8180-4bf6-842a-be9212277029
0.0434345887038544,0.1495182686924716,0.0720461517397614,-0.7053311987426679,-0.2218403719924329,0.6531921897203454,-0.126801587256474,-0.1511266771440944,-14.141979078072056,28.482584879672046,20.86093129049505,3.247472997980031,0.5678797129035962,0.4042364262973873,-1.0,11.929666666666666,0.0,179.1793775118369,1.2996211693770847,94.88303831026406,1553.0,1887.0,1000.0,1528.0,1471.0,1012.0,60.0,292.25,1649148081.3341725,1649148082.465269,db4c3025-8180-4bf6-842a-be9212277029
0.0450929680272562,0.1503647159881833,0.0720751884606158,-0.701588749537139,-0.2220036349592785,0.6486317840172139,-0.128469828201594,-0.1599993087361622,-14.133149898387288,28.53133793190708,20.813523204706545,3.22910463191696,0.5709539827957578,0.4068489704919332,-1.0,11.925333333333334,0.0,179.18606502594423,1.3036674635619516,94.82354812150317,1553.0,1887.0,1000.0,1528.0,1471.0,1012.0,60.0,292.25,1649148082.5969174,1649148083.6921413,db4c3025-8180-4bf6-842a-be9212277029
0.0051455848682001,0.1560531705365787,0.1164624471210594,0.080895224268977,-0.0898800459929042,-0.1168217261416642,-0.2922253517714789,-0.3075830316046244,-14.507024617647502,29.277976795463825,14.758567571256204,-0.2500573912578815,0.5550863108591378,0.3979814411170212,-1.0,11.95588888888889,0.0,179.17322427030462,1.0688154169440138,94.74086109250106,1553.0,1335.0,1000.0,1528.0,1471.0,1012.0,60.0,292.25,1649148085.6225135,1649148086.599059,9d2126b2-8ce0-4ba5-9e1a-faa3fbbc870f
0.0101804398859811,0.1638421292309122,0.1208897226308104,0.0775949015433228,-0.0872705775187518,-0.1201423200128157,-0.2892674425635158,-0.3139623417273047,-14.502984867127331,29.257971583328228,14.967941286233374,-0.2499512488909062,0.5831020420473758,0.3854008204358519,-1.0,11.988888888888887,0.0,179.1852696883609,1.0673534955863504,94.86547941172778,1553.0,1335.0,1000.0,1528.0,1471.0,1012.0,60.0,292.25,1649148086.7074614,1649148087.9883487,9d2126b2-8ce0-4ba5-9e1a-faa3fbbc870f
0.0114268267252783,0.1599112170426437,0.119657032386113,0.0810190411647764,-0.0879006192423349,-0.1204847339889904,-0.2907603676557832,-0.316345543170667,-14.5046310283573,29.323440333512664,14.80878702174596,-0.2580982971175598,0.5692823421632113,0.3893667483116306,-1.0,11.99,0.0,179.1929832486636,1.07344673580404,95.0035554803491,1553.0,1335.0,1000.0,1528.0,1471.0,1012.0,60.0,292.25,1649148088.0967436,1649148089.213494,9d2126b2-8ce0-4ba5-9e1a-faa3fbbc870f
-0.0013498712002137,0.1591562627554126,0.1356726919071333,0.312838216890017,-0.051617338244525,-0.3455170259831799,-0.3420063235032516,-0.366712728248676,-14.611322754063492,30.225498569580147,12.91496149781859,-1.280281435131989,0.5564795735720405,0.3899051782213152,-1.0,11.991888888888887,0.0,179.17006265162885,0.9932023057720146,95.23860809262612,1553.0,1236.0,1000.0,1528.0,1471.0,1012.0,60.0,292.25,1649148090.9444911,1649148092.0840986,9d743e3b-91f9-442b-8a8e-41cb5d3fc78e
0.0035808899721253,0.1651652167443337,0.1385917024052768,0.3083545117620323,-0.0505522938053216,-0.3461876096037727,-0.338850635863227,-0.3535640299007511,-14.504951445285588,30.17504688014861,13.09300130866462,-1.271781363737511,0.577422206261071,0.3810165640467259,-1.0,11.978000000000002,0.0,179.1861287743765,1.0080721019138246,95.33386570534066,1553.0,1236.0,1000.0,1528.0,1471.0,1012.0,60.0,292.25,1649148092.1918623,1649148093.3124025,9d743e3b-91f9-442b-8a8e-41cb5d3fc78e
-0.007634948107165,0.1590379244927713,0.134068551011339,0.3098403143404071,-0.0534318583856737,-0.3419931748052326,-0.3431108141636527,-0.3586657249697658,-14.65117491211007,30.2399272699208,12.996543117498446,-1.2655916192497385,0.5558623977721451,0.3961764677046532,-1.0,11.973222222222224,0.0,179.19443276658745,1.0096856629574364,95.38551180129474,1553.0,1236.0,1000.0,1528.0,1471.0,1012.0,60.0,292.25,1649148093.4208558,1649148094.545668,9d743e3b-91f9-442b-8a8e-41cb5d3fc78e
-0.0099945912892058,0.1611165141578201,0.1387226414976694,0.4300895153377571,-0.0405516142540384,-0.4593513390705788,-0.3770897906535155,-0.4084960068884675,-14.797825385255692,30.97875225784929,12.223326611171087,-1.7956313930525054,0.5570516512294292,0.4204774228386932,-1.0,11.976888888888888,0.0,179.1772495284555,0.9518103159006142,95.47746208463118,1553.0,1133.0,1000.0,1528.0,1471.0,1012.0,60.0,292.25,1649148096.4766967,1649148097.6099274,7af9e36f-0f61-4df4-8d24-081f20993705
-0.0124736684308598,0.1615756227841858,0.13907820412463,0.4317813141251564,-0.0416900722710008,-0.4623695134833957,-0.3789015718214867,-0.4038446538887003,-14.770567699468968,31.14041459601123,12.0720764579686,-1.8051509230302176,0.5597381766266042,0.4239327369231632,-1.0,11.963333333333331,0.0,179.18072533583313,0.9467435131911628,95.50967173893714,1553.0,1133.0,1000.0,1528.0,1471.0,1012.0,60.0,292.25,1649148097.718743,1649148098.8404667,7af9e36f-0f61-4df4-8d24-081f20993705
-0.0023930011035329,0.163581894624062,0.1400101179482288,0.4372254217513274,-0.0398667863301918,-0.4687197874603486,-0.379500385435983,-0.3948542309778989,-14.796480630653551,31.08587303794444,12.163470111664642,-1.832015044273664,0.5660241687428956,0.4214552969964671,-1.0,11.96322222222222,0.0,179.18108809476902,0.9624491300167186,95.5314706671282,1553.0,1133.0,1000.0,1528.0,1471.0,1012.0,60.0,292.25,1649148098.9492304,1649148100.0746317,7af9e36f-0f61-4df4-8d24-081f20993705
-0.0043083278541684,0.163087722806078,0.150228298225488,0.4887414612759301,-0.0280417251909944,-0.5164369662726327,-0.3870274676003069,-0.4009913858918763,-14.868275071182536,31.63010728560288,12.0592154796494,-2.051385646576429,0.5599171544320823,0.4021088821450299,-1.0,11.960888888888888,0.0,179.18650671151056,0.91711259917793,95.603741657646,1553.0,1026.0,1000.0,1528.0,1471.0,1012.0,60.0,292.25,1649148102.0062892,1649148103.143484,e85babf3-6fda-4f47-823d-f36509933ecc
-0.0158430219262237,0.1622533284863677,0.1446806443262085,0.4784931492472173,-0.0346073076359493,-0.5070701610124294,-0.3898549856732962,-0.4082768610680055,-14.837567933357738,31.61845455026231,11.900831649862786,-2.0075827770186945,0.5588839800075105,0.4222513393439495,-1.0,11.946777777777775,0.0,179.19364046464372,0.9260796296309356,95.61014458053792,1553.0,1026.0,1000.0,1528.0,1471.0,1012.0,60.0,292.25,1649148103.2507143,1649148104.3722992,e85babf3-6fda-4f47-823d-f36509933ecc
-0.0035982982687029,0.1635873732477292,0.1469805703554113,0.4883207030598185,-0.0317891036987703,-0.5182514867330485,-0.3901437092019469,-0.4167698248318545,-14.768119086774057,31.61706528868055,11.791065968884013,-2.054754489630101,0.5633045648150561,0.4158307832152358,-1.0,11.955666666666666,0.0,179.18726258577874,0.9261484295572628,95.59018904451288,1553.0,1026.0,1000.0,1528.0,1471.0,1012.0,60.0,292.25,1649148104.481048,1649148105.6011438,e85babf3-6fda-4f47-823d-f36509933ecc
0.0227949704857338,0.1565555602917153,0.1043031904801271,-0.1390435721348632,-0.1212243482003655,0.0953867309679639,-0.2395078387978551,-0.2652847657138191,-14.307985252880709,28.35280275390997,16.36987099822444,0.7165498879079971,0.5675735355952786,0.3831132616340549,-1.0,11.96977777777778,0.0,179.1917872066489,1.1317872234865274,95.58790320787064,1553.0,1435.0,1000.0,1528.0,1471.0,1012.0,60.0,292.25,1649148107.5358574,1649148108.6796744,418049cf-2e6c-4bad-abbe-311b57057b96
0.0207530875189027,0.1574074862068328,0.1022881528096776,-0.1392402547284723,-0.1231199520324909,0.0940307716828871,-0.2417606490188787,-0.272147290162321,-14.311976652430822,28.325563515035096,16.254016026700555,0.7136451493375643,0.5717198568120123,0.3915957260541768,-1.0,11.995333333333331,0.0,179.18879861943208,1.1188191607098732,95.60145278536416,1553.0,1435.0,1000.0,1528.0,1471.0,1012.0,60.0,292.25,1649148108.7949283,1649148109.857373,418049cf-2e6c-4bad-abbe-311b57057b96
0.014086698464306,0.1548303418231764,0.1028403980463658,-0.1392139573379656,-0.1221469484470296,0.0965816187154974,-0.2404457792405143,-0.2560269866252795,-14.325706861145257,28.340191919719423,16.268188555693236,0.7194377420780168,0.562057586477491,0.3873383738579268,-1.0,11.991,0.0,179.17937827074684,1.1200791734936737,95.61572086081284,1553.0,1435.0,1000.0,1528.0,1471.0,1012.0,60.0,292.25,1649148109.9924033,1649148111.133566,418049cf-2e6c-4bad-abbe-311b57057b96
0.0517314160671571,0.1751845229489715,0.1979317665838267,-0.1549135018345476,-0.0379821397663528,0.0860495131502476,-0.1411468158262516,-0.1709286152149688,-13.537802085355686,28.169553974648704,16.297208077038974,0.7351899933979135,0.6405226870961798,0.004689459295819,-1.0,11.993666666666668,0.0,179.19042724009418,1.1169215894912423,95.5709415714318,1553.0,1435.0,1000.0,1435.0,1471.0,1012.0,60.0,292.25,1649148113.0653384,1649148114.2043393,fc9625c2-9823-451f-adee-37447e0a896e
0.0511923195137479,0.1707534124671528,0.1950522022247369,-0.1527176693879503,-0.0403226077700539,0.0882847914905588,-0.1436450682891356,-0.1733611247785218,-13.531577023386504,28.23783502198432,16.2636663466886,0.7355667492942674,0.6237048037509217,0.0147715140307149,-1.0,11.99,0.0,179.1894937809076,1.1126873346665596,95.5893102268397,1553.0,1435.0,1000.0,1435.0,1471.0,1012.0,60.0,292.25,1649148114.31294,1649148115.430722,fc9625c2-9823-451f-adee-37447e0a896e
0.0484968367744304,0.1699776394160973,0.1953809196172824,-0.1502851603960574,-0.0392707120382748,0.0862730409892264,-0.1444602875170018,-0.166655288789829,-13.627540841665564,28.261133693828565,16.18645528259366,0.7256691369968928,0.6218804513093261,0.0137933029420386,-1.0,11.988888888888887,0.0,179.1895135125652,1.1015012635011752,95.60017553998938,1553.0,1435.0,1000.0,1435.0,1471.0,1012.0,60.0,292.25,1649148115.5389717,1649148116.6607463,fc9625c2-9823-451f-adee-37447e0a896e
0.09215434309164,0.1909476177107419,0.3296252658312201,-0.157438051721821,0.0803889994690222,0.0679388277938716,-0.0085838456516955,-0.034689487418969,-12.644259662133058,28.376592181249777,16.597769391222666,0.7086152672894661,0.6993187383522846,-0.5219414521822987,-1.0,11.994999999999996,0.0,179.18779989399343,1.110764209528378,95.55935301714,1553.0,1435.0,1000.0,1330.0,1471.0,1012.0,60.0,292.25,1649148118.4228885,1649148119.533949,2b749c9e-c6f3-438e-a72f-1e39c4c47e33
0.1019473823893903,0.1945635090355552,0.3293376381220045,-0.1613826609126379,0.0798411371298398,0.0666787444044731,-0.0079264108238175,-0.0264441586609669,-12.587330338024207,28.240024406025224,16.408805157972555,0.7137606521227856,0.714617498393071,-0.5215069416293862,-1.0,11.983,0.0,179.17671222024077,1.1105667032248785,95.5480649911717,1553.0,1435.0,1000.0,1330.0,1471.0,1012.0,60.0,292.25,1649148119.6689646,1649148120.7568264,2b749c9e-c6f3-438e-a72f-1e39c4c47e33
0.0982515030552698,0.1969456144089757,0.330523212149762,-0.1625923410547905,0.0795409085672211,0.0661818332684221,-0.0088972229181909,-0.0393890506374967,-12.662554534070166,28.381328982924583,16.51108197575934,0.7163469648346986,0.7234042763849783,-0.5210205770769897,-1.0,11.982333333333331,0.0,179.16754762419447,1.100489067411675,95.544885917568,1553.0,1435.0,1000.0,1330.0,1471.0,1012.0,60.0,292.25,1649148120.8662846,1649148121.985492,2b749c9e-c6f3-438e-a72f-1e39c4c47e33
0.1418920250250947,0.2151828553179683,0.4543444750183202,-0.149535684654601,0.192172637858853,0.0287737923783575,0.1105455339129847,0.0831567994899684,-11.800980142326074,28.54647688707773,16.372765874172273,0.61050538806821,0.7931777530583125,-1.010611263696778,-1.0,11.981111111111112,0.0,179.17212688657798,1.0990115884009015,95.50669301754913,1553.0,1435.0,1000.0,1210.0,1471.0,1012.0,60.0,292.25,1649148123.1017933,1649148124.4435434,e969cfca-14de-4c3a-a27f-fce96a98f8fe
0.1302291317334676,0.2131842535791631,0.4527008881256282,-0.1502983090995942,0.1909761065409683,0.0304962715937398,0.1095988277839819,0.0879955197137025,-11.812487725895906,28.53838943005025,16.229685768491983,0.615932269953491,0.7870209082020446,-1.0058482950604115,-1.0,11.982666666666669,0.0,179.16819117979625,1.1003289492791006,95.48264543930132,1553.0,1435.0,1000.0,1210.0,1471.0,1012.0,60.0,292.25,1649148124.5529792,1649148125.6751802,e969cfca-14de-4c3a-a27f-fce96a98f8fe
0.1375398066916002,0.2182465014044154,0.4570531062099231,-0.1502983090886697,0.1937899274298846,0.027787640151029,0.1122943104809359,0.0810924542142861,-11.798526207168647,28.586166497336027,16.576028610394015,0.6104412816949693,0.8031156889860489,-1.018359992605067,-1.0,11.985666666666669,0.0,179.15568434451603,1.1022212674182132,95.50213576355289,1553.0,1435.0,1000.0,1210.0,1471.0,1012.0,60.0,292.25,1649148125.7841587,1649148126.9059913,e969cfca-14de-4c3a-a27f-fce96a98f8fe
0.1610628236020628,0.2270561274759271,0.569882058363697,-0.1262098958752237,0.2970203362975346,-0.0100017134252636,0.2177731483267308,0.199535907310751,-11.08041184307955,29.041113319088577,16.415650718136426,0.4801559412848348,0.8366906015085547,-1.461574761140254,-1.0,11.976555555555557,0.0,179.16158714577873,1.103672753764645,95.48118681445855,1553.0,1435.0,1000.0,1071.0,1471.0,1012.0,60.0,292.25,1649148129.0402396,1649148130.1763065,5c995887-e90c-4e85-a0f3-0d54fb5ab375
0.1633490530881756,0.2317907536195069,0.5767796446115168,-0.1269905997469352,0.3023828125865713,-0.0156375734785493,0.2234906394879938,0.1973165169757741,-11.001574798823556,29.032311420999008,16.22012904763182,0.4695461100682854,0.8561564848596053,-1.486072282202712,-1.0,11.976777777777777,0.0,179.1464135010826,1.1078203149903314,95.47106067955906,1553.0,1435.0,1000.0,1071.0,1471.0,1012.0,60.0,292.25,1649148130.2840302,1649148131.4155056,5c995887-e90c-4e85-a0f3-0d54fb5ab375
0.174987292462679,0.2296201231184953,0.572945704290433,-0.1271434533607397,0.2995317371058857,-0.0126051553319426,0.2207841996034081,0.1992334871982465,-11.024782288416484,28.992433977499168,16.304226880686382,0.4762516254413282,0.8472092925659461,-1.473254775200087,-1.0,11.973555555555556,0.0,179.15174104863522,1.108481159508465,95.44917978909795,1553.0,1435.0,1000.0,1071.0,1471.0,1012.0,60.0,292.25,1649148131.5287876,1649148132.6372426,5c995887-e90c-4e85-a0f3-0d54fb5ab375
-0.0052024392483546,0.1421418503049328,0.0144811594101608,-0.1251054053010258,-0.2027879091163283,0.100447335361214,-0.3350112159246392,-0.356312107656594,-14.947650702596546,28.567076381188816,16.193582621794363,0.693078467784975,0.5121965033836229,0.7502137919588121,-1.0,11.982888888888889,0.0,179.20115215491086,1.140110046149534,95.50190657276076,1553.0,1435.0,1000.0,1613.0,1471.0,1012.0,60.0,292.25,1649148134.576639,1649148135.7079318,473bcd3f-db45-40ed-91b2-33bd4a72de43
-0.0139857685263051,0.1364616136695788,0.0099711565365953,-0.1204902126133864,-0.2059698939245779,0.1024327884686786,-0.3405599666609424,-0.3653189662704036,-15.087614324101237,28.698665427826263,16.24918412955835,0.6877154627799027,0.4905380883189476,0.7678753311565191,-1.0,11.994,0.0,179.20008057412116,1.1387580600067926,95.5018906356527,1553.0,1435.0,1000.0,1613.0,1471.0,1012.0,60.0,292.25,1649148135.8169763,1649148136.876156,473bcd3f-db45-40ed-91b2-33bd4a72de43
-0.0116518748908318,0.1385308896881686,0.0124540687098407,-0.1226761835216459,-0.2040063550924566,0.1012214648369799,-0.3370410462418152,-0.3663516871627478,-14.979037432665,28.6098308206507,16.102745671018894,0.689490520454415,0.4992535679376967,0.7569433118722029,-1.0,11.992111111111113,0.0,179.2165656151379,1.1499030788893532,95.49739105880948,1553.0,1435.0,1000.0,1613.0,1471.0,1012.0,60.0,292.25,1649148136.984991,1649148138.2669456,473bcd3f-db45-40ed-91b2-33bd4a72de43
-0.047843662353021,0.1191316324083394,-0.0806233633802103,-0.1007277209790251,-0.2866371550809033,0.105943490306342,-0.4369793749283932,-0.4537834129091403,-15.76101564401982,28.891312235328783,16.20265062769442,0.6474448251967736,0.422545588269469,1.135978779952592,-1.0,11.993000000000002,0.0,179.23827499195983,1.141337950522353,95.50984780603576,1553.0,1435.0,1000.0,1694.0,1471.0,1012.0,60.0,292.25,1649148138.9272096,1649148139.9163525,de405138-2c9d-4aff-97b4-4593a1814a9a
-0.0403598624874231,0.1251767453810046,-0.0784362968017775,-0.1028846551430394,-0.2864596476565705,0.1020980445769261,-0.4356015008245171,-0.4574475176739002,-15.6343615536412,28.877631063123733,16.228858588910352,0.643755249527202,0.4444937113971351,1.131637695164874,-1.0,11.986666666666666,0.0,179.22712205195512,1.1434390400339092,95.48787812311544,1553.0,1435.0,1000.0,1694.0,1471.0,1012.0,60.0,292.25,1649148140.0305717,1649148141.0825777,de405138-2c9d-4aff-97b4-4593a1814a9a
-0.0351277769385683,0.1235879446197566,-0.0726700453714863,-0.1039940764553282,-0.2809399337801935,0.1035772728860981,-0.4299037312072656,-0.4513662440467004,-15.691086923320546,28.938694427804183,16.11638372149363,0.6502272897142447,0.4404362713909018,1.1077218605955117,-1.0,11.98988888888889,0.0,179.2236781187936,1.1339640142613845,95.468723995953,1553.0,1435.0,1000.0,1694.0,1471.0,1012.0,60.0,292.25,1649148141.191352,1649148142.36121,de405138-2c9d-4aff-97b4-4593a1814a9a
-0.0788614380865707,0.1070348320814683,-0.1673258721153026,-0.0714587216735592,-0.3657923191715858,0.0932944447049217,-0.5356340675866877,-0.559209687047058,-16.34120282049382,29.298535719191563,15.835749645386272,0.5510288293171239,0.3754402778391635,1.5001418668520727,-1.0,11.988,0.0,179.24395770934927,1.1208869767651604,95.44010474442076,1553.0,1435.0,1000.0,1774.0,1471.0,1012.0,60.0,292.25,1649148142.9283164,1649148144.00179,a7f381ba-a998-427c-8df0-ff6c9cabf906
-0.0691774228254571,0.1118773872549202,-0.1653820563482314,-0.0747656189322778,-0.3644889544129507,0.0921954328522214,-0.5337921538621445,-0.5579118006910614,-16.347281814680702,29.221233786725254,15.936624512810036,0.5556161181871375,0.3932808446076485,1.4938212139503506,-1.0,11.978666666666664,0.0,179.23361983858547,1.1097565076084877,95.41409917861088,1553.0,1435.0,1000.0,1774.0,1471.0,1012.0,60.0,292.25,1649148144.1105902,1649148145.2333767,a7f381ba-a998-427c-8df0-ff6c9cabf906
-0.0789704626854266,0.1100283518761764,-0.161053943512678,-0.0735603217136484,-0.3602019308376831,0.0932363712977845,-0.5290120536363205,-0.5539945838928503,-16.318876239175015,29.25296582178105,16.019313449524727,0.5556897369927039,0.385538439636425,1.4751868958568863,-1.0,11.977333333333332,0.0,179.2266409030736,1.1010808274122657,95.39432729878352,1553.0,1435.0,1000.0,1774.0,1471.0,1012.0,60.0,292.25,1649148145.341131,1649148146.4671028,a7f381ba-a998-427c-8df0-ff6c9cabf906
-0.08807867460204229,0.10700853469140091,-0.21925007855289336,-0.04644990042540249,-0.41407434118218456,0.07282192484298926,-0.6005097544658113,-0.6229019921007684,-16.78418080411485,29.64725704957282,15.744060987921735,0.4480992075855212,0.3729246452585556,1.7286851622279478,-1.0,11.968,0.0,179.23786518060965,1.1020318482484186,95.36297824831297,1553.0,1435.0,1000.0,1856.0,1471.0,1012.0,60.0,292.25,1649148147.5821664,1649148148.7187955,103c9669-f748-459e-aa04-2fbf3e1c96a5
-0.09389971230450771,0.10424840424737385,-0.21581278984811628,-0.04474276131350006,-0.4108244210951028,0.07339005808203557,-0.5963580523056459,-0.6217651777879377,-16.694634669383586,29.68655677534602,15.69213849961141,0.44599346640527865,0.36240726703200865,1.713316364073555,-1.0,11.956888888888889,0.0,179.23819454750958,1.1052208469707436,95.30114302793703,1553.0,1435.0,1000.0,1856.0,1471.0,1012.0,60.0,292.25,1649148148.8318584,1649148150.1019695,103c9669-f748-459e-aa04-2fbf3e1c96a5
-0.09853188867235098,0.10468121549468712,-0.21364873337769566,-0.04272881926716339,-0.4079601961816378,0.07141501434301016,-0.5938696607526276,-0.6132113996666012,-16.675011266773456,29.609183767376646,15.753992854810525,0.43662689798297477,0.3632313872201902,1.7031251468399957,-1.0,11.958222222222222,0.0,179.22160933038498,1.1086429496144292,95.27266948710707,1553.0,1435.0,1000.0,1856.0,1471.0,1012.0,60.0,292.25,1649148150.2147582,1649148151.3781805,103c9669-f748-459e-aa04-2fbf3e1c96a5
