raw_voltage_G-,raw_voltage_G0,raw_voltage_G1,raw_voltage_G2,raw_voltage_G3,raw_voltage_G4,raw_voltage_G5,raw_voltage_G6,load_x,load_y,load_z,load_l,load_m,load_n,rpm,voltage,current,roll,pitch,yaw,aileron1_pwm,elevator_pwm,throttle_pwm,rudder_pwm,aileron2_pwm,pbaro,pdiff,Tt,sample_start_time,sample_end_time,uid
-0.1068024190506449,0.0630129974887841,-0.1844454761069968,-0.1159933582817825,-0.3579688434955483,0.1819298038506944,-0.5336880599773454,-0.5475730880102286,-19.184251829213267,28.56631332928006,16.43958080717023,0.8436222482896651,0.2294877520572982,1.5034980400361844,-1.0,11.993111111111112,0.0,179.27255191685458,1.0585476860568788,98.080266556765,1553.0,1435.0,1000.0,1528.0,1471.0,1012.0,60.0,292.25,1649149396.4352558,1649149397.4989069,5cfee382-260d-400d-a69d-dd70d2c11cf7
-0.0962177180034473,0.0596863773466044,-0.1865755650920045,-0.1096819836706469,-0.3579951408815616,0.1792606186207918,-0.5354105396645362,-0.5577107353767835,-19.174324358642146,28.487681011029185,16.409038250864647,0.8227601190827011,0.2162979025268251,1.5085388022875252,-1.0,11.99088888888889,0.0,179.281526785424,1.0635794484729315,98.07000533590193,1553.0,1435.0,1000.0,1528.0,1471.0,1012.0,60.0,292.25,1649149397.6072505,1649149398.727472,5cfee382-260d-400d-a69d-dd70d2c11cf7
-0.0953236065938077,0.0623555626780873,-0.1834330264013136,-0.109826619390493,-0.3559307952068027,0.1782481690231003,-0.5332804502930727,-0.5651003053874952,-19.16800874974832,28.539459353795745,16.637473254536484,0.8213505877139059,0.2244575624451593,1.4990377261109389,-1.0,11.992,0.0,179.28556266831356,1.0737044331496004,98.0579348738187,1553.0,1435.0,1000.0,1528.0,1471.0,1012.0,60.0,292.25,1649149398.8359723,1649149399.9540608,5cfee382-260d-400d-a69d-dd70d2c11cf7
0.034108327984412,0.3039853098560938,-0.1703128178587691,-0.2777760283534992,-0.4048116306204998,0.1021939204711031,-0.5596786570674265,-0.5805796127018424,-18.931112870716703,27.886538355960408,17.451957283538416,1.0258733424997126,1.1433194269963811,1.6146633482883257,-1.0,11.972,0.0,179.20741619728972,1.0748048287999454,97.9243629355,1663.0,1435.0,1000.0,1528.0,1555.0,1012.0,60.0,292.25,1649149402.095682,1649149403.2335942,f16a2f50-4396-4d15-8e34-c30e75f4dce5
0.0402443862778058,0.3043551169149764,-0.1688335894101066,-0.2787073944735874,-0.4037706919605754,0.1033033417029319,-0.5573776345649413,-0.5835928562786731,-18.8584791388931,27.869106341010376,17.553575454167817,1.0304781511833738,1.143499855991818,1.608190888034953,-1.0,11.968444444444444,0.0,179.222621716202,1.0763432933365893,97.82708510461096,1663.0,1435.0,1000.0,1528.0,1555.0,1012.0,60.0,292.25,1649149403.3421917,1649149404.468332,f16a2f50-4396-4d15-8e34-c30e75f4dce5
0.0356012528757774,0.3012323017537401,-0.1723262121450561,-0.2762694067328319,-0.405441672444448,0.104029259273528,-0.5607195958214632,-0.5879620599285914,-18.965623678297376,27.83781376921016,17.51559556502418,1.0261685422778586,1.1323602451588195,1.6195137564160549,-1.0,11.970111111111112,0.0,179.21764933848624,1.0827632442695778,97.756518625746,1663.0,1435.0,1000.0,1528.0,1555.0,1012.0,60.0,292.25,1649149404.580587,1649149405.691684,f16a2f50-4396-4d15-8e34-c30e75f4dce5
0.1869131595186499,0.5600599832084887,-0.1461301721007249,-0.4580567398022067,-0.4483267023604905,0.0259205252540417,-0.5788801423145429,-0.6019166661847187,-18.79466614626596,27.42784187725048,18.70133099081123,1.2595771763944497,2.1154379260455043,1.6997578179311472,-1.0,11.950555555555557,0.0,179.10249538471942,1.08385995209209,97.5566240327667,1779.0,1435.0,1000.0,1528.0,1638.0,1012.0,60.0,292.25,1649149407.6259358,1649149408.7696712,0707b312-8af2-4f27-a6b9-9c9ab7cb4acb
0.1776959237886773,0.5625976813429636,-0.1446575179992015,-0.4563079628192875,-0.4469460889240746,0.0197932327372389,-0.5775389748598285,-0.6004834576901298,-18.673451085825405,27.32885097721886,18.424231820897973,1.241297470629214,2.126430197228724,1.694017413722671,-1.0,11.948625,0.0,179.1136240396071,1.0891757558103263,97.47854482013344,1779.0,1435.0,1000.0,1528.0,1638.0,1012.0,60.0,292.25,1649149408.9068468,1649149410.192544,0707b312-8af2-4f27-a6b9-9c9ab7cb4acb
0.1799355849618806,0.5614121073443424,-0.1434264712060196,-0.4570503164540225,-0.44572325987653,0.022616915297492,-0.5765254291855048,-0.592317566727581,-18.7587898500748,27.393263486796343,18.571557989949365,1.249786053791354,2.121452366404235,1.6892024624143769,-1.0,11.951555555555554,0.0,179.09820754374044,1.0918916972315615,97.42553069420684,1779.0,1435.0,1000.0,1528.0,1638.0,1012.0,60.0,292.25,1649149410.3014762,1649149411.4252646,0707b312-8af2-4f27-a6b9-9c9ab7cb4acb
0.2194035865646586,0.6257114172428128,-0.1216078518996212,-0.520368427240814,-0.4499176949611347,0.0026078863265625,-0.5697943903926826,-0.6031263468063228,-18.63359784835187,27.91118966814469,16.498989282589616,1.35190569478997,2.389284700631434,1.6597675416154771,-1.0,11.915333333333333,0.0,179.0575679181789,1.1105645569327955,97.27791816368432,1904.0,1435.0,1000.0,1528.0,1723.0,1012.0,60.0,292.25,1649149412.5411046,1649149413.6788476,6b92424d-5510-4d27-a3c2-30525df9a9df
0.2225455769566255,0.6261831266757018,-0.1257305162899543,-0.5188081148188902,-0.4534070310194469,0.0032773741964991,-0.5743613723207605,-0.6058634674696673,-18.696304162028937,27.90487910645028,16.83087343731952,1.3496646657336877,2.388102666967001,1.6771397871410194,-1.0,11.909666666666665,0.0,179.06738214110632,1.130560825075556,97.13847150376952,1904.0,1435.0,1000.0,1528.0,1723.0,1012.0,60.0,292.25,1649149413.7873745,1649149414.9175222,6b92424d-5510-4d27-a3c2-30525df9a9df
0.2300923803973245,0.6351543716795999,-0.1229227215863432,-0.5273273764851996,-0.4535166035009193,0.0045648507951675,-0.572827357259295,-0.5961389075757939,-18.734279284680408,27.942773724401945,17.164552579220324,1.3722002567526566,2.4202892243066194,1.672716924305276,-1.0,11.914444444444444,0.0,179.0616872811583,1.1276778449155762,97.049953769946,1904.0,1435.0,1000.0,1528.0,1723.0,1012.0,60.0,292.25,1649149415.0314124,1649149416.1351826,6b92424d-5510-4d27-a3c2-30525df9a9df
0.2726295062094592,0.7061551330432284,-0.0825036270783515,-0.5446146296648531,-0.4361247095183938,-0.0501315355436344,-0.554463006039904,-0.5738178928204427,-18.212217840213857,28.349397572360225,17.23433693928644,1.293268057380985,2.686969409952513,1.5765220897924497,-1.0,11.857111111111111,0.0,179.0287323773229,1.1300994552834955,96.86609494331805,2045.0,1435.0,1000.0,1528.0,1813.0,1012.0,60.0,292.25,1649149417.0453932,1649149418.1836026,bffc26fa-0b13-498b-a1c5-ef754b819dd5
0.2701411155813071,0.7068010626829722,-0.0847367141187263,-0.5404212902490523,-0.4381764544899629,-0.0522621723127191,-0.5597060502938904,-0.5744024626624634,-18.37895181602083,28.4812757651877,17.54068411640485,1.2797490332480672,2.687201374535262,1.5902018364223036,-1.0,11.857,0.0,179.04883286514035,1.1386688762346613,96.68249111041912,2045.0,1435.0,1000.0,1528.0,1813.0,1012.0,60.0,292.25,1649149418.2920325,1649149419.4130976,bffc26fa-0b13-498b-a1c5-ef754b819dd5
0.2778659741811486,0.7089103325017961,-0.0780254000331167,-0.5445028658717298,-0.4329580644395341,-0.0507144611984112,-0.5516935610503918,-0.5737176349932872,-18.25642958308994,28.456176161476588,17.576520390149614,1.2926691587989794,2.694855185720132,1.562903825447144,-1.0,11.859222222222222,0.0,179.0342253672354,1.141242932630306,96.48795138574908,2045.0,1435.0,1000.0,1528.0,1813.0,1012.0,60.0,292.25,1649149419.521839,1649149420.6411388,bffc26fa-0b13-498b-a1c5-ef754b819dd5
-0.2596554790016483,-0.2277561901951183,-0.1906522091853713,0.1009475335942418,-0.2915684647440781,0.2581018412556669,-0.4981673954384535,-0.5160140163902801,-19.32562370086685,29.66320383162366,15.266533119814218,0.5321296979525015,-0.8767611389516556,1.335460453317577,-1.0,11.978666666666664,0.0,179.36765395303803,1.090231747819837,96.20271661473012,1444.0,1435.0,1000.0,1528.0,1381.0,1012.0,60.0,292.25,1649149422.5755098,1649149423.7132938,471e1ba2-7062-4d9e-9af8-51c7f8c4040b
-0.2732561634617926,-0.2340018216163589,-0.1992536487918567,0.1054263081489607,-0.2981976000409731,0.2605672216640912,-0.5061114014698941,-0.522985566677419,-19.361746452977084,29.68317007643532,15.2695945701726,0.5272530879453902,-0.9010538994932048,1.3667792663269875,-1.0,11.981000000000002,0.0,179.38027462480443,1.1179562920026958,96.21093257339172,1444.0,1435.0,1000.0,1528.0,1381.0,1012.0,60.0,292.25,1649149423.822481,1649149424.9441068,471e1ba2-7062-4d9e-9af8-51c7f8c4040b
-0.2659558967837536,-0.2295915292430576,-0.1896249671749423,0.1031115898451063,-0.2896372496925475,0.2574444064975729,-0.4969210082291226,-0.514658056866372,-19.34561358021956,29.638523556979205,15.20990624609304,0.5256392257880013,-0.883203148792466,1.3293684159115973,-1.0,11.976333333333336,0.0,179.3696483682757,1.1089670634348876,96.23266016405142,1444.0,1435.0,1000.0,1528.0,1381.0,1012.0,60.0,292.25,1649149425.055153,1649149426.1709096,471e1ba2-7062-4d9e-9af8-51c7f8c4040b
-0.4346652040044455,-0.5161476943668274,-0.2154895510042488,0.3208983671264541,-0.245481730511279,0.3365190172043363,-0.4861818078811836,-0.509533898740469,-19.6345987768685,31.10430694304133,14.971732518803046,0.2203023602829597,-1.9822357305314329,1.2552895915247289,-1.0,11.94611111111111,0.0,179.45675301185096,1.07075099294787,96.23918375361872,1331.0,1435.0,1000.0,1528.0,1283.0,1012.0,60.0,292.25,1649149427.0814598,1649149428.2192729,7d272488-6e1c-4c09-8a9c-b7a730271447
-0.42642096961386,-0.5152009879918313,-0.2165677442137756,0.3210298540998131,-0.2463626932658293,0.3343494824907899,-0.4878911388175391,-0.5128868173663692,-19.66722586702093,31.084231177528963,14.802180807469831,0.2149003010351124,-1.9770362280021312,1.260254902991638,-1.0,11.943,0.0,179.4696954614182,1.092765487126631,96.21076181866243,1331.0,1435.0,1000.0,1528.0,1283.0,1012.0,60.0,292.25,1649149428.3279085,1649149429.454528,7d272488-6e1c-4c09-8a9c-b7a730271447
-0.426499861844981,-0.5100729950773801,-0.2120051461308417,0.3229627123140697,-0.2438249945867383,0.3275121609145859,-0.4854849268000929,-0.5129262633550885,-19.54763603289323,31.14459246466472,14.822952869789942,0.19586671079308,-1.9587813746308604,1.2478787999824434,-1.0,11.94988888888889,0.0,179.47602173440947,1.0887211020745005,96.18509169103184,1331.0,1435.0,1000.0,1528.0,1283.0,1012.0,60.0,292.25,1649149429.5817766,1649149430.6773045,7d272488-6e1c-4c09-8a9c-b7a730271447
-0.5650214122949049,-0.7285255080884248,-0.2482298084164067,0.4776308140062851,-0.2298610776201327,0.397463219748003,-0.4969637415961961,-0.5167788326781502,-20.027642053540244,32.66334584456887,14.386485500738218,0.0121157915763509,-2.792158999735247,1.2679297935844571,-1.0,11.891,0.0,179.53332095026656,1.0772279095558115,96.11800101954452,1209.0,1435.0,1000.0,1528.0,1173.0,1012.0,60.0,292.25,1649149431.4159992,1649149432.7215335,5e952d94-f010-409b-a8d0-675f6c6f97ef
-0.5544630061365056,-0.7221746852285951,-0.2372243483404992,0.4770259740384731,-0.2204860561517502,0.3928085816507915,-0.486037172216653,-0.5098626161238634,-19.87749750712261,32.584252782185025,14.6146745836164,0.0031562036251199,-2.7706538581535733,1.2258243637204138,-1.0,11.89,0.0,179.543447844076,1.0814981295953427,95.96896629185484,1209.0,1435.0,1000.0,1528.0,1173.0,1012.0,60.0,292.25,1649149432.8305595,1649149433.956115,5e952d94-f010-409b-a8d0-675f6c6f97ef
-0.5614055198178761,-0.7296168503926123,-0.2382499468409184,0.4760135244990631,-0.2213538702453835,0.3986203048885383,-0.4857084548368178,-0.5136099961633848,-19.871231578748635,32.706010700163034,14.267731078167376,0.0192036891422501,-2.795474197815182,1.2264920350068549,-1.0,11.892555555555557,0.0,179.5376998604345,1.0838258485781094,95.88285354352904,1209.0,1435.0,1000.0,1528.0,1173.0,1012.0,60.0,292.25,1649149434.0656593,1649149435.1787271,5e952d94-f010-409b-a8d0-675f6c6f97ef
-0.5699127288384939,-0.748840252366953,-0.2257323865316957,0.4888860970025526,-0.2065615853750451,0.3977656397307815,-0.4748344802587227,-0.5019208014277091,-20.03279924001817,33.080669624933265,13.240721456205051,-0.0088923174605839,-2.858112735046592,1.1698709454634426,-1.0,11.752,0.0,179.56803652508805,1.066420842741559,95.59340378688223,1074.0,1435.0,1000.0,1528.0,1047.0,1012.0,60.0,292.25,1649149437.1167154,1649149438.462303,7b74ffc5-e45d-47f1-a104-a516449c8dda
-0.5765528223827051,-0.7568741092344866,-0.2232867287798954,0.4872951049037751,-0.2027747604779243,0.4064043324853622,-0.468694037648198,-0.4931243215462089,-20.00503566288556,33.055035682775504,13.17473346890644,0.0140641705349621,-2.8875057446448325,1.1515875890823355,-1.0,11.759888888888888,0.0,179.5655169441942,1.0751591922950092,95.30913283144612,1074.0,1435.0,1000.0,1528.0,1047.0,1012.0,60.0,292.25,1649149438.5707347,1649149439.6879072,7b74ffc5-e45d-47f1-a104-a516449c8dda
-0.5699390261950239,-0.7605557457895578,-0.2287828844115238,0.4912265647027473,-0.2070612358854381,0.4061939533431706,-0.4753209821561041,-0.5004744446184243,-20.11456447156908,33.13146185751435,13.099693291906306,0.0048888810574215,-2.9007050006364814,1.173728338230237,-1.0,11.759444444444446,0.0,179.55833158518735,1.0715812285290132,95.05356916109156,1074.0,1435.0,1000.0,1528.0,1047.0,1012.0,60.0,292.25,1649149439.7964563,1649149440.925989,7b74ffc5-e45d-47f1-a104-a516449c8dda
-0.0886950197546836,0.0716642917120158,-0.1807495964023792,-0.1121161362650139,-0.3542576233165921,0.170745194481249,-0.5311898070073668,-0.5531043076837515,-19.065900513376565,28.35473208106152,16.58785848284025,0.8086075185320357,0.2595368642875786,1.4913078919184286,-1.0,11.98911111111111,0.0,179.31471695133075,1.1248111931765803,94.68975078694186,1553.0,1435.0,1000.0,1528.0,1471.0,1012.0,60.0,292.25,1649149443.056535,1649149444.2014668,cb9daae4-7326-455a-b8ed-00627ea5a33e
-0.0899983843287857,0.0713098247812031,-0.1831963498558625,-0.1148494216052943,-0.3569169476123558,0.1727783116052184,-0.5331226658793022,-0.5502159762225343,-19.06931635482797,28.356404681135142,16.452925881560926,0.8192078536414494,0.2596089216825482,1.5007569192084125,-1.0,11.993666666666666,0.0,179.32146214259112,1.1535541114499075,94.9969984987459,1553.0,1435.0,1000.0,1528.0,1471.0,1012.0,60.0,292.25,1649149444.3156445,1649149445.4238465,cb9daae4-7326-455a-b8ed-00627ea5a33e
-0.098830473658179,0.0693495733199341,-0.1858310201088055,-0.1144719444223943,-0.3585583434876384,0.1764703558068707,-0.5354220447918769,-0.5666639045198185,-19.173637985615347,28.36479389885899,16.735438397561254,0.8265698193159708,0.2502778911455392,1.5099459113413054,-1.0,11.991444444444443,0.0,179.3162757522814,1.1384537489917406,95.21982507240858,1553.0,1435.0,1000.0,1528.0,1471.0,1012.0,60.0,292.25,1649149445.5319872,1649149446.6592224,cb9daae4-7326-455a-b8ed-00627ea5a33e
-0.0961459480332699,0.0610357622948317,-0.2107724557233414,-0.3468614804872836,-0.4045924856269595,0.4100514518176384,-0.4937434058556538,-0.5078234721286091,-19.14002942158864,27.807333437095977,18.43185473907042,1.871021534451763,0.2308443944172459,1.5469038540006064,-1.0,11.990111111111112,0.0,179.3220738239768,1.2309508150587631,95.46622262889696,1553.0,1537.0,1000.0,1528.0,1471.0,1012.0,60.0,292.25,1649149447.4748948,1649149448.4266102,23b703d0-3c2f-4e7e-830b-1f8b43697c7a
-0.1051062370978747,0.0600019460550348,-0.2108875068257409,-0.3464111375902785,-0.4043180065341514,0.4094022349922359,-0.4938080536093373,-0.5151615423114584,-19.15189971082087,27.796965010007376,18.254118791771024,1.8684380246474976,0.2285633228509106,1.546403005607441,-1.0,11.989333333333336,0.0,179.3220085577248,1.2399231223072211,95.62176728577558,1553.0,1537.0,1000.0,1528.0,1471.0,1012.0,60.0,292.25,1649149448.5361693,1649149449.72725,23b703d0-3c2f-4e7e-830b-1f8b43697c7a
-0.0986765243125224,0.0587528199114699,-0.213582989839328,-0.3461481635838961,-0.4061719730810388,0.4108222940765892,-0.4960301838499111,-0.5127947764081584,-19.193291622490417,27.76582819828281,18.29806112891152,1.8706814243733485,0.223578057261624,1.55566322605832,-1.0,11.991,0.0,179.32523696047244,1.2424163192237854,95.7514589177358,1553.0,1537.0,1000.0,1528.0,1471.0,1012.0,60.0,292.25,1649149449.8350856,1649149450.9528463,23b703d0-3c2f-4e7e-830b-1f8b43697c7a
-0.0929436924495657,0.0543611553728694,-0.2384866232744801,-0.5699390261596623,-0.4542567656907627,0.6341002846316985,-0.4607522231564846,-0.4853271427185266,-19.21594374246081,27.511515179409777,20.17377858079688,2.8745959299124064,0.2166129094626146,1.6051150029903638,-1.0,11.980777777777778,0.0,179.32237587012008,1.2945893951030645,96.0204332850707,1553.0,1645.0,1000.0,1528.0,1471.0,1012.0,60.0,292.25,1649149453.0931213,1649149454.4353669,4638e458-f2dd-408a-b2d9-4b7e39d0c8ce
-0.082635114080034,0.0525203378993791,-0.2375925118241149,-0.5694656729345693,-0.4530865314536114,0.6352836671790582,-0.4590165948416175,-0.4831181611374876,-19.180072308365563,27.502177257155303,20.157617965855184,2.876185478837416,0.2095963102791541,1.5996187008129474,-1.0,11.980222222222222,0.0,179.3223834592192,1.2908241703173235,96.07544059300636,1553.0,1645.0,1000.0,1528.0,1471.0,1012.0,60.0,292.25,1649149454.543597,1649149455.6671493,4638e458-f2dd-408a-b2d9-4b7e39d0c8ce
-0.092167919330064,0.0494961377615496,-0.2395779651889221,-0.5675591113627783,-0.4543751039823505,0.6378345140034838,-0.4609757510428234,-0.4906392174611931,-19.23863943357484,27.55702603831111,20.33293798340152,2.877880039151169,0.1967547123922408,1.606704189107934,-1.0,11.979333333333331,0.0,179.31243263250838,1.2929089906977316,96.12439179987794,1553.0,1645.0,1000.0,1528.0,1471.0,1012.0,60.0,292.25,1649149455.7757251,1649149456.903142,4638e458-f2dd-408a-b2d9-4b7e39d0c8ce
-0.0813202443859471,0.0523362561468444,-0.2344236757096429,-0.7206362874483048,-0.4703639224439391,0.782956660503644,-0.4197940252553493,-0.4362167504779051,-19.20826266739593,27.756241309732903,21.495403477152845,3.5510713504116227,0.2160661913511644,1.563402167411539,-1.0,11.964888888888888,0.0,179.3231317443882,1.335223150970822,96.20713043475374,1553.0,1761.0,1000.0,1528.0,1471.0,1012.0,60.0,292.25,1649149459.0307944,1649149460.1689465,0fd2955c-e0ed-4094-84b7-48e77e0b2bc1
-0.087802551940685,0.046721762833272,-0.2358042889637129,-0.716060539136943,-0.4715999001894315,0.7850210056066038,-0.4209511107520481,-0.4444872823753921,-19.1384208082824,27.88602143357313,21.594046413556857,3.546230906033795,0.1929911393869599,1.5681104562281818,-1.0,11.96622222222222,0.0,179.30626573059777,1.3427222362187712,96.17391446591006,1553.0,1761.0,1000.0,1528.0,1471.0,1012.0,60.0,292.25,1649149460.277417,1649149461.3978584,0fd2955c-e0ed-4094-84b7-48e77e0b2bc1
-0.0813070956795205,0.0459591384633296,-0.2396042626077608,-0.7252909276692683,-0.4749002237192254,0.794488066029847,-0.4211483412429583,-0.4393592895189414,-19.16703223211157,27.74869285834996,21.61174126800698,3.5872149873033528,0.1910697412299512,1.5779543127809854,-1.0,11.966,0.0,179.3072052610636,1.3195147475229487,96.16637241924654,1553.0,1761.0,1000.0,1528.0,1471.0,1012.0,60.0,292.25,1649149461.506205,1649149462.6264858,0fd2955c-e0ed-4094-84b7-48e77e0b2bc1
-0.0702731475839029,0.0496402255466209,-0.2021025333210714,-0.7376654996204831,-0.4492569728684532,0.8022797635607152,-0.3859514658110237,-0.4005520005169813,-18.79526408064037,28.50206920951315,21.880923967385133,3.639729581053912,0.2037727739226852,1.442462797642125,-1.0,11.924,0.0,179.31410375212533,1.3305523332216893,96.1838508733326,1553.0,1887.0,1000.0,1528.0,1471.0,1012.0,60.0,292.25,1649149464.5611684,1649149465.5482495,d15dd4fa-9361-4f9a-895a-07bfff7c5fcf
-0.076231150842159,0.0505989846575287,-0.212895422553542,-0.7292010228010352,-0.4581323448401395,0.7909390140908364,-0.4021681943340536,-0.4246579494034352,-19.0690616212038,28.57010970104008,21.40727148324307,3.594851926015324,0.211779329237161,1.491655221186634,-1.0,11.924333333333337,0.0,179.3086805819243,1.3367111361406312,96.13299783823214,1553.0,1887.0,1000.0,1528.0,1471.0,1012.0,60.0,292.25,1649149465.6576138,1649149466.718518,d15dd4fa-9361-4f9a-895a-07bfff7c5fcf
-0.0741629703960723,0.0547079522271516,-0.201130077539742,-0.7493486698076243,-0.4495446006426409,0.8084432144397984,-0.3838421953857305,-0.4116051256433195,-18.899901602838693,28.435572241133496,21.946792244530048,3.679499480974617,0.2244356089894598,1.4390836149126376,-1.0,11.93,0.0,179.3040360532887,1.3155075609142672,96.0775799600364,1553.0,1887.0,1000.0,1528.0,1471.0,1012.0,60.0,292.25,1649149466.8281355,1649149467.9587717,d15dd4fa-9361-4f9a-895a-07bfff7c5fcf
-0.0989394982515128,0.0795014624857535,-0.1580297431124423,0.1054438398357269,-0.3144072056568714,-0.0456346812564071,-0.5755666698153877,-0.6001152938761526,-19.30880179483448,29.29869936942161,15.306354034339314,-0.1613265366742673,0.2766781937148171,1.4697348658293492,-1.0,11.991,0.0,179.3065996509572,1.0902723257839684,96.01731947771908,1553.0,1335.0,1000.0,1528.0,1471.0,1012.0,60.0,292.25,1649149470.0884902,1649149471.2279823,45f807ee-ea18-44bf-999a-d675b0b11978
-0.101720447688579,0.076266335372077,-0.1600403980558285,0.1044675491482073,-0.3154689630189181,-0.0437155194049733,-0.5758269044850777,-0.5961526045969566,-19.2768512621858,29.23115714991232,14.99284447182947,-0.1553934060238763,0.2670885814311717,1.473500156312462,-1.0,11.99,0.0,179.2984079774127,1.0965839897594911,96.16368132471356,1553.0,1335.0,1000.0,1528.0,1471.0,1012.0,60.0,292.25,1649149471.337169,1649149472.4639435,45f807ee-ea18-44bf-999a-d675b0b11978
-0.0957443648973913,0.0761485449679051,-0.1575958360989684,0.1043787954688102,-0.3131317819120234,-0.0433862541170175,-0.5737521491677672,-0.5953817615550591,-19.32027125175188,29.26320934449966,15.028851112596456,-0.1541352125163964,0.2668014291177519,1.464022848501511,-1.0,11.993333333333332,0.0,179.30415444323432,1.1013765414010186,96.2935915227272,1553.0,1335.0,1000.0,1528.0,1471.0,1012.0,60.0,292.25,1649149472.5786357,1649149473.890927,45f807ee-ea18-44bf-999a-d675b0b11978
-0.1104588525703772,0.0828954696737729,-0.1280726279455738,0.3102583332097015,-0.2696128783065462,-0.2521223709102325,-0.6060004326341104,-0.6312158066467211,-19.1550012522646,30.15477517427236,13.224738446410436,-1.0804309712408593,0.2834651200842552,1.4102465003011655,-1.0,11.986333333333334,0.0,179.30909039327454,1.0299588739266996,96.53601315020876,1553.0,1236.0,1000.0,1528.0,1471.0,1012.0,60.0,292.25,1649149476.0279615,1649149477.1726491,3272b20d-2fb7-46bd-b960-b7d05ad90429
-0.1051171944314516,0.082320214216067,-0.1332362308905162,0.3021499710791924,-0.2738040257955613,-0.2418088610072807,-0.6082740620978943,-0.6249838697326989,-19.28068811475629,30.040552519787127,13.52256679064665,-1.0399947597352828,0.2802265288751409,1.4264690608358814,-1.0,11.977111111111112,0.0,179.3098796595786,1.0313357973746922,96.61791167181666,1553.0,1236.0,1000.0,1528.0,1471.0,1012.0,60.0,292.25,1649149477.304011,1649149478.4066973,3272b20d-2fb7-46bd-b960-b7d05ad90429
-0.1052114267088665,0.0773450763176303,-0.1317586460604331,0.3050278917731734,-0.2711085427139295,-0.240327441052307,-0.6057297885838501,-0.6192729507271468,-19.2755551240026,30.04063283285888,13.432419806506289,-1.0430953751540224,0.262068716021776,1.4164607552622692,-1.0,11.977111111111112,0.0,179.3168145783159,1.032262948122652,96.65707142305806,1553.0,1236.0,1000.0,1528.0,1471.0,1012.0,60.0,292.25,1649149478.5399077,1649149479.6353102,3272b20d-2fb7-46bd-b960-b7d05ad90429
-0.1148888677212971,0.0838799782898542,-0.1066709320991332,0.4113350931107113,-0.2426810579720179,-0.3503820447642885,-0.6163013439090659,-0.6399164106077957,-19.17467306836513,30.834917632348667,12.65991078704688,-1.5237635156143514,0.2812264871231963,1.3589736593768849,-1.0,11.970333333333334,0.0,179.30363079539796,0.9967372014007444,96.7255114363614,1553.0,1133.0,1000.0,1528.0,1471.0,1012.0,60.0,292.25,1649149480.5346386,1649149481.6739335,488a6b7e-9557-4d2b-8d35-80f9c9682fe6
-0.1041858283579922,0.0845768591918455,-0.1070127982034594,0.4157004599354627,-0.2428914371059697,-0.3561806207577187,-0.6189968275123621,-0.6430720988387003,-19.222143218020378,30.89187374773204,12.492088332594031,-1.5463309889591066,0.2851054257931857,1.3633933257772148,-1.0,11.962222222222222,0.0,179.3081250598718,0.99069329032706,96.76697523808282,1553.0,1133.0,1000.0,1528.0,1471.0,1012.0,60.0,292.25,1649149481.788997,1649149482.9072812,488a6b7e-9557-4d2b-8d35-80f9c9682fe6
-0.1084328574884004,0.0868778810079527,-0.1085511957229183,0.4178568459612365,-0.2449557826179411,-0.3605985833728987,-0.6217843520274592,-0.6370894402050349,-19.165236809369173,30.90184345944641,12.449776821251136,-1.5611116303730657,0.2933450385048707,1.372544243997136,-1.0,11.966888888888889,0.0,179.31152497625868,1.0076236691640983,96.79916060727174,1553.0,1133.0,1000.0,1528.0,1471.0,1012.0,60.0,292.25,1649149483.0241137,1649149484.1273136,488a6b7e-9557-4d2b-8d35-80f9c9682fe6
-0.0964198791905783,0.0870318303246457,-0.0850106452863776,0.4536612907038019,-0.2219625453194089,-0.3944707269975366,-0.6103833328837981,-0.6325169798082282,-19.114321027533595,31.34863913790229,12.471866665733067,-1.7138297392407882,0.2904579201499757,1.2931215938124911,-1.0,11.955888888888888,0.0,179.31349662419905,1.0012602214453372,96.82758937241714,1553.0,1026.0,1000.0,1528.0,1471.0,1012.0,60.0,292.25,1649149485.041363,1649149486.1788054,b6317476-5f58-49e6-a2b3-56354d182e5e
-0.0952830647969462,0.0956058758866799,-0.0812988778229413,0.4578250441359395,-0.2200724201313465,-0.4068798116908126,-0.6109722854375434,-0.6370368461430896,-19.07387409602519,31.392185456315016,12.458441986096592,-1.7506153020235378,0.3221719107558964,1.287391617835154,-1.0,11.957333333333333,0.0,179.30730088371195,0.9867436267177944,96.831935649459,1553.0,1026.0,1000.0,1528.0,1471.0,1012.0,60.0,292.25,1649149486.2975693,1649149487.4140902,b6317476-5f58-49e6-a2b3-56354d182e5e
-0.1024052756200091,0.0923734881126718,-0.0917356558809473,0.4581263684290135,-0.2293586877524138,-0.40444182355818,-0.6218062665289305,-0.6409814561216863,-19.196084559116425,31.43747084128006,12.312527656721402,-1.746120787747058,0.3115087344268862,1.32899328084053,-1.0,11.959333333333332,0.0,179.31182246894252,0.9898909209690931,96.82388968661672,1553.0,1026.0,1000.0,1528.0,1471.0,1012.0,60.0,292.25,1649149487.5453866,1649149488.6427848,b6317476-5f58-49e6-a2b3-56354d182e5e
-0.1005830853834195,0.0658005210804813,-0.1912170553075927,-0.1200826030729972,-0.3629916463530045,0.1861110891027861,-0.5384610380708247,-0.5535425974350296,-19.284511260904768,28.339689382049624,16.84552599669825,0.8604172339278321,0.2371247381174486,1.5272622732661478,-1.0,11.99088888888889,0.0,179.30984171408323,1.1571221738132007,96.7972838230698,1553.0,1435.0,1000.0,1528.0,1471.0,1012.0,60.0,292.25,1649149490.4339302,1649149491.7041194,6f8003b6-82d7-4ea5-950e-fd1992fb640f
-0.0963886510479933,0.061750722646298,-0.1963450473451751,-0.1235012642776356,-0.3671334864347406,0.1925933961046891,-0.5417613617642543,-0.5646532490495288,-19.35299443762348,28.32279020182796,16.72361453222543,0.882274232839325,0.2235962734730847,1.543859681803328,-1.0,11.991,0.0,179.30395409101868,1.1640173802179692,96.78497582218544,1553.0,1435.0,1000.0,1528.0,1471.0,1012.0,60.0,292.25,1649149491.8155696,1649149492.93647,6f8003b6-82d7-4ea5-950e-fd1992fb640f
-0.107906909603866,0.06616868457571,-0.1929000885809053,-0.1229227216930711,-0.3647535719647372,0.187439107335679,-0.5404859378616428,-0.5633383790549911,-19.373581237782272,28.35762484284973,16.69988235232826,0.8697751205099753,0.2406701146424524,1.5345838431642214,-1.0,11.991375,0.0,179.30667421385564,1.1826061135701291,96.78063352942058,1553.0,1435.0,1000.0,1528.0,1471.0,1012.0,60.0,292.25,1649149493.0442789,1649149494.1619885,6f8003b6-82d7-4ea5-950e-fd1992fb640f
-0.0660409108084667,0.0803479097990673,-0.0813810570360445,-0.1367973364869941,-0.2639151091953021,0.1808669509152039,-0.4222610498836261,-0.4551191017149821,-18.49718534737968,28.215410989219595,16.80587696614704,0.8913725411272347,0.2954840500106583,1.0793132276272832,-1.0,11.99088888888889,0.0,179.30351544109195,1.1772390967733313,96.7833646564512,1553.0,1435.0,1000.0,1435.0,1471.0,1012.0,60.0,292.25,1649149495.0790057,1649149496.220328,482e116f-4db5-4888-b732-4d5c651915ad
-0.0707525271428529,0.0824023935714494,-0.0791759110057844,-0.1377697921242805,-0.2623810944424927,0.1791822743110473,-0.4199737241196533,-0.4424634784598178,-18.42877195574306,28.18596900663816,16.74258046712259,0.8897194443421567,0.3035254206650069,1.0711720414835944,-1.0,11.991111111111111,0.0,179.30175628792574,1.1610096779578325,96.77624076914692,1553.0,1435.0,1000.0,1435.0,1471.0,1012.0,60.0,292.25,1649149496.358804,1649149497.438956,482e116f-4db5-4888-b732-4d5c651915ad
-0.0642663845665201,0.0826045547743678,-0.0800053746292544,-0.1364658796752237,-0.2629169038813166,0.1778931542464256,-0.4217137352743279,-0.4430409256547377,-18.48991614130638,28.205150116059528,16.74836863719538,0.8839373087892745,0.3044523133949308,1.075503314841597,-1.0,11.991,0.0,179.3062399276609,1.164023712372512,96.7770528027482,1553.0,1435.0,1000.0,1435.0,1471.0,1012.0,60.0,292.25,1649149497.547355,1649149498.6710937,482e116f-4db5-4888-b732-4d5c651915ad
-0.0250569710394794,0.1026168702110906,0.0534933414164434,-0.1382935485969567,-0.1415938715337365,0.15260821219358,-0.2862558428426809,-0.3096999718608348,-17.489706739711817,28.13083797637237,16.733254458796658,0.8378972324874264,0.3812522556004495,0.5385344567513242,-1.0,11.992,0.0,179.29717247208274,1.1526801081114268,96.79015917685554,1553.0,1435.0,1000.0,1330.0,1471.0,1012.0,60.0,292.25,1649149500.6058033,1649149501.7428713,0c0467ad-d7cb-4ffb-ba8c-3d96d0d37f43
-0.0179698236112443,0.1039843346035226,0.0553341588891746,-0.1397004592077122,-0.1410942210399777,0.1519376286875559,-0.2850067165214798,-0.3161822807288963,-17.439842450445983,28.19693721003726,16.655110443518616,0.8401064714861648,0.3870117795592414,0.533616843252577,-1.0,11.992111111111113,0.0,179.29379380517332,1.1539066132441036,96.783448895451,1553.0,1435.0,1000.0,1330.0,1471.0,1012.0,60.0,292.25,1649149501.8537772,1649149502.9800704,0c0467ad-d7cb-4ffb-ba8c-3d96d0d37f43
-0.0166511189248052,0.1067137847552519,0.055488656070081,-0.1388107306593477,-0.1412624147905549,0.1494881362521666,-0.2860213577308313,-0.3181808828683803,-17.461489335815568,28.20129696867412,16.80021435208819,0.8326439535081538,0.3960163597805898,0.535605759175691,-1.0,11.990666666666668,0.0,179.3007302417304,1.1598606409255856,96.79294892967656,1553.0,1435.0,1000.0,1330.0,1471.0,1012.0,60.0,292.25,1649149503.113062,1649149504.1976764,0c0467ad-d7cb-4ffb-ba8c-3d96d0d37f43
0.0152755597570514,0.1222182887887879,0.1630614254126024,-0.13642752930132,-0.0446194922805846,0.1262861665801353,-0.1798867131399878,-0.1959801714150421,-16.701957109781493,28.35992496751202,16.790304163480357,0.7819188306372844,0.4554085350273625,0.1085769801680747,-1.0,11.986,0.0,179.29286186380656,1.1447200681002734,96.7879469544744,1553.0,1435.0,1000.0,1210.0,1471.0,1012.0,60.0,292.25,1649149505.930558,1649149507.0729487,47f0130f-fcf1-4a67-ac14-713241b654f8
0.0133854346394901,0.1219443576238136,0.1644447777854939,-0.1347428524538515,-0.043085477665932,0.1235468549340202,-0.1785444502830988,-0.2016094579132699,-16.65026286287607,28.334857661907687,16.593903799430517,0.7718604351184654,0.4556357911699264,0.1024418983640365,-1.0,11.986666666666666,0.0,179.2938590714254,1.1471013850952767,96.79685807461152,1553.0,1435.0,1000.0,1210.0,1471.0,1012.0,60.0,292.25,1649149507.1810482,1649149508.3033695,47f0130f-fcf1-4a67-ac14-713241b654f8
0.0140428694620256,0.1192872253104452,0.1653624471830908,-0.1330170859440287,-0.0414144974601363,0.124546703693863,-0.1772021874103357,-0.199007111467871,-16.671407296460146,28.340324720110488,16.60058352635856,0.7702866791693568,0.4456061715922233,0.0966899911530275,-1.0,11.987000000000002,0.0,179.309390921598,1.1451542119993925,96.79716770985392,1553.0,1435.0,1000.0,1210.0,1471.0,1012.0,60.0,292.25,1649149508.4366,1649149509.5360422,47f0130f-fcf1-4a67-ac14-713241b654f8
0.0535459361561538,0.1391176502451584,0.2668309315301356,-0.1208978222554248,0.048943892505488,0.0896128097879023,-0.0824773296651129,-0.1010827361242872,-15.972209850204358,28.61558030007168,16.73134438008102,0.6716974232771082,0.5188197323421562,-0.2964959616008494,-1.0,11.97222222222222,0.0,179.26458336282292,1.140660765725268,96.76012759398492,1553.0,1435.0,1000.0,1071.0,1471.0,1012.0,60.0,292.25,1649149511.4603431,1649149512.5951908,56d0263a-f997-4c6a-9ec9-3ad36a457520
0.0400389378958715,0.1368462130254631,0.266963514193735,-0.1188548434780944,0.0496950117500663,0.0910860115935729,-0.0829287682682837,-0.0983647908927383,-16.070297980087204,28.68182807618078,16.89022195305376,0.6708211620314328,0.509344571633035,-0.2971856185537199,-1.0,11.975666666666667,0.0,179.26975761057415,1.1430997124413935,96.74053178125617,1553.0,1435.0,1000.0,1071.0,1471.0,1012.0,60.0,292.25,1649149512.7036257,1649149513.834329,56d0263a-f997-4c6a-9ec9-3ad36a457520
0.039384790231094,0.137592401519398,0.2620316576744799,-0.1211344987992357,0.0447100123092677,0.0916508576819468,-0.0872503066278054,-0.1181891907581953,-16.035282791715836,28.633037947437696,16.740901755193068,0.6766576045617098,0.5131860179250212,-0.2776160469451891,-1.0,11.98075,0.0,179.272268843459,1.1424857691484591,96.71843441174389,1553.0,1435.0,1000.0,1071.0,1471.0,1012.0,60.0,292.25,1649149513.9468296,1649149515.0595267,56d0263a-f997-4c6a-9ec9-3ad36a457520
-0.135085266489177,0.0462221123873032,-0.3138681090146884,-0.0965727328070061,-0.4743085322525832,0.1887802743399546,-0.6703425043844927,-0.6930108657351703,-20.143729726750795,28.676281623569583,16.596158503035866,0.8090345898809478,0.1613209941935745,2.0305843115445605,-1.0,11.99,0.0,179.3073190975498,1.141648652981785,96.80000223835948,1553.0,1435.0,1000.0,1613.0,1471.0,1012.0,60.0,292.25,1649149515.9659336,1649149517.1112754,c3469046-6f00-4f21-a106-e794341622ad
-0.1474844879761369,0.0456435697527826,-0.3149463022954584,-0.0970066398018917,-0.4753078334214506,0.1890563969450691,-0.6715127388227162,-0.6933921779460015,-20.165686963831835,28.68865015692488,16.489401934566537,0.8106340974624118,0.1602379775582902,2.0348364460007007,-1.0,11.984,0.0,179.31921273362448,1.1255604625569375,96.79515963423792,1553.0,1435.0,1000.0,1613.0,1471.0,1012.0,60.0,292.25,1649149517.2453086,1649149518.3349428,c3469046-6f00-4f21-a106-e794341622ad
-0.1394818621079629,0.0451477543312958,-0.312222878124795,-0.0971184036925129,-0.4728013625399755,0.1917146249489228,-0.6683471889900675,-0.6838790927437023,-20.16571162564566,28.71776624605204,16.805729633723036,0.8172386371387713,0.1557618432950676,2.02357635827556,-1.0,11.988444444444443,0.0,179.31781633939417,1.1443183083098754,96.79589274120885,1553.0,1435.0,1000.0,1613.0,1471.0,1012.0,60.0,292.25,1649149518.4442978,1649149519.5646274,c3469046-6f00-4f21-a106-e794341622ad
-0.1740843026027075,0.0342830961434746,-0.4136404341077689,-0.0499474538065868,-0.564350828510118,0.160760403606709,-0.7887202657013518,-0.8138079900304993,-20.891000996644344,29.20980327306408,16.21129742559205,0.6390262702867945,0.1131858857621001,2.4554503729395245,-1.0,11.971555555555556,0.0,179.30306464860678,1.1375959792105057,96.7819690211308,1553.0,1435.0,1000.0,1694.0,1471.0,1012.0,60.0,292.25,1649149520.4723616,1649149521.6153374,37a26745-48a9-4d3f-9836-7ee42f6dfaf1
-0.1837880412847811,0.033007672601306,-0.4117075753599961,-0.0516699331229339,-0.5626940922887508,0.1633112505858772,-0.7854199414667505,-0.8052350361142787,-20.82363288749682,29.19861578149708,16.19072171588651,0.648696567102798,0.108442236385585,2.4457134348054224,-1.0,11.971555555555556,0.0,179.30487844328638,1.1204561056650182,96.72529135248811,1553.0,1435.0,1000.0,1694.0,1471.0,1012.0,60.0,292.25,1649149521.7245438,1649149522.8452656,37a26745-48a9-4d3f-9836-7ee42f6dfaf1
-0.1682331322966123,0.0338623378641943,-0.4173352185192658,-0.047015294418515,-0.5672040964502242,0.1595507236119769,-0.7926780250651764,-0.813768544399909,-20.901667613309066,29.18336463345227,16.335395215968628,0.6293488966927224,0.1099877169090531,2.470161249058641,-1.0,11.963333333333331,0.0,179.3107205317564,1.1326019962782994,96.68315136203888,1553.0,1435.0,1000.0,1694.0,1471.0,1012.0,60.0,292.25,1649149522.9590352,1649149524.073699,37a26745-48a9-4d3f-9836-7ee42f6dfaf1
-0.2043213760824598,0.0278626972937557,-0.4875525598370314,-0.0073648519377015,-0.6319691164536972,0.1310936585233031,-0.8812739843755407,-0.9109270504047416,-21.50258289877044,29.80112147218661,16.02925013332848,0.4762079311322266,0.0851291574198996,2.778745419427592,-1.0,11.94711111111111,0.0,179.3157718361026,1.1127839415262266,96.64423446196798,1553.0,1435.0,1000.0,1774.0,1471.0,1012.0,60.0,292.25,1649149526.0016563,1649149527.1386938,3d1673c3-7222-487b-8ed2-18389e15db6e
-0.2003291027465103,0.0293654837126645,-0.4812115995236841,-0.0052024392175794,-0.6259393414657342,0.1292166821887181,-0.8758961647674502,-0.8994454930796616,-21.524949022266878,29.831156369756204,16.299529855803407,0.4676589094562683,0.0886645928937476,2.7547863869771936,-1.0,11.950666666666669,0.0,179.32947623121728,1.0973115234857709,96.56145408704722,1553.0,1435.0,1000.0,1774.0,1471.0,1012.0,60.0,292.25,1649149527.2475357,1649149528.4754288,3d1673c3-7222-487b-8ed2-18389e15db6e
-0.1952679499311799,0.0270272072133561,-0.4863609589368918,-0.0038859260375059,-0.6301337769521707,0.1291350506819723,-0.8817396676199357,-0.9040376781476858,-21.623820147352504,29.862923015374538,16.09251148205441,0.464377153453749,0.0819412243643891,2.77519285629119,-1.0,11.947333333333331,0.0,179.33582982496523,1.1122724836802529,96.52938103652468,1553.0,1435.0,1000.0,1774.0,1471.0,1012.0,60.0,292.25,1649149528.5840404,1649149529.697752,3d1673c3-7222-487b-8ed2-18389e15db6e
-0.21711396311386696,0.021849908014739117,-0.5382983229171231,0.02838316647182412,-0.6780991423721018,0.10687814339637992,-0.9468942330916744,-0.971753503072862,-21.95312676427311,30.31606290163336,15.977105640459646,0.34180536841667525,0.05861891199518471,3.0031634266122964,-1.0,11.913666666666668,0.0,179.31183157586142,1.1085644617288106,96.47232618965784,1553.0,1435.0,1000.0,1856.0,1471.0,1012.0,60.0,292.25,1649149530.610469,1649149531.7544577,3f78e046-3381-4e57-beb9-0bcae74b7415
-0.2135040977244356,0.022462418125730802,-0.5362652051858675,0.028668602706442555,-0.6755888361744233,0.1061933154696746,-0.9445060997820386,-0.9740117931050892,-21.962075651652256,30.253241127452167,16.020233571478798,0.33930974717047296,0.060689973671655795,2.9937297122799578,-1.0,11.9135,0.0,179.30673910065275,1.109914491306946,96.3530653949251,1553.0,1435.0,1000.0,1856.0,1471.0,1012.0,60.0,292.25,1649149531.884035,1649149532.9730215,3f78e046-3381-4e57-beb9-0bcae74b7415
-0.2132652297257465,0.0241098402082426,-0.5323266217373147,0.031177264468135204,-0.6726479100533865,0.10118037514666749,-0.9429222288814367,-0.9602620830521454,-21.972103100344142,30.35669291753136,15.885621392716393,0.3232414786714177,0.06807541397142196,2.982082251959086,-1.0,11.910222222222224,0.0,179.31400661165713,1.1212150985785687,96.27654033491922,1553.0,1435.0,1000.0,1856.0,1471.0,1012.0,60.0,292.25,1649149533.0811803,1649149534.203348,3f78e046-3381-4e57-beb9-0bcae74b7415
