raw_voltage_G-,raw_voltage_G0,raw_voltage_G1,raw_voltage_G2,raw_voltage_G3,raw_voltage_G4,raw_voltage_G5,raw_voltage_G6,load_x,load_y,load_z,load_l,load_m,load_n,rpm,voltage,current,roll,pitch,yaw,aileron1_pwm,elevator_pwm,throttle_pwm,rudder_pwm,aileron2_pwm,pbaro,pdiff,Tt,sample_start_time,sample_end_time,uid
0.0321661559918937,0.166019881975638,0.1206437324450651,-0.1333101923236119,-0.0878157005739741,0.0663790637056771,-0.1958716942049876,-0.2253247775253911,-12.987738918948228,25.46966392725295,14.574662688434405,0.6205120723010576,0.6099181084394382,0.253976991529531,3485.736572265625,11.975,0.22,178.84377692587825,0.4789154156023987,92.50588279773996,1553.0,1435.0,1200.0,1528.0,1471.0,1010.0,61.0,293.85,1649168276.7638104,1649168277.7292173,59a09a21-963e-42eb-8873-5f24fb1ac716
0.0248949269123321,0.1624960314966806,0.1219191559502765,-0.1308908320327611,-0.0866191691594723,0.0686011933705507,-0.1944779322761329,-0.2277572860039375,-12.965019023837856,25.57109202529377,14.725268613443127,0.6208193410558974,0.5949906044818793,0.2484058137204466,3581.384765625,11.976,0.2233333333333333,178.87102482720715,0.4980375440400543,91.70733350765762,1553.0,1435.0,1200.0,1528.0,1471.0,1010.0,61.0,293.85,1649168277.8388455,1649168278.959851,59a09a21-963e-42eb-8873-5f24fb1ac716
0.0365315231806194,0.1684655393966592,0.1257454264803484,-0.1306804528839134,-0.0846074185298101,0.0645776923257896,-0.1932945494985029,-0.2158577147555672,-12.986086589160251,25.65507839929853,15.030533524161376,0.6120887678290439,0.6150415317099289,0.2398707261075188,3599.2553439670137,11.976111111111113,0.22,178.88961660212792,0.5416410507435764,91.0421307596514,1553.0,1435.0,1200.0,1528.0,1471.0,1010.0,61.0,293.85,1649168279.0690317,1649168280.0837395,59a09a21-963e-42eb-8873-5f24fb1ac716
0.1605001690028843,0.3800285977777515,0.1389417864379015,-0.2066360946032833,-0.1186356984612043,-0.0732316043021338,-0.2356728019475679,-0.2598746242936779,-12.870140093174737,25.3007984715053,14.856900656006529,0.472089408799059,1.4194322285810312,0.3534827432337923,3605.985107421875,11.976,0.22,178.77908137405987,0.6220445376201019,89.73868629702264,1647.0,1435.0,1200.0,1528.0,1543.0,1010.0,61.0,293.85,1649168281.7635224,1649168282.7346294,b282616d-8811-4dc3-8add-2df1bd47636e
0.1603221137382411,0.3832609853543358,0.1421604776177748,-0.209690427492899,-0.1169647182132841,-0.0737931632366546,-0.2330430624034528,-0.2583816993339471,-12.841920734848168,25.33742251724583,14.84941315804429,0.4781334034876718,1.4320030018238246,0.3434336699489697,3607.502685546875,11.96,0.22,178.77661339903975,0.6395682772833179,89.33392473334825,1647.0,1435.0,1200.0,1528.0,1543.0,1010.0,61.0,293.85,1649168282.8432648,1649168284.0795,b282616d-8811-4dc3-8add-2df1bd47636e
0.159993396357693,0.380905177460119,0.1379830273607822,-0.2081290196489732,-0.1193890092335435,-0.0726015625729324,-0.235974126270066,-0.2599568036549026,-12.864264211421188,25.23832940861793,14.86899548516498,0.4764159008119195,1.4226931225138142,0.3563844779529715,3606.3224826388887,11.959555555555555,0.22,178.78588879593266,0.6942678472513648,88.88651091503684,1647.0,1435.0,1200.0,1528.0,1543.0,1010.0,61.0,293.85,1649168284.1877222,1649168285.3146713,b282616d-8811-4dc3-8add-2df1bd47636e
0.2827282522013539,0.6094596302622718,0.1625409562066659,-0.2911575679211906,-0.1492201159181329,-0.2214557725531506,-0.2737081498693586,-0.298663283718575,-12.691386960151917,25.16042652336947,14.62413104969744,0.3299670609030767,2.2926360370806265,0.4440001935294067,3608.51521809896,11.958666666666666,0.2133333333333333,178.64564224497505,0.7628410255275888,88.12124058332054,1745.0,1435.0,1200.0,1528.0,1614.0,1010.0,61.0,293.85,1649168287.335255,1649168288.3846009,eeea29c4-67d7-4f59-9c2a-abde08040437
0.2799478509510154,0.610240334026734,0.1636229842982409,-0.2908151539117037,-0.1484257154560462,-0.2218803659111204,-0.27221522478257,-0.2999096708326582,-12.619780923226466,25.136581477503327,14.727095920345796,0.3281888047576629,2.294170797805337,0.4396202134632909,3605.985107421875,11.952333333333335,0.2166666666666666,178.64830601875136,0.78107610093374,87.89569407654838,1745.0,1435.0,1200.0,1528.0,1614.0,1010.0,61.0,293.85,1649168288.4929855,1649168289.606332,eeea29c4-67d7-4f59-9c2a-abde08040437
0.2803176580406823,0.6032961794939475,0.1612397831783524,-0.2874321034536019,-0.1490557572053422,-0.2166893696612786,-0.2747901781416952,-0.2929107283192176,-12.8105670441239,25.25591241302428,14.92101973205832,0.3328296008498871,2.267192007318579,0.4466736384685938,3604.46875,11.951,0.21,178.6645254413004,0.8195986880177294,87.65060184510136,1745.0,1435.0,1200.0,1528.0,1614.0,1010.0,61.0,293.85,1649168289.714386,1649168290.937165,eeea29c4-67d7-4f59-9c2a-abde08040437
0.3510614742091611,0.7352531950300528,0.1865318473763091,-0.3531301225448954,-0.1605148468938076,-0.2993913922972904,-0.2847700399746836,-0.2994965827096873,-12.569888011080131,25.42944983131611,13.00111382776102,0.2974106324428413,2.7871188127665065,0.4547946599070004,3596.905517578125,11.93988888888889,0.21,178.5020929180988,0.8501919590838626,87.25090524615149,1849.0,1435.0,1200.0,1528.0,1686.0,1010.0,61.0,293.85,1649168292.8638337,1649168294.0027382,2ecffbc8-89d0-4465-92ea-5c6136e5809b
0.3517725994692163,0.7210180891238709,0.1896601412503334,-0.3562710178235532,-0.1552466021610547,-0.2844325567421284,-0.2761324410732946,-0.3068812200285433,-12.585396245979735,25.44652706344398,12.778976504221836,0.3383359822568005,2.7363923899201743,0.4289756626787024,3591.0456271701387,11.93011111111111,0.21,178.52164091950337,0.8857514417227645,87.10069269028493,1849.0,1435.0,1200.0,1528.0,1686.0,1010.0,61.0,293.85,1649168294.1116543,1649168295.2365816,2ecffbc8-89d0-4465-92ea-5c6136e5809b
0.3457324175446399,0.7299756375800727,0.1917557146165442,-0.3549287548665559,-0.1563834166407843,-0.2928285483461113,-0.2782554079738378,-0.309058973176972,-12.512299566664913,25.589970844568683,13.006465628645026,0.3175695615044409,2.767425071667604,0.432098933447003,3588.205946180556,11.92677777777778,0.21,178.51207410120594,0.9110859533046478,86.95666449125687,1849.0,1435.0,1200.0,1528.0,1686.0,1010.0,61.0,293.85,1649168295.347709,1649168296.3696516,2ecffbc8-89d0-4465-92ea-5c6136e5809b
0.3738218657339904,0.7667311708365073,0.2011006022437036,-0.3725113042478726,-0.15933146412491,-0.3150383432365368,-0.2814302706612515,-0.3154853996420401,-12.50427301119759,25.90894917502856,12.68727060987831,0.309856128279263,2.9108154898419207,0.4316142581816781,3587.8720703125,11.925000000000002,0.2,178.48164029608415,0.9415374149397322,86.74264430816407,1962.0,1435.0,1200.0,1528.0,1760.0,1010.0,61.0,293.85,1649168297.278415,1649168298.3096857,a68edd7d-2cd8-4077-baae-39d77faf12a1
0.3675893841785466,0.7606696224433578,0.2001933422350673,-0.3747597316842271,-0.1590684901832651,-0.3047560611381756,-0.2784323675158737,-0.3038882473248564,-12.465220709744022,25.859832681647195,13.018567570787395,0.3377353844205914,2.885086799893964,0.4279859694034055,3583.539252387153,11.866888888888887,0.2,178.48417050171668,0.9653016233427472,86.54943039910293,1962.0,1435.0,1200.0,1528.0,1760.0,1010.0,61.0,293.85,1649168298.417958,1649168299.5494535,a68edd7d-2cd8-4077-baae-39d77faf12a1
0.361251713076974,0.7527804054431659,0.2023497283318722,-0.3680407466675225,-0.1549003531472961,-0.3039802879706669,-0.2749085164381231,-0.3021000247676936,-12.427281441868104,25.864053333408627,12.931177299158453,0.3244627862618149,2.8553129765916334,0.413358071315198,3566.968994140625,11.855,0.2,178.49498648572236,0.9661839391163116,86.34665043065424,1962.0,1435.0,1200.0,1528.0,1760.0,1010.0,61.0,293.85,1649168299.6577232,1649168300.764197,a68edd7d-2cd8-4077-baae-39d77faf12a1
-0.0914891178337862,-0.0810934292873356,0.1095900620062203,-0.0419623598253541,-0.0463315621594488,0.2235317291856683,-0.1475765287634655,-0.1723399091326147,-13.2854363439285,26.29327613428365,14.587675898103155,0.772358412146808,-0.3268490082157971,0.1141517911330295,3547.449652777778,11.879,0.2066666666666666,179.08707585321318,1.02047250007946,86.02989585443545,1459.0,1435.0,1200.0,1528.0,1394.0,1010.0,61.0,293.85,1649168301.7834525,1649168302.9217634,4790ce44-40c8-4dba-a6f3-0121ba9ef500
-0.0973238520911222,-0.0862707286874201,0.1066589985189853,-0.0391819583382963,-0.0477697008624193,0.2267641168617209,-0.1491105434416263,-0.1851187999355814,-13.28421739199782,26.28314653168535,14.672880330292172,0.7731512122136713,-0.3475591334344121,0.1218131684732293,3554.478461371528,11.96922222222222,0.2222222222222222,179.1108737501013,1.0498206608622085,85.94148664472871,1459.0,1435.0,1200.0,1528.0,1394.0,1010.0,61.0,293.85,1649168303.0305712,1649168304.1504002,4790ce44-40c8-4dba-a6f3-0121ba9ef500
-0.0990496185804598,-0.0829972510234918,0.1102201036840089,-0.0418527873478245,-0.0459069688375895,0.2254218541840859,-0.1454946517086786,-0.1700388876835679,-13.164744989555969,26.285605336695536,14.615404735256044,0.7764043010440188,-0.3350631604873434,0.1096477719837211,3561.3701443142363,11.969,0.2222222222222222,179.12384200260544,1.086053853913774,85.83542367274723,1459.0,1435.0,1200.0,1528.0,1394.0,1010.0,61.0,293.85,1649168304.2594888,1649168305.3795087,4790ce44-40c8-4dba-a6f3-0121ba9ef500
-0.2323856276010306,-0.3237690788089204,0.090647721752178,0.0585018989618279,-0.0130215307215042,0.3721530771880256,-0.1088974447155286,-0.1272919246304222,-13.364743625034686,27.080403499561942,15.130957968130351,0.8840291127742397,-1.2548408121113137,0.0114368844501105,3571.799865722656,11.968374999999998,0.22,179.2016361497046,1.154965511937851,85.6750695191918,1364.0,1435.0,1200.0,1528.0,1312.0,1010.0,61.0,293.85,1649168306.291519,1649168307.313943,1a450fba-af60-4cdc-8b30-262bd6953768
-0.2228939114366494,-0.3199203452366083,0.0967563868074214,0.0564337186144476,-0.008200341991749,0.3699068417470056,-0.1030079241764036,-0.1381532967297668,-13.29809241987958,27.05697871158704,15.123118215746672,0.8838280157769777,-1.240166481732497,-0.0113492234941213,3582.20982530382,11.944444444444446,0.2155555555555555,179.2083815306924,1.174066888932716,85.53244331135461,1364.0,1435.0,1200.0,1528.0,1312.0,1010.0,61.0,293.85,1649168307.4318054,1649168308.545354,1a450fba-af60-4cdc-8b30-262bd6953768
-0.238234058761363,-0.3272206121288477,0.0938801095399871,0.0594058718233467,-0.0101726464735094,0.3739199331109027,-0.1055417876625266,-0.12307338414462,-13.342762538016585,27.18537967303365,15.043737521628133,0.8868143449909502,-1.2670733066204338,-0.0021876786809975,3590.0431315104165,11.946888888888887,0.2177777777777777,179.22029034496526,1.2005423266972066,85.34566495831146,1364.0,1435.0,1200.0,1528.0,1312.0,1010.0,61.0,293.85,1649168308.653674,1649168309.8842125,1a450fba-af60-4cdc-8b30-262bd6953768
-0.36784461194438,-0.5753749178944121,0.0769511632871783,0.1638421292181741,0.0241098401942417,0.5232808918063142,-0.0670544561083154,-0.0913932425991278,-13.46504168925533,28.27738919118836,15.452647653921687,0.9932654974841116,-2.2144745519988907,-0.1096713589416663,3598.415771484375,11.946333333333332,0.2166666666666666,179.32726021428658,1.2531050079503916,85.06181975133362,1262.0,1435.0,1200.0,1528.0,1222.0,1010.0,61.0,293.85,1649168311.828678,1649168312.7699978,899e5f1e-4c5a-4ed8-bb83-04a40a0fa070
-0.3717344353525076,-0.5748270553810019,0.0797041715484687,0.1631162116474599,0.025780820369944,0.5210894426361037,-0.0645205926581804,-0.0917904427525832,-13.372109128260318,28.31021141064382,15.142052665831937,0.9903304439173658,-2.210060234076375,-0.1196342505180802,3598.415771484375,11.922444444444444,0.21,179.31602986547125,1.25344247384204,84.91697572415468,1262.0,1435.0,1200.0,1528.0,1222.0,1010.0,61.0,293.85,1649168312.8792813,1649168313.9410388,899e5f1e-4c5a-4ed8-bb83-04a40a0fa070
-0.371241359108678,-0.5807028808267098,0.0747186242592177,0.1681839381576113,0.0222471082183809,0.5231987124642427,-0.0695746229952801,-0.0850106459749307,-13.427043180879172,28.39020933734813,15.2474616158298,0.9839099247930624,-2.233582225117907,-0.1014186152422693,3596.905517578125,11.915777777777777,0.2,179.32442948033056,1.2638917146347748,84.78642045271941,1262.0,1435.0,1200.0,1528.0,1222.0,1010.0,61.0,293.85,1649168314.061826,1649168315.2153304,899e5f1e-4c5a-4ed8-bb83-04a40a0fa070
-0.3933651404391565,-0.60738652480536,0.0585555894530969,0.191896515223959,0.0089192608111647,0.5230990015202189,-0.0912869565911165,-0.1161511430305601,-13.646849037028357,29.131528399547857,14.46751075337712,0.9340706057979766,-2.3291253006403942,-0.0348987010402104,3595.396728515625,11.908111111111111,0.2055555555555555,179.32662424778383,1.2843606887863437,84.57537595537502,1153.0,1435.0,1200.0,1528.0,1121.0,1010.0,61.0,293.85,1649168317.3493793,1649168318.3759334,ada0882e-f794-4330-8421-8f8ef2a61c7d
-0.4000052334432603,-0.6053484762500129,0.0628552131219667,0.1912390804495595,0.0111150931158037,0.5212581842154634,-0.0879866336475001,-0.1136923365788401,-13.540953889884438,29.23918624514189,14.43106385892366,0.932392319796086,-2.321552508035537,-0.0482300162826391,3592.38330078125,11.866222222222222,0.1988888888888889,179.33343318747643,1.2757610300185394,84.44552267560445,1153.0,1435.0,1200.0,1528.0,1121.0,1010.0,61.0,293.85,1649168318.484938,1649168319.5989742,ada0882e-f794-4330-8421-8f8ef2a61c7d
-0.3924841777140939,-0.6058481268411772,0.0619742504550649,0.1931719387273331,0.0116936357446056,0.5197460842921996,-0.0888018528815118,-0.1212265402149898,-13.609777981231844,29.15545449159663,14.394397833790206,0.9239949516068344,-2.322909656078171,-0.0467654544445422,3588.039008246528,11.87,0.2011111111111111,179.34978162470983,1.2811332465340026,84.35088736901429,1153.0,1435.0,1200.0,1528.0,1121.0,1010.0,61.0,293.85,1649168319.7067842,1649168320.7439473,ada0882e-f794-4330-8421-8f8ef2a61c7d
0.0373407158637273,0.1650200332311628,0.123505765261844,-0.1325103132357242,-0.0864624805278623,0.0648160124429628,-0.1942544044243623,-0.2206065862627488,-12.927880638191697,25.62401789134835,14.333116012203265,0.6163527245615601,0.6079708007707735,0.2454537770141819,3584.870849609375,11.871,0.2,179.04689309141608,1.2477668119431382,84.14726121601842,1553.0,1435.0,1200.0,1528.0,1471.0,1010.0,61.0,293.85,1649168322.7650669,1649168323.8148346,030cf209-483b-4efc-b850-912dd890efcf
0.0311909610092554,0.1672114825361409,0.1231222616339665,-0.132291168288111,-0.0876129915031534,0.0629532804861329,-0.1978018134358967,-0.2154018937909444,-13.106035669070826,25.77308849842481,14.386238659514346,0.6125604803244026,0.6169314155056118,0.2527505692357323,3599.5949978298613,11.973444444444446,0.2244444444444444,179.0189500286116,1.2660714817594263,84.34470908345506,1553.0,1435.0,1200.0,1528.0,1471.0,1010.0,61.0,293.85,1649168323.9339037,1649168325.039361,030cf209-483b-4efc-b850-912dd890efcf
0.0359924266285007,0.1685312828761824,0.1248513151555832,-0.1305358172106307,-0.0864350873986198,0.0618296148294349,-0.196726359546882,-0.2246278963448953,-13.072112707635185,25.80884581848932,14.650146432540732,0.6064580908887348,0.6191964608018735,0.2478144671760699,3605.985107421875,11.97222222222222,0.22,179.00963365058377,1.2747720281130954,84.50557977006648,1553.0,1435.0,1200.0,1528.0,1471.0,1010.0,61.0,293.85,1649168325.1476142,1649168326.1594822,030cf209-483b-4efc-b850-912dd890efcf
0.0564780954066528,0.1698067063691578,0.1150160905614426,-0.3191144396188242,-0.1141393919307453,0.2419930456702741,-0.1532962120668536,-0.1866544575887759,-12.952440968395772,25.183127615507928,15.88910309407258,1.4323165924041834,0.6347361777493234,0.237708735236359,3599.423638237847,11.969444444444443,0.22,178.979339484885,1.335114828439454,84.74368623581238,1553.0,1537.0,1200.0,1528.0,1471.0,1010.0,61.0,293.85,1649168327.7675805,1649168328.9277909,3bd870d3-a771-42fe-b2a2-c592091b96ac
0.046914610344049,0.1660883647681861,0.1112884352443791,-0.3195779312283818,-0.1171153803636754,0.243843724572681,-0.1559177335853736,-0.1857351446698728,-12.939408380571344,25.170885595473347,15.549428444518432,1.4372064865111565,0.6235289670602799,0.2496569052143903,3578.0689832899307,11.972888888888887,0.22,178.99393787587107,1.3358916675938046,84.80571042475536,1553.0,1537.0,1200.0,1528.0,1471.0,1010.0,61.0,293.85,1649168329.0628042,1649168330.1635172,3bd870d3-a771-42fe-b2a2-c592091b96ac
0.0554338697945545,0.168978338533123,0.1149591128735123,-0.3192766068998581,-0.1141158338539182,0.2422960135303867,-0.1530140629414501,-0.1711346119477813,-12.936136582568286,25.17891857296296,15.796447009666316,1.4333259092304658,0.6323513876234989,0.2371333866974747,3559.72837999132,11.972888888888887,0.2222222222222222,179.0020096416502,1.3284259980977329,84.8722288781722,1553.0,1537.0,1200.0,1528.0,1471.0,1010.0,61.0,293.85,1649168330.2715614,1649168331.3889942,3bd870d3-a771-42fe-b2a2-c592091b96ac
0.0570911533693038,0.1673895377901878,0.1095078826486456,-0.5297105782427548,-0.1442071751051924,0.4497988615474513,-0.1020765581529227,-0.1277028216843478,-12.760042818682663,25.035993178594,17.70126042358818,2.373473372502495,0.6338246803959359,0.2138563821921796,3549.244873046875,11.969,0.22,179.00644471115126,1.3963782101998834,85.06068062756202,1553.0,1645.0,1200.0,1528.0,1471.0,1010.0,61.0,293.85,1649168333.322959,1649168334.4623988,8f276f96-b2f7-4dc6-9db6-c79456593a8b
0.0620268452311589,0.1708586020335648,0.1081524712431951,-0.5285995131232354,-0.146064428578463,0.4453507675561039,-0.1063816606917435,-0.1224625177017746,-12.88082431581547,25.10851050022216,17.675572290460078,2.361319963168926,0.6476968235961509,0.2246421925716999,3550.715087890625,11.963111111111113,0.2177777777777777,179.0119908247573,1.3934058328243604,85.07436529101909,1553.0,1645.0,1200.0,1528.0,1471.0,1010.0,61.0,293.85,1649168334.5706322,1649168335.782451,8f276f96-b2f7-4dc6-9db6-c79456593a8b
0.056392628893411,0.168677014253834,0.112014352833022,-0.5295462195217202,-0.1416459184559849,0.4479224331775806,-0.1004192744643334,-0.117854995215845,-12.82288699200675,25.033672161559995,17.651783472405175,2.368955932514687,0.6396754298985062,0.2046360915956201,3545.9819607204863,11.967777777777778,0.2177777777777777,179.00490260621868,1.3849443312336744,85.11629050996444,1553.0,1645.0,1200.0,1528.0,1471.0,1010.0,61.0,293.85,1649168335.8937242,1649168336.9242756,8f276f96-b2f7-4dc6-9db6-c79456593a8b
0.0616586817289138,0.1676371715612226,0.1025116806402336,-0.6333026140089278,-0.1661030432421538,0.5496330680541142,-0.0863430465555459,-0.1214500680982946,-12.80061853531382,25.338796137204486,18.397075507923613,2.833241862511608,0.6411896613288064,0.2307651648469572,3546.307861328125,11.953666666666669,0.21,178.99836232063342,1.4280375955328717,85.17332410735388,1553.0,1761.0,1200.0,1528.0,1471.0,1010.0,61.0,293.85,1649168338.8535557,1649168339.9859867,5c699efe-5861-4560-8c39-3c64dc1f8741
0.0558075119037523,0.1619306375765758,0.0932681473060605,-0.6189705300957864,-0.1726905406238697,0.5400476694031004,-0.0989394981990766,-0.1214106216870378,-12.880066809423338,25.428096368703937,18.03119441366372,2.779405921927942,0.6212427370603119,0.2690991113009817,3544.84130859375,11.953666666666669,0.21,179.00900527318012,1.4133965277224858,85.18725921108052,1553.0,1761.0,1200.0,1528.0,1471.0,1010.0,61.0,293.85,1649168340.094035,1649168341.2190268,5c699efe-5861-4560-8c39-3c64dc1f8741
0.0603701095002029,0.1667036141606303,0.1000134283856459,-0.6330790860432747,-0.1682857270130574,0.549685662839707,-0.0889201911450252,-0.1023844574853432,-12.82032393308608,25.34401266883652,18.284347572689043,2.832738121746601,0.6386410198062058,0.2405268417863613,3543.375732421875,11.952666666666666,0.2133333333333333,178.9941458171858,1.3996081070514572,85.1882139197445,1553.0,1761.0,1200.0,1528.0,1471.0,1010.0,61.0,293.85,1649168341.3272655,1649168342.443849,5c699efe-5861-4560-8c39-3c64dc1f8741
0.0521740888505064,0.1599249135994651,0.0917982326494797,-0.6508155878073903,-0.1825301491985775,0.5770535757503272,-0.0971047071263471,-0.1216215489918774,-12.968028862700052,26.039590656343865,18.8378577895708,2.9384625692401616,0.6110311833229248,0.2821956495674425,3540.123914930556,11.942222222222222,0.2077777777777777,178.97900556452558,1.413019871248881,85.16691359536286,1553.0,1887.0,1200.0,1528.0,1471.0,1010.0,61.0,293.85,1649168343.3582766,1649168344.387674,6639bae8-1b7d-4956-8621-f74ca9cc0b85
0.0563652357747316,0.1672799653237929,0.0933048540751476,-0.6620741630023943,-0.1833519427863897,0.5784095349203998,-0.0942421262220781,-0.1145404277556007,-12.866363583766224,25.92301836732072,18.599127730187337,2.966221546479709,0.6414931021238524,0.2777590445094178,3540.44873046875,11.906,0.1933333333333333,178.9990043584154,1.415059489057907,85.09478831554735,1553.0,1887.0,1200.0,1528.0,1471.0,1010.0,61.0,293.85,1649168344.496515,1649168345.7246904,6639bae8-1b7d-4956-8621-f74ca9cc0b85
0.0645009915514324,0.1674032343459524,0.0918804120076847,-0.6612112795430498,-0.1847626884315558,0.5777521001686795,-0.0969129552935319,-0.1171564703752486,-12.946319717810404,25.982250103660803,18.61972828453554,2.9630825117314443,0.6421432266486667,0.2853962055524384,3543.3770345052085,11.91,0.2,178.99261130135227,1.418899585049237,85.04889172105459,1553.0,1887.0,1200.0,1528.0,1471.0,1010.0,61.0,293.85,1649168345.8329136,1649168346.954254,6639bae8-1b7d-4956-8621-f74ca9cc0b85
0.0316703405643479,0.1699507941613726,0.1421056913876261,0.0930172263598198,-0.0509473025659776,-0.155904037023829,-0.247342271238323,-0.2665722426541886,-13.321347217707988,26.863229691047906,13.020648753531674,-0.3796358114209714,0.6143142611106436,0.2472520783522542,3569.940185546875,11.912,0.21,178.9813369357623,1.1881877121433515,84.96141293489478,1553.0,1335.0,1200.0,1528.0,1471.0,1010.0,61.0,293.85,1649168348.775861,1649168349.8169994,673d8732-8572-4930-a387-679eb36a0874
0.0156864565349092,0.1652665712792559,0.137695399637414,0.0977973252423565,-0.0518375789041733,-0.1570545480414642,-0.2494104518365895,-0.2712153763433247,-13.31235337061351,26.63904419434085,12.80820247541655,-0.3947389889648565,0.5976929035788107,0.2566948121929831,3575.4017198350693,11.972888888888887,0.2144444444444444,178.9915791838777,1.1883526446106534,85.11655081606283,1553.0,1335.0,1200.0,1528.0,1471.0,1010.0,61.0,293.85,1649168349.9253693,1649168351.0506897,673d8732-8572-4930-a387-679eb36a0874
0.0249453302480349,0.169896007928682,0.1418728498998147,0.0934966059037236,-0.0492352326781732,-0.1565203822097431,-0.2462191532975275,-0.2646136343995093,-13.365857271592368,26.67970947907131,12.99404240965272,-0.383357002194086,0.6145827268285224,0.2436427265609816,3587.8720703125,11.974,0.22,178.99839874830897,1.1663427394652413,85.23031065232901,1553.0,1335.0,1200.0,1528.0,1471.0,1010.0,61.0,293.85,1649168351.1594722,1649168352.2045586,673d8732-8572-4930-a387-679eb36a0874
0.0096051844217663,0.166827978907481,0.1540353935774656,0.301369267328534,-0.0186097267638204,-0.3553944378794778,-0.2942940802872222,-0.3256181161348416,-13.516752386237917,27.546928997085967,11.359788548415848,-1.2931453043020311,0.5938202758906231,0.2524842436210067,3587.8720703125,11.96322222222222,0.21,178.99487588851707,1.1253807906362705,85.38415003864483,1553.0,1236.0,1200.0,1528.0,1471.0,1010.0,61.0,293.85,1649168353.0779784,1649168354.2218218,fa253671-89e2-4eac-ab3a-87bbb568fca3
0.0140428694661131,0.1678963104407183,0.1569253673569066,0.3036565924646992,-0.0159388977695152,-0.3576269773345188,-0.2924039549239118,-0.3277821717978676,-13.523796640492009,27.57735833853189,11.50863056920177,-1.3029559620988425,0.5964599494122397,0.2425578270848269,3586.537651909722,11.959666666666667,0.2111111111111111,178.99558319255115,1.10590384217181,85.46079842151072,1553.0,1236.0,1200.0,1528.0,1471.0,1010.0,61.0,293.85,1649168354.3299572,1649168355.3511631,fa253671-89e2-4eac-ab3a-87bbb568fca3
0.0232332604106895,0.1668964616995742,0.1562405394493665,0.3020677917724582,-0.0161717392693777,-0.3546411270289918,-0.2918013062574004,-0.3256865979407464,-13.525196431640312,27.53012925510352,11.58605509681076,-1.2929979625415224,0.5921850044327671,0.2429431108543886,3585.8720703125,11.960555555555556,0.2155555555555555,178.9992593521444,1.109603776989547,85.56890362005407,1553.0,1236.0,1200.0,1528.0,1471.0,1010.0,61.0,293.85,1649168355.4592285,1649168356.5790637,fa253671-89e2-4eac-ab3a-87bbb568fca3
0.0100160812121961,0.1672525722080378,0.1638421292169967,0.4285965905985593,-0.0012150969963267,-0.4767185794813929,-0.3255359352270175,-0.3536001896571761,-13.651993945513714,28.467368429735416,10.733902380462084,-1.8463483532340568,0.5868900768779152,0.2597180300470583,3586.370849609375,11.95977777777778,0.21,178.9920299763629,1.063835734720382,85.70088412429612,1553.0,1133.0,1200.0,1528.0,1471.0,1010.0,61.0,293.85,1649168357.2845566,1649168358.3097897,ecfcf46a-1d4b-4a58-810c-58aed01afe9b
0.0099475983948558,0.165800737041891,0.1659103094952221,0.4279802454669693,0.0016885734754885,-0.4751845646964336,-0.3208380148437535,-0.3573256540985093,-13.5406961443622,28.32404147273781,10.696269751582838,-1.8423080181006048,0.5811951770084872,0.2461576342793606,3584.870849609375,11.943666666666669,0.2066666666666666,178.99641799344968,1.0617239137484116,85.77007318167846,1553.0,1133.0,1200.0,1528.0,1471.0,1010.0,61.0,293.85,1649168358.41889,1649168359.6566436,ecfcf46a-1d4b-4a58-810c-58aed01afe9b
0.0105759965044548,0.1698198550646291,0.1682683089459645,0.4264955386176203,0.002108236042153,-0.4784898191519747,-0.319824469366002,-0.3375357664221056,-13.464560763078657,28.38240272706114,10.603796923181491,-1.845858350945697,0.5968833035816147,0.2413009147155764,3584.537787543403,11.947333333333331,0.1977777777777777,179.00673916819548,1.053747770617652,85.81964517685458,1553.0,1133.0,1200.0,1528.0,1471.0,1010.0,61.0,293.85,1649168359.7689922,1649168360.8763762,ecfcf46a-1d4b-4a58-810c-58aed01afe9b
0.0026604812246138,0.1655070828409686,0.1650600271316228,0.4723976333240064,0.0015296933407218,-0.5191850443875413,-0.3397053013273759,-0.3638331642797211,-13.681467762381006,28.93761174760149,10.132591074450945,-2.0375133370796763,0.5805737832443141,0.2736046980072048,3586.370849609375,11.946888888888887,0.2044444444444444,178.9867813554407,1.0265477280448074,85.91052463831114,1553.0,1026.0,1200.0,1528.0,1471.0,1010.0,61.0,293.85,1649168362.8136034,1649168364.051376,ec9693ed-9e32-46d1-8aa8-bfd486f6e030
-0.0045844505069333,0.1636662654252768,0.1626406671422472,0.4586178008909508,-0.0020336033468737,-0.5036958759182457,-0.3378776321920172,-0.3527882570800894,-13.683726222996816,28.92703451715182,10.272022801315114,-1.9717926778324903,0.5739928420896284,0.2790095353694418,3583.3720703125,11.931,0.2,178.99348101210657,1.0394102904863125,85.9547614968356,1553.0,1026.0,1200.0,1528.0,1471.0,1010.0,61.0,293.85,1649168364.1593874,1649168365.2730265,ec9693ed-9e32-46d1-8aa8-bfd486f6e030
0.018570403964072,0.1704378437651098,0.164402592348035,0.4654945684065769,-8.759632438163079e-05,-0.5160162076240629,-0.3390347176849158,-0.3654504538343034,-13.650876819964974,28.83293133577291,10.367233150371964,-2.0154947875243407,0.5975774544916215,0.2766802863399158,3583.0393337673613,11.938555555555556,0.2,178.99372538109688,1.0246788175331627,85.98862253910087,1553.0,1026.0,1200.0,1528.0,1471.0,1010.0,61.0,293.85,1649168365.3815773,1649168366.416358,ec9693ed-9e32-46d1-8aa8-bfd486f6e030
0.0385301250013387,0.1689125950547577,0.127218080423172,-0.1173608227105395,-0.0833319949367297,0.0474449411413743,-0.1990142329219585,-0.2294797657094787,-13.094912195504987,25.90116900205276,14.382509774904229,0.545089979873502,0.6216895216402533,0.2433495707888783,3581.04345703125,11.952333333333334,0.2044444444444444,178.98256333417325,1.222366536074559,86.02059237787599,1553.0,1435.0,1200.0,1528.0,1471.0,1010.0,61.0,293.85,1649168368.303461,1649168369.4830563,17f54a7f-ce3c-4282-af83-367a20b99fcb
0.0439605365678828,0.16951743506095,0.1267315786770923,-0.1181234471559428,-0.0836607123543858,0.0483653498693132,-0.1976993631670238,-0.2155815923790881,-12.974454317370586,25.792193396531683,14.501555903414156,0.5482115301597169,0.6221115709413365,0.2429517245695868,3587.5386013454863,11.976888888888888,0.21,178.98330554806307,1.2035298466969833,85.99659033422265,1553.0,1435.0,1200.0,1528.0,1471.0,1010.0,61.0,293.85,1649168369.591416,1649168370.7216065,17f54a7f-ce3c-4282-af83-367a20b99fcb
0.0357656116046566,0.1679784897876029,0.1236016411748556,-0.1175125805907541,-0.0861748527753289,0.04887321827103,-0.2012807396611842,-0.2244279270813834,-13.053379473541012,25.81901978907993,14.413671429887389,0.5479430601614578,0.6174039440813844,0.2553706270823799,3595.396728515625,11.97577777777778,0.21,178.9848006005814,1.2066398950729642,85.98550493719972,1553.0,1435.0,1200.0,1528.0,1471.0,1010.0,61.0,293.85,1649168370.829728,1649168371.938104,17f54a7f-ce3c-4282-af83-367a20b99fcb
0.0633915703124287,0.1850170080697654,0.2152864012930767,-0.1318802714890626,-0.0051734024853888,0.0420660286372681,-0.1068566573697817,-0.1322637760726544,-12.438025016494493,25.824188010903583,14.651519549695529,0.5700036045423952,0.6824267603329547,-0.1116731108186085,3594.559326171875,11.975222222222222,0.2055555555555555,178.9735307884509,1.20652684121264,85.9425589844284,1553.0,1435.0,1200.0,1435.0,1471.0,1010.0,61.0,293.85,1649168373.8753805,1649168375.0111496,59a1563e-7d62-41c8-a5f2-8ea047c63681
0.0638572533127941,0.1879206783797257,0.217203919405644,-0.1314556781471108,-0.0039954984294654,0.0373133227861631,-0.1054596083221112,-0.1333047142155382,-12.339816048562476,25.78501433631568,14.448749058127788,0.5582187670324209,0.6944879597658499,-0.1177265122809608,3593.889404296875,11.973777777777778,0.2088888888888888,178.98129443680745,1.2057390215805612,85.94534114815032,1553.0,1435.0,1200.0,1435.0,1471.0,1010.0,61.0,293.85,1649168375.1189833,1649168376.245712,59a1563e-7d62-41c8-a5f2-8ea047c63681
0.0607481345138668,0.1848252562569891,0.217231312524973,-0.1301545049963031,-0.0027902012449357,0.0386966752073127,-0.1048706562577389,-0.1246758820767129,-12.398416245760158,25.77033058258874,14.387471727834148,0.5582569746013273,0.6836773873129,-0.1207285706077999,3595.396728515625,11.975333333333332,0.21,178.96697987812692,1.2041167805048794,85.91832243761355,1553.0,1435.0,1200.0,1435.0,1471.0,1010.0,61.0,293.85,1649168376.3620594,1649168377.4187412,59a1563e-7d62-41c8-a5f2-8ea047c63681
0.1120181878274064,0.2092790909672025,0.3522448568157187,-0.1365316231087941,0.1170015436491355,0.013928914162957,0.0311931524946277,0.0012272729634606,-11.292104845781363,25.81490974462016,14.475098988466884,0.5245748755935848,0.776132351494929,-0.657871486692515,3596.905517578125,11.974,0.2033333333333333,178.93900797674598,1.202335595235387,85.8759183465164,1553.0,1435.0,1200.0,1330.0,1471.0,1010.0,61.0,293.85,1649168378.3796434,1649168379.5133104,56428a34-773b-40b8-b289-d35f2a2301a1
0.1100458834270955,0.2049268726966302,0.3489971290767953,-0.1349800768489928,0.1148977522918617,0.0164666125672478,0.0286554541047305,0.0094846544020029,-11.329521464711442,25.831406738620736,14.410503084140258,0.5266960283898873,0.7602495869584891,-0.6476029532084027,3596.905517578125,11.97411111111111,0.2088888888888889,178.93725489485902,1.2114995746674286,85.86680611525371,1553.0,1435.0,1200.0,1330.0,1471.0,1010.0,61.0,293.85,1649168379.621955,1649168380.7421513,56428a34-773b-40b8-b289-d35f2a2301a1
0.1176852758165594,0.2074251248763099,0.3501936603462436,-0.1375309241149638,0.1156077818711862,0.0162693821084054,0.0294312271875863,0.0154541628498711,-11.37368452516842,25.820350932381285,14.40449467435235,0.5319700123436182,0.7703751093261714,-0.6510604769777726,3596.905517578125,11.972888888888887,0.2044444444444444,178.939378324781,1.2145911008984729,85.88054617913404,1553.0,1435.0,1200.0,1330.0,1471.0,1010.0,61.0,293.85,1649168380.8504508,1649168381.9758213,56428a34-773b-40b8-b289-d35f2a2301a1
0.1499675157597464,0.2256820887830585,0.4720146776377489,-0.1205943064731196,0.2263121304326903,-0.0232391636785076,0.1453791687780457,0.1233551024791734,-10.537564276218625,26.05319265989405,14.456277765569142,0.4130227202462831,0.8381145099122023,-1.1300646332095263,3594.391845703125,11.969666666666669,0.2033333333333333,178.91489285551637,1.202112831461519,85.82766989021943,1553.0,1435.0,1200.0,1210.0,1471.0,1010.0,61.0,293.85,1649168383.796636,1649168385.0459442,6aa1fbff-255d-489b-a8e8-2df620908e4c
0.1496497555915614,0.2217309057478153,0.4649291745667952,-0.11964869601002,0.2208236457221084,-0.0188507861976134,0.1388152302046616,0.1152001719751112,-10.658024552348577,26.065119169015087,14.60140538049354,0.4204396739304125,0.8222960913287474,-1.1039393963305226,3595.396728515625,11.966,0.2,178.9118875722816,1.2056623242480062,85.82403850631073,1553.0,1435.0,1200.0,1210.0,1471.0,1010.0,61.0,293.85,1649168385.1548378,1649168386.2758152,6aa1fbff-255d-489b-a8e8-2df620908e4c
0.1395718280708083,0.2228195081740445,0.4651663989454935,-0.1203203752791398,0.2204226105188617,-0.0209655348931231,0.1376543099404744,0.1216430329622689,-10.702344766682469,26.12671640937786,14.360566786958112,0.417562142121788,0.8289260277559917,-1.10233375651558,3593.3873697916665,11.965,0.2066666666666666,178.89993018777463,1.2029144181936438,85.82910650667486,1553.0,1435.0,1200.0,1210.0,1471.0,1010.0,61.0,293.85,1649168386.3847988,1649168387.3911154,6aa1fbff-255d-489b-a8e8-2df620908e4c
0.1646913157846294,0.2280652898655398,0.5426478238396288,-0.070985368591037,0.2931513326694347,-0.076532475066804,0.1991244628225242,0.1699644903980981,-10.280644735105644,26.73906060716281,14.17562903983215,0.1895082744425017,0.8461034067862624,-1.393678953181065,3587.8720703125,11.961666666666666,0.2,178.90148291744595,1.1706856369864096,85.82383360063561,1553.0,1435.0,1200.0,1071.0,1471.0,1010.0,61.0,293.85,1649168389.3358772,1649168390.4850595,45d0188a-5a9b-4d30-92ca-f3e0b5141742
0.1596164670591821,0.2300540300761356,0.5429666796976597,-0.0698545806660899,0.292681266819353,-0.0789140327886235,0.1977739822224248,0.1734225975486799,-10.299238523454749,26.811594046809887,14.257314028758566,0.1821061869847135,0.8528522416708775,-1.391227555562613,3587.038058810764,11.95611111111111,0.2,178.90488435165264,1.173219091701988,85.8107993229695,1553.0,1435.0,1200.0,1071.0,1471.0,1010.0,61.0,293.85,1649168390.593089,1649168391.70375,45d0188a-5a9b-4d30-92ca-f3e0b5141742
0.1574458365272387,0.2285309728341617,0.5442777141647376,-0.0720263070958771,0.294972974864312,-0.0764639922774127,0.2022335815168837,0.1723066019070126,-10.194611945818696,26.637407150559262,14.133001005524935,0.1914540628205601,0.8478486575004354,-1.402719555362378,3581.5006713867188,11.956,0.2,178.89810083544194,1.156839705173932,85.78135153154543,1553.0,1435.0,1200.0,1071.0,1471.0,1010.0,61.0,293.85,1649168391.8116553,1649168392.9271352,45d0188a-5a9b-4d30-92ca-f3e0b5141742
0.005920810120366,0.1508167024133685,0.0278900904107341,-0.0975019073183524,-0.1729562538771497,0.0523932338326908,-0.3041693004612524,-0.3275767232622102,-13.721201904295688,26.13526079060057,14.378245714267138,0.5077026205764454,0.5495514864688928,0.6479788968440521,3584.0381944444443,11.966555555555557,0.2,179.00243311337874,1.1883088057055116,85.94084536585665,1553.0,1435.0,1200.0,1613.0,1471.0,1010.0,61.0,293.85,1649168394.9581788,1649168396.0951564,a6800794-54fa-4720-8e6d-fe0f06abd5c6
0.0034757004364949,0.1453106860108464,0.022488715512763,-0.0951658221586091,-0.1767271907176799,0.0543085605838638,-0.3088190088800112,-0.3353004876144906,-13.763824328194868,26.13998182817597,14.151006531521162,0.5064416453857634,0.5305863031260478,0.666099920898361,3587.873372395833,11.974666666666668,0.2,178.99329887372872,1.2013327669400604,85.92634790988834,1553.0,1435.0,1200.0,1613.0,1471.0,1010.0,61.0,293.85,1649168396.203614,1649168397.4408696,a6800794-54fa-4720-8e6d-fe0f06abd5c6
-0.0021601595893807,0.1459955139264308,0.0221375357496159,-0.0942695193165817,-0.1770241321318203,0.0553516904888213,-0.3102505733948283,-0.3335073346400198,-13.867372154454884,26.19801501411192,14.504792955147105,0.5071353528038259,0.5306204773100612,0.6695147816464786,3595.061767578125,11.975111111111111,0.2,178.99918346115362,1.1937199993595198,85.88187958384202,1553.0,1435.0,1200.0,1613.0,1471.0,1010.0,61.0,293.85,1649168397.5491283,1649168398.667886,a6800794-54fa-4720-8e6d-fe0f06abd5c6
-0.0302507061871888,0.132779978811805,-0.0548650663328407,-0.0809126347080191,-0.2456000687792435,0.0566753259090361,-0.3915111738481467,-0.4082100217241598,-14.412520334639485,26.261991463460053,13.9937646915516,0.4762138966542752,0.482916853311204,0.9809682705366972,3587.707899305556,11.973,0.2022222222222222,179.0248755971716,1.1943272458654162,85.86792626627759,1553.0,1435.0,1200.0,1694.0,1471.0,1010.0,61.0,293.85,1649168400.262083,1649168401.34009,56cc5793-2e24-4dc0-a9b5-c1d2bf05647e
-0.0299614348766268,0.1322277335822209,-0.0568768169335314,-0.078769397120027,-0.2465993698104343,0.0558338093498017,-0.3938910883291946,-0.4190839961171408,-14.478806502623678,26.23548548417056,14.06149796509285,0.4691898249008974,0.4803225746397481,0.9884721085310364,3572.587863498264,11.972333333333331,0.2044444444444444,179.02229682130496,1.1928630952098986,85.84079523707447,1553.0,1435.0,1200.0,1694.0,1471.0,1010.0,61.0,293.85,1649168401.4485505,1649168402.5013237,56cc5793-2e24-4dc0-a9b5-c1d2bf05647e
-0.025911636311066,0.1380000110912101,-0.0533398175157062,-0.0819513817663425,-0.2457710018595836,0.0548739545187099,-0.3910904154860312,-0.4106819769968836,-14.352445830343502,26.291114839171904,14.3354215414643,0.4748628451236847,0.4992669380492727,0.9796573875314882,3557.1026204427085,11.972,0.2,179.01578840993585,1.1880343886260458,85.81356327285364,1553.0,1435.0,1200.0,1694.0,1471.0,1010.0,61.0,293.85,1649168402.6103718,1649168403.5843265,56cc5793-2e24-4dc0-a9b5-c1d2bf05647e
-0.0528796131767087,0.1217745202975948,-0.1364001361507059,-0.0566006943014591,-0.3197718745311854,0.0498774499481605,-0.48361781145584,-0.5030121437097581,-15.068591211742742,26.632977991191503,14.00748173082286,0.4041677301975254,0.4380057100337252,1.3225642416874543,3544.678466796875,11.972777777777775,0.2,179.06528754976082,1.1949213418855669,85.78226203370728,1553.0,1435.0,1200.0,1774.0,1471.0,1010.0,61.0,293.85,1649168405.310177,1649168406.4482124,98516b22-cd4c-434c-b371-d1711743b485
-0.0505364058617939,0.1261355044626202,-0.1344415281298469,-0.0577407958855721,-0.3190437653639422,0.048982790740267,-0.4826628871586918,-0.5051252500188251,-15.062777495161448,26.65749748176152,14.34918054060851,0.4050465648596136,0.4515573881685564,1.3185367450978709,3543.0503743489585,11.959222222222222,0.2,179.0559666182735,1.183372547358166,85.70987872452311,1553.0,1435.0,1200.0,1774.0,1471.0,1010.0,61.0,293.85,1649168406.5569303,1649168407.6771154,98516b22-cd4c-434c-b371-d1711743b485
-0.0592748105523254,0.1226017924205526,-0.1412624147872915,-0.0522621722482826,-0.3234951475974689,0.0470241828526881,-0.4893605059713086,-0.511959834012955,-15.105892044696168,26.58646797875388,14.244816579677066,0.3874380420034993,0.4384258005767602,1.3429055522469708,3548.429578993056,11.962333333333332,0.2,179.05541261404082,1.174937299307102,85.66758012190313,1553.0,1435.0,1200.0,1774.0,1471.0,1010.0,61.0,293.85,1649168407.785986,1649168408.7928448,98516b22-cd4c-434c-b371-d1711743b485
-0.074026004788164,0.1158493891724488,-0.2004315530603118,-0.0248416610761205,-0.3782129087449626,0.0298760914231127,-0.5613222447084142,-0.5893728057969896,-15.576731805064966,27.05592566362865,13.948187856696943,0.2869316063477035,0.4119425859413378,1.5990284242521886,3570.2708875868057,11.961555555555556,0.2,179.0673715163676,1.1758436748963366,85.65118539116537,1553.0,1435.0,1200.0,1856.0,1471.0,1010.0,61.0,293.85,1649168409.7624652,1649168410.7287605,00c19a01-1f3f-46fd-b4b0-efa3de34a202
-0.0692322090812779,0.1143975539892203,-0.2024723404528803,-0.0223625839097398,-0.3804865378762847,0.0295336774549431,-0.5637876259441389,-0.5936187404059184,-15.52871634416062,27.125179147619736,14.003335563831548,0.2809603984800966,0.4052352789242032,1.6083461857590844,3572.91650390625,11.944333333333333,0.1933333333333333,179.06637279092897,1.17343848781314,85.58995426307602,1553.0,1435.0,1200.0,1856.0,1471.0,1010.0,61.0,293.85,1649168410.836909,1649168411.9763544,00c19a01-1f3f-46fd-b4b0-efa3de34a202
-0.0812988777403011,0.1153289199562225,-0.203184561526385,-0.0208696589791683,-0.3809385243378886,0.0260958412225616,-0.565212068410608,-0.581702730681572,-15.53043926248227,27.09763608736238,13.831998533713156,0.2696212190485905,0.410029788589742,1.6118549749577245,3571.7583821614585,11.94588888888889,0.2,179.0631777802172,1.1518797901818043,85.52304117650715,1553.0,1435.0,1200.0,1856.0,1471.0,1010.0,61.0,293.85,1649168412.0844803,1649168413.2062466,00c19a01-1f3f-46fd-b4b0-efa3de34a202
0.0328630369031087,0.1634427375968508,0.0709022151750853,-0.1361371622336605,-0.1077228277976867,0.0659977515137374,-0.2113608599471018,-0.2361067092211329,-12.537634394781351,22.01551158678896,13.580044182316778,0.6007253989415811,0.6030179330681947,0.3709406271436718,7208.9375,11.643999999999998,8.05,178.867190814353,0.8418320921309825,73.72242089463856,1553.0,1435.0,1350.0,1528.0,1471.0,1010.0,61.0,293.85,1649168416.2641766,1649168417.3958347,2f4c9de1-4381-40cb-a8bb-bb93898a1214
0.0298782828200945,0.1614967306148552,0.066983903726804,-0.1362292031079948,-0.1105235002529353,0.0678517176773283,-0.2146874804322068,-0.2398146419201696,-12.60125754063497,21.97903998132613,13.533405320979568,0.604622788914177,0.5963452053757355,0.3845011542097004,7220.40771484375,11.641,8.06,178.8509167502906,0.729672613061802,68.17141156077314,1553.0,1435.0,1350.0,1528.0,1471.0,1010.0,61.0,293.85,1649168417.5041282,1649168418.657338,2f4c9de1-4381-40cb-a8bb-bb93898a1214
0.0323370890360301,0.1617334071377794,0.0745969987822859,-0.1327185009719074,-0.1029892968934015,0.0686406394524244,-0.2083629569094078,-0.2309918657578856,-12.701294933024997,22.07512676238754,14.190733763965383,0.5995467954563599,0.5921670575239034,0.3557341658764755,7220.40771484375,11.644333333333332,8.071111111111112,178.8653921978716,0.6854415056514976,64.32237532613823,1553.0,1435.0,1350.0,1528.0,1471.0,1010.0,61.0,293.85,1649168418.7674906,1649168419.761588,2f4c9de1-4381-40cb-a8bb-bb93898a1214
0.1494525251614711,0.3750183970248751,0.0793962728810048,-0.2089546483394169,-0.1446180719248598,-0.0685397109944168,-0.2602871643225468,-0.2849146767933402,-12.739193342980888,21.709663500083742,14.241376836642733,0.4610595692757527,1.401619185007531,0.5051551085654309,7212.308539496527,11.633333333333333,8.085555555555556,178.79062591157702,0.7067587869263883,56.45342214857346,1647.0,1435.0,1350.0,1528.0,1543.0,1010.0,61.0,293.85,1649168421.7878883,1649168423.033986,83fcc77e-b3b8-4308-97b6-bdba76522d0f
0.1501592675564424,0.3746321541045992,0.0818271380883823,-0.2074852813530118,-0.1433442918694216,-0.068793919125957,-0.2598198376751447,-0.2931024801945858,-12.786951836263958,21.889779637896968,14.352964883707656,0.4584825976056403,1.3994958080693365,0.4994574751984054,7208.9375,11.620777777777777,8.088888888888889,178.7922666747976,0.7489068763673157,54.24669541349428,1647.0,1435.0,1350.0,1528.0,1543.0,1010.0,61.0,293.85,1649168423.1443703,1649168424.2736652,83fcc77e-b3b8-4308-97b6-bdba76522d0f
0.1510698147680381,0.3758467648266281,0.083156799974039,-0.2148715622626336,-0.1414623845909174,-0.0678691274591866,-0.2553432539101375,-0.287176252613131,-12.714168769304298,21.64652236831322,13.7119953758534,0.4756104573945912,1.4102066699399134,0.4880369821856722,7215.00537109375,11.623888888888889,8.08,178.81188601373353,0.8001000157571584,52.39000790482424,1647.0,1435.0,1350.0,1528.0,1543.0,1010.0,61.0,293.85,1649168424.387018,1649168425.495738,83fcc77e-b3b8-4308-97b6-bdba76522d0f
0.2611698702104774,0.5926539544969125,0.099002622356701,-0.3022517820098278,-0.1768597734406118,-0.1944598528305515,-0.2956363432397011,-0.3183315448517481,-12.680641217018264,21.526007408490223,14.38343985986422,0.3883665792755934,2.2289380256990348,0.598506134958797,7215.00537109375,11.618666666666668,8.073333333333332,178.69283885213986,0.9105896143669928,49.30493857413902,1745.0,1435.0,1350.0,1528.0,1614.0,1010.0,61.0,293.85,1649168427.3176012,1649168428.459161,6f473480-6f18-4300-a81f-5c80d455ce1e
0.2565486515895968,0.5880930009255141,0.095148410809542,-0.3029020947391323,-0.1805008669132512,-0.1911513118318086,-0.2979713328915341,-0.3239268636313715,-12.604351973150392,21.55335546865792,14.108951012962375,0.3972522853976883,2.2135607027419426,0.6111410848153852,7213.656955295139,11.61111111111111,8.087777777777777,178.68832485600836,0.9608129558294488,48.32298845955811,1745.0,1435.0,1350.0,1528.0,1614.0,1010.0,61.0,293.85,1649168428.5670955,1649168429.7922962,6f473480-6f18-4300-a81f-5c80d455ce1e
0.2577046410793384,0.58521672389841,0.0972220697613858,-0.298416745049087,-0.1759558005007957,-0.1935147901961897,-0.2957870054178824,-0.3088809179427508,-12.718731958277894,21.458505793997244,13.977706299729954,0.3812193712331908,2.20432329490798,0.5984790261831012,7208.9375,11.60877777777778,8.10222222222222,178.69320312889556,1.009542928604937,47.53915936550203,1745.0,1435.0,1350.0,1528.0,1614.0,1010.0,61.0,293.85,1649168429.9004376,1649168430.9131615,6f473480-6f18-4300-a81f-5c80d455ce1e
0.342048043544176,0.7260995118724004,0.1239166619791875,-0.3724466565996194,-0.1910904991257985,-0.2715167003712546,-0.3079358546970275,-0.3227829270531652,-12.562230937720704,21.95280519380131,12.87169158582308,0.3774404635143687,2.7522296550230165,0.6147471077249692,7196.83154296875,11.606000000000002,8.101111111111111,178.52098218570347,1.1025058230597289,46.11864925504882,1849.0,1435.0,1350.0,1528.0,1686.0,1010.0,61.0,293.85,1649168432.8138115,1649168433.7614355,3815dc58-b9d3-45b1-8df2-e40be246f1bb
0.3455406657721773,0.727523953825462,0.1257109111198638,-0.3791168818121471,-0.1882279181154043,-0.2724343698512302,-0.3026489822680724,-0.3265357847766104,-12.46652708057136,21.640526030565145,12.097461258622603,0.3883686949472975,2.7646864911534315,0.6000920119946126,7200.191189236111,11.586111111111112,8.106666666666667,178.53497648440288,1.1438363649445338,45.69889542614624,1849.0,1435.0,1350.0,1528.0,1686.0,1010.0,61.0,293.85,1649168433.8743603,1649168435.0055313,3815dc58-b9d3-45b1-8df2-e40be246f1bb
0.3445397212927751,0.7280345614826877,0.1296242917453986,-0.3781783935071431,-0.1862468477159855,-0.2703196209199604,-0.3009166412958869,-0.3249261645959652,-12.518076360608813,21.883937871417107,12.610837381394363,0.3928681717350211,2.7625530613947284,0.5902510032006729,7196.83154296875,11.584,8.103333333333333,178.53118648832344,1.1801605323212945,45.368215612029616,1849.0,1435.0,1350.0,1528.0,1686.0,1010.0,61.0,293.85,1649168435.1151464,1649168436.2357273,3815dc58-b9d3-45b1-8df2-e40be246f1bb
0.380251577699118,0.7799456093175584,0.1484532242791797,-0.4080522372142747,-0.1879824757871945,-0.2956308646913527,-0.3000882733644852,-0.3202583770554513,-12.450980588700348,22.577646533234216,12.399805646884266,0.4089148679290423,2.9635300623311167,0.5712535388912306,7202.87890625,11.569222222222225,8.11111111111111,178.50437875474103,1.275036223624741,44.65699560285526,1962.0,1435.0,1350.0,1528.0,1760.0,1010.0,61.0,293.85,1649168438.2857726,1649168439.4268117,84a09c23-f48c-4816-9665-aa5e6326af2d
0.3787789238208044,0.7820888466053644,0.1419314711182533,-0.4057906609213826,-0.1895340220835547,-0.3045982767846992,-0.3054397934988581,-0.3275953503845596,-12.59984349690405,22.10459129153304,11.68080819036158,0.3800121073124134,2.9782946610945693,0.5892312192610166,7207.591145833333,11.518444444444444,8.072222222222223,178.52551136003305,1.3010905375382182,44.452102829223314,1962.0,1435.0,1350.0,1528.0,1760.0,1010.0,61.0,293.85,1649168439.536183,1649168440.6507876,84a09c23-f48c-4816-9665-aa5e6326af2d
0.3756232369820653,0.769124233324987,0.1375003606152989,-0.3995318802463496,-0.1938730922357529,-0.2954204854775007,-0.3092003211564521,-0.3340908074252736,-12.547698863526628,22.441246880592203,11.962928560352092,0.3885998647788544,2.925754197073425,0.6053178313970362,7206.244791666667,11.518777777777778,8.08,178.5070273503192,1.314101798889779,44.33108971151351,1962.0,1435.0,1350.0,1528.0,1760.0,1010.0,61.0,293.85,1649168440.758768,1649168441.9148097,84a09c23-f48c-4816-9665-aa5e6326af2d
-0.1188274503608454,-0.1016382682407505,0.0614740521321718,-0.037264440102798,-0.059507652034876,0.2396114881830478,-0.1546302569962281,-0.1793388511678904,-12.837210626390638,22.75885685730224,14.454645509894954,0.7722728928457979,-0.4095866862783645,0.2068602086416752,7204.225260416667,11.548666666666668,8.096666666666668,179.12392700051512,1.3379796184775818,44.146103524217565,1459.0,1435.0,1350.0,1528.0,1394.0,1010.0,61.0,293.85,1649168442.7887828,1649168443.9263227,fbc29594-e1d1-4c45-9255-368e845cfafb
-0.1135816681148778,-0.1051171943229994,0.0650214608010304,-0.031525581869624,-0.0556178292448672,0.2394471294844875,-0.151288296450837,-0.1875293940466626,-12.795972205737106,22.84122837450143,14.723096445033333,0.7597443377687331,-0.4257862160472984,0.1919714081671525,7208.9375,11.631333333333332,8.121111111111112,179.1354472529152,1.3477187330400473,44.0710663070859,1459.0,1435.0,1350.0,1528.0,1394.0,1010.0,61.0,293.85,1649168444.035489,1649168445.040596,fbc29594-e1d1-4c45-9255-368e845cfafb
-0.1231331007814671,-0.1091560357496021,0.0591209833827037,-0.0325122819878143,-0.0601508424471353,0.2412304213215913,-0.1559391002370699,-0.1687722294939723,-12.825669834127297,22.789637119836733,14.245315779851396,0.7652504672860766,-0.436743026352655,0.2116394764116054,7208.9375,11.629,8.119999999999997,179.12606864427485,1.3454892098845666,43.99343968934889,1459.0,1435.0,1350.0,1528.0,1394.0,1010.0,61.0,293.85,1649168445.149049,1649168446.2724078,fbc29594-e1d1-4c45-9255-368e845cfafb
-0.2470409470637096,-0.3508882693140402,0.0624328112337286,0.0644462053559229,-0.0068717758074984,0.3954920112151865,-0.0940366778313236,-0.117663243482412,-12.877266663970884,23.69009201381273,15.436080112080298,0.8994802380272496,-1.3652868404792844,0.0192955535356508,7215.00537109375,11.628555555555554,8.105555555555556,179.20114456581183,1.3550575934337163,43.84967331423902,1364.0,1435.0,1350.0,1528.0,1312.0,1010.0,61.0,293.85,1649168447.2945423,1649168448.5251205,dc43bdaa-5597-4392-8d01-48f7129fe8bd
-0.2511088253898784,-0.3511348074190535,0.0591867268680004,0.0670622480350425,-0.0092549770371463,0.3905886436266776,-0.0977895350735013,-0.1218817834254486,-12.858028159726675,23.627614848579885,15.021092649822188,0.8819282957628248,-1.363198585121489,0.0317564982357476,7215.00537109375,11.608,8.095555555555556,179.2060987296898,1.359841405753337,43.808342701206406,1364.0,1435.0,1350.0,1528.0,1312.0,1010.0,61.0,293.85,1649168448.6336544,1649168449.659825,dc43bdaa-5597-4392-8d01-48f7129fe8bd
-0.2498208008462625,-0.3510657767412335,0.0599493512393836,0.0655638445159102,-0.0088051820555549,0.3912964817166887,-0.0960204874826081,-0.1171767414871019,-12.780047710933667,23.59157319459561,14.944995033115951,0.8867251057864469,-1.36258493267839,0.0275427847761307,7218.3818359375,11.606666666666666,8.095555555555555,179.2120015309525,1.356648102588879,43.83523732997324,1364.0,1435.0,1350.0,1528.0,1312.0,1010.0,61.0,293.85,1649168449.768061,1649168450.9203722,dc43bdaa-5597-4392-8d01-48f7129fe8bd
-0.3761858176602738,-0.6025352021466985,0.056406325474186,0.1578567332733473,0.0386144958375704,0.5499891785574503,-0.0378259990047688,-0.0638083721244798,-12.752453710103037,24.48056032258389,14.75851221468982,1.0408395871571643,-2.3158634434597563,-0.1452987195727238,7215.00537109375,11.599333333333334,8.098888888888887,179.2907080774883,1.3501913682412976,43.85529418047098,1262.0,1435.0,1350.0,1528.0,1222.0,1010.0,61.0,293.85,1649168451.8004854,1649168452.825085,61df8ceb-4378-4c9b-ac08-14440f5d3fcc
-0.3816096558824179,-0.5933174152534709,0.0582690574327539,0.1534875312412553,0.0383405646602953,0.5464554667764107,-0.0385108269653166,-0.0594391697581171,-12.819319865925891,24.500787941908467,14.97268232892262,1.0429820384629196,-2.282059687739413,-0.1451656262561454,7215.00537109375,11.56722222222222,8.095555555555556,179.29614642588746,1.3505845072894616,43.85109475249629,1262.0,1435.0,1350.0,1528.0,1222.0,1010.0,61.0,293.85,1649168452.9332647,1649168454.050885,61df8ceb-4378-4c9b-ac08-14440f5d3fcc
-0.3775341071654383,-0.5952371255213423,0.0639334061770075,0.1575258244484594,0.0436449678802374,0.5479105890234969,-0.0335115829441066,-0.0566269919476979,-12.823858345270686,24.629078170398955,15.480005197123692,1.0383535761746194,-2.29385997106303,-0.1667665737269193,7208.9375,11.571,8.100000000000001,179.3027656381031,1.345978849070692,43.96548372507603,1262.0,1435.0,1350.0,1528.0,1222.0,1010.0,61.0,293.85,1649168454.1587553,1649168455.2841034,61df8ceb-4378-4c9b-ac08-14440f5d3fcc
-0.4088017129610996,-0.6552214983340011,0.0522442152436048,0.16178600186783,0.0366498614561995,0.5962714891977259,-0.0321178210821779,-0.0567190327405455,-12.68814950490181,25.379311790824985,14.508540223964602,1.141721860493821,-2.512441111495927,-0.1520936845664264,7208.9375,11.540666666666668,8.104444444444445,179.3316998372471,1.3237441642969696,44.01353372643212,1153.0,1435.0,1350.0,1528.0,1121.0,1010.0,61.0,293.85,1649168457.3298118,1649168458.559622,8c7388b0-bdf5-4e92-8f35-15016d31a406
-0.4168881628801031,-0.658863688518902,0.0310353680993113,0.1543306913156475,0.0145074567456411,0.6061987539052158,-0.0574290622500136,-0.0815963672366868,-13.15442337944749,25.794327942465724,14.255063466229524,1.1822671210116311,-2.5209743902653154,-0.0583471090645322,7208.9375,11.511888888888889,8.103333333333332,179.33407674307824,1.3337313949674092,44.076959242519806,1153.0,1435.0,1350.0,1528.0,1121.0,1010.0,61.0,293.85,1649168458.6681907,1649168459.6968594,8c7388b0-bdf5-4e92-8f35-15016d31a406
-0.4118390624799943,-0.6578906845326691,0.020569005787956,0.1465203659863351,0.008853517292519,0.6053309400357745,-0.0613605225752672,-0.0770337693092292,-13.0994274394814,25.113821896968982,13.197918513636742,1.1927620645526804,-2.5080582667127955,-0.0319058789195437,7199.519259982639,11.524444444444445,8.098888888888888,179.34857192231684,1.3341020157356536,44.16452568277396,1153.0,1435.0,1350.0,1528.0,1121.0,1010.0,61.0,293.85,1649168459.8038757,1649168461.0148764,8c7388b0-bdf5-4e92-8f35-15016d31a406
0.0280133593777461,0.1513782612950895,0.0723491196161124,-0.1196766370074972,-0.1019258960166273,0.0689249800110205,-0.212566705105806,-0.2427402275503947,-12.93957062700993,22.2529250653536,14.470153943281227,0.5717578131619243,0.5507937067136974,0.3623509963568998,7203.552083333333,11.540333333333333,8.092222222222222,179.01824576021724,1.2808193187074628,44.24062802996119,1553.0,1435.0,1350.0,1528.0,1471.0,1010.0,61.0,293.85,1649168461.835435,1649168462.8599398,156e2ad6-008c-40c5-8970-fa21182230d3
0.0195697048733296,0.1547777470376525,0.0724800587020416,-0.1227649372633134,-0.1015166428291001,0.066168684564054,-0.2106245328920707,-0.2368430363523324,-12.817166842721916,22.03098267528894,14.157753393259371,0.5710775514720839,0.5658310721222565,0.3589701902985816,7215.00537109375,11.637777777777778,8.112222222222222,178.98779222343785,1.2625213012108352,44.26856160639178,1553.0,1435.0,1350.0,1528.0,1471.0,1010.0,61.0,293.85,1649168462.9677286,1649168464.208264,156e2ad6-008c-40c5-8970-fa21182230d3
0.0201241415702955,0.1523096272526911,0.0666787443743116,-0.1208271480121015,-0.1059252913587718,0.0663911166768277,-0.2166482799967451,-0.231892551784457,-12.90567703817598,22.02208851509548,14.054369652959062,0.5667973474103278,0.5575103566452722,0.3809735787101583,7215.00537109375,11.637,8.119999999999997,178.98426025672703,1.2682355845092623,44.321322161545446,1553.0,1435.0,1350.0,1528.0,1471.0,1010.0,61.0,293.85,1649168464.3200183,1649168465.318352,156e2ad6-008c-40c5-8970-fa21182230d3
0.0335204716909228,0.1471120573478339,0.0620399939441285,-0.4119836980402154,-0.1421461168332977,0.3565050340883253,-0.1403184479198685,-0.1659584078692987,-12.69986447515269,21.62119021207001,16.73673216492737,1.87314250239078,0.5483326396078081,0.3288632701041422,7221.0830078125,11.633444444444445,8.112222222222222,178.96249775621158,1.3348188891493222,44.42076516240138,1553.0,1537.0,1350.0,1528.0,1471.0,1010.0,61.0,293.85,1649168467.365094,1649168468.3864472,310dfbf7-28ab-4756-b58d-bc10dd4ed789
0.0462878558169351,0.1482165478013764,0.0638939600842822,-0.4135878393493077,-0.1405288271013299,0.3553742462943244,-0.1388852399471231,-0.1636705345658641,-12.736791993165047,21.616028395975373,16.532874709923163,1.8742270334133644,0.5548582458645831,0.3219010697552181,7221.0830078125,11.631666666666668,8.12,178.97457960194345,1.3315904152538254,44.45718335160094,1553.0,1537.0,1350.0,1528.0,1471.0,1010.0,61.0,293.85,1649168468.4949627,1649168469.6224887,310dfbf7-28ab-4756-b58d-bc10dd4ed789
0.0280769114299544,0.148492670414477,0.0607119756113006,-0.4158231181561698,-0.1419620350902551,0.3547825550074902,-0.138911537323636,-0.1703632213599992,-12.633552728832372,21.32816921195,16.18538408623253,1.8758695465381647,0.5583115799554068,0.3279420351033612,7221.0830078125,11.636555555555557,8.119999999999997,178.98456533850998,1.3254763050136718,44.52100843375508,1553.0,1537.0,1350.0,1528.0,1471.0,1010.0,61.0,293.85,1649168469.7314088,1649168470.84756,310dfbf7-28ab-4756-b58d-bc10dd4ed789
0.0527219512002375,0.1361339919945195,0.0480377281720389,-0.7056703254862663,-0.18465311598613,0.6503164605604911,-0.0693143883820743,-0.0951187063590577,-12.47565361143426,20.972847713177625,18.755085607233188,3.191300525041553,0.5229431403581478,0.3041174960493077,7219.732421875,11.626444444444443,8.11,178.98342242018887,1.4057765504978208,44.5532389580835,1553.0,1645.0,1350.0,1528.0,1471.0,1010.0,61.0,293.85,1649168471.8760798,1649168472.895681,e21c6215-16ff-4451-8593-8f6a12d5caeb
0.0579129468980743,0.1437766714908567,0.05703636717338,-0.7199832349688945,-0.1794484232362007,0.6534666687289131,-0.0592063277163373,-0.0776008070071123,-12.381700241001589,20.95419107596066,18.467292365582143,3.230991693398505,0.5558259353946587,0.2708373782038154,7221.0830078125,11.621,8.100000000000001,178.9712054884934,1.3976574832870858,44.55935691030507,1553.0,1645.0,1350.0,1528.0,1471.0,1010.0,61.0,293.85,1649168473.0035343,1649168474.178625,e21c6215-16ff-4451-8593-8f6a12d5caeb
0.0484897145816981,0.1388185174093197,0.0566254703991476,-0.7144087333694528,-0.1797223544483346,0.6555211523169927,-0.0602335696711822,-0.0916123872302694,-12.375025279740557,21.12161527256499,18.790678543947124,3.2241780074360005,0.5336068860586685,0.2730741558681586,7221.0830078125,11.635,8.107777777777777,178.97560261249913,1.4063867970694468,44.54641673746752,1553.0,1645.0,1350.0,1528.0,1471.0,1010.0,61.0,293.85,1649168474.2878406,1649168475.3593109,e21c6215-16ff-4451-8593-8f6a12d5caeb
0.0569251511044798,0.1306104439775821,0.0472082645626641,-0.9796131398065726,-0.2203414204836332,0.921649096352283,0.000451500265721,-0.0333275016453613,-12.28213187581299,21.170752508580645,20.95803752952256,4.420688269566121,0.5150110670958115,0.2546160209303777,7221.0830078125,11.635444444444444,8.108888888888888,178.9629576556157,1.4817594405223855,44.58391144037126,1553.0,1761.0,1350.0,1528.0,1471.0,1010.0,61.0,293.85,1649168477.2881005,1649168478.333248,2dea1487-4474-44f0-a304-0899ddc9047f
0.0585161433270218,0.1370796023783666,0.0509161969181969,-0.9915258659755948,-0.2198680673423723,0.9217937320032944,0.0065393467354981,-0.011093055388829,-12.002159869550177,21.04948471163251,20.358295833688445,4.447311536670409,0.5443079848858408,0.2403271765289495,7221.0830078125,11.60577777777778,8.100000000000001,178.9594636344003,1.4851703373869647,44.56047136950464,1553.0,1761.0,1350.0,1528.0,1471.0,1010.0,61.0,293.85,1649168478.4415054,1649168479.561641,2dea1487-4474-44f0-a304-0899ddc9047f
