raw_voltage_G-,raw_voltage_G0,raw_voltage_G1,raw_voltage_G2,raw_voltage_G3,raw_voltage_G4,raw_voltage_G5,raw_voltage_G6,load_x,load_y,load_z,load_l,load_m,load_n,rpm,voltage,current,roll,pitch,yaw,aileron1_pwm,elevator_pwm,throttle_pwm,rudder_pwm,aileron2_pwm,pbaro,pdiff,Tt,sample_start_time,sample_end_time,uid
-0.1920454233256144,-0.0074245688992323,-0.4272887837415707,-0.0745223680675856,-0.5373302499418766,0.2110804622626684,-0.7593986600125521,-0.7907846126322817,-22.09531589480821,25.93455827602116,14.445517643059976,0.7842578581684978,-0.0169643903940431,2.3882532835140573,2906.8828938802085,11.972333333333331,0.2433333333333333,178.96502644402432,0.9028033232218352,94.65667749316084,1553.0,1435.0,1200.0,1528.0,1471.0,1010.0,61.0,293.85,1649171988.7620351,1649171989.8290508,a698c1ff-059a-4b54-88da-589933bcbf73
-0.1869437286577527,-0.0065304575391354,-0.4245538543873363,-0.0739175280100365,-0.5339510341028982,0.2092133474762439,-0.756939852802732,-0.7814095874053641,-22.15599700695352,25.878743597327404,14.404826500664884,0.7784269782034187,-0.0127228340155569,2.3764584132672737,3140.778211805556,11.974555555555558,0.24,178.97446424763743,0.8156129406139422,94.19373561922636,1553.0,1435.0,1200.0,1528.0,1471.0,1010.0,61.0,293.85,1649171989.936551,1649171990.9680512,a698c1ff-059a-4b54-88da-589933bcbf73
-0.1974889840866639,-0.0084370185350814,-0.4239621628956072,-0.0761265091547048,-0.5332673016579943,0.2134077813724956,-0.7562692690043167,-0.78666906902521,-22.269681653624904,25.94458762768668,14.451014143759192,0.7932514384174547,-0.0191677252461468,2.373474390828764,3185.62060546875,11.974333333333334,0.24,178.9831401057032,0.7432688338697019,93.8022845764245,1553.0,1435.0,1200.0,1528.0,1471.0,1010.0,61.0,293.85,1649171991.079898,1649171992.0878725,a698c1ff-059a-4b54-88da-589933bcbf73
-0.0824767818573386,0.1884274510256304,-0.4007437519378616,-0.2255647405919262,-0.5623083971285382,0.1641708466152343,-0.7584020979654356,-0.783384632616226,-21.80025153263918,25.23930607017621,15.397252132211795,1.0165733695156003,0.7273437409793146,2.408879519194249,3195.908447265625,11.957,0.24,178.91177828925487,0.7174524085673952,93.33113357401756,1647.0,1435.0,1200.0,1528.0,1543.0,1010.0,61.0,293.85,1649171992.705804,1649171993.728467,8c2ed38e-670d-4079-90d3-d446c07326a8
-0.0836738611093873,0.1864529552145054,-0.3967969508369298,-0.2317807875126907,-0.5593543225110849,0.1730412855023035,-0.7520090895334524,-0.7709695180322221,-21.764681918613828,25.2774925644499,15.608549981061437,1.0510295631742337,0.7188298829027753,2.390387558740092,3197.76318359375,11.95711111111111,0.23,178.888258153393,0.6839149524430161,93.02120691023909,1647.0,1435.0,1200.0,1528.0,1543.0,1010.0,61.0,293.85,1649171993.8623075,1649171994.950553,8c2ed38e-670d-4079-90d3-d446c07326a8
-0.0819908279372341,0.1865844421700099,-0.4044889397128077,-0.2305579585571154,-0.566954271235478,0.1714108472457546,-0.7609896529935702,-0.7880365340040004,-21.799106415117,25.322844754669475,15.490677116346417,1.044488865608186,0.7199739729263679,2.423828095320179,3194.849419487847,11.955333333333334,0.2311111111111111,178.89993474123406,0.6665897032945866,92.7795237020978,1647.0,1435.0,1200.0,1528.0,1543.0,1010.0,61.0,293.85,1649171995.0594542,1649171996.1799505,8c2ed38e-670d-4079-90d3-d446c07326a8
0.0408333382661285,0.3967931841816637,-0.3782266052352447,-0.3840613403417713,-0.5964265350936812,0.1132059533656169,-0.7668939680164059,-0.7948212639758271,-21.568649987442527,24.799944198770152,16.484875298038958,1.2580765229778812,1.5184974697646714,2.462445766097032,3194.717041015625,11.939666666666666,0.2377777777777777,178.87030234497493,0.6427115042518294,92.52713606970732,1745.0,1435.0,1200.0,1528.0,1614.0,1010.0,61.0,293.85,1649171996.7394564,1649171997.8172188,844ca553-5aed-47d9-bd0b-cdf46e718430
0.0408574442274983,0.4014998692033489,-0.3768635234900418,-0.3801901442638657,-0.595999750219829,0.1076265233823668,-0.7686684949205375,-0.7930198919212179,-21.611330046332498,24.883222365496795,16.85148754407744,1.237463218381456,1.5328144014755214,2.4635894879503315,3195.908447265625,11.943125,0.22375,178.82265456586998,0.6458373681917091,92.37353849106086,1745.0,1435.0,1200.0,1528.0,1614.0,1010.0,61.0,293.85,1649171997.9248607,1649171999.0923183,844ca553-5aed-47d9-bd0b-cdf46e718430
0.0418879732938117,0.4031620834170024,-0.380226303211198,-0.3839380714158424,-0.5995082618272655,0.1068507502683208,-0.7725369527062435,-0.7962867962805613,-21.682403426636228,24.86005424702772,16.455169810506394,1.2437543779150375,1.5433121842159416,2.478029006141073,3197.995330810547,11.941375,0.22125,178.81959805621636,0.6350751378340979,92.22225150849238,1745.0,1435.0,1200.0,1528.0,1614.0,1010.0,61.0,293.85,1649171999.2001903,1649172000.1672747,844ca553-5aed-47d9-bd0b-cdf46e718430
0.1663349027218119,0.608925464527679,-0.3522579257033098,-0.5290942330454961,-0.6293667697203157,0.0450381817975862,-0.7820560656352469,-0.8005738217820147,-21.52218835031722,24.81553680756556,17.397305509143802,1.4336183774477511,2.325210000040686,2.519210344575564,3224.091552734375,11.920666666666667,0.2255555555555556,178.6941714979379,0.673957165105405,91.93337102914012,1849.0,1435.0,1200.0,1528.0,1686.0,1010.0,61.0,293.85,1649172002.311753,1649172003.4617405,bf064c88-3cb2-4c48-aabd-de2ea67e9a02
0.1682661174394916,0.6075695053588785,-0.353764547199682,-0.5238073601979628,-0.6297502732259895,0.0422440837896582,-0.784836467904697,-0.8089424232573496,-21.592556605299336,24.83779564130109,17.48685609652394,1.4154651663973772,2.3190826318736457,2.525695323713635,3223.687255859375,11.91688888888889,0.2211111111111111,178.69109335935192,0.686974497736228,91.81789453866251,1849.0,1435.0,1200.0,1528.0,1686.0,1010.0,61.0,293.85,1649172003.5711355,1649172004.6764164,bf064c88-3cb2-4c48-aabd-de2ea67e9a02
0.1734982026552988,0.6093637543607348,-0.3549424514381322,-0.5346139477258514,-0.6324347996116266,0.0506537708303693,-0.7839051014390298,-0.8077645181818399,-21.591164076042865,24.8239521219629,17.516838465682543,1.4585949280890542,2.326792182167388,2.529802585538211,3219.1639099121094,11.91675,0.22375,178.7085869916362,0.7014908567866704,91.70879033008936,1849.0,1435.0,1200.0,1528.0,1686.0,1010.0,61.0,293.85,1649172004.7843175,1649172005.9075773,bf064c88-3cb2-4c48-aabd-de2ea67e9a02
0.1795794744232856,0.6072407879780825,-0.3263851222580643,-0.5547615919366061,-0.6136431151587959,0.0593510850557322,-0.7538685358581101,-0.7811657894741594,-21.179495111390374,25.341747034400203,16.038155064376603,1.5284131059350134,2.333321379523694,2.420071468619646,3219.114230685764,11.866444444444443,0.21,178.6898684787608,0.722830690433137,91.5747398042101,1962.0,1435.0,1200.0,1528.0,1760.0,1010.0,61.0,293.85,1649172006.7255175,1649172007.8623931,0efa1ee7-5830-4034-9d4d-ae31c1f2381e
0.1592351548607254,0.5974548717469422,-0.3221780864116641,-0.5460478385789135,-0.6064003723617275,0.0574905447471658,-0.7477094641224492,-0.7749930206817462,-21.11505338515689,25.272661178371514,15.591923900161124,1.504288941051941,2.2993097591644376,2.3940390885041665,3201.08203125,11.866333333333335,0.22,178.7071276078835,0.7029106156593207,91.4467572373622,1962.0,1435.0,1200.0,1528.0,1760.0,1010.0,61.0,293.85,1649172007.9710486,1649172009.1894796,0efa1ee7-5830-4034-9d4d-ae31c1f2381e
0.1642316592840692,0.5856604923465618,-0.3160376443234518,-0.5350029302284144,-0.5976433378811922,0.0570171919073618,-0.7402147040543033,-0.7641847877218857,-21.05301760784062,25.323561177427013,15.379307224605675,1.4789511569638438,2.255549277633273,2.3614629884686984,3168.742919921875,11.864555555555556,0.21,178.71221533990527,0.7132723505822983,91.25207559653944,1962.0,1435.0,1200.0,1528.0,1760.0,1010.0,61.0,293.85,1649172009.3020215,1649172010.6215086,0efa1ee7-5830-4034-9d4d-ae31c1f2381e
-0.325303093760156,-0.2363987196402769,-0.4251510244367097,0.1308882101307601,-0.4754447990933353,0.2369269628051408,-0.7336524061280995,-0.7583884019267478,-22.1235915742598,26.908577649515475,13.211757818262628,0.3853348939694445,-0.8897601577874455,2.236327405614155,3153.578369140625,11.962666666666667,0.24,178.87574676465334,0.6993984576829061,91.05380734749248,1459.0,1435.0,1200.0,1528.0,1394.0,1010.0,61.0,293.85,1649172011.2856338,1649172012.477188,741ecc4a-517b-42af-9357-33e731417fca
-0.3328498987218859,-0.2445070832764274,-0.4294928344472453,0.133449466476995,-0.4778553940055429,0.240789392110734,-0.7376244097516294,-0.7663871956382051,-22.26101314717581,26.99006785942817,12.93461090746812,0.3884473834889932,-0.9173316801372756,2.2497052807525826,3160.1676161024307,11.964888888888888,0.24,179.1316511855565,0.6386345631504522,90.99634193036552,1459.0,1435.0,1200.0,1528.0,1394.0,1010.0,61.0,293.85,1649172012.590073,1649172013.8000782,741ecc4a-517b-42af-9357-33e731417fca
-0.3321185023707799,-0.2388942329170103,-0.4270652559039898,0.1338581718092316,-0.476911974847943,0.2361418760931698,-0.7355074688287676,-0.7605557460867949,-22.080259403947856,26.93121250270011,13.126369256213357,0.3769341275088913,-0.8991563816595303,2.243200938220299,3162.23974609375,11.96577777777778,0.24,179.1491228094534,0.659900457924009,90.91159370205392,1459.0,1435.0,1200.0,1528.0,1394.0,1010.0,61.0,293.85,1649172013.9087188,1649172015.0281794,741ecc4a-517b-42af-9357-33e731417fca
-0.4487228070271057,-0.4474490266572348,-0.4466820193821871,0.3264065747026672,-0.4405185666173317,0.2602658973792137,-0.7390214594810386,-0.763634186943107,-22.54321920896652,28.044129219179307,12.61203930722474,0.002887848305906,-1.698460002942629,2.200321975654976,3165.353814019097,11.943,0.2388888888888888,179.23841007792342,0.6688637353303611,90.75118139702684,1364.0,1435.0,1200.0,1528.0,1312.0,1010.0,61.0,293.85,1649172016.7598352,1649172017.816611,a898c5c1-1769-46ce-815b-fe890965da38
-0.4512155812479796,-0.4482023375521937,-0.442353905819189,0.3178736192738933,-0.437519019557965,0.2710176952619772,-0.7307487345200437,-0.7546492397463597,-22.417099816108635,28.00963862237776,12.966601562969112,0.0464037040039061,-1.7039961113585829,2.1789946555202486,3162.6312120225693,11.949444444444444,0.2355555555555555,179.2315495323571,0.6568686958482023,90.69233855841723,1364.0,1435.0,1200.0,1528.0,1312.0,1010.0,61.0,293.85,1649172017.924538,1649172018.9254923,a898c5c1-1769-46ce-815b-fe890965da38
-0.4568585646620255,-0.4559408949295195,-0.4476270820316561,0.3220647659680168,-0.4411760014936138,0.2740720276845116,-0.7354192629232643,-0.7623604057137655,-22.454990095766863,28.08670900373554,12.832608081324103,0.0440209042350357,-1.7324136516504078,2.196666621469653,3160.68603515625,11.946111111111112,0.23,179.2309833855659,0.6483183958693224,90.58975670618274,1364.0,1435.0,1200.0,1528.0,1312.0,1010.0,61.0,293.85,1649172019.0446136,1649172020.1419427,a898c5c1-1769-46ce-815b-fe890965da38
-0.5885921011827729,-0.685728128393154,-0.4683088903470097,0.533991599591824,-0.4023873393439943,0.2973424793052757,-0.7410485508266159,-0.7646477315187855,-22.945436243212622,29.540335939241903,11.760338173342978,-0.373553649658207,-2.6086599212963124,2.1516435461165284,3170.0526123046875,11.917125,0.2275,179.3199828374534,0.6415852485981521,90.46435718406973,1262.0,1435.0,1200.0,1528.0,1222.0,1010.0,61.0,293.85,1649172020.7116776,1649172021.777189,d804a8ce-8f98-4c47-9b0f-5a548485787c
-0.5911807515685693,-0.687796309509029,-0.4750339022627123,0.5334985235136739,-0.4082494676336681,0.2999448252164341,-0.7465134801589118,-0.7693319576279691,-22.928447352870283,29.490615621483965,11.731251899388278,-0.3672541195316383,-2.616645775102033,2.176312493008434,3178.3973795572915,11.91711111111111,0.2255555555555556,179.32912713265972,0.6497707834212696,90.35229759058818,1262.0,1435.0,1200.0,1528.0,1222.0,1010.0,61.0,293.85,1649172021.886449,1649172023.0285425,d804a8ce-8f98-4c47-9b0f-5a548485787c
-0.5970565770876163,-0.693288631624946,-0.476430951656166,0.5333889510464813,-0.408331647060071,0.3062863314424139,-0.745417755069258,-0.765976298734033,-22.923867409928576,29.46156623630705,11.85247019483919,-0.3529972469625081,-2.638427660169675,2.17628923811033,3181.410346137153,11.92288888888889,0.2222222222222222,179.32701736311608,0.6759707131733018,90.25197804878874,1262.0,1435.0,1200.0,1528.0,1222.0,1010.0,61.0,293.85,1649172023.140165,1649172024.2494228,d804a8ce-8f98-4c47-9b0f-5a548485787c
-0.6532886392749364,-0.7844600862838491,-0.4948599499928895,0.6186637167361742,-0.4077366686443458,0.3097088273643342,-0.7649211153501351,-0.78194868423565,-23.140296271905868,30.600234272145567,10.644747510819178,-0.5313361564611706,-2.9797883389969377,2.215762109668128,3182.8544921875,11.875777777777778,0.22,179.37696881324612,0.6864866609611338,89.92438548017697,1153.0,1435.0,1200.0,1528.0,1121.0,1010.0,61.0,293.85,1649172026.488525,1649172027.5174725,8f873d28-0fba-446d-a2cb-9056d07f4fda
-0.6564180301512623,-0.7891673218107829,-0.494439191721805,0.6229238938973288,-0.4069083006142393,0.3110368454912732,-0.7634353121158465,-0.7962413247964748,-23.02380790928789,30.644098612893767,10.741674741929186,-0.5375760173330637,-2.999623975048312,2.2116127807378967,3178.3956434461807,11.880666666666666,0.2111111111111111,179.35140569191248,0.6903518424823061,89.78524238422526,1153.0,1435.0,1200.0,1528.0,1121.0,1010.0,61.0,293.85,1649172027.6256342,1649172028.748496,8f873d28-0fba-446d-a2cb-9056d07f4fda
-0.6561287588607958,-0.8006066930172311,-0.5005927832459922,0.6357701688806661,-0.4089463489976597,0.31219393053533,-0.7693127818518312,-0.7937693677238876,-23.13314746455312,30.686985225835528,10.948035005537156,-0.5639981927140302,-3.0455546884408364,2.230070423461082,3181.6805826822915,11.876666666666669,0.21,179.37243812109668,0.6862488672137017,89.6309992578385,1153.0,1435.0,1200.0,1528.0,1121.0,1010.0,61.0,293.85,1649172028.8608968,1649172029.968517,8f873d28-0fba-446d-a2cb-9056d07f4fda
-0.1916931478427671,-0.0003248206494544,-0.4188506061336084,-0.0743547221664941,-0.5285189774098826,0.2054796657706969,-0.7504717871441734,-0.7793852354421912,-22.044369409455825,25.692499433614973,14.729516668891131,0.770180396388854,0.0072965087604135,2.353435951306772,3186.40380859375,11.970333333333334,0.2344444444444444,179.11937809452786,0.7802709745983738,89.34541690608175,1553.0,1435.0,1200.0,1528.0,1471.0,1010.0,61.0,293.85,1649172032.3140724,1649172033.673165,53b437d7-276f-41cd-81e8-eae9e9007d6b
-0.1892184533756634,-0.0024938077123424,-0.4245933004172501,-0.0722739409423383,-0.5340825210315743,0.2055185639725853,-0.7576630313685393,-0.7873133551046358,-22.12178426424425,25.808744263728684,14.654574863997254,0.7660078115594952,-0.0002446542861457,2.378628673722021,3190.358723958333,11.974666666666666,0.24,179.1138790333361,0.7973169033978551,89.40822580786936,1553.0,1435.0,1200.0,1528.0,1471.0,1010.0,61.0,293.85,1649172033.780962,1649172034.8878305,53b437d7-276f-41cd-81e8-eae9e9007d6b
-0.1838313224359223,0.0012639801624093,-0.4225075880320858,-0.0703142372345637,-0.5328881807932696,0.1995079664747517,-0.7570324415303457,-0.7845077512160238,-22.046430128007746,25.804042247753987,14.590228669249072,0.7481809435166352,0.0137771574371987,2.373696805708553,3198.29345703125,11.974444444444446,0.24,179.1132233351758,0.797244071762643,89.42446799771567,1553.0,1435.0,1200.0,1528.0,1471.0,1010.0,61.0,293.85,1649172034.9958763,1649172036.1253726,53b437d7-276f-41cd-81e8-eae9e9007d6b
-0.1927751760323005,-0.0079401073782146,-0.4457643496352054,-0.2820219621660371,-0.5749366279700219,0.4165162269436246,-0.7202982559634976,-0.7458560452127739,-22.1865466916098,25.39006886422467,16.50054782804437,1.7097199127416378,-0.0120987898613921,2.410164467337052,3207.869140625,11.969222222222225,0.2388888888888888,179.1116523916667,0.8742270390341182,89.4293880106478,1553.0,1537.0,1200.0,1528.0,1471.0,1010.0,61.0,293.85,1649172037.725669,1649172038.7847984,0b0b99b3-c03a-4990-9cac-d7b50f774964
-0.1801195547404502,-0.0079127142560945,-0.446161549958093,-0.2844736464637886,-0.5768952364981202,0.4193103246768131,-0.7202297731845139,-0.745595810461604,-22.08328927153024,25.472197278205066,16.577777311324823,1.7221179717681452,-0.0131332953215304,2.4134053325570832,3209.0709635416665,11.965333333333334,0.2333333333333332,179.0938984532841,0.8800033157856372,89.40702597130517,1553.0,1537.0,1200.0,1528.0,1471.0,1010.0,61.0,293.85,1649172038.8926263,1649172040.0033925,0b0b99b3-c03a-4990-9cac-d7b50f774964
-0.1829136529440131,-0.0071320104084883,-0.4452027906849191,-0.283802515102655,-0.5754844905308564,0.4155300748012819,-0.7194901588238252,-0.7421168834060388,-22.076865670205745,25.403377458121025,16.244517348599512,1.71165097244888,-0.0073199888075752,2.4087869509700583,3206.669189453125,11.967,0.23,179.0884069811914,0.8859965044041571,89.40305080120822,1553.0,1537.0,1200.0,1528.0,1471.0,1010.0,61.0,293.85,1649172040.1118572,1649172041.2322972,0b0b99b3-c03a-4990-9cac-d7b50f774964
-0.1830917082137274,-0.010788991626364,-0.457748841205595,-0.4876621324450337,-0.6107531401381072,0.6194581170597196,-0.6774554040163269,-0.7021777019879988,-22.02848485545056,25.275838216025225,18.15258376607624,2.628620191046331,-0.0139874972197393,2.4146246227620463,3202.4098849826387,11.95622222222222,0.2233333333333333,179.0944570109762,0.9357707134968152,89.35894068063837,1553.0,1633.0,1200.0,1528.0,1471.0,1010.0,61.0,293.85,1649172043.2816522,1649172044.3131256,009dd0f8-935f-4732-bc86-6c8f4a86daa8
-0.1825301492694221,-0.0077757486714229,-0.4515990848883817,-0.4903329620043606,-0.6065072054927331,0.6185678408373293,-0.6714152192864908,-0.6908369473826234,-21.925364971647003,25.309330971142003,18.14209935289321,2.633222839606421,-0.002603672142341,2.392243540869933,3200.681884765625,11.957555555555556,0.23,179.09775523343544,0.9483203501100186,89.30733404799948,1553.0,1645.0,1200.0,1528.0,1471.0,1010.0,61.0,293.85,1649172044.4252598,1649172045.4819038,009dd0f8-935f-4732-bc86-6c8f4a86daa8
-0.1674639335068283,-0.0070635276107698,-0.448736503512048,-0.4897987960803947,-0.6031378509933373,0.6174721162567516,-0.6692785553852459,-0.6914122030142523,-22.0283406435572,25.29726958955906,18.17538618246158,2.629571704585319,0.000616906605881,2.3807809380148046,3201.877685546875,11.946888888888887,0.22,179.1053018335584,0.9478470986347144,89.25287694974696,1553.0,1645.0,1200.0,1528.0,1471.0,1010.0,61.0,293.85,1649172045.593304,1649172046.672799,009dd0f8-935f-4732-bc86-6c8f4a86daa8
-0.1663791659711339,-0.0163262364618474,-0.4593847585848313,-0.6659508384916619,-0.6332894652890141,0.7955531103184659,-0.6314092011270553,-0.6548401860801374,-21.90079152168661,25.243866021858352,19.24578241822153,3.42644992780439,-0.0235014009357912,2.381400888168317,3203.340087890625,11.949444444444444,0.2277777777777778,179.09371024362696,1.0046624145619114,89.12521995524952,1553.0,1761.0,1200.0,1528.0,1471.0,1010.0,61.0,293.85,1649172049.0145323,1649172050.142855,710c0771-bf4e-43c7-81dc-9949992f2996
-0.1711521431097331,-0.0161816008003023,-0.4622906210671468,-0.6642283586596585,-0.6372735215579316,0.7954873668473179,-0.6342098742630735,-0.6662401107086321,-21.7389564619963,25.30100941711506,19.458412567074404,3.422766176997817,-0.0263842148874908,2.3951981113734906,3203.073974609375,11.939444444444446,0.2055555555555555,179.12187339030464,1.0155412457943185,89.07741925579813,1553.0,1761.0,1200.0,1528.0,1471.0,1010.0,61.0,293.85,1649172050.2515364,1649172051.4858668,710c0771-bf4e-43c7-81dc-9949992f2996
-0.165616541506702,-0.0122369918263221,-0.4628954613341756,-0.6679494409119843,-0.6377863209878699,0.7944486199297804,-0.6371157372603704,-0.6641231693673465,-22.00888578857654,25.315692827300403,19.36089036839217,3.4287416238118253,-0.0083946524850664,2.400970686767008,3199.3546549479165,11.949111111111112,0.2122222222222222,179.11302601859975,1.0024811296174445,88.99864744301028,1553.0,1761.0,1200.0,1528.0,1471.0,1010.0,61.0,293.85,1649172051.5942123,1649172052.810496,710c0771-bf4e-43c7-81dc-9949992f2996
-0.1525209868741314,-0.0118847163328958,-0.4354919284713499,-0.7247359431090518,-0.6228472054247778,0.8483823756329613,-0.5998095863456714,-0.6281340794976628,-22.00358492764332,25.85066474148104,19.88580074147057,3.683031658919532,-0.0030252462790153,2.2902222299850283,3202.8081325954863,11.911444444444443,0.2122222222222222,179.08494786983175,1.0264952091075956,88.95881074413116,1553.0,1887.0,1200.0,1528.0,1471.0,1010.0,61.0,293.85,1649172053.8286965,1649172054.8544958,117cb126-8ede-4a11-96c2-c8b6b67afa71
-0.1495762265412561,-0.0106931157112674,-0.4168646047820572,-0.7173261017470279,-0.6053293011869973,0.840520551685553,-0.5783744653436546,-0.6092465184359642,-21.475781408762074,25.686348069496848,20.057442513552985,3.6487815889176303,-0.0035471634934592,2.2113398573032383,3196.703450520833,11.912333333333333,0.21,179.0983198624068,1.039625939479795,88.86556044812268,1553.0,1887.0,1200.0,1528.0,1471.0,1010.0,61.0,293.85,1649172054.9629529,1649172056.0926354,117cb126-8ede-4a11-96c2-c8b6b67afa71
-0.1537169704493844,-0.0119082744285124,-0.4281171518947106,-0.7302874346523778,-0.618063269907791,0.8566156502185274,-0.5879264482486242,-0.6036128487238371,-21.62474736481808,25.826709328366032,20.398328996321663,3.7145365394943832,-0.0091868249179171,2.2576807592738404,3195.908447265625,11.91325,0.21125,179.1160385114787,1.0339769417026337,88.79175484690762,1553.0,1887.0,1200.0,1528.0,1471.0,1010.0,61.0,293.85,1649172056.2006428,1649172057.238022,117cb126-8ede-4a11-96c2-c8b6b67afa71
-0.1902139193577908,0.0006339384664859,-0.3927449602152468,0.1236290342469744,-0.4862650831061775,0.014357890355136,-0.7837544393054707,-0.8094218027050951,-22.286968319534733,26.616748756795182,13.573846128601142,-0.0987780915099253,0.0001467680143199,2.3073601500702967,3197.76318359375,11.96388888888889,0.23,179.09903020208048,0.7473945408616377,88.72328988444104,1553.0,1335.0,1200.0,1528.0,1471.0,1010.0,61.0,293.85,1649172059.3602877,1649172060.498971,866bab24-7e3c-4898-8022-dae88f5d4533
-0.1901865262178485,0.0031130156129836,-0.3993877924324154,0.1233687996582941,-0.4931955434812352,0.0124129790221811,-0.7913286396585159,-0.8216391388220837,-22.28285478597724,26.60986233964441,13.55394190139554,-0.1029390632769897,0.0092029141823745,2.336913963301567,3199.0396118164062,11.96925,0.23,179.1055627088392,0.7540137975446654,88.82982461379396,1553.0,1335.0,1200.0,1528.0,1471.0,1010.0,61.0,293.85,1649172060.6076565,1649172061.636707,866bab24-7e3c-4898-8022-dae88f5d4533
-0.1970895924380617,-0.002077980186779,-0.4058799624332616,0.1262861665394279,-0.4980852160751282,0.0139196004580515,-0.7979440803646819,-0.8217213180902455,-22.37912852132985,26.65442938582193,13.376582649505474,-0.1062389088937854,-0.0087831471969699,2.360904095933831,3202.1436631944443,11.97111111111111,0.23,179.10788971634395,0.7577576750247578,88.93808339672988,1553.0,1335.0,1200.0,1528.0,1471.0,1010.0,61.0,293.85,1649172061.7628453,1649172062.8449714,866bab24-7e3c-4898-8022-dae88f5d4533
-0.2064854324946049,0.0094545223375267,-0.3713509315711187,0.3352545509728819,-0.4493254556827004,-0.1996097594519441,-0.8269397087578835,-0.8497170972917693,-22.2915929307234,27.496211134251883,11.994555967080268,-1.0503260209869865,0.0225748128274561,2.289702460719936,3207.869140625,11.955666666666666,0.2233333333333333,179.10592869314223,0.7035877115216511,89.10986720781516,1553.0,1236.0,1200.0,1528.0,1471.0,1010.0,61.0,293.85,1649172064.912012,1649172065.9251812,733833c1-d182-4e97-b3cf-e09bbe102e60
-0.1965691231465378,0.0155357944355187,-0.365475106862927,0.3314743010875241,-0.4456410805780086,-0.2026777888092546,-0.8210090960451438,-0.8452383209456067,-22.13177792350483,27.448632687608427,11.95581741673356,-1.0486415298018736,0.0454326067663659,2.2690102251262942,3206.669189453125,11.952888888888888,0.22,179.12213749095255,0.697695404560013,89.20960163007568,1553.0,1236.0,1200.0,1528.0,1471.0,1010.0,61.0,293.85,1649172066.033225,1649172067.1595428,733833c1-d182-4e97-b3cf-e09bbe102e60
-0.2024038576676706,0.0096873638343145,-0.3733780226005097,0.335049102628644,-0.4510238293103487,-0.1991166832328534,-0.8302816706845656,-0.853702798136665,-22.4440643947746,27.548197408047315,12.04967276449267,-1.0485788483819196,0.0239364367421657,2.2995132436553245,3208.0025770399307,11.952888888888888,0.2288888888888889,179.11749448013677,0.6941647777995148,89.27786709410023,1553.0,1236.0,1200.0,1528.0,1471.0,1010.0,61.0,293.85,1649172067.2721567,1649172068.2732527,733833c1-d182-4e97-b3cf-e09bbe102e60
-0.1966080213539658,0.0137316837144089,-0.3304354689592472,0.4514649107054921,-0.4049622928625586,-0.3196929827208253,-0.8232093123765655,-0.8464430702021901,-22.071698767059825,28.34017561170897,10.893257254152974,-1.5747439622007948,0.0351213469504556,2.1679852543176583,3205.8702528211807,11.946,0.2277777777777778,179.12317112624694,0.659611763851903,89.40186538393226,1553.0,1133.0,1200.0,1528.0,1471.0,1010.0,61.0,293.85,1649172070.3160205,1649172071.489507,06b64c74-c56d-4157-86b7-7fcca5584488
-0.1952142593967683,0.0223046337527863,-0.3223753169209019,0.4520828994055349,-0.3989533375230405,-0.3285420566213649,-0.8178051956429414,-0.8506901016326719,-22.008366494013853,28.335619066449294,10.96182917710868,-1.5956090974170387,0.0666539261688464,2.1423052756390435,3200.681884765625,11.943,0.21,179.12317264406678,0.6591641077990353,89.46635982462506,1553.0,1133.0,1200.0,1528.0,1471.0,1010.0,61.0,293.85,1649172071.6178906,1649172072.690745,06b64c74-c56d-4157-86b7-7fcca5584488
-0.2017754594621852,0.0142181854760078,-0.3250313540366793,0.4529244159331541,-0.3995713264283719,-0.3215206514580355,-0.8174633293981988,-0.8474292232019356,-22.011744035626048,28.300310808044607,10.935324108130756,-1.582101558471927,0.0363110616869113,2.1452843886610067,3199.2240939670137,11.943555555555555,0.22,179.1182776751616,0.6515054558139921,89.5020392150294,1553.0,1133.0,1200.0,1528.0,1471.0,1010.0,61.0,293.85,1649172072.7991264,1649172073.8154418,06b64c74-c56d-4157-86b7-7fcca5584488
-0.1924793303518091,0.022278336366805,-0.2962751510298978,0.4612475399259792,-0.3776918916842438,-0.3390347177647104,-0.7978323167123427,-0.8140052212228099,-21.892718175867586,28.85564372457296,10.836832451305506,-1.6350754821587117,0.0673796746560181,2.049100220191612,3195.908447265625,11.932333333333334,0.2155555555555555,179.1172819853626,0.6498630621228685,89.55378169254179,1553.0,1026.0,1200.0,1528.0,1471.0,1010.0,61.0,293.85,1649172075.8351138,1649172076.974309,d11c7873-aa4e-4077-84af-3f0c15a01326
-0.1727036893801297,0.0212527380469693,-0.2976031694663152,0.4600247112190122,-0.3775341072277638,-0.3356949487070635,-0.7971091379871842,-0.8216446173604866,-21.92058114422192,28.716847239202096,11.008064595389063,-1.6257851284222642,0.062276651667989,2.049810062828293,3196.04087999132,11.940222222222223,0.22,179.10738580016516,0.6247851391666023,89.55593775558978,1553.0,1026.0,1200.0,1528.0,1471.0,1010.0,61.0,293.85,1649172077.081983,1649172078.3131857,d11c7873-aa4e-4077-84af-3f0c15a01326
-0.1862693101245524,0.0214664043716736,-0.2974853792781947,0.4695082075640954,-0.3769117357029206,-0.343656485511622,-0.8004231593397613,-0.8233786025180679,-21.973745879965136,28.817770302194987,11.134153036092748,-1.6643999751528809,0.0611783560294755,2.0537285119792377,3196.438178168403,11.937888888888889,0.22,179.08859367302873,0.6186058278931995,89.56348511462267,1553.0,1026.0,1200.0,1528.0,1471.0,1010.0,61.0,293.85,1649172078.4224062,1649172079.5434978,d11c7873-aa4e-4077-84af-3f0c15a01326
-0.1886251183975344,-0.0027902012444611,-0.4183712265119142,-0.0946530230473562,-0.5305049789964591,0.2287227246093483,-0.7443905125700567,-0.7711125103134346,-22.06102588848324,25.756385679559703,15.057535496794824,0.8686899299370472,-0.0022088706586058,2.3467775553863954,3197.498046875,11.967666666666666,0.2233333333333333,179.12578632978918,0.7624749522898076,89.5857242105602,1553.0,1435.0,1200.0,1528.0,1471.0,1010.0,61.0,293.85,1649172081.273455,1649172082.413655,b0c3fc05-f50f-4fa7-b837-0dd672c8e26e
-0.1838450190258166,-0.000461786242452,-0.4230554504853742,-0.0848188934491861,-0.5341893542232389,0.2183270371496618,-0.7536083003760314,-0.7734135331165114,-22.19125313184431,25.82083599161241,15.137712660968946,0.8232872786129996,0.0052285558652532,2.371668611510686,3204.804144965278,11.960444444444445,0.2166666666666666,179.1288265228797,0.792622855890764,89.58708341820504,1553.0,1435.0,1200.0,1528.0,1471.0,1010.0,61.0,293.85,1649172082.5214808,1649172083.5273464,b0c3fc05-f50f-4fa7-b837-0dd672c8e26e
-0.1926245139013072,-0.0044337883064418,-0.4249455759752729,-0.0830109476264794,-0.5340797817214095,0.2193405824356845,-0.7542520389170541,-0.777604682423615,-22.24012556852849,25.73817328746208,14.956814196233902,0.8207910332898839,-0.008063483820813,2.374292212304063,3206.802517361112,11.967888888888888,0.23,179.1188438219528,0.7820060916648706,89.55731365925259,1553.0,1435.0,1200.0,1528.0,1471.0,1010.0,61.0,293.85,1649172083.635842,1649172084.754443,b0c3fc05-f50f-4fa7-b837-0dd672c8e26e
-0.148370929293637,0.0159192980800258,-0.2947871565123924,-0.1060622570167719,-0.4186040680200594,0.2150672563286692,-0.6157523856092002,-0.6390228467704488,-21.14400296217981,25.604311119705603,15.19675874951576,0.8693700459119613,0.0694754449348813,1.8458163813146533,3209.070068359375,11.97,0.2244444444444444,179.12413797746947,0.7879039659421603,89.5207023274815,1553.0,1435.0,1200.0,1435.0,1471.0,1010.0,61.0,293.85,1649172085.851661,1649172087.0086858,17e4839b-dbb7-45c4-84d1-ee9633e591df
-0.14683691464728,0.0126732136529766,-0.3035940449686691,-0.1101027420252538,-0.4266028599352982,0.2223401286254676,-0.6227102397097996,-0.651979795919515,-21.199236972578365,25.586368427070767,15.189408580662878,0.8942410617284787,0.057695587963083,1.878152452053249,3207.869140625,11.966,0.22,179.11586434165486,0.770546563915372,89.51762039434601,1553.0,1435.0,1200.0,1435.0,1471.0,1010.0,61.0,293.85,1649172087.1163986,1649172088.348972,17e4839b-dbb7-45c4-84d1-ee9633e591df
-0.1458781554774525,0.0169602365432656,-0.2947460668536988,-0.1076784509489508,-0.4183849230542527,0.2153411875089164,-0.6164098206729413,-0.6456245905343992,-21.260314283347668,25.60822186749955,15.167343779120856,0.8735960771283557,0.0746651833912248,1.8463852868233472,3208.6700846354165,11.968666666666667,0.2266666666666666,179.11191649231463,0.7744133581200984,89.50416947514054,1553.0,1435.0,1200.0,1435.0,1471.0,1010.0,61.0,293.85,1649172088.4576378,1649172089.5777123,17e4839b-dbb7-45c4-84d1-ee9633e591df
-0.1012142228417507,0.0390560729063173,-0.1526913720060184,-0.1102605263787388,-0.2892011512247686,0.188267475193117,-0.4729673649012914,-0.4955173847213852,-20.277296779541985,25.54181089331884,15.153079078422092,0.8257080413080512,0.1600291679870107,1.2759101837228874,3205.469970703125,11.967444444444446,0.2244444444444444,179.10694411459883,0.7865383609239645,89.49404258133114,1553.0,1435.0,1200.0,1330.0,1471.0,1010.0,61.0,293.85,1649172091.9213803,1649172092.9475162,29d5764a-f15e-4da3-bfe7-eca707a22efe
-0.1021609290320173,0.0386090172325154,-0.1538221599850735,-0.1168085774666482,-0.2915153221141465,0.1940134552509354,-0.471139695711221,-0.5017104222232812,-20.10459381699971,25.49485415173384,15.052860514666516,0.85309419593538,0.1587520458508103,1.277888535220875,3203.473442925347,11.96977777777778,0.2288888888888889,179.09969804279933,0.7823652042758416,89.50328838073762,1553.0,1435.0,1200.0,1330.0,1471.0,1010.0,61.0,293.85,1649172093.0556166,1649172094.3819995,29d5764a-f15e-4da3-bfe7-eca707a22efe
-0.1033180143512879,0.041120418227088,-0.1511661231316345,-0.1136265927619589,-0.2893852330123131,0.1893456682726266,-0.4705743016005154,-0.4914807339913972,-20.12404184562127,25.54876495146052,15.167436382615598,0.8359253859603493,0.1670710142794837,1.2710194579282033,3205.469970703125,11.963333333333336,0.2133333333333333,179.09527815149644,0.785505620906101,89.50700172691637,1553.0,1435.0,1200.0,1330.0,1471.0,1010.0,61.0,293.85,1649172094.4908,1649172095.610576,29d5764a-f15e-4da3-bfe7-eca707a22efe
-0.0673168822436307,0.0578192624799712,-0.0276078181836263,-0.1048169659225419,-0.1774898152293528,0.1579071365745179,-0.3507370594346304,-0.3746545423211198,-19.332125329153985,25.784443664421165,15.10747581808076,0.7535102416007257,0.231380552592824,0.7820379002212511,3203.6729736328125,11.96575,0.22,179.09452341559316,0.7655223994918723,89.4906565150501,1553.0,1435.0,1200.0,1210.0,1471.0,1010.0,61.0,293.85,1649172096.312543,1649172097.449766,a8734d9d-6784-47e4-b448-fd645eef9cdf
-0.0620442548438273,0.0582137233680097,-0.0303033009465518,-0.1063422146473985,-0.1799223242103463,0.1605500244796838,-0.3521308213478919,-0.3692767245627987,-19.29798836499085,25.716388960115307,15.323227866641162,0.762355966942419,0.2307219601169718,0.7914001843383928,3205.469970703125,11.965777777777776,0.22,179.07253210374049,0.7694724514495673,89.4858547023361,1553.0,1435.0,1200.0,1210.0,1471.0,1010.0,61.0,293.85,1649172097.55786,1649172098.6919358,a8734d9d-6784-47e4-b448-fd645eef9cdf
-0.0581259431999508,0.0588711581766931,-0.0335641777088021,-0.1060529433569801,-0.1831437550771398,0.1584067870422367,-0.3564698918831187,-0.3871852525524136,-19.34128074847415,25.734648079028663,15.118864820644674,0.7567916041699628,0.2350633897116399,0.8061668162080935,3207.0694986979165,11.961666666666666,0.22,179.0618314740408,0.7712056890282456,89.5160092286118,1553.0,1435.0,1200.0,1210.0,1471.0,1010.0,61.0,293.85,1649172098.800601,1649172099.8157835,a8734d9d-6784-47e4-b448-fd645eef9cdf
-0.0233213431110493,0.0716095054831335,0.0794302403526571,-0.0866679289625009,-0.0789978557650529,0.1217389092197915,-0.2494652381225561,-0.2732424672415972,-18.683249816251177,25.99404130190062,15.058573232474558,0.6383336854470907,0.2834978511413554,0.3599206713723186,3208.6697591145835,11.96,0.22,179.0754979236601,0.740996159571184,89.47177388790718,1553.0,1435.0,1200.0,1071.0,1471.0,1010.0,61.0,293.85,1649172101.755906,1649172102.8881922,50c4f867-4e40-4448-b128-2746e64554f1
-0.0276998590695955,0.0718883674128955,0.0738475230951455,-0.0899589382835045,-0.085672463039079,0.1259163594862206,-0.254435993814136,-0.2756711411603572,-18.623122536763017,26.048688513548385,15.218757164239792,0.6552847664111792,0.2827506866394687,0.3839493148741921,3206.0029568142363,11.955777777777778,0.21,179.07588648553286,0.7351575810594233,89.47428815643164,1553.0,1435.0,1200.0,1071.0,1471.0,1010.0,61.0,293.85,1649172102.9967124,1649172103.9527118,50c4f867-4e40-4448-b128-2746e64554f1
-0.0319501752556547,0.0746364449116897,0.0774579359388143,-0.0838875274640389,-0.0829698579302278,0.1162465893260561,-0.2539166202103737,-0.2784334638719509,-18.56449337108626,26.127254848694907,15.036430631892278,0.6205609351366498,0.2937413334431318,0.3747447541012381,3210.0049913194443,11.954444444444444,0.2111111111111111,179.07190979761612,0.7335116418360743,89.47877103725688,1553.0,1435.0,1200.0,1071.0,1471.0,1010.0,61.0,293.85,1649172104.0615044,1649172105.1400862,50c4f867-4e40-4448-b128-2746e64554f1
-0.2287012529249903,-0.0195684858796642,-0.5445165623781595,-0.0509336060932831,-0.6450219414167778,0.2108213233643814,-0.8899302140313542,-0.9082699163457932,-23.13846870393954,26.41587289850557,14.850666150390694,0.7273580892394828,-0.0690468391406627,2.8789585442017924,3214.017008463541,11.949666666666666,0.22,179.13195323169975,0.751239042087823,89.56089116055786,1553.0,1435.0,1200.0,1613.0,1471.0,1010.0,61.0,293.85,1649172105.7237632,1649172106.7809365,2e8e796f-39e4-46be-be1e-16cc0f6eb0a0
-0.2325434119226508,-0.0161290060085493,-0.5444962914156027,-0.0506180373649204,-0.6455309056759593,0.2082403439871784,-0.889215801132813,-0.9140274049444328,-22.979630173618112,26.3146501375038,15.007258157581582,0.7202813466128039,-0.0586980743827494,2.879399395501012,3215.088623046875,11.956555555555555,0.22,179.13659472469575,0.7527744887717864,89.5252762774957,1553.0,1435.0,1200.0,1613.0,1471.0,1010.0,61.0,293.85,1649172106.8886025,1649172108.2042017,2e8e796f-39e4-46be-be1e-16cc0f6eb0a0
-0.2274274728446237,-0.0201300448041985,-0.55085807091532,-0.0533852901278746,-0.6511580019248946,0.2141358904105519,-0.8945870465787719,-0.9242538092450602,-23.071305379509795,26.35105465896492,14.880759819573347,0.7396299151594318,-0.0719963737835104,2.9026171626506443,3211.474609375,11.954,0.2166666666666666,179.1112152595598,0.7636255012128864,89.49072766285394,1553.0,1435.0,1200.0,1613.0,1471.0,1010.0,61.0,293.85,1649172108.3158555,1649172109.5492013,2e8e796f-39e4-46be-be1e-16cc0f6eb0a0
-0.2542042480562392,-0.0288547528686885,-0.6222171636336619,-0.017774236720642,-0.7154085827426248,0.1919474664126899,-0.9798344765637464,-1.003871952039071,-23.595028875121425,26.743964109365304,14.56819590117613,0.6081777363076848,-0.1071439066968378,3.207061448036626,3204.00537109375,11.937444444444443,0.2122222222222222,179.12671827115594,0.7626524186285547,89.45713755142575,1553.0,1435.0,1200.0,1694.0,1471.0,1010.0,61.0,293.85,1649172110.293748,1649172111.388673,4f5cabcb-6267-4133-b5a5-450814fc8f3b
-0.2569473951149056,-0.0264770302215272,-0.6186418128228329,-0.0197974923838246,-0.7131152301242897,0.1916466900090636,-0.9769045070206326,-0.9996649145549338,-23.58399607540457,26.792816175381777,14.616147657279605,0.6125808929100601,-0.0982524910222195,3.1952178318357984,3199.0899522569443,11.936,0.21,179.12469349952198,0.7488057160482021,89.39257253211152,1553.0,1435.0,1200.0,1694.0,1471.0,1010.0,61.0,293.85,1649172111.4968493,1649172112.6247132,4f5cabcb-6267-4133-b5a5-450814fc8f3b
-0.2554221461709203,-0.0268846398149374,-0.6213635936781329,-0.0165760617802093,-0.7144695461990495,0.1902923743417609,-0.9806255901104896,-1.0106177857581284,-23.70984232259533,26.776397961569323,14.764520024203463,0.6019867453670364,-0.1007750384593774,3.206177497834477,3204.8043077256943,11.93922222222222,0.21,179.1286276884839,0.7549648747061631,89.36531628277363,1553.0,1435.0,1200.0,1694.0,1471.0,1010.0,61.0,293.85,1649172112.7326157,1649172113.9411535,4f5cabcb-6267-4133-b5a5-450814fc8f3b
-0.2767487863938361,-0.0306216089605575,-0.658143249305603,0.0190010237796545,-0.7483762128992955,0.1603221137620695,-1.0317444665934854,-1.0573707452533438,-23.927705104620344,27.251948528243087,14.298000557611608,0.455523447948462,-0.1158180850787559,3.374130964432703,3205.4733072916665,11.916666666666666,0.21,179.120422354561,0.7460060321795845,89.28369096873251,1553.0,1435.0,1200.0,1774.0,1471.0,1010.0,61.0,293.85,1649172115.7806292,1649172116.9172142,6f62f631-940f-4157-9565-590077fd92c9
-0.2542124659545211,-0.0267400041516682,-0.6386409865181157,0.0198063813992208,-0.7305109622270561,0.1558822374566915,-1.012892511061789,-1.0447123768746795,-23.84931291133257,27.2614291384663,14.45996848075402,0.4448289734446702,-0.1021127218468993,3.297129056444329,3208.403103298612,11.91788888888889,0.21,179.12502590206157,0.7330066821561857,89.23565728393945,1553.0,1435.0,1200.0,1774.0,1471.0,1010.0,61.0,293.85,1649172117.0254686,1649172118.0763438,6f62f631-940f-4157-9565-590077fd92c9
-0.2607101142070954,-0.0273755244872089,-0.6591978846212782,0.010029777708999,-0.7508552909725378,0.1657185576540876,-1.0319773081762718,-1.0577679454382831,-23.969152987602182,27.248093007206474,14.338202296687529,0.4877943831550541,-0.1026686150043587,3.379620072934886,3197.100341796875,11.923,0.21,179.1043349823359,0.7420473327992294,89.20411471144243,1553.0,1435.0,1200.0,1774.0,1471.0,1010.0,61.0,293.85,1649172118.1852674,1649172119.1695564,6f62f631-940f-4157-9565-590077fd92c9
-0.2696402715606408,-0.0228967497122196,-0.6635944818334675,0.0558858561895221,-0.7552518884768351,0.1194378873906456,-1.054138355112016,-1.0774773077680022,-23.94254790029765,27.775489641238742,14.27696451051169,0.2836363448125693,-0.0914316831196502,3.423813836860369,3194.452555338541,11.875222222222224,0.1977777777777777,179.1084042572614,0.7315682455027778,89.13341770007335,1553.0,1435.0,1200.0,1856.0,1471.0,1010.0,61.0,293.85,1649172121.3086164,1649172122.346999,3f362d0f-a4d0-417a-a569-c555f9de1822
-0.2608744728842534,-0.0208833555436524,-0.6492404830335066,0.0604742033404665,-0.7404595986899686,0.1110829868302929,-1.0405102699147408,-1.0712453688297645,-23.90597959961276,27.679436227613923,14.079145795808406,0.2545764383971152,-0.0820423757820238,3.3647664747615447,3197.498453776041,11.881999999999998,0.1966666666666666,179.10577387552104,0.7215886750792198,89.05613183288493,1553.0,1435.0,1200.0,1856.0,1471.0,1010.0,61.0,293.85,1649172122.4548976,1649172123.574973,3f362d0f-a4d0-417a-a569-c555f9de1822
-0.2682432223827932,-0.020499851894177,-0.6441453613426346,0.0648297089245047,-0.7363780224332978,0.1065083363132364,-1.036182154358321,-1.0616988615705445,-23.7487494220584,27.73651828631726,14.087146855431833,0.2351841623649198,-0.0820000380045963,3.34628209983684,3194.717041015625,11.882555555555555,0.2,179.0992533215934,0.704707797326713,89.02454296688353,1553.0,1435.0,1200.0,1856.0,1471.0,1010.0,61.0,293.85,1649172123.6833398,1649172125.0077517,3f362d0f-a4d0-417a-a569-c555f9de1822
-0.2009076454728927,-0.0162736416912138,-0.4802122987106362,-0.1250791082871264,-0.5488616602335779,0.2700918079421868,-0.7609633559212411,-0.7840524771413652,-23.06141838597064,21.528759594030973,14.83190603243903,0.9986413223679222,-0.043945679432976,2.478491395986331,7125.04248046875,11.628333333333334,8.175555555555556,179.03806393354898,0.6362437419946506,77.74659000978174,1553.0,1435.0,1350.0,1528.0,1471.0,1010.0,61.0,293.85,1649172129.3521495,1649172130.4242594,b5a4a532-8344-46e9-a87d-01aa7de99778
-0.2020647308744647,-0.0217960942498708,-0.4725334582550974,-0.1225808560150662,-0.5387371612141131,0.2807685486694335,-0.7507468146003763,-0.7761895529010658,-23.23691300452728,21.500994340770728,15.976979890255716,1.01729042695679,-0.0733861487635554,2.440545560600391,7130.970703125,11.626444444444443,8.161111111111111,179.04010843684054,0.6146406896365956,73.01099294414946,1553.0,1435.0,1350.0,1528.0,1471.0,1010.0,61.0,293.85,1649172130.533086,1649172131.649381,b5a4a532-8344-46e9-a87d-01aa7de99778
-0.1902572004887722,-0.0112245422224546,-0.4468671972185615,-0.0954813910720539,-0.5147276352893684,0.2711831497134657,-0.7308002340335255,-0.76244915915861,-23.09181251323215,21.71707243859981,19.80423028728117,0.9380145441331076,-0.0703899660654445,2.3513856571844247,7136.90771484375,11.627666666666665,8.196666666666665,179.03396582004694,0.6710637558631766,68.62820854118432,1553.0,1435.0,1350.0,1528.0,1471.0,1010.0,61.0,293.85,1649172131.7590382,1649172132.994424,b5a4a532-8344-46e9-a87d-01aa7de99778
-0.0727472940359058,0.1972085883150812,-0.4456706655793074,-0.3021000245349042,-0.5745542203897049,0.2507500768754939,-0.7480907767648436,-0.7643031269025982,-22.57993012009284,20.98379304978084,18.829499174170333,1.3534805888472825,0.7418796332762674,2.478551602914781,7136.90771484375,11.609,8.2,178.97002614249675,0.773088301421116,63.56518283148036,1647.0,1435.0,1350.0,1528.0,1543.0,1010.0,61.0,293.85,1649172133.723238,1649172134.728171,7b7935db-9650-48fb-af73-c7225ae4c20d
-0.0718794800967496,0.1923567195843928,-0.4527709631098486,-0.3094107005983557,-0.5793797933719069,0.248830367322434,-0.7540997334995034,-0.7791217134211271,-22.75683816054833,20.833613011283013,16.87723610360282,1.3639084771730736,0.7426845783285881,2.499891417312118,7136.90771484375,11.613666666666669,8.203333333333335,178.9846928353745,0.8584132479017855,60.70734516701753,1647.0,1435.0,1350.0,1528.0,1543.0,1010.0,61.0,293.85,1649172134.8407352,1649172136.0671167,7b7935db-9650-48fb-af73-c7225ae4c20d
-0.0838053481025702,0.1914363108799569,-0.4596477328077272,-0.3112252209756548,-0.585967292136594,0.2500268986347341,-0.7594907012498331,-0.7813832902523916,-22.6649663956311,20.759399683627223,16.63491599442919,1.3698635885509884,0.7405161144872265,2.5255388683321174,7136.90771484375,11.615111111111112,8.184444444444445,178.9910631251404,0.929176302219792,58.50781858968841,1647.0,1435.0,1350.0,1528.0,1543.0,1010.0,61.0,293.85,1649172136.1754491,1649172137.3933218,7b7935db-9650-48fb-af73-c7225ae4c20d
0.0529684891895583,0.4278843696492025,-0.4282464477287542,-0.4815671628427101,-0.6194915478041002,0.1876330505655376,-0.7667706993378637,-0.7932598557058101,-22.436252330974373,20.47471345925856,18.49535530793325,1.613994016415237,1.6321908704409387,2.56877931130143,7136.90771484375,11.598,8.21,178.89892235541708,1.102475905408208,54.41155568949088,1745.0,1435.0,1350.0,1528.0,1614.0,1010.0,61.0,293.85,1649172139.3208537,1649172140.4809144,dca39f8e-3958-4786-b8fb-e98bb69b377d
0.0586251679167045,0.4203101733768288,-0.4286710413272552,-0.4748558477081984,-0.6166015732362182,0.1884411473723834,-0.7644696770310174,-0.7870142237171386,-22.38821401144673,20.3284047397704,18.44252706292457,1.5996955552108576,1.603055536521165,2.5613071632887405,7136.90771484375,11.589444444444444,8.214444444444446,178.91473500225558,1.1616487868218883,53.27892439217536,1745.0,1435.0,1350.0,1528.0,1614.0,1010.0,61.0,293.85,1649172140.589451,1649172141.6028578,dca39f8e-3958-4786-b8fb-e98bb69b377d
0.0649666745235762,0.4197486145231767,-0.3997439032425194,-0.4542699148817424,-0.5868937276624288,0.1968919238281124,-0.7379668240500776,-0.7698661232279695,-22.606672924345787,20.62614548545965,22.469014992615328,1.5761947739333368,1.566113193785079,2.4491952996454653,7136.90771484375,11.58788888888889,8.221111111111112,178.91148231439087,1.2182741025388926,52.2122321205621,1745.0,1435.0,1350.0,1528.0,1614.0,1010.0,61.0,293.85,1649172141.712059,1649172142.9236631,dca39f8e-3958-4786-b8fb-e98bb69b377d
0.2007406566136447,0.6562059801796155,-0.396360852791024,-0.653541205048027,-0.6521030652345071,0.133011176543079,-0.771454924634298,-0.7916710546228757,-22.210496566545057,20.289939906125,20.12587058046008,1.879919034401609,2.495678597356921,2.60505560288452,7136.90771484375,11.567555555555556,8.194444444444445,178.80372014312582,1.3483248648970163,50.33994597764755,1849.0,1435.0,1350.0,1528.0,1686.0,1010.0,61.0,293.85,1649172144.760259,1649172146.0070374,f40b76e0-19bf-4106-baa2-3295657e3f81
0.2015761466525002,0.6549869865840124,-0.389238640759396,-0.6471449095141063,-0.6448712795957544,0.1376953995501466,-0.7655654015258021,-0.7897672317978802,-22.332346323394773,20.45851930099449,21.50716710780662,1.877647655698538,2.479393504958704,2.578814245763354,7136.90771484375,11.563,8.220000000000002,178.8235868866917,1.403483065466676,49.71385289282879,1849.0,1435.0,1350.0,1528.0,1686.0,1010.0,61.0,293.85,1649172146.1366107,1649172147.2251055,f40b76e0-19bf-4106-baa2-3295657e3f81
0.1984971604226945,0.6572814338552501,-0.3766399963103882,-0.6465565050093245,-0.6344071055839963,0.1411294006009046,-0.7537710162583537,-0.7813964395189237,-22.317572878364537,20.622628861152403,22.48322906485099,1.885915275151922,2.4799727268060874,2.532198046400377,7136.90771484375,11.565666666666669,8.2,178.84617659900664,1.4530949627028076,49.22440153690569,1849.0,1435.0,1350.0,1528.0,1686.0,1010.0,61.0,293.85,1649172147.3333485,1649172148.5726025,f40b76e0-19bf-4106-baa2-3295657e3f81
0.2168790369732765,0.6936901702141575,-0.370986055535305,-0.6937077474418877,-0.6458201775695999,0.1395121108144751,-0.7575446935332826,-0.7873528017388177,-22.435246986357843,21.15261427336982,21.154657707622803,1.992166509594108,2.6353083323749265,2.5472274251838063,7136.90771484375,11.506,8.19,178.77464175109935,1.4946539246118868,48.73004952025309,1962.0,1435.0,1350.0,1528.0,1760.0,1010.0,61.0,293.85,1649172149.2214196,1649172150.1883552,7e9033e0-b200-4ea5-8a3c-c08d7a4bf140
0.2292388109028937,0.6897324130293957,-0.3673044199764325,-0.6852399837798434,-0.6425724484528446,0.1362906804469196,-0.7542706666456038,-0.7797791486023182,-22.23585158056825,21.27398281496654,21.278080959943303,1.9669342577642,2.6171520592427786,2.5329829743369863,7136.90771484375,11.504333333333332,8.193333333333333,178.82927871100003,1.5087025920914472,48.485978402087,1962.0,1435.0,1350.0,1528.0,1760.0,1010.0,61.0,293.85,1649172150.296621,1649172151.35418,7e9033e0-b200-4ea5-8a3c-c08d7a4bf140
0.2190748691629915,0.6959780431416359,-0.3760088586047442,-0.7025305261659454,-0.6529730710618605,0.1390387578278072,-0.7613841146716609,-0.7902849622624782,-22.250887686684884,21.11688225010696,20.21699138482734,2.010461207821616,2.651662158008108,2.568303646020349,7136.90771484375,11.507555555555555,8.184444444444445,178.8277350882476,1.5484235572096563,48.28177509810625,1962.0,1435.0,1350.0,1528.0,1760.0,1010.0,61.0,293.85,1649172151.4631412,1649172152.4534128,7e9033e0-b200-4ea5-8a3c-c08d7a4bf140
-0.3437813978880117,-0.2748427729522464,-0.4582013759638648,0.1130569345445732,-0.4591743796828993,0.2967442136642981,-0.7116557242229768,-0.731615453280369,-23.005947897701112,22.58737168679383,14.039844282457748,0.5293715954175895,-1.0350160289770232,2.2254154976187874,7136.90771484375,11.622444444444444,8.224444444444446,179.29921697537435,1.47808488175469,47.77979641633543,1459.0,1435.0,1350.0,1528.0,1394.0,1010.0,61.0,293.85,1649172154.214246,1649172155.3180096,a7041730-6e50-40ed-8042-bec623d895da
-0.3448069964416221,-0.2750230196839853,-0.4525441479383712,0.1207801500222032,-0.4545986321735805,0.2910831524528887,-0.7094231842694795,-0.7335154409544943,-23.0056443695104,22.80326883302337,14.248629452522463,0.5009750878846569,-1.0381332633707143,2.208545063509906,7142.85498046875,11.625222222222224,8.212222222222222,179.2889701737995,1.5098408976632796,47.65172164193376,1459.0,1435.0,1350.0,1528.0,1394.0,1010.0,61.0,293.85,1649172155.4292085,1649172156.5494602,a7041730-6e50-40ed-8042-bec623d895da
-0.3469025702425337,-0.2726398181745219,-0.4501061599906715,0.1238344825118534,-0.4515442989331228,0.2921377873749144,-0.7060401330283135,-0.7229006040268958,-22.95800270288358,22.7011368646486,15.15317760627319,0.4960676897638396,-1.037772222565509,2.1979111286861293,7142.85498046875,11.625,8.247777777777777,179.27947013957387,1.4977162328114817,47.53324593950063,1459.0,1435.0,1350.0,1528.0,1394.0,1010.0,61.0,293.85,1649172156.6580474,1649172157.784706,a7041730-6e50-40ed-8042-bec623d895da
-0.4699113881012498,-0.5002355762879274,-0.4898398859410184,0.2982875416867532,-0.4323691125777182,0.3149151628436409,-0.7204900080174547,-0.7427606218778711,-23.041536705173044,23.417675328243977,9.3128299079472,0.1555266451506509,-1.863026265018933,2.2119295340016247,7142.85498046875,11.599555555555554,8.23,179.34279813573843,1.4230701744474377,47.29796451588642,1364.0,1435.0,1350.0,1528.0,1312.0,1010.0,61.0,293.85,1649172159.8128586,1649172160.9021523,e28ea9b6-6b57-48c0-add2-381d79039919
-0.4704044643029754,-0.4994000860059309,-0.4686376081531092,0.3196541717096892,-0.4110024767384082,0.3193254544428518,-0.70319124772141,-0.7281189955173618,-23.212033566023408,23.75594156295428,12.996007715672542,0.121038712452964,-1.8926106869624284,2.134521789573768,7142.85498046875,11.60577777777778,8.204444444444444,179.3785185072778,1.4334303263317794,47.25261016252277,1364.0,1435.0,1350.0,1528.0,1312.0,1010.0,61.0,293.85,1649172161.0108652,1649172161.9807684,e28ea9b6-6b57-48c0-add2-381d79039919
-0.4647614809025058,-0.4979619469979036,-0.465172378069078,0.3179284054666021,-0.4081946816811211,0.3180927642671955,-0.6990137957330642,-0.7196134282073826,-23.11518739877252,23.705938695509246,12.824791478879083,0.1220241261756007,-1.88595345162196,2.1200318264664384,7142.85498046875,11.600333333333332,8.212222222222223,179.36186498826152,1.4247919868746135,47.1981724164729,1364.0,1435.0,1350.0,1528.0,1312.0,1010.0,61.0,293.85,1649172162.0945036,1649172163.210466,e28ea9b6-6b57-48c0-add2-381d79039919
-0.6134102733895093,-0.7446781403110831,-0.4890728786054922,0.5323206195945537,-0.3680500606100196,0.3377336279269838,-0.7057798983220526,-0.727762884285888,-23.71251778130801,25.08151883759577,9.187531301825542,-0.3104082189822094,-2.802712581698915,2.0734807030458384,7142.85498046875,11.567888888888888,8.207777777777778,179.45494073499114,1.4065063135219544,47.27495854148705,1262.0,1435.0,1350.0,1528.0,1222.0,1010.0,61.0,293.85,1649172165.2286313,1649172166.3799143,280b5f5c-8d4a-40c9-a2f5-8d886170aba3
-0.61017788451719,-0.7437604705158266,-0.4734314048561974,0.5554404083288119,-0.353202988505333,0.3348299577147749,-0.6935077770535059,-0.721763788807413,-23.55614228785944,25.36296089253868,12.030597596256532,-0.3659092616570565,-2.827425755911945,2.01878201483342,7142.85498046875,11.569,8.214444444444446,179.46896387226712,1.416576609253394,47.26226653218935,1262.0,1435.0,1350.0,1528.0,1222.0,1010.0,61.0,293.85,1649172166.4873877,1649172167.4348595,280b5f5c-8d4a-40c9-a2f5-8d886170aba3
-0.6171905248205868,-0.7377339821769399,-0.4797866094189116,0.538223835799573,-0.360927848785002,0.3392813389346738,-0.6975071735711142,-0.7262151724927035,-23.573267035202605,25.1721850142862,11.2121092502059,-0.318790259197671,-2.795733707188121,2.0431508514147225,7142.85498046875,11.567,8.198888888888888,179.49231401230966,1.392965451634437,47.27945660051045,1262.0,1435.0,1350.0,1528.0,1222.0,1010.0,61.0,293.85,1649172167.543929,1649172168.8342106,280b5f5c-8d4a-40c9-a2f5-8d886170aba3
-0.6836752874551658,-0.8489413236702857,-0.4698116775701818,0.6568475269192865,-0.3286998410991,0.3384387266363436,-0.6901838949214749,-0.7156134838061823,-23.690993906944804,26.70192615816065,11.179504884335511,-0.577696639894058,-3.225653452252156,1.962059276189437,7142.194173177083,11.518888888888888,8.20111111111111,179.53870465715238,1.3588896141493088,47.38690989544301,1153.0,1435.0,1350.0,1528.0,1121.0,1010.0,61.0,293.85,1649172169.743252,1649172170.7820604,ed7a8816-ecb6-44bc-b990-b4c0b5d556ef
-0.6684753890612122,-0.8367130299331386,-0.490060675021467,0.6166256689935306,-0.3545764799563159,0.3385833622807266,-0.7072246121624393,-0.7252120362736924,-23.49925385004024,26.42516483913722,7.499068963262347,-0.4899740820343528,-3.144863594809842,2.0453518585309105,7136.90771484375,11.51811111111111,8.203333333333333,179.53100475722806,1.3297593672317984,47.393662296347465,1153.0,1435.0,1350.0,1528.0,1121.0,1010.0,61.0,293.85,1649172170.890343,1649172172.0066006,ed7a8816-ecb6-44bc-b990-b4c0b5d556ef
-0.6700592595414303,-0.8448822096648055,-0.4754037100822006,0.6409206222736339,-0.3348359004400392,0.3401716150768719,-0.6933708116511331,-0.7178739646476706,-23.71540835311372,26.474121532229347,9.876193005117244,-0.5398840487566186,-3.1971027126587246,1.9811665768499849,7136.90771484375,11.52022222222222,8.2,179.5472150728582,1.344451756324698,47.44576677388587,1153.0,1435.0,1350.0,1528.0,1121.0,1010.0,61.0,293.85,1649172172.114919,1649172173.2372615,ed7a8816-ecb6-44bc-b990-b4c0b5d556ef
-0.1912000716227536,-0.00635130655189,-0.429246296559031,-0.0973512453894372,-0.4991672447369676,0.2643885613133844,-0.7119296555358008,-0.7306528593184011,-22.800273177313382,21.58958575739054,19.41305565231788,0.9270808065690218,-0.0493637140894589,2.2795826855014223,7136.90771484375,11.623666666666669,8.233333333333333,179.26618314490852,1.408790833929814,47.59217757056939,1553.0,1435.0,1350.0,1528.0,1471.0,1010.0,61.0,293.85,1649172175.265956,1649172176.404252,58bca1a2-3acb-4fc9-b95a-2ca5263669a3
-0.1865706344654096,-0.016746994771351,-0.4692676499766908,-0.1309489056986271,-0.5356137970538293,0.2708396400452101,-0.7429797666718231,-0.7725095600795084,-22.82398101137363,21.020667792576905,14.220491443065852,1.0107614512114635,-0.0405746994052038,2.4193272540555424,7138.89013671875,11.631666666666666,8.226666666666667,179.2906853101911,1.4212970881696172,47.6474633984412,1553.0,1435.0,1350.0,1528.0,1471.0,1010.0,61.0,293.85,1649172176.5172951,1649172177.539318,58bca1a2-3acb-4fc9-b95a-2ca5263669a3
-0.1821313054218383,-0.0120923561834615,-0.4671293428845146,-0.1274458736079106,-0.5336880604951011,0.2660814558625756,-0.7439094896554791,-0.7730733106988744,-22.95505058739504,21.069581894656515,14.65548792204781,0.9926012886587162,-0.026339570694637,2.41620902621174,7142.85498046875,11.624333333333333,8.243333333333332,179.3283469732745,1.389177839006417,47.722932435310405,1553.0,1435.0,1350.0,1528.0,1471.0,1010.0,61.0,293.85,1649172177.647499,1649172178.8639462,58bca1a2-3acb-4fc9-b95a-2ca5263669a3
-0.1826397217135587,-0.0099671981046563,-0.4682678008888195,-0.3271795229299321,-0.557035220776542,0.4818761989352325,-0.6895220768542409,-0.713819782032359,-23.06562980650808,20.91619110127029,19.68675796021321,1.9277438846429629,-0.0376615889472005,2.3777121063342506,7142.85498046875,11.615777777777778,8.23,179.28469143973942,1.4125815177713674,47.82539134413985,1553.0,1537.0,1350.0,1528.0,1471.0,1010.0,61.0,293.85,1649172179.7706175,1649172181.0187063,5a6171db-458d-4abc-9867-222700ad9a31
-0.1818179281762406,-0.0143364003921142,-0.4639396877053432,-0.334041499783134,-0.5535015080108099,0.4822870956670291,-0.681879394588688,-0.6980413403711174,-22.837945687064646,20.839965635615467,18.284954887269524,1.943747521240432,-0.042118158148638,2.353742365313601,7147.488986545139,11.620666666666663,8.222222222222221,179.26926887259353,1.4070364358084728,47.8688085799639,1553.0,1537.0,1350.0,1528.0,1471.0,1010.0,61.0,293.85,1649172181.1269965,1649172182.1367953,5a6171db-458d-4abc-9867-222700ad9a31
-0.1761201593824749,-0.0104191845599726,-0.4785402225746016,-0.3453137693697191,-0.5684855473992642,0.4785753286121328,-0.6965895040833491,-0.7254344682957489,-22.879948182668148,20.694692498788868,16.717401793701946,1.9588731011808675,-0.0127759524086462,2.413191867664985,7148.81298828125,11.6245,8.2275,179.2298158026728,1.3815387882413352,47.890771242967546,1553.0,1537.0,1350.0,1528.0,1471.0,1010.0,61.0,293.85,1649172182.2474391,1649172183.3777304,5a6171db-458d-4abc-9867-222700ad9a31
-0.1699977970734129,-0.011569695498541,-0.4950308832147289,-0.5820177513171676,-0.6127117490533363,0.710841547079862,-0.648569351648396,-0.6730314151595431,-22.507304503721823,20.448781135079454,18.71110475514805,3.012806583412633,-0.0093049511991035,2.428496486509933,7148.81298828125,11.607777777777777,8.22,179.19351752123865,1.445957830049,47.96370571047224,1553.0,1645.0,1350.0,1528.0,1471.0,1010.0,61.0,293.85,1649172184.2236297,1649172185.6194403,499cfed6-ce86-4e53-857f-5dd456cd9fde
-0.1682035477169119,-0.0110629228100571,-0.4760474483239876,-0.5750462008829017,-0.5935776505603045,0.7186622812764775,-0.6303392259733446,-0.6532124880267097,-22.69871178982648,20.60011160700377,20.947209808496567,3.0168632424784203,-0.0255203865217755,2.353683137862605,7148.81298828125,11.606,8.212222222222222,179.1980026787936,1.4693111243108548,48.00470961278955,1553.0,1645.0,1350.0,1528.0,1471.0,1010.0,61.0,293.85,1649172185.7282517,1649172186.8470695,499cfed6-ce86-4e53-857f-5dd456cd9fde
-0.1635878071075868,-0.0075703002933264,-0.462378279401596,-0.5715398810027832,-0.5808809366093336,0.7154983765519333,-0.6171905250216275,-0.6486241381593896,-22.61301323441823,20.598792482221302,21.54536624444214,3.0026545042954,-0.0178941002726785,2.30039369483242,7148.81298828125,11.614333333333333,8.203333333333333,179.1744992389497,1.46083370932804,48.026563941403865,1553.0,1645.0,1350.0,1528.0,1471.0,1010.0,61.0,293.85,1649172186.9547815,1649172188.0130656,499cfed6-ce86-4e53-857f-5dd456cd9fde
-0.1542034722753824,-0.0062806323205322,-0.5276922530588802,-0.8336756799562457,-0.6719992409405251,0.9189667625896308,-0.6252293118174286,-0.655813190426115,-22.79915078493264,20.119891326979108,16.06246559497966,4.043794677644479,0.0649810327767401,2.515166624851916,7148.81298828125,11.598,8.19,179.14291189076812,1.4583272433460568,48.02885205477583,1553.0,1761.0,1350.0,1528.0,1471.0,1010.0,61.0,293.85,1649172188.7080142,1649172189.7157238,189c9996-e543-47d1-8e04-05f6564e756b
-0.1498381047644375,-0.0069117697637439,-0.4911651655526614,-0.7993838644843839,-0.6363399642854553,0.9223065312601506,-0.5928440626261231,-0.6170508202314855,-22.71845562204476,20.60558068904718,21.194239514341444,3.97984280250143,0.0146617634179708,2.3780165823783976,7148.81298828125,11.59677777777778,8.217777777777778,179.13670400772247,1.4879514457497924,48.037034621401496,1553.0,1761.0,1350.0,1528.0,1471.0,1010.0,61.0,293.85,1649172189.8238573,1649172190.9438984,189c9996-e543-47d1-8e04-05f6564e756b
