raw_voltage_G-,raw_voltage_G0,raw_voltage_G1,raw_voltage_G2,raw_voltage_G3,raw_voltage_G4,raw_voltage_G5,raw_voltage_G6,load_x,load_y,load_z,load_l,load_m,load_n,rpm,voltage,current,roll,pitch,yaw,aileron1_pwm,elevator_pwm,throttle_pwm,rudder_pwm,aileron2_pwm,pbaro,pdiff,Tt,sample_start_time,sample_end_time,uid
-0.0162128290110175,0.1125622151727056,0.0550229730828855,-0.1055280911165353,-0.1391120549317061,0.0888808657049348,-0.2691198021333716,-0.2932394454482979,-14.511452135146078,26.45999564020956,13.426414811838896,0.6107545292984465,0.4228169333109368,0.5082661880847433,3290.2477213541665,11.973666666666666,0.2811111111111111,178.8644450783067,1.0207092681127197,92.75071548199853,1553.0,1435.0,1200.0,1528.0,1471.0,1010.0,61.0,293.85,1649166080.8785944,1649166081.8604934,9c08f8a4-a865-452d-a346-855b653e2f2e
-0.0075955020161506,0.1208409628858009,0.0584898459867848,-0.1099844036681331,-0.1367682996631759,0.0856944983571923,-0.2669535541488377,-0.2912786459027949,-14.578086303393246,26.379640918151186,13.56616805947794,0.6132753672276252,0.4538673473757217,0.4984100495182605,3544.070258246528,11.970555555555556,0.2733333333333333,178.86277244086992,0.9817488730177132,91.69649323853491,1553.0,1435.0,1200.0,1528.0,1471.0,1010.0,61.0,293.85,1649166081.9943898,1649166083.2889774,9c08f8a4-a865-452d-a346-855b653e2f2e
-0.0018758190174342,0.119236821978139,0.0606988269517648,-0.107039095538087,-0.134493575052551,0.0846557513663033,-0.264994398157041,-0.2899243298537582,-14.54557678907139,26.42120187284977,13.595972174791282,0.604703891010765,0.4471347081784735,0.4893907243592238,3596.577338324653,11.969666666666663,0.2922222222222222,178.87320289864246,0.9655077148145784,90.718633268902,1553.0,1435.0,1200.0,1528.0,1471.0,1010.0,61.0,293.85,1649166083.4018433,1649166084.405676,9c08f8a4-a865-452d-a346-855b653e2f2e
0.1010434095399493,0.3297759279703558,0.072349119638012,-0.2085262198914519,-0.1726686261228024,-0.0253484337637194,-0.3006629809556365,-0.3231390381065785,-14.356181910132676,25.998834772074783,13.910249886704335,0.5843655055783615,1.2458850771257497,0.6016248161749816,3627.349365234375,11.952,0.27,178.71407163353967,0.9544274760074272,89.24574471443367,1647.0,1435.0,1200.0,1528.0,1543.0,1010.0,61.0,293.85,1649166086.3395092,1649166087.3850815,c255f447-df19-4641-b5ba-66e6cac4fa1e
0.0972494628684388,0.32814603761019,0.0729654647714906,-0.2079098747001573,-0.1713811495072163,-0.0247183920515157,-0.2983619587708461,-0.3264946949334564,-14.268826573353882,25.912869297675183,13.865297929178167,0.5838885908903787,1.2395138555677945,0.5955960729240811,3630.0804850260415,11.944111111111113,0.2877777777777777,178.7324023434522,0.957706761292843,88.70618026057016,1647.0,1435.0,1200.0,1528.0,1543.0,1010.0,61.0,293.85,1649166087.493457,1649166088.82499,c255f447-df19-4641-b5ba-66e6cac4fa1e
0.1172250714455614,0.3257370870485914,0.0709153638934285,-0.2103352615379921,-0.1721514440241248,-0.0202971428278995,-0.2984052399012206,-0.3153407639501667,-14.315289589614226,25.82073621538426,13.834092153613028,0.598553601362871,1.2312513451928104,0.5991499363183848,3628.0372450086807,11.948666666666666,0.2822222222222222,178.75182740145172,0.9587369222028168,88.28559846095818,1647.0,1435.0,1200.0,1528.0,1543.0,1010.0,61.0,293.85,1649166088.937719,1649166089.944686,c255f447-df19-4641-b5ba-66e6cac4fa1e
0.2321057744117466,0.5575907678602029,0.089456121164863,-0.3154826595673856,-0.2096356412463838,-0.1484120188978867,-0.3347126309056871,-0.3524222847943387,-14.03561408455488,25.51518909819864,14.085770107595252,0.5469277349741587,2.1107496227995424,0.7044339962958328,3602.95361328125,11.930555555555555,0.2922222222222222,178.63898812290367,0.9598025740089464,87.77504637395919,1745.0,1435.0,1200.0,1528.0,1614.0,1010.0,61.0,293.85,1649166090.847358,1649166091.9936926,132a6010-8c92-44aa-8400-f0ffa2df75bb
0.2338041475859008,0.5548651529591315,0.0878947135099026,-0.3170440675025216,-0.2108135453977866,-0.1451248445924486,-0.3357535695117812,-0.3586953102179444,-14.097506388346057,25.54840770188478,13.959009254672033,0.557927709341819,2.1021822676966533,0.7090695980512244,3612.7400987413193,11.92711111111111,0.28,178.63370459212567,0.95157334628191,87.52769562662662,1745.0,1435.0,1200.0,1528.0,1614.0,1010.0,61.0,293.85,1649166092.1059785,1649166093.1257102,132a6010-8c92-44aa-8400-f0ffa2df75bb
0.2399812952082092,0.5546734011564559,0.0867168094802956,-0.3141130035113917,-0.2119777530028067,-0.1464397143141551,-0.3368492943898936,-0.3639000034960535,-14.009009335633031,25.544323618906294,14.119797139170151,0.5483457113083592,2.0989760436934106,0.7141138217953911,3606.99763997396,11.931,0.2899999999999999,178.635117682374,0.9490777066240802,87.33659376383883,1745.0,1435.0,1200.0,1528.0,1614.0,1010.0,61.0,293.85,1649166093.2389476,1649166094.1813834,132a6010-8c92-44aa-8400-f0ffa2df75bb
0.2913433870382986,0.6478647768120079,0.106823357213378,-0.3726931945421625,-0.2199902406242274,-0.2000480492896472,-0.3422868290576041,-0.3689951243717526,-14.002975660975734,25.82176538488891,11.865610276454095,0.5625072570596062,2.476928287214898,0.7128351224551109,3604.4693603515625,11.9045,0.28,178.52412407272163,0.95740981407549,87.06130678389101,1849.0,1435.0,1200.0,1528.0,1686.0,1010.0,61.0,293.85,1649166094.9424746,1649166096.1926696,c9a08492-b165-4c42-9a8a-f60cab1f3585
0.290110696806028,0.6505629985911227,0.1066316053883528,-0.3742409059171157,-0.2206750686415601,-0.1997467249432597,-0.3433551608320086,-0.3669269434476479,-14.070735337509385,25.84161836531804,12.076822303471948,0.566797250538211,2.4858346159059663,0.7161056152059887,3601.2714029947915,11.910555555555554,0.27,178.50513918246864,0.9648245061701004,86.8933334594527,1849.0,1435.0,1200.0,1528.0,1686.0,1010.0,61.0,293.85,1649166096.300958,1649166097.422551,c9a08492-b165-4c42-9a8a-f60cab1f3585
0.2775235602272177,0.6481387079570956,0.105864598128799,-0.3712961452821597,-0.2204970133514469,-0.1998699939919474,-0.3440673819737354,-0.3662010249509325,-14.093902749276092,25.84373957288348,12.101490627389548,0.5598457302935235,2.476276239325038,0.7176728648435265,3592.2166341145835,11.898999999999996,0.2688888888888889,178.5260031336533,0.9661655118351132,86.78594543077222,1849.0,1435.0,1200.0,1528.0,1686.0,1010.0,61.0,293.85,1649166097.530568,1649166098.6524484,c9a08492-b165-4c42-9a8a-f60cab1f3585
0.3277077477280741,0.7112798369072676,0.1215608539790718,-0.4101943792565126,-0.2256606165096287,-0.2234417737712707,-0.343752361089066,-0.3760214594986569,-13.952900893415338,26.182133068074137,12.510109353212073,0.5977826125434604,2.7142643114756275,0.7106966953521932,3602.6194932725693,11.849222222222222,0.2744444444444445,178.49493487984864,0.993654497497378,86.58009415392674,1962.0,1435.0,1200.0,1528.0,1760.0,1010.0,61.0,293.85,1649166099.4471846,1649166100.50799,9fbb08e8-62ce-4871-9fb3-1612e0b24478
0.3239883105165473,0.7158062751514036,0.1237073785998579,-0.4068557054401029,-0.224075650570216,-0.2313600291016571,-0.3433737881373266,-0.3665154977991736,-13.88171148638447,26.145450642625374,12.461814842246367,0.5723498522784012,2.7308897727496726,0.7056466556451042,3598.7516004774307,11.855222222222222,0.2855555555555555,178.50655075489712,0.9839404388198368,86.42376174856386,1962.0,1435.0,1200.0,1528.0,1760.0,1010.0,61.0,293.85,1649166100.6170912,1649166101.7318733,9fbb08e8-62ce-4871-9fb3-1612e0b24478
0.3237121879147843,0.7087454259514989,0.1192499706622614,-0.4036605716271875,-0.2267448362087351,-0.2255220073303739,-0.3464111374946984,-0.3707756763124712,-13.932700075654312,26.185112417696065,12.697285908919584,0.5783140702689744,2.702005913249044,0.7191364864158473,3593.2202962239585,11.856000000000002,0.2522222222222222,178.50614549700634,0.9607639587085276,86.30518055765354,1962.0,1435.0,1200.0,1528.0,1760.0,1010.0,61.0,293.85,1649166101.8515215,1649166103.248643,9fbb08e8-62ce-4871-9fb3-1612e0b24478
-0.1478915497181789,-0.129866877238396,0.0432713257979667,0.0101804399521774,-0.0942147330813956,0.2172997953140373,-0.2263317479374917,-0.2559437116942869,-14.714415752211588,26.999142547629333,13.175283377598058,0.6411656314563517,-0.4977593057226645,0.3731753153093387,3592.38330078125,11.95988888888889,0.2822222222222222,179.06411882850287,0.9590016631809588,86.20740867641454,1459.0,1435.0,1200.0,1528.0,1394.0,1010.0,61.0,293.85,1649166103.849656,1649166105.0062952,f92f242c-ffea-4a29-9d52-01060aba41fd
-0.1490283641774659,-0.1366192810893025,0.0396143446392018,0.0186175201445084,-0.0964609688141702,0.2179161404142769,-0.230865309340635,-0.254204248851633,-14.757934758867211,27.13907336154847,13.393695750478471,0.6242770902355596,-0.5259809372389969,0.3871515857567906,3607.1654459635415,11.960444444444445,0.31,179.0460992716525,0.9605628120090643,86.16727144921191,1459.0,1435.0,1200.0,1528.0,1394.0,1010.0,61.0,293.85,1649166105.1366477,1649166106.2353425,f92f242c-ffea-4a29-9d52-01060aba41fd
-0.1466451627688003,-0.1290724767865209,0.0459969409663329,0.014070262638786,-0.0933244567250048,0.2150946494811823,-0.226413927296166,-0.2462739402117284,-14.69917371096151,27.22766721770805,13.488809473806349,0.6291441727798693,-0.4979687296720638,0.3688537172638756,3624.1156412760415,11.959333333333332,0.2899999999999999,179.03058867095731,0.9470447292767474,86.16215032515422,1459.0,1435.0,1200.0,1528.0,1394.0,1010.0,61.0,293.85,1649166106.3688164,1649166107.6610434,f92f242c-ffea-4a29-9d52-01060aba41fd
-0.2810905960381983,-0.3724603529477743,0.0288488495199793,0.1339562392280793,-0.0548645184710601,0.3443764584035769,-0.1905700298118735,-0.214388348517757,-14.849785511952524,27.95205265103719,13.72332710661846,0.6531340158717988,-1.4276691166348374,0.2603399066699696,3639.8459201388887,11.93422222222222,0.2922222222222222,179.1109693727497,0.938591812854393,86.16982214541197,1364.0,1435.0,1200.0,1528.0,1312.0,1010.0,61.0,293.85,1649166108.3642228,1649166109.50933,cf216873-34bc-48d1-9a48-48a5874219a1
-0.2709825344243758,-0.3665434385593771,0.0346561903928255,0.1346136740231148,-0.0512075372028813,0.337336427779394,-0.1873513382597013,-0.2071428682350856,-14.78490729308866,28.01984587579237,13.666382439755914,0.636593272249502,-1.4051432232846786,0.2435191337320199,3655.885552300347,11.934222222222225,0.2655555555555555,179.1190214068712,0.9367005500743708,86.16352395208732,1364.0,1435.0,1200.0,1528.0,1312.0,1010.0,61.0,293.85,1649166109.6380966,1649166110.729922,cf216873-34bc-48d1-9a48-48a5874219a1
-0.2737766327397773,-0.3715289867933049,0.0286297045792267,0.1355176468706378,-0.0560835122343055,0.3427328714893307,-0.1927066931576353,-0.2193738963665749,-14.870804473854802,28.079694577183293,13.813255551314413,0.646757500024766,-1.425028164379213,0.2655272286902508,3653.63427734375,11.932,0.3,179.1162741530051,0.9324630817405472,86.12249045228357,1364.0,1435.0,1200.0,1528.0,1312.0,1010.0,61.0,293.85,1649166110.838868,1649166111.8536775,cf216873-34bc-48d1-9a48-48a5874219a1
-0.4111816274526745,-0.6093588298545255,0.0221468494055031,0.2543922655664946,-0.0111587987191496,0.4656655014961463,-0.1505218369522027,-0.1638283189627977,-14.983727309843914,29.08609151547933,13.848974224549291,0.6611490938235862,-2.33158192938412,0.124935975853963,3635.040771484375,11.89311111111111,0.2755555555555556,179.21773585421568,0.9362036656702196,86.07465408406654,1262.0,1435.0,1200.0,1528.0,1222.0,1010.0,61.0,293.85,1649166113.9933674,1649166115.1309123,a7899d35-fb83-43a0-8ebb-a9c9d3a81def
-0.4117420907843334,-0.607931647982921,0.0202748037529358,0.2523355904311314,-0.0143911866202778,0.465070523045349,-0.1525072902523739,-0.1788868652761086,-14.881759986649705,29.12343266609573,13.678214133359011,0.664629884250166,-2.3253022106136494,0.1346870684564468,3636.582763671875,11.898,0.28,179.21124110322492,0.9413348571421588,86.0223803696187,1262.0,1435.0,1200.0,1528.0,1222.0,1010.0,61.0,293.85,1649166115.2407506,1649166116.353608,a7899d35-fb83-43a0-8ebb-a9c9d3a81def
-0.412706876531867,-0.6057034911048201,0.0203980727902825,0.2499217090892729,-0.0139068762886427,0.4653762302094763,-0.1525335876311512,-0.175583254434212,-14.98309858257627,29.06251599804714,13.717667939527155,0.6703195658889715,-2.316273714078793,0.1341550538780835,3638.12646484375,11.893999999999998,0.2688888888888889,179.20280050723062,0.9522195343524495,85.96982585850499,1262.0,1435.0,1200.0,1528.0,1222.0,1010.0,61.0,293.85,1649166116.4624517,1649166117.695153,a7899d35-fb83-43a0-8ebb-a9c9d3a81def
-0.4171642854912096,-0.6305545353790566,0.0051061388102392,0.2629783637370951,-0.0285019295377983,0.4736993541857262,-0.1697846785477518,-0.2011180246582646,-15.014746916133497,29.74643014718537,13.015610554935808,0.663214593131973,-2.405599305391445,0.1952550005624783,3625.81494140625,11.845000000000002,0.2688888888888889,179.2281192595739,0.9456931107309928,85.87391406544997,1153.0,1435.0,1200.0,1528.0,1121.0,1010.0,61.0,293.85,1649166119.3468812,1649166120.3549263,f8cb5fef-e56f-43f0-b363-a200e020a1b3
-0.4321362709415888,-0.6409266688747691,0.0016474838029792,0.2684838321230743,-0.0303339812344308,0.4789314391162451,-0.1734904197328216,-0.1952268605565091,-15.149874600406635,29.949660963527275,13.006048567665983,0.6636582783754624,-2.444353618642191,0.206342883711893,3621.5619032118057,11.84722222222222,0.2744444444444445,179.22555262626582,0.951365653984492,85.7773943855588,1153.0,1435.0,1200.0,1528.0,1121.0,1010.0,61.0,293.85,1649166120.462537,1649166121.5871065,f8cb5fef-e56f-43f0-b363-a200e020a1b3
-0.4266439496924712,-0.6306953360659784,0.0052770718882078,0.266429348442045,-0.0286082148169359,0.4720420707453526,-0.1716687772912903,-0.1991166839616648,-15.084053052393672,29.87022849554811,13.2043232781225,0.6525302604492458,-2.4077213721803044,0.1980294272433898,3614.940782335069,11.851333333333336,0.27,179.21588563186054,0.9409981027285492,85.69887908431977,1153.0,1435.0,1200.0,1528.0,1121.0,1010.0,61.0,293.85,1649166121.6960824,1649166122.8143165,f8cb5fef-e56f-43f0-b363-a200e020a1b3
0.0070302313869459,0.1334494665814685,0.063281997897087,-0.115019806770759,-0.1336060379918298,0.0763211216048026,-0.2618195354638357,-0.2863774692716449,-14.36558915091699,26.083577850382976,13.371510817641038,0.60192268931949,0.5022968834980807,0.4817380021887217,3609.021484375,11.967333333333334,0.2833333333333334,178.9348051336767,0.9234870392323868,85.59568934524913,1553.0,1435.0,1200.0,1528.0,1471.0,1010.0,61.0,293.85,1649166124.8433373,1649166126.1903083,5b057a5f-a5a9-40f0-8dcb-3358dbed88c1
-0.0095283603976834,0.1281647865388107,0.0562019728456601,-0.1129165631135302,-0.13956897215746,0.0791464476878938,-0.2686234387878815,-0.2963277461806242,-14.412584728646824,26.14690396744008,13.25847733676425,0.6035527558129427,0.4831038401374702,0.508358611682419,3612.068196614584,11.965222222222222,0.3077777777777777,178.94337170871574,0.951073853124951,85.83922505247529,1553.0,1435.0,1200.0,1528.0,1471.0,1010.0,61.0,293.85,1649166126.2991486,1649166127.430713,5b057a5f-a5a9-40f0-8dcb-3358dbed88c1
-0.006280632354388,0.1285855448079737,0.0587002251314111,-0.1128245222277905,-0.1373994371221644,0.078778284195864,-0.2653362642960059,-0.2796551971281766,-14.315423789352124,26.111840885344314,13.298949275364029,0.602465140280847,0.483782005475089,0.4975091360383563,3623.430772569444,11.969444444444443,0.2944444444444444,178.94405320981292,0.9636117207056,85.94437809147736,1553.0,1435.0,1200.0,1528.0,1471.0,1010.0,61.0,293.85,1649166127.5396817,1649166128.6503975,5b057a5f-a5a9-40f0-8dcb-3358dbed88c1
0.0074411281247274,0.1267929392601626,0.047161148445062,-0.2985674071718052,-0.1669982503843805,0.2644570441398196,-0.2252634162527477,-0.2559300156478103,-14.3555554753918,25.71935242634704,15.24395393152126,1.4358139686019922,0.4822349122791031,0.4975283849147227,3611.2180989583335,11.950555555555557,0.2844444444444445,178.9548342839628,1.0184770531986602,86.14863413969667,1553.0,1537.0,1200.0,1528.0,1471.0,1010.0,61.0,293.85,1649166129.3485813,1649166130.4043229,eb19990b-9c38-495f-95f2-e4b4acd11b79
0.0014283388368539,0.1233961928037,0.045777796025568,-0.2994576836209325,-0.1678748302049981,0.2656486446651228,-0.2251264506513304,-0.2506431428668496,-14.291031174051854,25.68349626300223,14.819219762836484,1.4401580978911888,0.4728240757634119,0.4994549467446192,3616.636800130209,11.964333333333334,0.2899999999999999,178.94515514699904,1.0344261022351036,86.25279907799882,1553.0,1537.0,1200.0,1528.0,1471.0,1010.0,61.0,293.85,1649166130.5143323,1649166131.5137806,eb19990b-9c38-495f-95f2-e4b4acd11b79
0.0117966338389635,0.1290528713748334,0.0479692454059578,-0.2991974489835476,-0.1669571606983587,0.260389166459239,-0.2250579678495846,-0.2432606972521297,-14.286122816434167,25.701071922279265,14.901941157297372,1.4279936102496489,0.4933793456791764,0.4959199868923885,3616.636800130209,11.964,0.2833333333333334,178.949936279418,1.0287607449097933,86.31116304445658,1553.0,1537.0,1200.0,1528.0,1471.0,1010.0,61.0,293.85,1649166131.621601,1649166132.7477217,eb19990b-9c38-495f-95f2-e4b4acd11b79
0.0117555441466289,0.1223963440483194,0.0343822592274495,-0.5150552565957277,-0.2035406720538715,0.4760825551840349,-0.1782568225213215,-0.2046500944417283,-14.092955953620972,25.418285699965896,16.509737452118383,2.3974101451472003,0.4785068534905168,0.4974544507219424,3624.6224500868057,11.951666666666666,0.3,178.9665093539841,1.111662059239117,86.42303015941278,1553.0,1645.0,1200.0,1528.0,1471.0,1010.0,61.0,293.85,1649166134.3352282,1649166135.489302,4f4b668d-1561-4788-bcaf-299f20399327
0.0113035577189529,0.1190543838195291,0.0335604657095366,-0.5131103447226254,-0.203937872287723,0.4790821012532058,-0.1785855399451924,-0.1969115378256468,-14.095629918479766,25.47493947508526,16.72001938343617,2.4001301000304367,0.4638370761553664,0.4994678084273507,3625.81494140625,11.957555555555556,0.2922222222222222,178.95397823358684,1.1204501529654292,86.46975168897528,1553.0,1645.0,1200.0,1528.0,1471.0,1010.0,61.0,293.85,1649166135.5966256,1649166136.6330593,4f4b668d-1561-4788-bcaf-299f20399327
0.0209596316530642,0.1249712970070592,0.0375187711627781,-0.5160003193733885,-0.2022394988556645,0.4745485407598153,-0.1764762697452272,-0.1946926948074621,-14.05022685682489,25.52209935036539,16.544049999713163,2.396966188938771,0.4878749115566511,0.4892106194309338,3631.96044921875,11.955999999999998,0.28,178.95189882043957,1.116262618531944,86.4745730436194,1553.0,1645.0,1200.0,1528.0,1471.0,1010.0,61.0,293.85,1649166136.741392,1649166137.857782,4f4b668d-1561-4788-bcaf-299f20399327
0.0226333511305887,0.1191842271929411,0.0358083449156458,-0.6360243951524915,-0.2206569891734953,0.5987039977620146,-0.1491280750530885,-0.1771479492631122,-14.074042100960616,25.912203750022584,17.76932620805128,2.9493891967383035,0.4701545642973651,0.4774881692782083,3628.376627604168,11.94,0.29,178.960996632414,1.1545694143268432,86.53566453228572,1553.0,1761.0,1200.0,1528.0,1471.0,1010.0,61.0,293.85,1649166139.9045355,1649166141.0647514,4950919a-0bd6-4417-b93c-8e8fe16e8353
0.0178916024990995,0.1183832524634343,0.0378200954476995,-0.6447754033226163,-0.2193738954277352,0.6068572843760832,-0.1442345682371891,-0.1676693820654321,-14.049719042632836,25.870176796294647,17.69826872305468,2.9872733374530296,0.4688123080610983,0.4657913910989994,3621.240071614584,11.951666666666666,0.2833333333333334,178.96883313612173,1.1605738620853232,86.51433385150777,1553.0,1761.0,1200.0,1528.0,1471.0,1010.0,61.0,293.85,1649166141.195467,1649166142.1557114,4950919a-0bd6-4417-b93c-8e8fe16e8353
0.0167000018881328,0.1175888520799022,0.034984907798645,-0.6404883788720553,-0.2223597455273319,0.6039262211255981,-0.1485763776393108,-0.1765173601140034,-14.027567275760669,25.957917598580632,17.703325292567843,2.9714687977780705,0.464925150401748,0.479832790354272,3610.2068956163193,11.94788888888889,0.2922222222222222,178.96023013340715,1.1530376495417294,86.52100922305661,1553.0,1761.0,1200.0,1528.0,1471.0,1010.0,61.0,293.85,1649166142.2642095,1649166143.4965255,4950919a-0bd6-4417-b93c-8e8fe16e8353
0.0066741208343335,0.1094941860978153,0.0270546003223283,-0.6974249944669735,-0.2393434800891313,0.6683822195823481,-0.1447550375144083,-0.167600899380038,-14.162637172209974,26.476888535796064,18.26379198197318,3.2478118834110856,0.437069999097342,0.5073387136641702,3628.2023654513887,11.892888888888889,0.2633333333333333,178.9764541094156,1.1674169408658008,86.43047051214863,1553.0,1887.0,1200.0,1528.0,1471.0,1010.0,61.0,293.85,1649166145.5257406,1649166146.575034,db72e0a4-ffb5-4b58-af71-44ccdc5e6570
0.0244347225274878,0.1206831785319377,0.0275772609997449,-0.6934184757960541,-0.2408270914997047,0.6543361261829884,-0.1488256550592077,-0.1740185599359604,-14.09229172007884,26.47634526525173,18.335942719740032,3.20728004651881,0.477438002072771,0.5159828723059,3618.162109375,11.885555555555555,0.2811111111111111,178.97682445745065,1.1565477620187832,86.34983102207772,1553.0,1887.0,1200.0,1528.0,1471.0,1010.0,61.0,293.85,1649166146.6849966,1649166147.799548,db72e0a4-ffb5-4b58-af71-44ccdc5e6570
0.0223977703155635,0.1182736799945218,0.0320401476926923,-0.6951102748012313,-0.2357138916333602,0.6580687119659195,-0.1418650634173107,-0.175120310792149,-14.043574803230504,26.38984903041932,18.35422732836166,3.2191602147168616,0.4683838081762086,0.4928136780096344,3621.219482421875,11.898666666666664,0.2733333333333333,178.96644712337164,1.166654331272221,86.3154478497959,1553.0,1887.0,1200.0,1528.0,1471.0,1010.0,61.0,293.85,1649166147.915116,1649166149.026574,db72e0a4-ffb5-4b58-af71-44ccdc5e6570
-0.0066619445554118,0.1304263622411215,0.0760433553977084,0.1065483303257342,-0.1031865273159606,-0.1329946235756136,-0.3158667111308341,-0.3366679522970707,-14.6113444901579,27.284600977318792,12.027574588516025,-0.3599819515483603,0.4781586634301694,0.4988787019388772,3604.974962022569,11.968333333333334,0.3,178.96003433465094,0.9003584653090062,86.19584516614971,1553.0,1335.0,1200.0,1528.0,1471.0,1010.0,61.0,293.85,1649166150.851551,1649166151.9922037,b8dd379e-5c86-40bf-8ee4-5be2ee171d73
-0.0146103316115808,0.1317510933567305,0.0741022791309752,0.1072068608483158,-0.1047336906569425,-0.1337703967133793,-0.3179891301840547,-0.3513950426241798,-14.631997011162492,27.241073976283293,12.17292035336404,-0.363583126275302,0.4817803168866184,0.5070282529910216,3593.052680121528,11.966555555555557,0.3088888888888889,178.9603029887583,0.8922351292300397,86.32290869309928,1553.0,1335.0,1200.0,1528.0,1471.0,1010.0,61.0,293.85,1649166152.1053574,1649166153.123073,b8dd379e-5c86-40bf-8ee4-5be2ee171d73
-0.0120764682502581,0.1339151495614974,0.0791152195392198,0.1070835918322348,-0.1009534402711951,-0.1367014604482211,-0.3133186029751447,-0.3384654897566108,-14.52655741808841,27.25320735056182,12.07817181149195,-0.3695235364414184,0.4903234983256978,0.4885922825443926,3592.38330078125,11.968375,0.3175,178.96465249116724,0.8940758177794889,86.41534249691071,1553.0,1335.0,1200.0,1528.0,1471.0,1010.0,61.0,293.85,1649166153.2309182,1649166154.359093,b8dd379e-5c86-40bf-8ee4-5be2ee171d73
-0.0175003055361193,0.1322167763377127,0.0877851410368315,0.3174079363955622,-0.072286541713093,-0.3389585647598428,-0.3657216449041529,-0.3909233181914313,-14.782463377547897,28.025293817369903,10.446300672007078,-1.29330143477685,0.4748953306272717,0.5111808290462109,3593.5128784179688,11.957,0.3025,178.9677551045977,0.8484148559196164,86.68699704944868,1553.0,1236.0,1200.0,1528.0,1471.0,1010.0,61.0,293.85,1649166156.4947555,1649166157.4279177,bd72d69f-875d-4f51-b789-b4fd41d6a7ee
-0.0145692419288996,0.1363531369306096,0.0946197236908411,0.3165313566992012,-0.0671640285790899,-0.3439030232622138,-0.3597636408436813,-0.3768021633541247,-14.671300691281784,28.02889504007724,10.25354408697506,-1.3020455247169096,0.4918720752135752,0.4867017728831638,3599.927001953125,11.955,0.28375,178.9621628872148,0.8413817621064866,86.7491611624059,1553.0,1236.0,1200.0,1528.0,1471.0,1010.0,61.0,293.85,1649166157.5361784,1649166158.5491526,bd72d69f-875d-4f51-b789-b4fd41d6a7ee
-0.0184316715445595,0.1353395916204549,0.0942636131780909,0.3191063095481253,-0.0677118909409636,-0.342615546522555,-0.3613113522314477,-0.3785416267565102,-14.73235914466445,28.148673465568493,10.62379721179804,-1.304156276389374,0.4848837007354441,0.4904672990895197,3593.890625,11.950333333333331,0.3033333333333333,178.96542259499614,0.8418414658541402,86.7999996833544,1553.0,1236.0,1200.0,1528.0,1471.0,1010.0,61.0,293.85,1649166158.6765144,1649166159.6807375,bd72d69f-875d-4f51-b789-b4fd41d6a7ee
-0.0304846434298376,0.1310799620000913,0.1003996713335163,0.4450461560751494,-0.0526456759055418,-0.4610223195997951,-0.3933339122407241,-0.4177959717600865,-14.781969941401265,28.956049000059096,9.575655893685736,-1.8488558716558348,0.4634450781167098,0.5059202190347699,3596.905517578125,11.951,0.3,178.9536473488671,0.8010183323194732,86.85231665566695,1553.0,1133.0,1200.0,1528.0,1471.0,1010.0,61.0,293.85,1649166160.3300734,1649166161.32347,c530cc94-97ad-4cad-bfaf-e83fcd9382f5
-0.0173912809437254,0.1366851415021414,0.1060749772630949,0.4388816094153275,-0.0483301640677543,-0.4640262499693008,-0.3876454564770898,-0.403371300338978,-14.74919408404486,28.86377233679403,9.16733372905744,-1.842078108531892,0.4889720855730693,0.4843161868143058,3593.220024956597,11.943888888888887,0.2944444444444444,178.95637638889542,0.7973103281549824,86.92740320194262,1553.0,1133.0,1200.0,1528.0,1471.0,1010.0,61.0,293.85,1649166161.431928,1649166162.5488212,c530cc94-97ad-4cad-bfaf-e83fcd9382f5
-0.0183379870960103,0.1413266311532912,0.1092701103968037,0.4452718753408348,-0.0466339821959707,-0.4730068111931145,-0.3887630958336717,-0.4098536094915595,-14.750366319580234,29.014007077970945,9.37977371170876,-1.875485208372505,0.5039242641290079,0.4800966880619425,3600.6046549479165,11.942333333333332,0.2844444444444445,178.95819018357503,0.792951143715715,86.98845598620365,1553.0,1133.0,1200.0,1528.0,1471.0,1010.0,61.0,293.85,1649166162.657016,1649166163.7818687,c530cc94-97ad-4cad-bfaf-e83fcd9382f5
-0.0195871132492619,0.1411425494121067,0.1123469052639796,0.4792744008949562,-0.0428208601510197,-0.5038931063344547,-0.3985720251444565,-0.4263683760428974,-14.86346610454988,29.457072572429897,9.383844409023682,-2.0185581486664623,0.5000143874702792,0.4846955622922521,3625.6451280381934,11.928666666666668,0.2899999999999999,178.96235508114893,0.8053020407968184,87.09198951146251,1553.0,1026.0,1200.0,1528.0,1471.0,1010.0,61.0,293.85,1649166165.9189584,1649166167.058905,176cf9cb-a6e9-4e16-8e9f-c274941b1b1f
-0.0223625839587142,0.1386404621558436,0.1069329296783387,0.4780411628550793,-0.0479614527023819,-0.5014408739852424,-0.4025927876747632,-0.4375601101191134,-14.79489559765848,29.43610640807464,9.186176855269794,-2.010671332057561,0.4917049015972327,0.5042659882767083,3634.016764322917,11.928,0.2966666666666666,178.95948033041824,0.7876654903616078,87.09955811997281,1553.0,1026.0,1200.0,1528.0,1471.0,1010.0,61.0,293.85,1649166167.1908672,1649166168.2888367,176cf9cb-a6e9-4e16-8e9f-c274941b1b1f
-0.021519971660007,0.1385259589279746,0.1091912182028496,0.4863483988451265,-0.0448589081609787,-0.5095864933364098,-0.4032398132810264,-0.4290375616944553,-14.862631672699566,29.489551666097714,9.105690936913886,-2.047294899241201,0.4915894801156373,0.497759302242555,3637.268853081597,11.937222222222225,0.2922222222222222,178.98036249544072,0.774072892162721,87.10728913520335,1553.0,1026.0,1200.0,1528.0,1471.0,1010.0,61.0,293.85,1649166168.4186747,1649166169.600793,176cf9cb-a6e9-4e16-8e9f-c274941b1b1f
-0.0043790021346955,0.1297376992906622,0.0641311845277061,-0.1026381170794915,-0.1329896928106552,0.0698563459878915,-0.2645314544089499,-0.2864185583614641,-14.330342150408676,26.336404672612733,13.5457943164117,0.5612292445207026,0.485115030228024,0.4834283130089405,3629.568033854168,11.964888888888888,0.31,178.9605170013523,0.9158841611965818,87.10828103045282,1553.0,1435.0,1200.0,1528.0,1471.0,1010.0,61.0,293.85,1649166171.4445324,1649166172.6702335,b9b4b39f-39ab-492f-a9b6-8ea4d9c2c2b5
-0.0020261715089731,0.1272455211864272,0.0600728346776802,-0.104242996528627,-0.136385844076123,0.0736502926997915,-0.2673011371176028,-0.281678952963071,-14.345674521177353,26.3139013679878,13.50200250078549,0.5730090097511971,0.4762044272434372,0.4971505328579783,3633.158013237847,11.965888888888887,0.3,178.97883708652606,0.9455051382332096,87.1005226944656,1553.0,1435.0,1200.0,1528.0,1471.0,1010.0,61.0,293.85,1649166172.778258,1649166173.9144745,b9b4b39f-39ab-492f-a9b6-8ea4d9c2c2b5
-0.0056363462235236,0.1291377900387787,0.0639465549159079,-0.1066183372552895,-0.1333233410076669,0.0730454526574003,-0.2630615395525212,-0.2882807427255524,-14.290673055363747,26.286892470152,13.399980418919798,0.5770333037201436,0.4843540886521111,0.4817764954517152,3618.3324381510415,11.967555555555556,0.2788888888888889,178.98288359415434,0.941174928737062,87.11804895987585,1553.0,1435.0,1200.0,1528.0,1471.0,1010.0,61.0,293.85,1649166174.022433,1649166175.054185,b9b4b39f-39ab-492f-a9b6-8ea4d9c2c2b5
0.0236578537030268,0.1444067131708434,0.1376543099601614,-0.1143897650467495,-0.0686843466467027,0.0623780250249668,-0.1893099463050984,-0.2134569824363552,-13.79054331379546,26.359390214927647,13.55710934193966,0.5750201568302461,0.5423201460291555,0.190578525908303,3613.586181640625,11.966,0.29,178.96622855731823,0.9395273116113386,87.06082184045994,1553.0,1435.0,1200.0,1435.0,1471.0,1010.0,61.0,293.85,1649166176.8621333,1649166177.9061768,df68829f-c619-491f-93b4-7e5b897dbf6a
0.0215157119357276,0.1367114388942698,0.1302685778885939,-0.1136002953565619,-0.0724974687200425,0.0692191820834274,-0.1933865903817888,-0.2200127035423949,-13.88687146224602,26.211924918761127,13.519285374271686,0.5872124560780564,0.5139072910684903,0.2106595780691059,3616.466552734375,11.969,0.2899999999999999,178.97769113256533,0.9360886196713872,87.07089788730552,1553.0,1435.0,1200.0,1435.0,1471.0,1010.0,61.0,293.85,1649166178.0145924,1649166179.1345928,df68829f-c619-491f-93b4-7e5b897dbf6a
0.0179874783991949,0.1404621044013497,0.1362983506965383,-0.1131159850123173,-0.0683967189011841,0.0659802199283868,-0.1882553111888036,-0.220565496685693,-13.75588454674705,26.261769325196628,13.686241115391454,0.5795648063721487,0.5258912211989609,0.1903138152343208,3608.6841091579854,11.967999999999998,0.3,178.992975578108,0.9384164928077288,87.08130254214117,1553.0,1435.0,1200.0,1435.0,1471.0,1010.0,61.0,293.85,1649166179.2442367,1649166180.3646934,df68829f-c619-491f-93b4-7e5b897dbf6a
0.0606659551567397,0.1577882505277718,0.2453914356142202,-0.1197451197856625,0.0285612217907843,0.0496265289914888,-0.0785047795921839,-0.112212012641115,-12.980797281889837,26.38079078078228,13.743974298791718,0.5643900602539523,0.5926113652797941,-0.2441007038929883,3610.54150390625,11.964666666666668,0.2966666666666666,178.95739029253227,0.917678390230114,87.03861234200879,1553.0,1435.0,1200.0,1330.0,1471.0,1010.0,61.0,293.85,1649166181.5758588,1649166182.716521,2690c787-93f1-477f-9329-bbf08a583027
0.0579677331229975,0.1611576038356988,0.2481855334120364,-0.121539369079397,0.0313005335156085,0.0473665968233934,-0.0765050819641989,-0.1009534409603687,-13.061674967726477,26.32930539598217,13.676697113562485,0.5631054661747105,0.6068143653426513,-0.2542259094339504,3604.974962022569,11.968555555555556,0.28,178.96520099330309,0.9220141136810606,87.04394064847129,1553.0,1435.0,1200.0,1330.0,1471.0,1010.0,61.0,293.85,1649166182.8247292,1649166183.883233,2690c787-93f1-477f-9329-bbf08a583027
0.0543611553074249,0.1569209844629082,0.2408754065442862,-0.1193594246693336,0.0250132652166773,0.0483390524841127,-0.083516076698701,-0.1064605532331742,-13.064875959585924,26.35549595897815,13.454883722378034,0.5601459386467391,0.5921816724701542,-0.2265351057548065,3593.722601996528,11.966666666666663,0.3066666666666666,178.95911150020305,0.9220811942021278,87.07381437808112,1553.0,1435.0,1200.0,1330.0,1471.0,1010.0,61.0,293.85,1649166183.991249,1649166185.0824544,2690c787-93f1-477f-9329-bbf08a583027
0.0853060639143965,0.1743747824339729,0.3536490278986808,-0.1168003595196291,0.1255876421204122,0.0228086671159576,0.0274928901891915,-0.0023793050096276,-12.20038479497281,26.539929102723093,13.446427963104538,0.5042749478166022,0.6584376123339079,-0.6726457304218805,3605.8166232638887,11.963555555555557,0.3,178.92595472633218,0.9122376346636044,87.0464374620679,1553.0,1435.0,1200.0,1210.0,1471.0,1010.0,61.0,293.85,1649166185.8731282,1649166186.9154418,68129e56-dc58-4bcb-8c98-79955075a57b
0.0977387039203189,0.1762364186100279,0.3539147411152543,-0.1152570311797903,0.126008400389881,0.0210949537002055,0.0260257148282221,0.001884707923634,-12.319308169693857,26.57597040862748,13.659593224604023,0.4971689040285623,0.6641997512222982,-0.6710505866329474,3599.75962999132,11.961777777777778,0.2944444444444444,178.94299528940144,0.9160334411470352,87.07220093561718,1553.0,1435.0,1200.0,1210.0,1471.0,1010.0,61.0,293.85,1649166187.0238426,1649166188.1494353,68129e56-dc58-4bcb-8c98-79955075a57b
0.0852649742061776,0.1745939273623861,0.3551967389085131,-0.1166496973520242,0.1265327046439691,0.0238496055795841,0.0291775669165522,0.0027295111156777,-12.15324117364904,26.57502748623146,13.656296971905975,0.5066411409271505,0.6571459664950553,-0.6780988579663972,3602.449408637153,11.958666666666666,0.31,178.94337929781483,0.9185676191986196,87.07162264626744,1553.0,1435.0,1200.0,1210.0,1471.0,1010.0,61.0,293.85,1649166188.2726328,1649166189.2728207,68129e56-dc58-4bcb-8c98-79955075a57b
0.1157672097568427,0.1861949120594393,0.4394442641182608,-0.0908590760595775,0.2043565479897303,-0.0178838091296024,0.1035498797246886,0.0804300883696407,-11.722352746914126,26.89060853506804,13.320386445229778,0.3611336042189015,0.702754975018579,-1.0034988302240542,3608.0111490885415,11.953,0.3066666666666666,178.92472377446177,0.903723815721151,87.06606059555334,1553.0,1435.0,1200.0,1071.0,1471.0,1010.0,61.0,293.85,1649166191.4004714,1649166192.4507606,e50c3fd4-6538-4534-9f04-c0a53e2d4fe2
0.1176721271113633,0.1876231891367125,0.4359757479141029,-0.0919969862125559,0.2017974830925426,-0.0162999390690202,0.1009469857716033,0.0755437047121426,-11.762472817064165,26.779983186455524,13.57355014875504,0.3663737208272434,0.7060703984504522,-0.9910421003290436,3610.54150390625,11.953,0.3,178.929873737096,0.8961573179290502,87.06720351387445,1553.0,1435.0,1200.0,1071.0,1471.0,1010.0,61.0,293.85,1649166192.5596638,1649166193.775118,e50c3fd4-6538-4534-9f04-c0a53e2d4fe2
0.1279708432321097,0.1927144736952397,0.4472239087235177,-0.093338153294369,0.2092873088523713,-0.0207600865222526,0.1102748898509134,0.0951264959384024,-11.589997785750674,26.938916632824533,13.54950546573972,0.361073177327415,0.7250390777641561,-1.0292311827345095,3604.469889322917,11.953,0.3,178.93796978799213,0.9038825108976482,87.09162827034642,1553.0,1435.0,1200.0,1071.0,1471.0,1010.0,61.0,293.85,1649166193.8834002,1649166194.9953282,e50c3fd4-6538-4534-9f04-c0a53e2d4fe2
-0.0406748833241725,0.1075903644908472,-0.0435785537988625,-0.0869281635521606,-0.2303722331823396,0.0808820755649953,-0.3768569490988592,-0.402442126559666,-15.03482743572615,26.597466226219307,13.238440023075016,0.5465314935706739,0.4010012791103701,0.9192392664767972,3600.7672526041665,11.968555555555556,0.3,179.03694833598453,0.9196261562243642,87.21843832138678,1553.0,1435.0,1200.0,1613.0,1471.0,1010.0,61.0,293.85,1649166195.9109852,1649166197.1687367,f699c0c2-c0c6-4c31-a75f-a4e54922a8ef
-0.0377438197047838,0.1124115530280361,-0.0405516142404503,-0.0870651291323782,-0.2271124518659547,0.0783619088195242,-0.3747476786648178,-0.4086740617235596,-15.123247185558208,26.51402996911588,13.55485250975657,0.5407808452699862,0.417112464947152,0.9086709680252648,3601.6076931423613,11.96811111111111,0.3,179.0494339217873,0.9121794239020846,87.20234943134187,1553.0,1435.0,1200.0,1613.0,1471.0,1010.0,61.0,293.85,1649166197.2789423,1649166198.2753005,f699c0c2-c0c6-4c31-a75f-a4e54922a8ef
-0.0371685642073114,0.1107542694716759,-0.041414497460356,-0.0869555566506023,-0.228550590677114,0.0791837023285367,-0.3764597488050647,-0.4025380023264464,-15.149680629957436,26.63194828842128,13.444052529473517,0.5430881172207104,0.4119995577466864,0.9138208672201196,3606.202950613839,11.968714285714286,0.3171428571428571,179.0596538362683,0.9174817936021066,87.16528275362612,1553.0,1435.0,1200.0,1613.0,1471.0,1010.0,61.0,293.85,1649166198.3842742,1649166199.6140735,f699c0c2-c0c6-4c31-a75f-a4e54922a8ef
-0.0743777324217794,0.0937020542790369,-0.131614010382238,-0.0683293318306917,-0.3090030906552897,0.083235692178907,-0.4721389968285727,-0.5062598725663584,-15.80675773762006,26.812218543527184,13.368864267770856,0.5065382381308171,0.3453520071913422,1.2800392623312886,3612.9093153211807,11.96322222222222,0.2955555555555555,179.0688832649039,0.9073399265679806,87.12050555124732,1553.0,1435.0,1200.0,1694.0,1471.0,1010.0,61.0,293.85,1649166201.5530164,1649166202.579731,78b093b0-156e-48a3-b013-a132ebf001a5
-0.0715376139100394,0.0956349126069235,-0.1271303046518609,-0.0684476701091581,-0.3053609012411907,0.0812107929735275,-0.4664456099775185,-0.4923485487751918,-15.610431682563268,26.734793334658608,13.37380898686676,0.5020645727100669,0.3514655285421781,1.26126939926808,3609.190375434028,11.960777777777778,0.2977777777777777,179.07459785650946,0.9077355439313124,87.07823502829393,1553.0,1435.0,1200.0,1694.0,1471.0,1010.0,61.0,293.85,1649166202.6878529,1649166203.8098996,78b093b0-156e-48a3-b013-a132ebf001a5
-0.0587833780100923,0.0985670718294325,-0.127853482997864,-0.0701044059051827,-0.3075830312439417,0.077516009360453,-0.4696933387296294,-0.4941893661054195,-15.662224427478872,26.846071302100498,13.02397190634856,0.4981189190841997,0.3660901030868503,1.2696708264373608,3612.063232421875,11.96377777777778,0.2955555555555555,179.08180142935413,0.8958854562415391,87.05746897648737,1553.0,1435.0,1200.0,1694.0,1471.0,1010.0,61.0,293.85,1649166203.9388027,1649166205.1469994,78b093b0-156e-48a3-b013-a132ebf001a5
-0.1070210161369868,0.080457482269128,-0.2164702247012141,-0.0343059833340754,-0.386170610694329,0.0692810905273962,-0.5697456306272933,-0.5918244904805211,-16.372606449664556,27.28249867581533,13.288997068381606,0.3970267522719244,0.2908291502807202,1.6377779806938637,3614.4330240885415,11.952000000000002,0.2666666666666667,179.06588405294835,0.8861673599261296,87.00261876290263,1553.0,1435.0,1200.0,1774.0,1471.0,1010.0,61.0,293.85,1649166206.8745687,1649166208.0112164,040a3650-0927-4e5f-bf88-754bdb527d51
-0.0895168133027898,0.0845938429230941,-0.2117860011965651,-0.0375794609400198,-0.3828560429092558,0.0682675451889133,-0.5657051446427946,-0.5963854461898627,-16.37205646805756,27.2894585872612,13.326035316899068,0.4024189061471039,0.3067109639090299,1.6216470813918065,3612.9095865885415,11.94811111111111,0.3,179.08877125794717,0.8854429744901706,86.9773569288024,1553.0,1435.0,1200.0,1774.0,1471.0,1010.0,61.0,293.85,1649166208.1232488,1649166209.1614246,040a3650-0927-4e5f-bf88-754bdb527d51
-0.1011177990295407,0.0830735249336365,-0.2144294373345285,-0.0356071564341376,-0.3843763612669704,0.067637503510672,-0.5680061672809,-0.5908246418363933,-16.3865763410048,27.238589018599583,13.264579061783577,0.3960681312188159,0.3012450250630536,1.6303546501499937,3612.571234809028,11.956777777777775,0.31,179.09969804279933,0.885918727996577,86.94428970630062,1553.0,1435.0,1200.0,1774.0,1471.0,1010.0,61.0,293.85,1649166209.271726,1649166210.3563116,040a3650-0927-4e5f-bf88-754bdb527d51
-0.1211695620367798,0.0695139320299806,-0.2768309656625044,-0.0053514577508552,-0.4392447862234194,0.0550229730807411,-0.6413101726320188,-0.6652517671200199,-16.98226581712831,27.63012353929725,13.019358869484066,0.2986215591954583,0.2491034234826827,1.892218303266039,3613.755506727431,11.935,0.29,179.1118770289994,0.8839844800850594,86.94132540420084,1553.0,1435.0,1200.0,1856.0,1471.0,1010.0,61.0,293.85,1649166212.4084923,1649166213.5427115,df85c83c-169e-4542-96c4-0dfa610ca494
-0.1210424579712346,0.0731637909411747,-0.2756185461441707,-0.0079768141714035,-0.440845092503326,0.0538746535897522,-0.640876265503879,-0.6648331991034641,-16.82090375160047,27.733111282307007,13.025067127465526,0.3027885169141784,0.2620017854220728,1.8926247669329064,3617.145236545138,11.938,0.2644444444444444,179.1276259274056,0.8839929288867672,86.8737543427419,1553.0,1435.0,1200.0,1856.0,1471.0,1010.0,61.0,293.85,1649166213.6542606,1649166214.7677753,df85c83c-169e-4542-96c4-0dfa610ca494
-0.1231725468852473,0.0740447535838346,-0.2758683714894894,-0.0032038373248592,-0.4395828174677856,0.0493120560040689,-0.6416783364088393,-0.6640311285983985,-16.852673641482983,27.630844127940403,13.121264995073618,0.2810780459377777,0.2640729635608057,1.892691900194688,3610.035400390625,11.939666666666666,0.29,179.12329103401237,0.8800929620184937,86.84767668049079,1553.0,1435.0,1200.0,1856.0,1471.0,1010.0,61.0,293.85,1649166214.87561,1649166215.9979813,df85c83c-169e-4542-96c4-0dfa610ca494
-0.0171020096039937,0.1180139932488384,-0.0225718673717716,-0.1102342289494492,-0.1800143651248681,0.0856550522648191,-0.3119746964927128,-0.3367731417033854,-14.526286956180767,22.40175306853256,12.696777657900974,0.5832315285333606,0.4454276706922453,0.7320076771977605,7184.7666015625,11.631777777777778,8.02222222222222,179.040096294282,0.5678495182320711,74.81714540097043,1553.0,1435.0,1350.0,1528.0,1471.0,1010.0,61.0,293.85,1649166220.8520443,1649166221.936306,5a2e803d-aa34-4b3d-9d3a-cbecd18519fd
-0.0146957981310111,0.1175011941041322,-0.0140383632752306,-0.1033706090944377,-0.1732822320241112,0.0918612368207885,-0.3075041390707758,-0.3309219710537753,-14.745925661187236,22.83372987362348,14.451071410130425,0.5851526311004099,0.4292138958021278,0.7069825607518184,7184.7666015625,11.629666666666669,8.04,179.038145895819,0.475281292503227,69.51568917098993,1553.0,1435.0,1350.0,1528.0,1471.0,1010.0,61.0,293.85,1649166222.0442164,1649166223.1870549,5a2e803d-aa34-4b3d-9d3a-cbecd18519fd
-0.017801629843621,0.1146714851503291,-0.0157471459716934,-0.1073086438569028,-0.174545054838308,0.0912366737479377,-0.3066346814051016,-0.3402323455817851,-14.603448237872287,22.69895685116369,13.450860378223718,0.5915661635473807,0.426831434735803,0.7081612251642385,7190.79345703125,11.62911111111111,8.047777777777778,179.07010966331487,0.4370304366691083,65.06208177761098,1553.0,1435.0,1350.0,1528.0,1471.0,1010.0,61.0,293.85,1649166223.2969637,1649166224.397642,5a2e803d-aa34-4b3d-9d3a-cbecd18519fd
0.0946334201834249,0.3268722577462637,-0.0134461240899323,-0.2021984092079511,-0.220825730833012,-0.0219516871374691,-0.3541343543057123,-0.3881018266253971,-14.536738227072188,22.29914813812309,14.326059977024729,0.5489021532517716,1.2263063730947457,0.8619794919146809,7196.83154296875,11.611222222222224,8.06,178.94065632906572,0.4477449401905465,56.92699255576638,1647.0,1435.0,1350.0,1528.0,1543.0,1010.0,61.0,293.85,1649166226.5381048,1649166227.5621326,7a9643b0-dd01-4220-9b3c-821a1cf4a7d9
0.0956469655195838,0.3216675658355859,-0.0168428706818173,-0.2049514177824192,-0.2220721177782793,-0.0165004567010083,-0.3546822167231535,-0.3896084491074923,-14.603359440573946,22.176741923526013,14.002489175807051,0.5662962133884589,1.21024648515306,0.8679806678327585,7196.83154296875,11.609333333333334,8.051111111111112,178.95906900124822,0.489193753441292,54.642495768977625,1647.0,1435.0,1350.0,1528.0,1543.0,1010.0,61.0,293.85,1649166227.6699276,1649166228.793002,7a9643b0-dd01-4220-9b3c-821a1cf4a7d9
0.098495849673626,0.3235029045625391,-0.0158019322012492,-0.2027599681772064,-0.2220036349783067,-0.0187466923588371,-0.3554081344581698,-0.3860199492630708,-14.599693137790084,22.27404973203881,14.225572060356225,0.5570395517732339,1.2149248199621243,0.868020586985605,7196.83154296875,11.61022222222222,8.061111111111112,178.97622947208296,0.5365014045409456,52.93237008006276,1647.0,1435.0,1350.0,1528.0,1543.0,1010.0,61.0,293.85,1649166228.9020748,1649166229.931916,7a9643b0-dd01-4220-9b3c-821a1cf4a7d9
0.2175052436487081,0.558919333917346,-0.0113916402470005,-0.3213995738430579,-0.2749408403424375,-0.1380848129759714,-0.4052088309053343,-0.4332456934601194,-14.457452827930467,21.978264653320792,14.34933478129671,0.554842880690512,2.110657561699945,1.032857434838409,7202.87890625,11.597,8.06777777777778,178.8412558271646,0.6588324700983195,49.59275971012374,1745.0,1435.0,1350.0,1528.0,1614.0,1010.0,61.0,293.85,1649166231.860753,1649166232.8834584,3c4b668a-5def-42cb-adae-c394d8bc036f
0.2204686309248481,0.5635969821620365,-0.0037955286886548,-0.321257677462853,-0.266322416677429,-0.1418436967772773,-0.3971125195855685,-0.4199255129516214,-14.492062270635929,21.7664861669826,14.54813535411926,0.5450646823436545,2.127145070131752,1.0001474171839442,7202.87890625,11.59822222222222,8.04,178.8537945366609,0.7269014357465954,48.65827485681497,1745.0,1435.0,1350.0,1528.0,1614.0,1010.0,61.0,293.85,1649166232.990979,1649166234.238499,3c4b668a-5def-42cb-adae-c394d8bc036f
0.2279831104768535,0.5591521753905969,-0.0076250865510289,-0.3255085420845238,-0.2724069766709987,-0.1340443279034899,-0.4007437519134957,-0.4247812181779597,-14.438988866386138,22.03440622164869,14.449128865179103,0.5737761363016517,2.111261336445244,1.0180374400538958,7208.9375,11.598222222222224,8.056666666666665,178.85753444468642,0.7762257179856462,47.66847875215248,1745.0,1435.0,1350.0,1528.0,1614.0,1010.0,61.0,293.85,1649166234.351338,1649166235.5484478,3c4b668a-5def-42cb-adae-c394d8bc036f
0.2790723669764581,0.6544676131328725,0.007762175501718,-0.3838191851655249,-0.2840731589860282,-0.1839326769470393,-0.4115892370991841,-0.44351427957825,-14.633773736363295,22.293598513048824,13.016718233753847,0.5953628950586264,2.490985392329595,1.0371533508452846,7204.902180989583,11.568,8.063333333333334,178.701963984871,0.8532128414746634,46.29043003049445,1849.0,1435.0,1350.0,1528.0,1686.0,1010.0,61.0,293.85,1649166237.394345,1649166238.529178,d9ea309e-36c6-4c6e-8986-3d98fd4fbac5
0.2749623039378468,0.6591370434320298,0.008167045776435,-0.3910054969548381,-0.284487342976757,-0.1852009783767928,-0.4094273718173229,-0.4374642344908492,-14.513357446086,22.11016742814664,12.557825059853869,0.6075150484207411,2.5126208212053043,1.0341018225977936,7196.83154296875,11.569333333333333,8.08111111111111,178.7368328594938,0.8828624732892935,45.86289623667228,1849.0,1435.0,1350.0,1528.0,1686.0,1010.0,61.0,293.85,1649166238.6391523,1649166239.6437712,d9ea309e-36c6-4c6e-8986-3d98fd4fbac5
0.2791671471788858,0.6506588744918008,0.0094545222945879,-0.3857871070743089,-0.2822411070753876,-0.1801606443743814,-0.408057715717957,-0.4362041502701864,-14.584270263147795,22.29495999627392,12.784784778819024,0.6083595458442197,2.478755155837949,1.0265518667811346,7196.83154296875,11.570777777777778,8.061111111111112,178.72798700560872,0.9180960159807716,45.45304162860677,1849.0,1435.0,1350.0,1528.0,1686.0,1010.0,61.0,293.85,1649166239.7527382,1649166240.8800266,d9ea309e-36c6-4c6e-8986-3d98fd4fbac5
0.3205581446082157,0.7259762428549138,0.0121801375067364,-0.448846076063472,-0.3021285129675361,-0.2000480493522975,-0.4190560545289963,-0.4504074852150976,-14.572859802860128,22.34338869026445,12.161746793967149,0.7062786609362215,2.7746198088674325,1.0732530758567564,7196.83154296875,11.503333333333334,8.06777777777778,178.66341287937564,0.9475957334436972,44.937178690073125,1962.0,1435.0,1350.0,1528.0,1760.0,1010.0,61.0,293.85,1649166241.899884,1649166242.921136,2a645de5-a526-4e8e-b04e-b12be3b12c7f
0.3150209002889537,0.7242477373271129,0.0168216273259147,-0.4474588883925101,-0.2989180391837405,-0.1971076718386971,-0.414258423027676,-0.4462886540306721,-14.467613246054166,22.488334851294347,12.554369111666112,0.711064471815113,2.7640380626661187,1.05609351360416,7196.83154296875,11.50711111111111,8.07,178.6944037243697,0.9593560978238264,44.69497980264951,1962.0,1435.0,1350.0,1528.0,1760.0,1010.0,61.0,293.85,1649166243.0303233,1649166244.1642864,2a645de5-a526-4e8e-b04e-b12be3b12c7f
0.3247640835575426,0.7352400463304426,0.0248686295429835,-0.4401613603129355,-0.2954467828419213,-0.2046024294809942,-0.4139560029068101,-0.4397931967975671,-14.525970839535065,22.895056831829343,14.002019045374723,0.6810595994136104,2.792467013425581,1.043194106760556,7196.83154296875,11.512777777777778,8.06,178.70943165836354,0.9864016903724706,44.49800207990075,1962.0,1435.0,1350.0,1528.0,1760.0,1010.0,61.0,293.85,1649166244.2761967,1649166245.2836354,2a645de5-a526-4e8e-b04e-b12be3b12c7f
-0.1571356317603353,-0.1395426747708056,-0.0235317221995085,0.0039359048469367,-0.1237510895172806,0.23240764658664,-0.2518194028814723,-0.2691362384625219,-14.5648410306598,23.053069164679364,12.849362821611962,0.6597391272449336,-0.535752500665884,0.5407927339055352,7204.225260416667,11.62388888888889,8.095555555555556,179.216243837337,1.0182072014366084,44.15303047440082,1459.0,1435.0,1350.0,1528.0,1394.0,1010.0,61.0,293.85,1649166247.4288714,1649166248.387935,9bea63f7-c80f-4fd5-93b5-99ddd5371b57
-0.1595418433504692,-0.138280399835387,-0.0204154811209609,0.0048563135934559,-0.1222521380653743,0.2320920778909427,-0.2498339495110665,-0.2636663805497867,-14.507479285029508,23.180170489641032,13.118454124266478,0.6580232928114609,-0.5337227573563622,0.5322047505600535,7211.634331597223,11.624,8.086666666666666,179.22143022764678,1.0816471605284828,44.04771540813345,1459.0,1435.0,1350.0,1528.0,1394.0,1010.0,61.0,293.85,1649166248.4958322,1649166249.593438,9bea63f7-c80f-4fd5-93b5-99ddd5371b57
-0.1594760998400995,-0.1476159748494933,-0.0245704692443676,0.0049878005532463,-0.1244348217787428,0.2389293995956807,-0.2526740682414516,-0.2756974386241881,-14.657209007001256,23.255917816534662,12.780453792791905,0.6732570634263714,-0.5649597093922629,0.543144104764229,7215.00537109375,11.621111111111112,8.085555555555556,179.21670829020053,1.1213010095517228,43.959130510783055,1459.0,1435.0,1350.0,1528.0,1394.0,1010.0,61.0,293.85,1649166249.7239215,1649166250.7050326,9bea63f7-c80f-4fd5-93b5-99ddd5371b57
-0.2857063369224081,-0.3746518027309228,-0.0292656496471511,0.1138633881908332,-0.0800524908094802,0.3677564822086147,-0.2068552395865721,-0.2271946316663412,-14.68378682140002,24.11421471020205,13.870251870023353,0.7227683749787689,-1.439640850656415,0.398507053332038,7215.00537109375,11.596,8.100000000000001,179.27810865519933,1.18874330534365,43.80806494018016,1364.0,1435.0,1350.0,1528.0,1312.0,1010.0,61.0,293.85,1649166252.3291018,1649166253.363654,ebf5f19a-aa76-47e7-acd2-629b1836b11f
-0.2825150383083997,-0.3752955411100248,-0.0302928915747919,0.1159452650637397,-0.0808058015733068,0.364976081022307,-0.2085947027008076,-0.224510105976234,-14.683399120376734,24.125709595279712,13.64719920733282,0.7118139285720236,-1.4404023452167187,0.4030312774711204,7208.9375,11.597777777777775,8.097777777777777,179.29446164589217,1.2054821424347453,43.80623710566727,1364.0,1435.0,1350.0,1528.0,1312.0,1010.0,61.0,293.85,1649166253.472252,1649166254.6020355,ebf5f19a-aa76-47e7-acd2-629b1836b11f
-0.2825287348773588,-0.3722549045319245,-0.0296765464211013,0.1149180231883222,-0.0806277463031286,0.364072108224199,-0.2086494889402261,-0.2336320156813104,-14.712755380621212,24.113621009865174,13.810117617157289,0.712061533112962,-1.4300689312761945,0.4025997416787359,7208.9375,11.58911111111111,8.100000000000001,179.28498437896383,1.2176833504655231,43.80304133604561,1364.0,1435.0,1350.0,1528.0,1312.0,1010.0,61.0,293.85,1649166254.7352638,1649166255.7384694,ebf5f19a-aa76-47e7-acd2-629b1836b11f
-0.4186999439842563,-0.6254769454102088,-0.0355386736718399,0.2409948405096386,-0.03304589991975,0.4946003007424278,-0.1634645379983101,-0.1960760473046196,-14.786587411155836,25.29116593156561,13.736167424469585,0.7284426387314364,-2.39450197060086,0.2512748702574778,7208.9375,11.561,8.09,179.36669620873442,1.2269360156350688,43.75087576625964,1262.0,1435.0,1350.0,1528.0,1222.0,1010.0,61.0,293.85,1649166256.3462217,1649166257.488116,8efb3670-288b-40ac-84e6-e080024970cc
-0.4206859454222103,-0.6244633997209531,-0.034086838410666,0.2407346059194725,-0.0317310302558317,0.4961206186103372,-0.1616018058720767,-0.1954049159659879,-14.775770253031236,25.274865952431,14.07210062150117,0.7324692534025857,-2.3936306840463324,0.2454612413568608,7202.87890625,11.562777777777775,8.085555555555555,179.37542822613332,1.224733244053838,43.75235108712036,1262.0,1435.0,1350.0,1528.0,1222.0,1010.0,61.0,293.85,1649166257.6072276,1649166258.694396,8efb3670-288b-40ac-84e6-e080024970cc
-0.4250414519075698,-0.6239155371834691,-0.0345662179736292,0.2405291575449653,-0.0323336788492832,0.4906282991095878,-0.1632179999154049,-0.1881046495409872,-14.775899273017153,25.266584037078207,13.333219479848989,0.7203941007443758,-2.385031503816373,0.2482623057453355,7202.87890625,11.567333333333332,8.088888888888889,179.38224930838444,1.2321349161003428,43.79932267749749,1262.0,1435.0,1350.0,1528.0,1222.0,1010.0,61.0,293.85,1649166258.801757,1649166260.028864,8efb3670-288b-40ac-84e6-e080024970cc
-0.4561238810674307,-0.6802960713056189,-0.0404409460992995,0.2494483559860846,-0.0349184934902032,0.5367736443285847,-0.1586477319002084,-0.1766482986369974,-14.657484152974131,26.16418142238337,13.191097187934115,0.809664037726669,-2.5975266206819168,0.2460538528576077,7202.87890625,11.508666666666665,8.083333333333334,179.39408526730617,1.246112945668643,43.88463819096517,1153.0,1435.0,1350.0,1528.0,1121.0,1010.0,61.0,293.85,1649166261.8529088,1649166263.110773,9e757e4f-370b-4773-a0d1-e18977cea0be
-0.4527446653429702,-0.6790600934168463,-0.0380478833563152,0.2500531960062888,-0.0322756054996377,0.5350643139693928,-0.1543612566629939,-0.1877326509718017,-14.484540094436232,26.009598792883427,13.226070918074884,0.8036456155464914,-2.594350361905529,0.2334776801525234,7202.87890625,11.504,8.09,179.38814300272827,1.2388588578832664,43.91327375906045,1153.0,1435.0,1350.0,1528.0,1121.0,1010.0,61.0,293.85,1649166263.2407436,1649166264.3402317,9e757e4f-370b-4773-a0d1-e18977cea0be
-0.4455725977981404,-0.6693059485446916,-0.0400448416225406,0.2398854192938837,-0.0372918332429443,0.5348133930559983,-0.1600951843284968,-0.1752846697667668,-14.715173562282091,26.142993986294,13.187928756701192,0.8266804584642454,-2.554668431428232,0.2520171978397421,7202.87890625,11.506333333333332,8.086666666666666,179.39673082724468,1.2513127829133346,43.945931170212006,1153.0,1435.0,1350.0,1528.0,1121.0,1010.0,61.0,293.85,1649166264.4708033,1649166265.6073554,9e757e4f-370b-4773-a0d1-e18977cea0be
-0.0191164995101949,0.1270394773080523,-0.0170209259515916,-0.1125955157884695,-0.1760653729771027,0.0837035666153724,-0.3085521998926966,-0.3279739238647998,-14.616660950923835,22.40251684350385,13.402010786162188,0.5845211535541318,0.4743105428483178,0.7161920925214086,7202.87890625,11.628,8.11,179.08687701881732,1.233230782007176,43.9978110104177,1553.0,1435.0,1350.0,1528.0,1471.0,1010.0,61.0,293.85,1649166266.3297193,1649166267.298901,356758a5-3bd7-46fd-8fe3-a90b700dffc9
-0.0163771877077252,0.1251356557064948,-0.0186782095778209,-0.1138145095735606,-0.1766954147207361,0.0862374299241581,-0.3083741445946658,-0.3322609475964371,-14.603108405883026,22.307401932568503,13.33288302423484,0.5922475868044197,0.4677302185512905,0.718765744428465,7202.87890625,11.629555555555555,8.091111111111111,179.10534433251323,1.2254591769545304,44.02924164370333,1553.0,1435.0,1350.0,1528.0,1471.0,1010.0,61.0,293.85,1649166267.4080508,1649166268.6350715,356758a5-3bd7-46fd-8fe3-a90b700dffc9
-0.0117899362078673,0.1251537351624874,-0.0240839674667852,-0.1131795370718063,-0.1809347739218974,0.0821312017085957,-0.313026592332034,-0.3479758337575097,-14.537233533429196,22.155750094521405,12.797860348081672,0.5802613863516465,0.4716502269839833,0.7378941036487128,7202.87890625,11.628,8.100000000000001,179.10063301980574,1.218464660073549,44.06701107199368,1553.0,1435.0,1350.0,1528.0,1471.0,1010.0,61.0,293.85,1649166268.7440538,1649166269.869511,356758a5-3bd7-46fd-8fe3-a90b700dffc9
-0.0025464025670813,0.1211039368008888,-0.0396651729846338,-0.3835167650432434,-0.2253773716785689,0.3552033132532961,-0.2542650606886579,-0.2784849631691299,-14.469387183367132,21.828210836549445,15.832688580826195,1.8012762194537928,0.4613741938783416,0.7376033904536208,7210.285915798611,11.624777777777776,8.100000000000001,179.1156624716194,1.2743513548648395,44.21341617685291,1553.0,1537.0,1350.0,1528.0,1471.0,1010.0,61.0,293.85,1649166271.89986,1649166272.9354732,f5146e70-c269-484a-b0e5-590793d7e10c
-0.0002585293919667,0.1234838507748925,-0.0336036238053831,-0.3827935865986701,-0.2199469595112237,0.3532836037427976,-0.2498602468918775,-0.2655334955342532,-14.54893595987525,21.88935735281932,16.02582137665107,1.7960289784498602,0.4694478819995308,0.7161588791754139,7221.0830078125,11.627,8.08625,179.13101199368668,1.2885380387081558,44.21632028791064,1553.0,1537.0,1350.0,1528.0,1471.0,1010.0,61.0,293.85,1649166273.0432618,1649166274.2660644,f5146e70-c269-484a-b0e5-590793d7e10c
-0.0064882721832319,0.1248891176567831,-0.0368535433380632,-0.3846913821303876,-0.2234965600328667,0.3509234129389174,-0.252683929754378,-0.2841449295242902,-14.460295590543575,21.81953491637695,15.614841521230453,1.7943606974089958,0.4777600640865254,0.7291082755210838,7221.0830078125,11.622555555555556,8.085555555555556,179.14069132037795,1.2815317453833903,44.244430168599166,1553.0,1537.0,1350.0,1528.0,1471.0,1010.0,61.0,293.85,1649166274.3785105,1649166275.4848716,f5146e70-c269-484a-b0e5-590793d7e10c
0.0054140374376997,0.1195611564765546,-0.0537414006435662,-0.6789072396783805,-0.2726809078613222,0.6459061691247577,-0.190186526145569,-0.2231404500060105,-14.400813342013024,21.58452651771978,18.468972148697755,3.1189913337958264,0.4672095655706261,0.7310753103694315,7221.0830078125,11.609,8.09,179.12293738199537,1.3614126575695895,44.311105336911965,1553.0,1645.0,1350.0,1528.0,1471.0,1010.0,61.0,293.85,1649166276.395457,1649166277.5332365,306ef43b-e899-4459-a89a-adf1957a664f
0.0077013627619513,0.1201911981586095,-0.0496324329292459,-0.6787428808761887,-0.2674625183659114,0.6419067744066115,-0.1848037781301267,-0.1997741187152206,-14.344914070492711,21.398740661352093,18.04843577010323,3.1085675112767928,0.4731412667014744,0.7103027020798688,7225.819173177083,11.612222222222222,8.093333333333334,179.12783386872036,1.3660949063992085,44.35480071321721,1553.0,1645.0,1350.0,1528.0,1471.0,1010.0,61.0,293.85,1649166277.641924,1649166278.7678275,306ef43b-e899-4459-a89a-adf1957a664f
0.0048524785253922,0.1176847279889698,-0.0547138563521838,-0.6761679269153394,-0.2728178734794516,0.6407288704825141,-0.1914740027777155,-0.2166071910899251,-14.364766945460635,21.54188924645312,17.822209539453837,3.100762011717938,0.4652492913978159,0.7333479951791765,7221.0830078125,11.610333333333331,8.100000000000001,179.1438772241708,1.351854803895411,44.37601338350451,1553.0,1645.0,1350.0,1528.0,1471.0,1010.0,61.0,293.85,1649166278.8998415,1649166280.0014827,306ef43b-e899-4459-a89a-adf1957a664f
0.0109836061347855,0.1147005218579373,-0.0669487186946093,-0.9499628119374592,-0.3187199787034386,0.9090789437551172,-0.1332838949343528,-0.163670534298012,-14.190407451014083,21.597997704504504,19.887647721380343,4.321574383736617,0.467452041060386,0.7299457471254897,7219.5635986328125,11.60125,8.09,179.14112921139477,1.4482235259337566,44.44551368881275,1553.0,1761.0,1350.0,1528.0,1471.0,1010.0,61.0,293.85,1649166280.9022903,1649166281.9461954,ea4bebd7-b339-45b4-89c8-ce62c09bd0af
0.0320872638320367,0.1138590053135088,-0.0675141126689665,-0.9535392594415764,-0.319495751906888,0.9127737271003936,-0.1310223190215139,-0.148799358039795,-14.037276404996357,21.501441708843405,19.834408511472272,4.33734500600781,0.4640867330039801,0.7284915154466575,7215.00537109375,11.598,8.096666666666666,179.1358585820852,1.440209988703088,44.47361451001426,1553.0,1761.0,1350.0,1528.0,1471.0,1010.0,61.0,293.85,1649166282.0549629,1649166283.2637415,ea4bebd7-b339-45b4-89c8-ce62c09bd0af
