raw_voltage_G-,raw_voltage_G0,raw_voltage_G1,raw_voltage_G2,raw_voltage_G3,raw_voltage_G4,raw_voltage_G5,raw_voltage_G6,load_x,load_y,load_z,load_l,load_m,load_n,rpm,voltage,current,roll,pitch,yaw,aileron1_pwm,elevator_pwm,throttle_pwm,rudder_pwm,aileron2_pwm,pbaro,pdiff,Tt,sample_start_time,sample_end_time,uid
-0.0424001018929834,0.1068901964258566,-0.0394153477053014,-0.1084460061250085,-0.2173566660551982,0.1065088842337116,-0.3647930180559653,-0.3851603526951356,-16.02190430797332,25.90629666036893,14.042759238544791,0.6479141324264256,0.4011343599743243,0.8791146307405602,3546.361653645833,11.976444444444446,0.2255555555555556,178.89690972634168,0.8924872177570626,91.34030115004846,1553.0,1435.0,1200.0,1528.0,1471.0,1010.0,61.0,293.85,1649168997.7513888,1649168998.929114,896467a3-663a-4670-9180-547c9aac5a8f
-0.0402305669595399,0.1100064373837785,-0.036838203157365,-0.1109311098577087,-0.2154369561980547,0.1063248024913709,-0.3624262523044216,-0.3775735540379651,-16.037782594622954,25.88270143170926,14.14468157919687,0.653086424596166,0.4125001522240255,0.8701148228595352,3616.130859375,11.96411111111111,0.2144444444444444,178.88918857693994,0.8315447896688036,91.01917449385095,1553.0,1435.0,1200.0,1528.0,1471.0,1010.0,61.0,293.85,1649168999.0376203,1649169000.2672062,896467a3-663a-4670-9180-547c9aac5a8f
-0.0464499004773716,0.1006708631996907,-0.0424526966356999,-0.1063685119975828,-0.2179615061449566,0.1118078087332703,-0.3656476834682397,-0.3998605978834145,-16.086084380201495,25.843078876863284,14.187737902838007,0.6545556913386017,0.3765279797314169,0.8847467655907897,3627.349365234375,11.977666666666666,0.2255555555555556,178.89878878727333,0.7669672779860208,90.74699752670524,1553.0,1435.0,1200.0,1528.0,1471.0,1010.0,61.0,293.85,1649169000.376241,1649169001.4982424,896467a3-663a-4670-9180-547c9aac5a8f
0.0827858971549246,0.3200513720306244,-0.0268824483601411,-0.232810220888863,-0.2561902491756255,0.0186586098267896,-0.3930188913126116,-0.4169056954009157,-15.889220020098298,25.32616976519417,14.910818994139644,0.7280215220489764,1.2080822480575062,0.9813685758784662,3625.81494140625,11.974,0.23,178.74975254176385,0.7125146620451521,90.33392362281091,1647.0,1435.0,1200.0,1528.0,1543.0,1010.0,61.0,293.85,1649169003.2497594,1649169004.25564,f912059a-654c-4e8f-9c83-621663dd0b7a
0.0850765096007283,0.3204513115140917,-0.0249912274989954,-0.2337004972946307,-0.254725265085219,0.0187150396487227,-0.3908537388987138,-0.408354657562892,-15.851140255560283,25.324716170663745,14.873461253667578,0.7302543203085343,1.209873326527605,0.9737276802414386,3625.81494140625,11.956555555555555,0.2277777777777778,178.74412143024813,0.7062097393240446,90.2559251392191,1647.0,1435.0,1200.0,1528.0,1543.0,1010.0,61.0,293.85,1649169004.368166,1649169005.4799557,f912059a-654c-4e8f-9c83-621663dd0b7a
0.0751295209764593,0.3174353295156418,-0.0285945182316771,-0.2332622073600647,-0.2582310366637301,0.0212335628779794,-0.3938269884250497,-0.4086603652137616,-15.814515793354309,25.372668146932025,14.842692937211902,0.7350770943687763,1.1982934611476592,0.9872490684049732,3627.349365234375,11.953222222222225,0.22,178.76097833711972,0.7181497874828078,90.15915350123856,1647.0,1435.0,1200.0,1528.0,1543.0,1010.0,61.0,293.85,1649169005.588724,1649169006.615549,f912059a-654c-4e8f-9c83-621663dd0b7a
0.2171080434458918,0.5541803250940828,-0.0094193357307702,-0.3679678809043396,-0.2981976000360499,-0.0811482155234177,-0.4240279062954001,-0.4596252706986242,-15.722112915905782,25.02335743856872,15.59170578706516,0.8076796479185822,2.096733479365764,1.0872762168077237,3624.2819010416665,11.96,0.22,178.65827505929997,0.7147799132561344,89.89477433339522,1734.111111111111,1435.0,1200.0,1528.0,1606.111111111111,1010.0,61.0,293.85,1649169008.2757976,1649169009.2776024,f01437a1-313e-4635-a6d0-a92817e494f9
0.2074245769733658,0.5507150960982933,-0.0137474483410697,-0.367899398102858,-0.3026900719137177,-0.0786691383032279,-0.4278629435259047,-0.4508183815530655,-15.674154194847688,25.09910035539696,15.43791539209378,0.8133822089772931,2.084478837733644,1.104121947691822,3624.6224500868057,11.948555555555554,0.22,178.66890131582866,0.719696493306731,89.83490317186062,1745.0,1435.0,1200.0,1528.0,1614.0,1010.0,61.0,293.85,1649169009.3865068,1649169010.398296,f01437a1-313e-4635-a6d0-a92817e494f9
0.2104241231698167,0.5550979944326816,-0.0079538039445114,-0.3692279645403126,-0.2986495865585521,-0.0810249465008247,-0.4230965401402248,-0.4551738881201701,-15.61944124732118,25.136391802470367,15.579427700342114,0.8116711070907607,2.099807400021809,1.0846761724501386,3625.81494140625,11.949,0.2233333333333333,178.67833608380218,0.7329903952380867,89.78278882849342,1745.0,1435.0,1200.0,1528.0,1614.0,1010.0,61.0,293.85,1649169010.5067794,1649169011.625496,f01437a1-313e-4635-a6d0-a92817e494f9
0.2572800477816215,0.643372306032925,-0.0053925474342191,-0.4280273022734714,-0.322933588623738,-0.1267440616711442,-0.4466820192007764,-0.4688841470670815,-15.827208706390158,25.554320983005805,13.595035897548485,0.8440481789254829,2.4573567951609823,1.1548912937319058,3625.81494140625,11.941,0.21,178.5849264167131,0.7445560932978866,89.58214519143513,1849.0,1435.0,1200.0,1528.0,1686.0,1010.0,61.0,293.85,1649169013.251758,1649169014.3497388,a4eef7fd-c7ae-460b-b2e2-0bd2c75a44a7
0.2560062679325924,0.6424683332539645,-0.0023382148114974,-0.4291093306490696,-0.3204545111262745,-0.1252100470323238,-0.4427374094565715,-0.4741984125783751,-15.751874043023804,25.569411482245645,13.57192797846766,0.8502224656914533,2.453965057484233,1.1416300553097585,3614.432807074653,11.92177777777778,0.21,178.60566438885309,0.757658151105133,89.50225019198376,1849.0,1435.0,1200.0,1528.0,1686.0,1010.0,61.0,293.85,1649169014.4782803,1649169015.4185169,a4eef7fd-c7ae-460b-b2e2-0bd2c75a44a7
0.2666484933501968,0.6451939481478483,0.0006750281394379,-0.427150722327603,-0.3180576129900365,-0.1299490565998426,-0.4405459595738787,-0.4629946251397421,-15.670839154735264,25.550294087121312,13.55412901040912,0.8352163994190285,2.463721529993163,1.131524238721729,3613.924831814236,11.925555555555556,0.2177777777777777,178.61306072481432,0.7747497923685908,89.41892719647896,1849.0,1435.0,1200.0,1528.0,1686.0,1010.0,61.0,293.85,1649169015.5267346,1649169016.6510556,a4eef7fd-c7ae-460b-b2e2-0bd2c75a44a7
0.315389063744118,0.7224726635047659,0.029063063684059,-0.4788185362799357,-0.3155248450035566,-0.157595836168293,-0.4293662781475004,-0.4621722833781702,-15.46432112029327,25.894541976369087,13.771469178867228,0.8934745205537828,2.75834263542854,1.0826683963505683,3610.54150390625,11.907666666666668,0.2066666666666666,178.60256196515007,0.8027282986373074,89.13809182619538,1962.0,1435.0,1200.0,1528.0,1760.0,1010.0,61.0,293.85,1649169018.7879455,1649169020.1330483,be718836-52ae-414f-b7b9-fdb75f5dd8f0
0.3206951102098302,0.717470680790974,0.0240002676986497,-0.4705414298869856,-0.3185369926719119,-0.1597390737978293,-0.4340948791688472,-0.4524619690880045,-15.410836308638707,25.86831406805097,13.81588304453747,0.8695952966167916,2.7374694797153603,1.0999828624029124,3607.165581597222,11.859111111111112,0.2011111111111111,178.6044804893969,0.8334540587721848,88.99059161433921,1962.0,1435.0,1200.0,1528.0,1760.0,1010.0,61.0,293.85,1649169020.241202,1649169021.3618114,be718836-52ae-414f-b7b9-fdb75f5dd8f0
0.3109711021213349,0.7201058984106559,0.0310879629135079,-0.4662615282441868,-0.3120404399718469,-0.1659978537609898,-0.4295766573604772,-0.4523370558938008,-15.444591623025737,25.936682948685995,13.897459200444592,0.8466787304472342,2.746792586468499,1.0754598072520043,3604.46875,11.864666666666668,0.2,178.59841376359412,0.8315762785009928,88.86199508937595,1962.0,1435.0,1200.0,1528.0,1760.0,1010.0,61.0,293.85,1649169021.4702256,1649169022.4214222,be718836-52ae-414f-b7b9-fdb75f5dd8f0
-0.1908028713947097,-0.1658888290410377,-0.0487695496847205,0.0550366696383199,-0.1633686620724313,0.2192036168726845,-0.3277821711406155,-0.3525044646628247,-16.447728333028586,27.11430228415724,13.562997355888411,0.539628793507473,-0.6353875746587762,0.7325931669817782,3604.805718315972,11.891,0.2044444444444444,179.14583369391306,0.8373633578607304,88.54144899925788,1459.0,1435.0,1200.0,1528.0,1394.0,1010.0,61.0,293.85,1649169024.3199482,1649169025.3450196,192fcf4c-d84a-44d6-a5f6-f009d6e8ff2f
-0.1832423703407605,-0.1649711595413104,-0.0451810512010947,0.0548312212285429,-0.1591501216753118,0.216231463779829,-0.3221117949666219,-0.3401364696790896,-16.293899354572023,26.91658907045479,13.278787530199237,0.5323135573223071,-0.6302661415969241,0.7137795418324387,3611.7250705295137,11.971444444444444,0.2222222222222222,179.13487958830422,0.8414569475482097,88.469162071632,1459.0,1435.0,1200.0,1528.0,1394.0,1010.0,61.0,293.85,1649169025.452985,1649169027.1033986,192fcf4c-d84a-44d6-a5f6-f009d6e8ff2f
-0.1886136132617489,-0.1707313847046292,-0.0479094057628411,0.0578192624659436,-0.1613037687174161,0.2210471735646764,-0.3250707999541821,-0.3491855137554167,-16.37487352209796,27.074371868631257,13.528671827515767,0.537303991314422,-0.6540502701876126,0.7242051943591652,3615.279568142361,11.97188888888889,0.2288888888888889,179.1253901788173,0.8575822415527674,88.41341406762636,1459.0,1435.0,1200.0,1528.0,1394.0,1010.0,61.0,293.85,1649169027.2117832,1649169028.2109442,192fcf4c-d84a-44d6-a5f6-f009d6e8ff2f
-0.3277794318594323,-0.4027138652660268,-0.0554567576925106,0.2053213335585994,-0.114047351062,0.3123780125443717,-0.2916994038662102,-0.3167082282982527,-16.463765932115624,27.956312398717632,13.597213492099527,0.4152449093741964,-1.5427281076914088,0.5955103095939259,3612.4444274902335,11.96025,0.21625,179.1994282910554,0.8620045978306278,88.27831159775117,1364.0,1435.0,1200.0,1528.0,1312.0,1010.0,61.0,293.85,1649169028.7549078,1649169029.9654014,b186b3c1-4a7c-48fa-8fbd-d22f072eb396
-0.3216258411020609,-0.4062771626663579,-0.0585729988210887,0.2075960578988357,-0.115980209532702,0.3154811046557655,-0.2950523218738259,-0.3188120199956014,-16.589000631262156,28.016329830961787,13.81469153015114,0.417301072984394,-1.5576103638281942,0.6069478605527533,3611.8941514756943,11.952444444444446,0.22,179.22046641206387,0.8704604446531534,88.19321256333471,1364.0,1435.0,1200.0,1528.0,1312.0,1010.0,61.0,293.85,1649169030.073846,1649169031.2859085,b186b3c1-4a7c-48fa-8fbd-d22f072eb396
-0.3257413836565178,-0.4051266515091964,-0.0584941066361431,0.2066027835220428,-0.1149787170988887,0.3153123630679664,-0.2939105765829351,-0.3166194749390635,-16.59902189768435,27.88082011282717,13.827310247433834,0.4182650568028618,-1.5532111622730482,0.6040475589261708,3612.063232421875,11.94988888888889,0.22,179.21002381173287,0.8786399519232629,88.104934645042,1364.0,1435.0,1200.0,1528.0,1312.0,1010.0,61.0,293.85,1649169031.395478,1649169032.5126865,b186b3c1-4a7c-48fa-8fbd-d22f072eb396
-0.460885353855117,-0.6528015893272531,-0.073656197639844,0.3615519416165191,-0.0744642946337554,0.4155848610482678,-0.2697498439320629,-0.288897636398345,-16.870247988600344,29.230206954472777,13.886610719824487,0.3021266124949645,-2.500764540076401,0.5058633800484097,3605.648139105903,11.942111111111112,0.2122222222222222,179.31118498462,0.8776548157151617,87.91038884909271,1262.0,1435.0,1200.0,1528.0,1222.0,1010.0,61.0,293.85,1649169034.3554032,1649169035.3799448,33e8023e-1c00-4c05-bd09-80e67aaa1db9
-0.4653641295412907,-0.6490213378020123,-0.0728891903227225,0.3541010142816764,-0.074080790979302,0.4177489171198845,-0.2661887382165087,-0.2901029332511874,-16.761556547864593,29.02327438608189,13.764085227823506,0.3224985940945017,-2.485307166069337,0.4996054715384745,3603.458658854168,11.919666666666666,0.21,179.32531892274247,0.8821351707933766,87.79748050974305,1262.0,1435.0,1200.0,1528.0,1222.0,1010.0,61.0,293.85,1649169035.4882717,1649169036.607948,33e8023e-1c00-4c05-bd09-80e67aaa1db9
-0.4640081698990689,-0.6537740453244522,-0.0790526419702559,0.3571005604055777,-0.0792443937984568,0.4205704079680748,-0.273078108097196,-0.2856241587793193,-16.877352931898503,29.14085383818362,13.84473269072901,0.3224997359715629,-2.503785951217735,0.5242846754193101,3602.112630208333,11.915444444444445,0.21,179.32803126675287,0.8868994945437249,87.70180777330896,1262.0,1435.0,1200.0,1528.0,1222.0,1010.0,61.0,293.85,1649169036.7160015,1649169037.8386204,33e8023e-1c00-4c05-bd09-80e67aaa1db9
-0.4825396181920227,-0.6803881120914739,-0.0914710383473782,0.3560053835817933,-0.0929568410975587,0.4430234484737984,-0.2840863076819909,-0.3149594515531321,-16.92151110911182,29.890162803008423,13.087653322428466,0.3796311620584552,-2.59722207936161,0.5709263839441673,3598.415771484375,11.914666666666667,0.2177777777777778,179.39605843306637,0.8847623745985004,87.54888211452209,1153.0,1435.0,1200.0,1528.0,1121.0,1010.0,61.0,293.85,1649169038.860699,1649169039.8812015,904252df-b74a-4e67-b015-a3a0e44c3513
-0.4842095030880466,-0.6893818238368473,-0.0918392018655654,0.3659720946692952,-0.0905111834724239,0.445298172754868,-0.2827319917923059,-0.3063207564409864,-16.87987216958354,29.883481059641586,13.466406090984206,0.3622790220825403,-2.6358561213312663,0.5657341078015533,3591.0460611979165,11.862888888888888,0.2,179.37074119854287,0.8994034839117718,87.42746563619632,1153.0,1435.0,1200.0,1528.0,1121.0,1010.0,61.0,293.85,1649169039.990823,1649169041.122545,904252df-b74a-4e67-b015-a3a0e44c3513
-0.4674449111826473,-0.6804670043688487,-0.0862247082985939,0.3566759670788201,-0.0875790240904179,0.4443514667030173,-0.2772621334325379,-0.3109228007636107,-16.829628475052854,29.820352892020164,13.399869293076454,0.3809971985491345,-2.600686616097154,0.547263701208625,3584.3712565104165,11.857999999999995,0.1966666666666666,179.35312689958332,0.907802790463922,87.2761936420985,1153.0,1435.0,1200.0,1528.0,1121.0,1010.0,61.0,293.85,1649169041.2313206,1649169042.4552815,904252df-b74a-4e67-b015-a3a0e44c3513
-0.0350319010143895,0.1116308492055723,-0.0403324692979064,-0.1190328987080682,-0.217470073573763,0.1140688365761497,-0.3620372699794228,-0.3871978538566926,-16.088992084316903,25.617738013496165,14.402609705656806,0.6868488259265737,0.4174406140629027,0.8776554791764104,3583.3720703125,11.863,0.2,179.0982697743529,0.9230549230456776,87.1225804109352,1553.0,1435.0,1200.0,1528.0,1471.0,1010.0,61.0,293.85,1649169043.2581437,1649169044.3040855,c7c7062d-fa0d-4bf2-ae84-afe68103472a
-0.029635456771734,0.1132881327632313,-0.0395106757581556,-0.1162661936861038,-0.217771397897405,0.1093435239480596,-0.3640917541322719,-0.3991823450198549,-16.117507755834936,25.759355391459508,14.31764013694901,0.6709412286713615,0.4243252035404615,0.8798977304520514,3580.877197265625,11.970666666666666,0.2266666666666666,179.08926303156738,0.940250244446302,87.22403148740712,1553.0,1435.0,1200.0,1528.0,1471.0,1010.0,61.0,293.85,1649169044.412358,1649169045.4144871,c7c7062d-fa0d-4bf2-ae84-afe68103472a
-0.0503773149958128,0.1142216058950007,-0.038265342471899,-0.1168793781181377,-0.2158865405245412,0.1093793457176321,-0.3617865175546969,-0.3812314200693635,-16.102978822667435,25.648113574716792,14.38737640829301,0.6717479225181299,0.4272579493302952,0.8726125414034568,3582.2074924045137,11.973666666666666,0.23,179.092327509775,0.9392230361701884,87.3041617489299,1553.0,1435.0,1200.0,1528.0,1471.0,1010.0,61.0,293.85,1649169045.5226643,1649169046.598285,c7c7062d-fa0d-4bf2-ae84-afe68103472a
-0.0274303107920807,0.1066316054054196,-0.0577955821191104,-0.3121406987632039,-0.25377965455913,0.3067794076278463,-0.3257961698036343,-0.3509841466673388,-16.080363490382677,25.26436866046342,15.898465772828658,1.552529812417201,0.4080342469592331,0.8992777218875002,3579.8809950086807,11.97222222222222,0.2277777777777778,179.07425331141133,1.000133927994389,87.43803725121168,1553.0,1537.0,1200.0,1528.0,1471.0,1010.0,61.0,293.85,1649169047.2502377,1649169048.4021113,43df5c12-7590-4949-b71b-610bec05a898
-0.0302928916037709,0.1114390973872555,-0.0534263797679003,-0.3144828106754471,-0.2512457909189957,0.3049851585516184,-0.3224268158630357,-0.3480256885325918,-16.036083574837978,25.298344728600128,16.035507082573577,1.5542680489510208,0.4251031932437817,0.8858450396172751,3585.3712565104165,11.972,0.22,179.07675467846738,1.0017327970165049,87.4570820953474,1553.0,1537.0,1200.0,1528.0,1471.0,1010.0,61.0,293.85,1649169048.5108454,1649169049.624629,43df5c12-7590-4949-b71b-610bec05a898
-0.0345371813025654,0.1047995537568889,-0.0555487985701833,-0.3090293880651897,-0.2513197523482123,0.3064216535377939,-0.3233483204799344,-0.3555363348592675,-16.029600092592883,25.28676819187972,16.017169838701765,1.5450123756861958,0.3995113224442604,0.889378747310215,3584.537787543403,11.973999999999998,0.22,179.09371783272607,0.9984556817391064,87.50363287018068,1553.0,1537.0,1200.0,1528.0,1471.0,1010.0,61.0,293.85,1649169049.7330637,1649169050.8489902,43df5c12-7590-4949-b71b-610bec05a898
-0.0266359103884357,0.0975644837559313,-0.0778336481972542,-0.5213282821539561,-0.296389654053071,0.5200622008309529,-0.2883223798879659,-0.3140034324373397,-15.98847111873672,25.15685191282109,17.638572252360035,2.502293799502974,0.3824374555720737,0.9309048364486522,3579.8809950086807,11.976000000000004,0.22,179.07619004949598,1.0494712658554473,87.56547795638541,1553.0,1621.0,1200.0,1528.0,1471.0,1010.0,61.0,293.85,1649169051.764156,1649169052.7870948,2da3b5bc-58d7-490d-a3f5-fd666a11d7d8
-0.024389674683464,0.1022350101690821,-0.070834706438669,-0.5209036887054007,-0.2905823123728018,0.5149533849509752,-0.2833642249880779,-0.3044706257166998,-16.00829094468779,25.187949531146444,17.664204703622193,2.490404588893801,0.4002598158050345,0.9069737288170904,3580.046223958333,11.963444444444445,0.2222222222222222,179.0663378810732,1.0537829650646255,87.54047263383399,1553.0,1645.0,1200.0,1528.0,1471.0,1010.0,61.0,293.85,1649169052.8951485,1649169054.0241215,2da3b5bc-58d7-490d-a3f5-fd666a11d7d8
-0.0195739645672924,0.1034057919787275,-0.069078807550476,-0.5204078731242288,-0.2899111809075739,0.514394565412551,-0.281706393312449,-0.3091608759393216,-15.904888697702985,25.227152185680737,17.82476927108688,2.488455364453782,0.4025469579926646,0.9017344373871112,3573.4131673177085,11.962666666666664,0.22,179.07590318155084,1.0593180863349805,87.56733956238918,1553.0,1645.0,1200.0,1528.0,1471.0,1010.0,61.0,293.85,1649169054.1318626,1649169055.1504776,2da3b5bc-58d7-490d-a3f5-fd666a11d7d8
-0.0195082210734379,0.0986985587877003,-0.0666200012503743,-0.6360901384804524,-0.3027048642060002,0.6293404570535546,-0.2500048825622833,-0.275158342005796,-15.84152500246648,25.41999966739362,18.49466338999836,3.0092445011864286,0.3929083529183972,0.8699981778778263,3575.7317979600693,11.961333333333332,0.2111111111111111,179.0740074246012,1.123931379434118,87.5952507509775,1553.0,1761.0,1200.0,1528.0,1471.0,1010.0,61.0,293.85,1649169057.2924488,1649169058.3184688,331f0a21-3360-48a6-ad2f-2a1c7c3dd5ee
-0.0188113401648326,0.0953850873791304,-0.0640954514776445,-0.6235988727330174,-0.2987997008694404,0.6212408609542251,-0.2503467487098097,-0.2677424766561238,-15.879165414860784,25.521314361522,18.524242183611864,2.963649493004856,0.379108893095416,0.8614071177619052,3575.234809027778,11.954777777777778,0.22,179.06713625429617,1.098420445014611,87.56300922245539,1553.0,1761.0,1200.0,1528.0,1471.0,1010.0,61.0,293.85,1649169058.4269695,1649169059.5479517,331f0a21-3360-48a6-ad2f-2a1c7c3dd5ee
-0.0181144592413187,0.0968314439456548,-0.0633722731495231,-0.6294105987062628,-0.298839146954569,0.624186168620972,-0.2481903622894391,-0.2686497365230129,-15.837203725273753,25.468180850184336,18.39520113211057,2.983062156053033,0.3861407950590637,0.8573980406038945,3572.7510579427085,11.95188888888889,0.22,179.0794791650363,1.1153780497445906,87.55854607328776,1553.0,1761.0,1200.0,1528.0,1471.0,1010.0,61.0,293.85,1649169059.6565294,1649169060.785183,331f0a21-3360-48a6-ad2f-2a1c7c3dd5ee
-0.0083581264113505,0.0917428985570959,-0.0653445776979867,-0.6967450975864109,-0.3120930348054613,0.6965171396643499,-0.2347260957477035,-0.2629300533472293,-15.78194501193972,25.903907337330967,19.19265520941936,3.300434848753585,0.3677694071672848,0.8587469790020839,3569.940185546875,11.949111111111112,0.2177777777777777,179.06516460635578,1.1155765995492135,87.51632943293781,1553.0,1887.0,1200.0,1528.0,1471.0,1010.0,61.0,293.85,1649169061.7879047,1649169062.7444055,d9a41a05-c7b2-46e7-8dc2-650270f489b1
-0.019113760178939,0.0899941219844012,-0.0602034372213978,-0.6592712983721828,-0.303191366049978,0.6611340014803154,-0.2374610248731634,-0.2555273360838244,-15.602636507925547,25.90599879966222,18.833072962629203,3.136695301798889,0.358840428232295,0.8432429492419367,3569.114447699653,11.910444444444444,0.2055555555555555,179.05820692032125,1.1330994498648814,87.43804711704048,1553.0,1887.0,1200.0,1528.0,1471.0,1010.0,61.0,293.85,1649169062.8517582,1649169064.0683348,d9a41a05-c7b2-46e7-8dc2-650270f489b1
-0.0156950990695574,0.091795493344909,-0.0654366185394858,-0.6719597948197764,-0.3101864734976303,0.6715477678912536,-0.2430097753162256,-0.2649286552442647,-15.842822652581969,26.049304646761293,18.86142947125881,3.189291595566345,0.3682782216049098,0.867724102225814,3565.650200737847,11.913222222222222,0.2,179.07055438452082,1.1290710967845528,87.3806371003368,1553.0,1887.0,1200.0,1528.0,1471.0,1010.0,61.0,293.85,1649169064.181076,1649169065.1821578,d9a41a05-c7b2-46e7-8dc2-650270f489b1
-0.0378396956334938,0.1237933929942417,-0.0137611449011594,0.1015638787938059,-0.1761475523039786,-0.1116367566111786,-0.4061265004929839,-0.4338346451345289,-16.238512328481065,26.70733595005613,12.809266401835226,-0.3097371640909316,0.4527803512609889,0.8485335989883325,3555.9527994791665,11.941666666666666,0.2088888888888889,179.05053889461306,0.8901513582797386,87.31392360707366,1553.0,1335.0,1200.0,1528.0,1471.0,1010.0,61.0,293.85,1649169066.747679,1649169067.9578094,2b1f812c-e1fd-4ffd-8eed-5205e8591f81
-0.0406337936525284,0.1187256664217842,-0.0205957278053765,0.106658998514752,-0.1814618175144184,-0.1104177628080374,-0.4125501877955606,-0.4359028257862219,-16.232099774003135,26.731959267978624,12.89222159597914,-0.3186518982271124,0.431932502375612,0.8737769297748574,3557.347045898437,11.9745,0.22,179.05211818613114,0.886452753036586,87.44473140578071,1553.0,1335.0,1200.0,1528.0,1471.0,1010.0,61.0,293.85,1649169068.0660903,1649169069.1782925,2b1f812c-e1fd-4ffd-8eed-5205e8591f81
-0.0409931913558204,0.1157129714494435,-0.0263323945582572,0.1072057651280131,-0.1850503161955088,-0.1090508461910878,-0.4170722445346959,-0.4415288257520134,-16.307675889304292,26.62214044389906,12.700819284822847,-0.3178958292808151,0.4224315123355173,0.8922852693359333,3564.7440185546875,11.976,0.225,179.06671430038745,0.8838310676329986,87.57747442475264,1553.0,1335.0,1200.0,1528.0,1471.0,1010.0,61.0,293.85,1649169069.2873971,1649169070.5019538,2b1f812c-e1fd-4ffd-8eed-5205e8591f81
-0.0469342108182168,0.1266011874448209,0.0006613315766753,0.3109431611592234,-0.14467285813437,-0.3168934053393812,-0.4549410459304492,-0.4895248654165537,-16.409676823075763,27.63483433396128,11.288511202513677,-1.2367465580329042,0.4531521294179119,0.8550363637149676,3565.320610894097,11.974111111111112,0.2188888888888889,179.06356027081074,0.8201623268488467,87.75018676211006,1553.0,1236.0,1200.0,1528.0,1471.0,1010.0,61.0,293.85,1649169072.3454847,1649169073.370207,313ad300-7423-4cc4-a251-4c5dcc0d8861
-0.0447800159981885,0.1199731489517871,-0.0028488225329692,0.3113129682216318,-0.146195915568331,-0.3098709047403462,-0.4548879032939376,-0.484078017229143,-16.36280774558571,27.5424444317148,11.399490330134238,-1.2225462183068017,0.4267079991484575,0.8612483562857931,3551.863335503472,11.959,0.22,179.05778344859272,0.818939147876,87.84385673529752,1553.0,1236.0,1200.0,1528.0,1471.0,1010.0,61.0,293.85,1649169073.478563,1649169074.5991528,313ad300-7423-4cc4-a251-4c5dcc0d8861
-0.0429074224378398,0.1234098893603519,-0.0015438144006131,0.3113129682123004,-0.1463027487338342,-0.3134829617573352,-0.455516301524805,-0.484443441014236,-16.352221566264827,27.61697737997485,11.366382727539664,-1.2301038728113902,0.4399003652608786,0.8608556664241863,3541.424370659722,11.959333333333332,0.2111111111111111,179.0755768502905,0.8148432577428627,87.9302988505233,1553.0,1236.0,1200.0,1528.0,1471.0,1010.0,61.0,293.85,1649169074.707961,1649169075.8269105,313ad300-7423-4cc4-a251-4c5dcc0d8861
-0.0493031676823927,0.1316754883499967,0.020739938884453,0.417120519028093,-0.1198853725683489,-0.4260791035881137,-0.4686677402297931,-0.4956357232051814,-16.261007410647412,28.29027800358999,10.389138825797945,-1.7163352393540297,0.467313999254711,0.8135608885605237,3538.6624620225693,11.961555555555556,0.22,179.07230746640778,0.7583278357378952,88.03572357927236,1553.0,1133.0,1200.0,1528.0,1471.0,1010.0,61.0,293.85,1649169076.8509138,1649169077.840182,c673db79-3f2d-4c63-989f-38da0d13ae52
-0.0416243287915194,0.1314125144352745,0.0134161149633008,0.4247073161556289,-0.1263282341704912,-0.4339420255669722,-0.4789631719364457,-0.4958723996760249,-16.304198100721045,28.34521101816077,10.159752354302356,-1.7511770570272285,0.4672689699146664,0.846636400903765,3538.338134765625,11.954444444444444,0.22,179.0637135706121,0.7646808365874571,88.12501767793157,1553.0,1133.0,1200.0,1528.0,1471.0,1010.0,61.0,293.85,1649169077.9501235,1649169079.110853,c673db79-3f2d-4c63-989f-38da0d13ae52
-0.0528401670886275,0.1279281100064874,0.0102472791460756,0.4246810187176899,-0.1286555535468142,-0.4295372115321253,-0.4810143690059189,-0.5063650622632874,-16.337392077565493,28.35512384376789,10.277035973614188,-1.741309618037992,0.4531983104547279,0.8567625262125,3537.688666449653,11.952333333333332,0.21,179.06840515166198,0.7645951568446656,88.15492707630705,1553.0,1133.0,1200.0,1528.0,1471.0,1010.0,61.0,293.85,1649169079.223672,1649169080.2408187,c673db79-3f2d-4c63-989f-38da0d13ae52
-0.0449115029620755,0.1346865397145114,0.0240139642687592,0.4600904547483508,-0.1169400644314785,-0.4695881493064608,-0.4833416888255523,-0.509060546113709,-16.358376358898994,28.89483721051603,10.197831190671224,-1.906944309757427,0.4759192706640802,0.8261340562082641,3537.364203559028,11.947555555555557,0.21,179.04944909998548,0.7329516908327899,88.25348215257088,1553.0,1026.0,1200.0,1528.0,1471.0,1010.0,61.0,293.85,1649169082.2682564,1649169083.3202927,6ba52cae-1071-482e-9553-345d57686738
-0.0383738614429911,0.1397361868138891,0.0227949705222925,0.4573867543179588,-0.1196492439285941,-0.4712673477666008,-0.4859089724877796,-0.5095218461300007,-16.357701842185858,28.921922245288275,10.293592718430322,-1.9044843504534832,0.4942610764124167,0.8358526644172715,3537.5263671875,11.934666666666669,0.2077777777777777,179.05421808984596,0.7336665187470977,88.26580533165341,1553.0,1026.0,1200.0,1528.0,1471.0,1010.0,61.0,293.85,1649169083.4336662,1649169084.634534,6ba52cae-1071-482e-9553-345d57686738
-0.0488791222060667,0.1349423914233288,0.0240961436381957,0.4535791113573548,-0.1171427734931221,-0.4649395361964655,-0.4807590650835185,-0.5052211261269547,-16.302329340659224,28.79737473539932,10.053160714864156,-1.8824471072123088,0.4785696364626788,0.8224700443316455,3539.149468315972,11.939777777777778,0.21,179.05825700837516,0.7538088177572693,88.29197330418354,1553.0,1026.0,1200.0,1528.0,1471.0,1010.0,61.0,293.85,1649169084.743273,1649169085.8630035,6ba52cae-1071-482e-9553-345d57686738
-0.0361413222980738,0.1137264226312583,-0.0342922867708885,-0.1031311932209425,-0.2115805527613564,0.0957839311579485,-0.3621879321422662,-0.3969635015997807,-16.071787085982606,25.776431014059696,14.197564553402932,0.6112185813853905,0.4254235921579739,0.8616655115152915,3538.987060546875,11.93,0.2,179.05183814837517,0.9573801454412826,88.24025890633774,1553.0,1435.0,1200.0,1528.0,1471.0,1010.0,61.0,293.85,1649169086.8858588,1649169087.8182497,90b3b374-dd51-4cc7-8648-24dcfceca581
-0.0280466559482816,0.1138770847723086,-0.0325528237787884,-0.1053637323945513,-0.2103341658033064,0.0988793533617278,-0.3596677649142973,-0.3917314154851314,-16.056053113826355,25.785807375054592,14.382430657824877,0.6233966292659727,0.4246241470349791,0.854275174010203,3545.656060112847,11.973666666666666,0.2144444444444444,179.05955322649766,0.9212710460176065,88.21539474102917,1553.0,1435.0,1200.0,1528.0,1471.0,1010.0,61.0,293.85,1649169087.9267006,1649169089.0469563,90b3b374-dd51-4cc7-8648-24dcfceca581
-0.0324596872529983,0.1133067600825404,-0.0342873560087928,-0.1052114266693124,-0.2119919974247071,0.0978833396281015,-0.3611508285450965,-0.3753645722769969,-16.010876317303065,25.76733578923812,14.169058155856437,0.6205947985546457,0.4239274220804791,0.8606796828665854,3547.77587890625,11.964,0.21,179.07183694226495,0.921236278457456,88.20973479093695,1553.0,1435.0,1200.0,1528.0,1471.0,1010.0,61.0,293.85,1649169089.1548922,1649169090.2764556,90b3b374-dd51-4cc7-8648-24dcfceca581
-0.0103830256828491,0.1264160099746086,0.0531120292283755,-0.110339418489313,-0.1327579470249048,0.0850370635495783,-0.271963208074362,-0.3038882471842783,-15.425928362595815,25.72796014369932,14.174793810453671,0.6076812362952417,0.47507547949196,0.5086154672052444,3550.715087890625,11.976,0.2166666666666666,179.05399193469347,0.9350252208790464,88.22892079231552,1553.0,1435.0,1200.0,1435.0,1471.0,1010.0,61.0,293.85,1649169091.279292,1649169092.4177258,5eeaa5e3-8241-4d9a-9275-7e90155dd118
-0.0036119948644867,0.124409738117592,0.0515166540804475,-0.1107464802481454,-0.135003087070031,0.0875522995425032,-0.2736670601955047,-0.3054293846504664,-15.411635223280577,25.83428456468285,14.1855498013044,0.614885846779364,0.4673050297536489,0.5160092235670194,3548.102322048612,11.973444444444446,0.2122222222222222,179.04535705776271,0.9221790698642968,88.22768984044511,1553.0,1435.0,1200.0,1435.0,1471.0,1010.0,61.0,293.85,1649169092.5258334,1649169093.6422637,5eeaa5e3-8241-4d9a-9275-7e90155dd118
0.0004252028546529,0.1276256900024869,0.0521258770089541,-0.1112992733819813,-0.1349011846619143,0.0844716696145217,-0.2738040257903752,-0.2940924673756419,-15.39582716083585,25.80332900697359,14.125343136380474,0.6090337130615114,0.4798946863425342,0.5155581277828837,3545.9819607204863,11.975222222222222,0.21,179.0591358260484,0.9305594036687524,88.22312347952999,1553.0,1435.0,1200.0,1435.0,1471.0,1010.0,61.0,293.85,1649169093.7555492,1649169094.8736658,5eeaa5e3-8241-4d9a-9275-7e90155dd118
0.019188392689282,0.1409847650649898,0.1563424418396425,-0.1143629197856639,-0.0391918198623753,0.0691928846936127,-0.1671154929353967,-0.2006315236562608,-14.728295694472925,25.727425683926626,14.22238138300553,0.5866486826256615,0.531397356591654,0.0934625488511969,3541.91162109375,11.974333333333334,0.2133333333333333,179.0191397560886,0.9330451774977812,88.18446764446736,1553.0,1435.0,1200.0,1330.0,1471.0,1010.0,61.0,293.85,1649169095.787564,1649169096.9190023,3b4aabe2-a311-4307-87bc-b92b541ba752
0.0304699741400019,0.1433120842369765,0.1611154184297923,-0.1147968267909621,-0.0358126048225744,0.0686406394548536,-0.1628158689110782,-0.1890080742650025,-14.664010081861656,25.778777275075523,14.445081932709376,0.5870324394994055,0.5380543067623809,0.0768478764828955,3540.7738172743057,11.970444444444446,0.2177777777777777,179.00846189368613,0.935849918789456,88.19129328017792,1553.0,1435.0,1200.0,1330.0,1471.0,1010.0,61.0,293.85,1649169097.0271723,1649169098.153062,3b4aabe2-a311-4307-87bc-b92b541ba752
0.0341779065296841,0.14371969381111,0.1608524445155413,-0.1164667113104229,-0.0371800692691175,0.0681672863959737,-0.1634733037710517,-0.1907042564282041,-14.614605392233738,25.83980437829233,14.21157002378489,0.5901147099339685,0.5414929887615068,0.0797197564156312,3540.611273871528,11.975555555555555,0.2188888888888889,179.00842243037093,0.9397836808645602,88.19216754439168,1553.0,1435.0,1200.0,1330.0,1471.0,1010.0,61.0,293.85,1649169098.261502,1649169099.3805764,3b4aabe2-a311-4307-87bc-b92b541ba752
0.0555182405853992,0.1604316862528297,0.2701575514979631,-0.1127850761414786,0.0609355034806355,0.0450124323214367,-0.0563508690756801,-0.0815569211116171,-13.885592575681391,26.03677866857727,14.556480088011895,0.5369481722969218,0.6024358319178595,-0.3524617422804051,3541.9129231770835,11.970666666666666,0.2066666666666666,178.97123736270956,0.9129623936255338,88.10869124908552,1553.0,1435.0,1200.0,1210.0,1471.0,1010.0,61.0,293.85,1649169101.42725,1649169102.4478595,17317633-1ad2-41fc-a80d-4e9d5c659866
0.0701395907642239,0.1616150688770724,0.2695921575956226,-0.1140999458481688,0.0602780686755581,0.0441446183688546,-0.0563245716713726,-0.0807811481196195,-13.830862915381458,25.971796078427843,14.424318035982278,0.5375116542252649,0.6077831656842769,-0.3508228386581542,3542.2369791666665,11.976333333333336,0.2077777777777777,178.97200689735607,0.9200601341119404,88.13377549826734,1553.0,1435.0,1200.0,1210.0,1471.0,1010.0,61.0,293.85,1649169102.5569575,1649169103.7968369,17317633-1ad2-41fc-a80d-4e9d5c659866
0.0675005378677962,0.1611439072761411,0.2686481908276169,-0.113924082024342,0.0595291408495236,0.0450929680887179,-0.057151843845,-0.0906262350277773,-13.846235233459169,25.975295980705567,14.509695766871776,0.5392280866746378,0.6052866883261295,-0.347285419471697,3541.91162109375,11.974666666666668,0.21,178.97959751425367,0.9198952135026064,88.15224508869295,1553.0,1435.0,1200.0,1210.0,1471.0,1010.0,61.0,293.85,1649169103.904699,1649169104.9099302,17317633-1ad2-41fc-a80d-4e9d5c659866
0.0923323983906154,0.176812769773264,0.3535805451045471,-0.0961596445196401,0.1350245707597241,0.007550700657785,0.0188503616245323,-0.0013931529116894,-13.264900129304904,26.34312706776052,14.292946548054807,0.4217189194695745,0.6650642592391495,-0.6720944533056095,3541.4239908854165,11.969333333333337,0.2133333333333333,178.95362002811038,0.9194775758939816,88.13144716267026,1553.0,1435.0,1200.0,1071.0,1471.0,1010.0,61.0,293.85,1649169106.8453205,1649169107.979745,a8ae6521-86d8-461b-a1b8-9769c9430bae
0.071387199792705,0.173062020018041,0.3490396094655996,-0.0933002243622742,0.132301062823969,0.0086148179171566,0.014658161055193,-0.006683184829558,-13.345193457303406,26.31881466901564,14.263204946188685,0.4172275450148278,0.6511882234720853,-0.656743231692468,3542.0743001302085,11.958666666666666,0.2088888888888888,178.9403679433007,0.916523400498278,88.10982050702829,1553.0,1435.0,1200.0,1071.0,1471.0,1010.0,61.0,293.85,1649169108.0886357,1649169109.329172,a8ae6521-86d8-461b-a1b8-9769c9430bae
0.0914695152158591,0.1747856791703621,0.3538270831321127,-0.0923246079035347,0.1368736061122311,0.0067426036993667,0.0186312166641399,0.00390741561312,-13.377003833727386,26.325704198497306,14.3985904648613,0.4111093024325835,0.6568617187331746,-0.6747708459698573,3535.580810546875,11.959666666666667,0.2033333333333333,178.96179348781718,0.9341067027312874,88.10408087139575,1553.0,1435.0,1200.0,1071.0,1471.0,1010.0,61.0,293.85,1649169109.437484,1649169110.4406111,a8ae6521-86d8-461b-a1b8-9769c9430bae
-0.0672599045580986,0.0936061783745949,-0.1499049439157033,-0.0834766306069908,-0.3176741093107542,0.1043305835882262,-0.4857309170497124,-0.5038240770174877,-16.8448085736572,26.20728793940658,14.26099433458988,0.5828086285955539,0.3451277064298028,1.3367702550580909,3537.5263671875,11.963,0.2,179.0423305250505,0.9512958342729764,88.19556214840918,1553.0,1435.0,1200.0,1613.0,1471.0,1010.0,61.0,293.85,1649169112.2476952,1649169113.4194286,8a74f4f5-08d6-456b-a930-e48db3559b0b
-0.0760476169210643,0.0918612368324983,-0.1548083122564227,-0.0824510322569114,-0.3212313800393569,0.10585144943149,-0.4904682839134413,-0.5144778097748425,-16.93803343366467,26.17804665973296,14.33208923956844,0.5834391255456489,0.3381752085959278,1.3548891525024442,3548.4336751302085,11.972666666666663,0.21,179.06573378878662,0.9448191548243812,88.15578540341274,1553.0,1435.0,1200.0,1613.0,1471.0,1010.0,61.0,293.85,1649169113.5286252,1649169114.653293,8a74f4f5-08d6-456b-a930-e48db3559b0b
-0.0725741695058004,0.0931404953893973,-0.1544795948295638,-0.0836820790037506,-0.3204134214428393,0.1059193843591329,-0.4898261890821031,-0.5253824652829583,-16.984008543384636,26.105758274134427,14.363618923026968,0.5858877670574463,0.3431903408746958,1.352598762378569,3571.758490668403,11.973333333333336,0.2011111111111111,179.07997549211598,0.9416768646352868,88.14150120112852,1553.0,1435.0,1200.0,1613.0,1471.0,1010.0,61.0,293.85,1649169114.7621868,1649169115.7689874,8a74f4f5-08d6-456b-a930-e48db3559b0b
-0.1048038171064537,0.0799090720664207,-0.2552117669182824,-0.0567321812728234,-0.4123387128922675,0.0981594622487692,-0.6013775686642165,-0.6319614468199066,-17.630832866032197,26.44710577038579,14.127522655369734,0.5045416335730579,0.2905368348001097,1.7716486348169065,3584.870849609375,11.974555555555554,0.2088888888888888,179.0615673733929,0.918174420860619,88.14253104187338,1553.0,1435.0,1200.0,1694.0,1471.0,1010.0,61.0,293.85,1649169117.4106328,1649169118.4269743,bc8e9f4a-3ab7-40a9-abe3-7aceeba87eca
-0.1008329106015481,0.0755700023393072,-0.2575390864491509,-0.0553910142239706,-0.4141795307561329,0.1027483571585254,-0.6030868997511343,-0.6267940073459697,-17.65659671127664,26.52783082474928,14.334546268597936,0.5122674319413849,0.2722988933192604,1.779489583064781,3581.708930121528,11.972555555555555,0.2,179.05945001475018,0.9214855566462268,88.0794231295821,1553.0,1435.0,1200.0,1694.0,1471.0,1010.0,61.0,293.85,1649169118.5354557,1649169119.5631688,bc8e9f4a-3ab7-40a9-abe3-7aceeba87eca
-0.113335130024544,0.0764991768675075,-0.2571900981050647,-0.0559876363310364,-0.4126186706325194,0.1010160164617797,-0.6016586221654227,-0.6322293516054915,-17.660554119454,26.3632072943992,14.148561625639266,0.5086148933212485,0.277553038538095,1.7747640437421996,3581.04576280382,11.971777777777778,0.2022222222222222,179.07195988567003,0.91348675293994,88.05226933308175,1553.0,1435.0,1200.0,1694.0,1471.0,1010.0,61.0,293.85,1649169119.6711702,1649169120.790835,bc8e9f4a-3ab7-40a9-abe3-7aceeba87eca
-0.1407655036575004,0.0630129974891335,-0.3409018328594151,-0.0245441718533922,-0.4890350757041963,0.089310389762039,-0.6988488887640303,-0.7173491124682311,-18.345423559811305,26.91359850366841,14.022739966080811,0.410497556778542,0.2237652512524,2.1290940635378184,3552.6778157552085,11.964,0.2066666666666666,179.0637044636932,0.9046849869773206,88.03635499231564,1553.0,1435.0,1200.0,1774.0,1471.0,1010.0,61.0,293.85,1649169121.7957332,1649169122.927995,ff151156-7012-47d7-b236-93820d49e0b8
-0.1354928760930234,0.0592787677644505,-0.3443862379266993,-0.0227690977844959,-0.4908890423117028,0.0919269803032962,-0.7019256848468715,-0.7286964420910361,-18.454100583909632,26.9097508429987,14.08226333047962,0.4121290292992624,0.2095617470093193,2.140322815764902,3549.89830186632,11.958777777777778,0.2044444444444444,179.0650507698696,0.9103841750833636,87.97633053097964,1553.0,1435.0,1200.0,1774.0,1471.0,1010.0,61.0,293.85,1649169123.036774,1649169124.066549,ff151156-7012-47d7-b236-93820d49e0b8
-0.138701158193266,0.0588054146954154,-0.3503425983640765,-0.0210992133216991,-0.4964640909594646,0.0919664263763124,-0.7079872362319081,-0.7283019808580771,-18.437839294479467,26.909470046090167,14.194112141337186,0.4081783861141365,0.206096773834443,2.1647923720933653,3543.375732421875,11.958444444444446,0.2011111111111111,179.07636004531534,0.9252851339632618,87.94978006785598,1553.0,1435.0,1200.0,1774.0,1471.0,1010.0,61.0,293.85,1649169124.1806262,1649169125.2984998,ff151156-7012-47d7-b236-93820d49e0b8
-0.1488913985469784,0.0645420812831213,-0.3848009546303244,0.0252603511386295,-0.5279026320723511,0.0428056428001703,-0.7627165158097847,-0.7907533844570004,-18.71160132900656,27.340394449092347,13.726441402268838,0.1940602216853552,0.2258103132344237,2.332578873223114,3543.375732421875,11.954666666666666,0.2033333333333333,179.06378187250377,0.9175112284649584,87.89636343508704,1553.0,1435.0,1200.0,1856.0,1471.0,1010.0,61.0,293.85,1649169127.3243444,1649169128.3751166,8e45398a-603f-4611-86d1-080f0e5642e7
-0.157188226518684,0.0652614245352833,-0.3757064380053486,0.0250132652038125,-0.5205919549710847,0.0414359869362634,-0.7537315694916437,-0.769759838167724,-18.580596831548043,27.41647778436886,13.667614823491975,0.1925535662753612,0.2287107043919417,2.297494283374388,3540.286322699653,11.94788888888889,0.2,179.05978848856907,0.9182695691903068,87.85721354967444,1553.0,1435.0,1200.0,1856.0,1471.0,1010.0,61.0,293.85,1649169128.4839647,1649169129.8031814,8e45398a-603f-4611-86d1-080f0e5642e7
-0.1562464510892617,0.0615014452825939,-0.3848694374169505,0.027520283310411,-0.5283409220617857,0.0443807470325938,-0.7624836741992259,-0.7892193694703318,-18.629499354542705,27.43029658604623,13.821715696082826,0.1931509153724052,0.2126995055027833,2.3327444651658027,3540.44873046875,11.946333333333332,0.2066666666666666,179.06176924342836,0.9195426405606064,87.84472948169147,1553.0,1435.0,1200.0,1856.0,1471.0,1010.0,61.0,293.85,1649169129.9115837,1649169131.0286968,8e45398a-603f-4611-86d1-080f0e5642e7
-0.0455820865268462,0.0974888787497406,-0.1055664415270154,-0.10367302915267,-0.243338492804112,0.1138984513907901,-0.3966260177321984,-0.4219241148036415,-16.459776214621915,22.128324161650543,14.079075835750926,0.6251996663670994,0.3638056251916971,1.05019729593327,7190.79345703125,11.64011111111111,8.035555555555554,178.9810561390964,0.7007479002916597,76.3674602209601,1553.0,1435.0,1350.0,1528.0,1471.0,1010.0,61.0,293.85,1649169135.880428,1649169136.972332,28272d12-60a7-4b7d-9764-275e0a64c16b
-0.0433994028583627,0.0990535735834506,-0.0901298712633913,-0.0922073653981277,-0.2300451593435933,0.1149371983717255,-0.3847395939999509,-0.4091567280731706,-16.468554955803608,22.475060501021467,16.045482504065294,0.6050463740284697,0.3518809112713444,0.9970406732587098,7196.83154296875,11.641555555555556,8.098888888888888,178.96826243587105,0.6509996305024901,71.18200109365392,1553.0,1435.0,1350.0,1528.0,1471.0,1010.0,61.0,293.85,1649169137.081557,1649169138.201227,28272d12-60a7-4b7d-9764-275e0a64c16b
-0.0461606291827895,0.0958978865277152,-0.0929831385295125,-0.0937063168784275,-0.232727493709422,0.1161600270997899,-0.3881188095962656,-0.4079076017016854,-16.561166015045572,22.559580799082426,15.559316717410551,0.611469606670234,0.3450146240722669,1.008214580763983,7196.83154296875,11.641333333333332,8.083333333333334,178.95626558804892,0.6408068538267153,66.79681853538017,1553.0,1435.0,1350.0,1528.0,1471.0,1010.0,61.0,293.85,1649169138.30984,1649169139.633867,28272d12-60a7-4b7d-9764-275e0a64c16b
0.0660760957784751,0.2983423280740817,-0.0962966101491306,-0.2099369656166453,-0.284240804911669,0.0253973167079132,-0.4316842842314169,-0.4513251544669288,-16.390831532088725,21.976784031165604,15.465681574425588,0.6657439415735578,1.1180192057458955,1.1686250753152725,7196.83154296875,11.634777777777778,8.114444444444445,178.86273297755474,0.7517148667420332,58.01112267978564,1647.0,1435.0,1350.0,1528.0,1543.0,1010.0,61.0,293.85,1649169141.8710167,1649169142.9121678,5ce59ac2-7a22-403c-8a4e-03490dc7964a
0.0582690574144453,0.2965891686817484,-0.1051445875121436,-0.2140870233168866,-0.2916506441731317,0.0252466545718522,-0.4379710060246456,-0.4517771411021165,-16.32051242550726,21.77060308227149,14.60116106052608,0.6728571156947883,1.1185548639182217,1.1983952094763926,7196.83154296875,11.617333333333336,8.130000000000003,178.83548507622584,0.8107531839426906,55.77786597215033,1647.0,1435.0,1350.0,1528.0,1543.0,1010.0,61.0,293.85,1649169143.0207922,1649169144.14302,5ce59ac2-7a22-403c-8a4e-03490dc7964a
0.0608851000977164,0.3010131568288443,-0.0929409531114858,-0.2050472937319175,-0.2801044436375155,0.0231236879609339,-0.4308350974150461,-0.4580501666857918,-16.587657568078956,22.01400193192315,16.17093504439795,0.6500320479495993,1.122790218699178,1.158415832112163,7196.83154296875,11.617666666666668,8.119999999999997,178.8702886845966,0.8781472830264901,53.981642333652864,1647.0,1435.0,1350.0,1528.0,1543.0,1010.0,61.0,293.85,1649169144.255563,1649169145.374185,5ce59ac2-7a22-403c-8a4e-03490dc7964a
0.1757104707214152,0.5240194101789701,-0.1009512488970995,-0.3387848924700558,-0.3441364127167967,-0.0723133870093531,-0.4840517186049918,-0.4984495456297416,-16.353059455101395,21.60551118418563,15.927520563419456,0.7342239496499786,1.975647427204116,1.3581172868026663,7196.83154296875,11.616888888888887,8.118888888888888,178.75507401803716,0.983716358811598,51.78254150478202,1745.0,1435.0,1350.0,1528.0,1614.0,1010.0,61.0,293.85,1649169146.2783267,1649169147.423171,4e74c4b3-b429-426f-b937-ed2ec7a03704
0.1766834742162602,0.5220734033142042,-0.0983478068775061,-0.3379959705334005,-0.3400340187863274,-0.0690656588690047,-0.480948625494073,-0.5067463745480034,-16.504684475867716,21.57525111748088,16.244378754277598,0.7396456350703282,1.966680974744933,1.344687491628895,7196.83154296875,11.608666666666666,8.119999999999997,178.73942529573878,1.0390472351012114,50.615186664091006,1745.0,1435.0,1350.0,1528.0,1614.0,1010.0,61.0,293.85,1649169147.5573642,1649169148.645195,4e74c4b3-b429-426f-b937-ed2ec7a03704
0.1908106520918594,0.5328273922578496,-0.0930779187176711,-0.3421087738432242,-0.3376710881045543,-0.0749162811009638,-0.4782662908025704,-0.5101518881750728,-16.477317317703292,21.58622348875908,16.402446998479387,0.7361500976964835,2.0062609617863534,1.3319693327927913,7196.83154296875,11.606666666666667,8.127777777777778,178.74332609266474,1.097169607333016,49.74244292632961,1745.0,1435.0,1350.0,1528.0,1614.0,1010.0,61.0,293.85,1649169148.7537804,1649169149.8730595,4e74c4b3-b429-426f-b937-ed2ec7a03704
0.2731817514130719,0.685434433363068,-0.0990085289009357,-0.43175276718258,-0.3838832850332942,-0.1434401678106343,-0.5213419787069552,-0.5385585583563306,-16.60091920002755,21.71583886085307,15.993702534126774,0.7848192177712748,2.593790989294849,1.4812900199051915,7196.83154296875,11.604,8.119999999999997,178.6131108128682,1.180423577610111,48.58327103171924,1849.0,1435.0,1350.0,1528.0,1686.0,1010.0,61.0,293.85,1649169150.8763857,1649169151.921848,73f93505-0b74-4543-a2a4-5de0af12e133
0.2789206091407769,0.697364134732971,-0.1009945299978953,-0.4434359342024878,-0.3897317166641392,-0.1465218937076432,-0.5234512492910087,-0.5512278789952236,-16.405008969325646,21.6219138419839,15.672426864238238,0.8035744037339444,2.6413064294736914,1.496029563500618,7196.83154296875,11.580333333333336,8.100000000000001,178.65590726038766,1.2150238218415146,47.97677793363373,1849.0,1435.0,1350.0,1528.0,1686.0,1010.0,61.0,293.85,1649169152.0294363,1649169153.1548424,73f93505-0b74-4543-a2a4-5de0af12e133
0.2657308239522318,0.672409007410869,-0.1002686123675591,-0.4249729691286264,-0.3834449950811736,-0.1368521226388939,-0.5213556752715842,-0.5457218611935898,-16.615563708941696,21.90743156908499,15.99630877206642,0.7855302628161311,2.544106902253685,1.4808283560337008,7196.83154296875,11.584444444444443,8.112222222222222,178.6492455492172,1.2558374986472527,47.51575420449117,1849.0,1435.0,1350.0,1528.0,1686.0,1010.0,61.0,293.85,1649169153.2669055,1649169154.3905582,73f93505-0b74-4543-a2a4-5de0af12e133
0.2860674729679011,0.7137813761266391,-0.0910897261991196,-0.4804884211138691,-0.3950613226255013,-0.1309565755785647,-0.5204473192987995,-0.543891451633408,-16.573398226233607,22.539189380495028,15.361316739167163,0.9285726523027564,2.712035667599671,1.4862389746488076,7196.83154296875,11.584,8.100000000000001,178.647354345727,1.3441948890368494,46.66887601366166,1962.0,1435.0,1350.0,1528.0,1760.0,1010.0,61.0,293.85,1649169156.245941,1649169157.2459495,2048e2e0-55b5-4406-8ea7-4eacf0a2923a
0.2881449668535473,0.7219335670121051,-0.0878945928297709,-0.4719286178929121,-0.3917215531039126,-0.1390824704581157,-0.5209995646712033,-0.545745418391233,-16.661744878076526,22.52283021397061,16.472367697061618,0.8911871485303826,2.732537801173164,1.48069448874914,7196.83154296875,11.512444444444444,8.085555555555555,178.64948384692823,1.3611305209534057,46.43505738889471,1962.0,1435.0,1350.0,1528.0,1760.0,1010.0,61.0,293.85,1649169157.354235,1649169158.4754212,2048e2e0-55b5-4406-8ea7-4eacf0a2923a
0.3027005727124208,0.7210263070572875,-0.0951132274483679,-0.4835389195363173,-0.3985720252104074,-0.1359004857242671,-0.5241289552189657,-0.5517280774986483,-16.551892710212783,22.283990879326574,15.241685138193716,0.922443873310911,2.740232829700801,1.5025479567096014,7196.83154296875,11.514666666666663,8.073333333333332,178.64176725098594,1.3717661571342716,46.24608275057842,1962.0,1435.0,1350.0,1528.0,1760.0,1010.0,61.0,293.85,1649169158.5841064,1649169159.5494528,2048e2e0-55b5-4406-8ea7-4eacf0a2923a
-0.1903755387143575,-0.1663397197960369,-0.1088404670930108,0.0345723674380794,-0.1882848958136818,0.2337882596170785,-0.3483965910009625,-0.3738919179739337,-16.56199578578341,23.14248318657588,12.632965240225992,0.5890383139754021,-0.6293830226895514,0.8777682716752198,7208.9375,11.53377777777778,8.07888888888889,179.17019925541223,1.3790441150078412,45.848102805839936,1459.0,1435.0,1350.0,1528.0,1394.0,1010.0,61.0,293.85,1649169161.244372,1649169162.3678331,dcd41bb5-463b-4f35-b041-1852a207bf2d
-0.1888716564591893,-0.1665736570445884,-0.1045008492217031,0.0442437814325786,-0.1828725632257722,0.2351874999769631,-0.3454781277951479,-0.3786922896941637,-16.66494833525041,23.22509328053049,14.091947247415632,0.5713107162007364,-0.6433769259113217,0.8623341894246801,7208.9375,11.630666666666665,8.116666666666665,179.14256127439072,1.375134436464342,45.702839101482006,1459.0,1435.0,1350.0,1528.0,1394.0,1010.0,61.0,293.85,1649169162.476694,1649169163.5946274,dcd41bb5-463b-4f35-b041-1852a207bf2d
-0.1950696237536273,-0.1668393702944117,-0.1023187133873357,0.0462878558168372,-0.1808953278609908,0.233840854399974,-0.3422561488146939,-0.3659632527761041,-16.502188279993344,23.179930917816137,14.151523766049422,0.5635743879174346,-0.6461676124479689,0.8522813767050931,7208.9375,11.631222222222222,8.121111111111112,179.14771427266453,1.3808198100384697,45.56731904143007,1459.0,1435.0,1350.0,1528.0,1394.0,1010.0,61.0,293.85,1649169163.7033644,1649169164.8251889,dcd41bb5-463b-4f35-b041-1852a207bf2d
-0.3309088221187092,-0.4152182779546004,-0.1106812846946695,0.1828239151540958,-0.1338887350418748,0.3474192856315789,-0.3034806374546949,-0.3318423803563962,-16.631902838452405,24.21715214063857,13.679718661816088,0.5171273509076494,-1.589962907945427,0.7144091776213038,7208.9375,11.628444444444446,8.13888888888889,179.2745524033715,1.3839486532926353,45.41091833417549,1364.0,1435.0,1350.0,1528.0,1312.0,1010.0,61.0,293.85,1649169165.8265464,1649169166.8722818,93ac0b99-efee-4f98-9f03-56a1c44e755d
-0.3242073688603687,-0.4106052760677137,-0.1051856772031739,0.1901806104255689,-0.1295107667541489,0.3419521677004327,-0.3022243889163937,-0.3360822875962452,-16.717509477887713,24.389278910693275,14.531962786603223,0.4897545589607731,-1.5801633168972689,0.7008606606396919,7208.9375,11.611666666666666,8.119999999999997,179.25343801191724,1.3675755159133511,45.34302928946519,1364.0,1435.0,1350.0,1528.0,1312.0,1010.0,61.0,293.85,1649169166.9809597,1649169168.0963972,93ac0b99-efee-4f98-9f03-56a1c44e755d
-0.3326444503052239,-0.4145224926404389,-0.1078565062620123,0.1888520442944568,-0.1305380087069748,0.3426780852538775,-0.3027311616413744,-0.3375615162396758,-16.69694384009676,24.258425047070016,13.905222153371511,0.493292722930096,-1.5894539933906209,0.7053204635931808,7208.9375,11.609777777777778,8.11111111111111,179.2383296334732,1.3559961515462275,45.30711577535431,1364.0,1435.0,1350.0,1528.0,1312.0,1010.0,61.0,293.85,1649169168.2045658,1649169169.329224,93ac0b99-efee-4f98-9f03-56a1c44e755d
-0.4691169875109521,-0.6661420422653198,-0.1173208288368727,0.3476636322140892,-0.0839560102219224,0.4401701816750081,-0.2711879827974431,-0.2845969160490726,-16.75912455217963,25.557991066155008,13.575510597669266,0.362190309617052,-2.54994901636041,0.5797688492800152,7215.00537109375,11.603666666666667,8.11,179.33513769912932,1.3411346441235663,45.28881959584261,1262.0,1435.0,1350.0,1528.0,1222.0,1010.0,61.0,293.85,1649169171.2630036,1649169172.4014711,e2925d9b-4e3f-45aa-988d-11718677f2ad
-0.4729657214553471,-0.6665940288394172,-0.1126913917211335,0.3515671511297657,-0.0806277463115093,0.4446215628364124,-0.2682980085407127,-0.2932531429690119,-16.819656691201683,25.80214685355834,14.682009527057454,0.365382740404015,-2.5612056656935,0.5662081110961538,7215.00537109375,11.58,8.11,179.32231363950768,1.33452405265015,45.32554286682509,1262.0,1435.0,1350.0,1528.0,1222.0,1010.0,61.0,293.85,1649169172.5097516,1649169173.6333988,e2925d9b-4e3f-45aa-988d-11718677f2ad
-0.4714158183985673,-0.664438737591053,-0.1222389894250869,0.3425016735756003,-0.0894855851507029,0.4409196572933085,-0.2767361855062091,-0.2914101333050475,-16.839719132489716,25.577353528142496,13.20370763190162,0.3753022231401487,-2.5393707884858685,0.6014759187381324,7208.9375,11.580444444444446,8.11,179.33830083562495,1.322909493836053,45.34735887048906,1262.0,1435.0,1350.0,1528.0,1222.0,1010.0,61.0,293.85,1649169173.7419732,1649169174.8576145,e2925d9b-4e3f-45aa-988d-11718677f2ad
-0.495491087391487,-0.7238577191027202,-0.1377807494322168,0.3556766662512308,-0.0980716842633442,0.4813781921053541,-0.2829160736028184,-0.3154196555567428,-16.94362184580288,26.33760859985151,12.3117228260471,0.4405698547105959,-2.756181553778357,0.6344375359803575,7208.9375,11.583000000000002,8.100000000000001,179.3787856435653,1.31040711715156,45.417066263338405,1153.0,1435.0,1350.0,1528.0,1121.0,1010.0,61.0,293.85,1649169176.7465203,1649169177.7365284,c9f79367-3940-41ff-a296-a0c241201f5f
-0.5136582073321622,-0.728817518888282,-0.1351126596131158,0.3649623844045762,-0.0960637686430981,0.4856016625473751,-0.2823643761067929,-0.3089904902604463,-16.981584191028993,26.672130301891865,13.444706801955071,0.4316261843401691,-2.785525193472981,0.6281956963835249,7208.9375,11.523777777777775,8.09,179.37443101851449,1.2911655374802165,45.48098507086616,1153.0,1435.0,1350.0,1528.0,1121.0,1010.0,61.0,293.85,1649169177.844877,1649169179.0493069,c9f79367-3940-41ff-a296-a0c241201f5f
-0.4975817305471053,-0.7178619111505391,-0.1361240136347236,0.3490891699090019,-0.0973879520431266,0.4836923624200163,-0.2792870329648569,-0.2939083855857994,-16.84704729767353,26.171395806160003,12.635161949010817,0.4597107031281635,-2.736330521080902,0.6273406437819711,7208.9375,11.526222222222223,8.087777777777777,179.36755529475002,1.289408910061021,45.55021055592405,1153.0,1435.0,1350.0,1528.0,1121.0,1010.0,61.0,293.85,1649169179.1577132,1649169180.181672,c9f79367-3940-41ff-a296-a0c241201f5f
-0.046413741603021,0.097811021804877,-0.0997618396824231,-0.0981730387771286,-0.2362343609781508,0.1132470430824717,-0.3893893026352916,-0.4070989570305386,-16.375951588897337,21.99326563432434,14.80227138165848,0.6108804219959428,0.3576994273020051,1.0235266183767049,7196.83154296875,11.57577777777778,8.108888888888888,179.12741495045125,1.2889683628595554,45.659978905530274,1553.0,1435.0,1350.0,1528.0,1471.0,1010.0,61.0,293.85,1649169182.528285,1649169183.6678257,4553a00c-4424-4cdb-8fa2-6001b1eb3481
-0.0455645548974913,0.0987423877746647,-0.0993920325914615,-0.097597783285101,-0.2377546791711252,0.1110555937504901,-0.3919368630298348,-0.4259865149922082,-16.413505886111764,22.212572021805297,14.685020425402582,0.6060929353944889,0.3624539451317948,1.0285565392326383,7203.552083333333,11.633777777777777,8.128888888888888,179.0705422419623,1.2764859312760766,45.69940123959978,1553.0,1435.0,1350.0,1528.0,1471.0,1010.0,61.0,293.85,1649169183.77666,1649169184.8195093,4553a00c-4424-4cdb-8fa2-6001b1eb3481
-0.0479882980297015,0.0995795214214442,-0.0948634021902185,-0.0998073122360517,-0.2333060364078846,0.1117289165547689,-0.3871984006839952,-0.4039103977603391,-16.464077505999974,22.189361819858387,14.644358303579834,0.6126298316988771,0.3668707638294816,1.0095764740015312,7208.9375,11.637555555555556,8.130000000000003,179.0790496220285,1.261725939911548,45.74703308159667,1553.0,1435.0,1350.0,1528.0,1471.0,1010.0,61.0,293.85,1649169184.928403,1649169186.1202233,4553a00c-4424-4cdb-8fa2-6001b1eb3481
-0.0292908513462979,0.0970023769986278,-0.1256445019438329,-0.379072504858515,-0.2911471585880679,0.3840121045671547,-0.3401523570533731,-0.3636753795670783,-16.323637431464075,21.49495367559045,16.50455654515413,1.8486715767662043,0.3721444032432181,1.063579057467154,7208.9375,11.63588888888889,8.127777777777778,179.06580664413775,1.3317795616903725,45.82959678773874,1553.0,1537.0,1350.0,1528.0,1471.0,1010.0,61.0,293.85,1649169186.7458465,1649169187.8560443,627fd062-6e2e-4512-ac40-231a0afc0cd9
-0.0450851753365912,0.098002773622182,-0.1301682016168004,-0.386540417894381,-0.2953487155005714,0.3859318140671456,-0.3441632579466445,-0.3712550561081709,-16.453896737918665,21.41853442077596,15.908333971413056,1.86893874943768,0.3827341332753648,1.08033361851822,7211.634331597223,11.63211111111111,8.124444444444444,179.05647964137114,1.3112202891177454,45.84124909046278,1553.0,1537.0,1350.0,1528.0,1471.0,1010.0,61.0,293.85,1649169187.9640963,1649169188.9913142,627fd062-6e2e-4512-ac40-231a0afc0cd9
-0.0438859046256479,0.0989089379258389,-0.1292735423499451,-0.380663497437298,-0.2950523219310064,0.3848930671443881,-0.3437551004342001,-0.3657660225686759,-16.321423267807532,21.475075370351647,16.65937941171213,1.85395342331052,0.3778727897399156,1.079419166532857,7215.00537109375,11.634,8.131111111111112,179.05929519712902,1.3091281523715077,45.86809552845048,1553.0,1537.0,1350.0,1528.0,1471.0,1010.0,61.0,293.85,1649169189.0998,1649169190.420029,627fd062-6e2e-4512-ac40-231a0afc0cd9
-0.0299504776387092,0.0989752292666848,-0.1566847409948266,-0.6888235519005245,-0.3566956112406458,0.6877354549788443,-0.2912397473239142,-0.3257139910557629,-16.363503846841407,21.242647623383675,19.478406414751,3.2271367887885014,0.38963372626079,1.1273213617571454,7215.00537109375,11.627555555555556,8.11,179.02792641500088,1.3960801127597011,45.98278692662846,1553.0,1645.0,1350.0,1528.0,1471.0,1010.0,61.0,293.85,1649169192.357406,1649169193.4965954,d0ed3a82-2483-4b3e-b63d-27d5cc23e535
-0.0289884313318772,0.0945830169208416,-0.1590947876396169,-0.6866731913662645,-0.3582055201233338,0.6924410441904132,-0.2928433406294106,-0.3217047337336292,-16.39884859305804,21.296543711120773,19.800937063802618,3.2331310905734374,0.3701352144692,1.1348417063645793,7220.40771484375,11.623111111111111,8.11,179.03959541374286,1.3880260390677868,45.99565955648421,1553.0,1645.0,1350.0,1528.0,1471.0,1010.0,61.0,293.85,1649169193.6049278,1649169194.7214055,d0ed3a82-2483-4b3e-b63d-27d5cc23e535
-0.0266906966159763,0.0957428414834826,-0.1599856118942787,-0.6920833340715576,-0.3594623165694766,0.6897077592242097,-0.2935681626248997,-0.3184685107025624,-16.397615197439276,21.2293300504309,18.860866461859143,3.238553834342832,0.3834168450610393,1.1375952559920293,7221.0830078125,11.61788888888889,8.115555555555554,179.05745408169275,1.3875021303561386,46.00728529736148,1553.0,1645.0,1350.0,1528.0,1471.0,1010.0,61.0,293.85,1649169194.8298264,1649169196.048272,d0ed3a82-2483-4b3e-b63d-27d5cc23e535
-0.0075292106731461,0.0931404953844078,-0.1703265144708003,-0.9558791810082472,-0.405099258461916,0.9522981570818586,-0.2386586521065852,-0.2714208244665357,-16.265952355033896,21.6223272572786,21.4601450185094,4.4262592541231225,0.3815172694021069,1.136639730031181,7221.0830078125,11.602333333333332,8.08,179.05068612313516,1.4124706339190605,46.035039012143926,1553.0,1761.0,1350.0,1528.0,1471.0,1010.0,61.0,293.85,1649169196.9561293,1649169198.0031595,4fe2db79-b3ab-4668-85c5-8d0c8208ca63
-0.0087920333910083,0.0958452917418539,-0.1686012958042772,-0.9580887111152512,-0.4040024378321956,0.9526405710193786,-0.2360146681409731,-0.2616414803554971,-16.180947780619796,21.55173057061706,21.61345995197405,4.431698001374984,0.3900816452159696,1.129642252328513,7221.0830078125,11.601111111111113,8.105555555555554,179.05341668098333,1.4763566897411016,46.05429786887364,1553.0,1761.0,1350.0,1528.0,1471.0,1010.0,61.0,293.85,1649169198.1115465,1649169199.324262,4fe2db79-b3ab-4668-85c5-8d0c8208ca63
