raw_voltage_G-,raw_voltage_G0,raw_voltage_G1,raw_voltage_G2,raw_voltage_G3,raw_voltage_G4,raw_voltage_G5,raw_voltage_G6,load_x,load_y,load_z,load_l,load_m,load_n,rpm,voltage,current,roll,pitch,yaw,aileron1_pwm,elevator_pwm,throttle_pwm,rudder_pwm,aileron2_pwm,pbaro,pdiff,Tt,sample_start_time,sample_end_time,uid
-0.0954682422646985,0.0559521476179117,-0.2039712919131823,-0.1097345784544948,-0.351762657795141,0.1709374941918628,-0.5245628622739796,-0.5429315964321706,-18.65770516215209,25.646606774418046,14.70606548354048,0.7844641619242168,0.2125846681152062,1.5069905618138546,3139.482177734375,11.975666666666667,0.2366666666666666,178.9962631758285,1.058057418398486,94.05506304741748,1553.0,1435.0,1200.0,1528.0,1471.0,1010.0,61.0,293.85,1649170494.3305883,1649170495.4021156,f65fc706-bd02-4e07-ab30-bbb3964f9a99
-0.1047380736496271,0.0535064901157983,-0.2065221392278385,-0.109668834984821,-0.3536955164653731,0.1717527133269961,-0.5265483159285157,-0.5494139054101375,-18.661684368975795,25.63733806967265,14.472714241664852,0.7859201079118745,0.2053383538148153,1.5153036854100668,3367.7213541666665,11.976666666666668,0.23,178.98586762791172,1.0304732251166973,93.51835513044688,1553.0,1435.0,1200.0,1528.0,1471.0,1010.0,61.0,293.85,1649170495.510232,1649170496.5453148,f65fc706-bd02-4e07-ab30-bbb3964f9a99
-0.1015955350671166,0.0527307170385926,-0.2083498082156623,-0.1056716310791193,-0.3541162748371949,0.1693070559134012,-0.5289545280375246,-0.5451931730031866,-18.724899426982475,25.594159346517564,14.524765272430953,0.7710069101621453,0.2018060886695166,1.521782127045873,3405.41357421875,11.975555555555555,0.23,178.9748482560508,0.9759085395267904,93.01830635657154,1553.0,1435.0,1200.0,1528.0,1471.0,1010.0,61.0,293.85,1649170496.6539643,1649170497.8618288,f65fc706-bd02-4e07-ab30-bbb3964f9a99
0.0030417934379053,0.2545369012319113,-0.1945568244699681,-0.2492948529192085,-0.392747151540664,0.1109136973825292,-0.5470997339726934,-0.5680850595617231,-18.5315617635135,25.07299944664262,15.520179169524322,0.9612559998681092,0.967059907621176,1.6063446397209733,3407.068142361112,11.955111111111112,0.22,178.89763979767292,0.9453153158925262,92.46083694125382,1647.0,1435.0,1200.0,1528.0,1543.0,1010.0,61.0,293.85,1649170498.768568,1649170499.9098098,b138d0f5-9ee0-4ca8-9b1a-2dcb247acfc3
0.0032521725881059,0.2505265490898324,-0.1989747868291748,-0.2468097489966777,-0.3959554340491958,0.1117946600325501,-0.5501502323626495,-0.5663099849580974,-18.46475833442462,25.028811253565447,15.383628208594557,0.957128801206607,0.9521692841452528,1.6204886616276195,3412.9471028645835,11.958888888888888,0.22,178.91054885520427,0.9308429158091442,92.12264240123037,1647.0,1435.0,1200.0,1528.0,1543.0,1010.0,61.0,293.85,1649170500.0427086,1649170501.1446364,b138d0f5-9ee0-4ca8-9b1a-2dcb247acfc3
3.89669965357789e-06,0.2535545841005752,-0.1991714694413013,-0.2523415158078799,-0.3972922184427988,0.1134250983125153,-0.5503512979185151,-0.5715946668104103,-18.48647562120335,25.02912194803379,15.311672344605952,0.9732407883972622,0.9649863246260822,1.623064872021537,3411.8902723524307,11.958333333333334,0.22,178.91067483424897,0.9317594418183952,91.8985886702468,1647.0,1435.0,1200.0,1528.0,1543.0,1010.0,61.0,293.85,1649170501.2535744,1649170502.2724504,b138d0f5-9ee0-4ca8-9b1a-2dcb247acfc3
0.1304000647817927,0.479405887869796,-0.1806323538905848,-0.403358151564281,-0.4369136314675346,0.0390297754960563,-0.5719244798876435,-0.5877818129284941,-18.40195951387108,24.589789787090595,16.41829515851051,1.144950779125036,1.821421086391212,1.7102795393741002,3427.199462890625,11.943,0.2166666666666666,178.76886796452098,0.9151419354488064,91.4585985086533,1745.0,1435.0,1200.0,1528.0,1614.0,1010.0,61.0,293.85,1649170504.2990773,1649170505.4327796,e0d861ef-3f2b-4a7d-9e10-fd08765cfcf2
0.1335179492941153,0.4742198233848033,-0.1848174747007089,-0.4021271046563576,-0.4397378624683885,0.0438739743378395,-0.5754160076691739,-0.6036035344772137,-18.50053420128695,24.63617270311328,16.51607274836755,1.1531244537195395,1.8013851826220504,1.7242354302633724,3434.830403645833,11.946888888888887,0.22,178.79345057425377,0.9215813927380186,91.31547872478482,1745.0,1435.0,1200.0,1528.0,1614.0,1010.0,61.0,293.85,1649170505.541051,1649170506.786044,e0d861ef-3f2b-4a7d-9e10-fd08765cfcf2
0.1380131597409381,0.4791297652733955,-0.1815790600805618,-0.4041602221899342,-0.4381364604627107,0.0410678234187042,-0.572884334963196,-0.5936329846366943,-18.420097121071084,24.630856755627963,16.556742408902082,1.151577857286016,1.819326210217473,1.7147274559640977,3436.2066514756943,11.945555555555556,0.22,178.77229064820506,0.9372839146341068,91.20443275034889,1745.0,1435.0,1200.0,1528.0,1614.0,1010.0,61.0,293.85,1649170506.8982437,1649170508.012744,e0d861ef-3f2b-4a7d-9e10-fd08765cfcf2
0.2228195081212698,0.6274706030565301,-0.1640671866314541,-0.5018380741599763,-0.4618304165282523,-0.0151992836250319,-0.5882222938848084,-0.6101367953875328,-18.539926225543127,24.77648182580657,16.441146425934743,1.2472340526695256,2.390706050976122,1.761753058525957,3436.81884765625,11.92077777777778,0.2077777777777777,178.6928358165002,0.9445704458180412,91.0006715113894,1849.0,1435.0,1200.0,1528.0,1686.0,1010.0,61.0,293.85,1649170509.828223,1649170510.789441,318a0515-19e4-4a9b-9c74-c2e448a06c4a
0.2062811883158317,0.6206228722890793,-0.1644989022228465,-0.5034854967014205,-0.4609363050213839,-0.0088051821237631,-0.5846918679043491,-0.6031000487760794,-18.43549570929066,24.687749986982453,16.193233146551083,1.264721972347315,2.3666549725070865,1.7550139151032795,3431.622992621528,11.924222222222223,0.21,178.6946374686213,0.9675464669919908,90.881416408481,1849.0,1435.0,1200.0,1528.0,1686.0,1010.0,61.0,293.85,1649170510.898628,1649170511.9898803,318a0515-19e4-4a9b-9c74-c2e448a06c4a
0.2321468640379296,0.6323328808824817,-0.1619031302157098,-0.5126583582515456,-0.4637753283203481,-0.0094741220358876,-0.5839626628513565,-0.6096711125388806,-18.265225927542577,24.81854089618648,16.538563126418236,1.2850475412621525,2.407604997625355,1.7561931478346595,3429.485107421875,11.922666666666666,0.2166666666666666,178.69256564457305,0.9633424025520768,90.79281443565768,1849.0,1435.0,1200.0,1528.0,1686.0,1010.0,61.0,293.85,1649170512.098239,1649170513.1300137,318a0515-19e4-4a9b-9c74-c2e448a06c4a
0.2402311203674624,0.6519562123938026,-0.1384381842592729,-0.5337143575940607,-0.4523107582508411,-0.0204417787353441,-0.5667570406929288,-0.5902932143953444,-18.0247549948994,25.228656114699675,15.107655853153268,1.3116789810341214,2.496271474530103,1.6842670285897097,3432.68994140625,11.856666666666667,0.2,178.6631745816646,0.9745423831131148,90.5532675589068,1962.0,1435.0,1200.0,1528.0,1760.0,1010.0,61.0,293.85,1649170514.737358,1649170515.8820016,fc200d66-4a03-46f4-bd30-c271e145f448
0.2391397786761813,0.6500759490145027,-0.1336520584628226,-0.5338195473378896,-0.4457232599029477,-0.0194293291274816,-0.5598276756935511,-0.5765528228969324,-18.04692472258948,25.06318333577689,15.023178767851508,1.3133081250331045,2.4904385334786343,1.6586094895128891,3427.504231770833,11.861222222222224,0.1911111111111111,178.673614146356,0.9701093887563322,90.39086766883122,1962.0,1435.0,1200.0,1528.0,1760.0,1010.0,61.0,293.85,1649170515.9901476,1649170517.2296605,fc200d66-4a03-46f4-bd30-c271e145f448
0.2390345891481805,0.6413452155575164,-0.13458561599574,-0.5199476687391849,-0.44561807036321,-0.0217040534057438,-0.5631411481801941,-0.5869928905934105,-18.05481665777991,25.33236588470817,15.279896434267693,1.2786798647528117,2.453711007171742,1.6637677294257458,3422.1825358072915,11.859,0.2,178.6865004365901,0.969086378200646,90.26535763046289,1962.0,1435.0,1200.0,1528.0,1760.0,1010.0,61.0,293.85,1649170517.3379796,1649170518.4520388,fc200d66-4a03-46f4-bd30-c271e145f448
-0.2485886583117448,-0.2059512666002424,-0.2193465023181273,0.0818408346425836,-0.3010738777865198,0.2430630207626648,-0.5027283506094097,-0.5341619618913186,-18.95977484416287,26.63904851552228,13.57212291613904,0.519873276971694,-0.7820692008441927,1.395592546821927,3422.1825358072915,11.965,0.22,179.1281996632959,0.9267443635623462,90.07227728954553,1459.0,1435.0,1200.0,1528.0,1394.0,1010.0,61.0,293.85,1649170519.362214,1649170520.3895347,2e337d9b-ecdf-4098-877b-1bd5a1b38f2d
-0.2326748988656907,-0.2060750835042842,-0.2214985058334608,0.079619800677415,-0.3037041652942063,0.2436366325792902,-0.504471649029009,-0.5268375873363315,-18.9149014297936,26.641921268631314,13.330550156580465,0.5260683362413731,-0.7805730592445443,1.4042456255286984,3428.113525390625,11.964666666666666,0.22,179.15940907434342,0.9249784394967808,90.02628279567466,1459.0,1435.0,1200.0,1528.0,1394.0,1010.0,61.0,293.85,1649170520.4984386,1649170521.623542,2e337d9b-ecdf-4098-877b-1bd5a1b38f2d
-0.2500815833694681,-0.2056773354098991,-0.2168674249492304,0.0826626280786193,-0.2985674072036501,0.2412276819766289,-0.5006190800276333,-0.5245195814146649,-18.963685011850213,26.6350798077178,13.474740604931696,0.5139749018859902,-0.7800951075411047,1.3856981325111242,3433.3013780381943,11.964222222222222,0.22,179.15378099846734,0.9534827873258171,89.95792626246116,1459.0,1435.0,1200.0,1528.0,1394.0,1010.0,61.0,293.85,1649170521.736683,1649170522.84571,2e337d9b-ecdf-4098-877b-1bd5a1b38f2d
-0.3808974347428774,-0.4354371420814367,-0.2310159715130141,0.2576087651835865,-0.2562313388704769,0.3042866341027408,-0.4844434402251742,-0.5060977055232615,-19.16396472977021,27.738837103320453,13.332796554814491,0.2675301587152951,-1.6615763356321498,1.2972299601457982,3433.7593858506943,11.947222222222225,0.2122222222222222,179.24498982682385,0.9454246700670504,89.8031754253461,1364.0,1435.0,1200.0,1528.0,1312.0,1010.0,61.0,293.85,1649170524.7805529,1649170526.030404,e3f4f16c-7e1c-4109-ab59-491c4f65ffec
-0.3766651973465773,-0.4244114100203676,-0.227660314288795,0.248459464561679,-0.2562450354376903,0.3009446740326363,-0.4824985284247987,-0.5054539672612712,-19.109535154580133,27.71344183741224,13.21629016741022,0.2806664765343064,-1.6182370079696449,1.291043402599704,3427.199462890625,11.947,0.22,179.2470312944758,0.9708113922789956,89.66854708443579,1364.0,1435.0,1200.0,1528.0,1312.0,1010.0,61.0,293.85,1649170526.1387885,1649170527.261728,e3f4f16c-7e1c-4109-ab59-491c4f65ffec
-0.3819389212225809,-0.4240410549977874,-0.2279676651245417,0.2503687647132298,-0.2553827000173532,0.2974016484666728,-0.4830261200467373,-0.499698671402245,-19.14660919858807,27.62086944707521,13.012364807098669,0.2677177650634173,-1.6150342952543943,1.2908250034921178,3408.1261393229165,11.947666666666665,0.22,179.23956817444267,0.971475201288956,89.57785355590664,1364.0,1435.0,1200.0,1528.0,1312.0,1010.0,61.0,293.85,1649170527.3731377,1649170528.3703115,e3f4f16c-7e1c-4109-ab59-491c4f65ffec
-0.5086863552208388,-0.6603346992785536,-0.2487941066383813,0.4364721111519592,-0.2194423782404308,0.3564842153083686,-0.4779512698472183,-0.4948117380200831,-19.459543274936063,29.06939682687641,12.783634734949976,-0.0109479110727278,-2.521246051874739,1.234940480618749,3391.937744140625,11.908666666666669,0.21,179.33012282245872,0.954435942596086,89.42726609854564,1262.0,1435.0,1200.0,1528.0,1222.0,1010.0,61.0,293.85,1649170529.2846286,1649170530.3760014,f5fe0de8-06c4-4f7c-9a26-e5ada9994a75
-0.5235109663342846,-0.6579695766670557,-0.2490187302300094,0.4363702087732921,-0.219999554300099,0.3531126706983717,-0.4788974283431338,-0.4952938567752794,-19.439591328406124,29.04182573496485,12.616259931942798,-0.0185049492517018,-2.511035341577321,1.237427177084936,3391.937744140625,11.914777777777775,0.21,179.33606508703664,0.950451926455526,89.28895552676278,1262.0,1435.0,1200.0,1528.0,1222.0,1010.0,61.0,293.85,1649170530.4843533,1649170531.650855,f5fe0de8-06c4-4f7c-9a26-e5ada9994a75
-0.5226568487755335,-0.6589376497866825,-0.2548068966047129,0.4340478204898831,-0.2250990575489022,0.3558404771039214,-0.4838270949419677,-0.5109051987229088,-19.4842302616664,28.99600632760264,12.524764731668723,-0.0077654744523043,-2.5136211215565503,1.259002629909775,3389.255126953125,11.916666666666666,0.21,179.327437799205,0.9292405724026068,89.16295599150392,1262.0,1435.0,1200.0,1528.0,1222.0,1010.0,61.0,293.85,1649170531.7589653,1649170532.8764737,f5fe0de8-06c4-4f7c-9a26-e5ada9994a75
-0.5468893548886483,-0.7230424995652173,-0.2591432278828837,0.4747381011005551,-0.2207227329412041,0.3758336161063432,-0.4849984252505739,-0.5053394635684307,-19.525913817991803,29.965803424537263,11.732161871617295,-0.0485598716099514,-2.752001736165166,1.251675552482715,3391.937744140625,11.864777777777778,0.1944444444444444,179.33664792984578,0.9076933414256594,88.94145826908978,1153.0,1435.0,1200.0,1528.0,1121.0,1010.0,61.0,293.85,1649170533.902237,1649170535.1448507,97c1ac0a-461a-4c50-80c7-5cb0b98d9c15
-0.5722926434955802,-0.7280390062064863,-0.2606553286930057,0.4801027685859479,-0.2213538710691042,0.3768460655275509,-0.4880752215115656,-0.514398917964138,-19.65735615363463,30.13013119511415,11.86336420785142,-0.0574173322650032,-2.7717277780066114,1.25844519303596,3394.624267578125,11.869,0.2,179.3463422450078,0.9101793405560672,88.81091893476257,1153.0,1435.0,1200.0,1528.0,1121.0,1010.0,61.0,293.85,1649170535.274409,1649170536.266117,97c1ac0a-461a-4c50-80c7-5cb0b98d9c15
-0.5548163774960744,-0.7342276618074633,-0.2659285038663938,0.4810954951558284,-0.2249894853107786,0.3837129717184712,-0.4891550579048298,-0.5094259699484264,-19.49660590680617,30.01556837801489,12.08341211872425,-0.0451318502771292,-2.7984854889804995,1.2718520759680845,3394.624267578125,11.868666666666666,0.1966666666666666,179.3493885093776,0.9052072118576112,88.64433062090598,1153.0,1435.0,1200.0,1528.0,1121.0,1010.0,61.0,293.85,1649170536.3743658,1649170537.5272453,97c1ac0a-461a-4c50-80c7-5cb0b98d9c15
-0.1008027781713764,0.0585977748707514,-0.2059649631766218,-0.1153759173867174,-0.3526962153783251,0.171745043233569,-0.5248619951894282,-0.5495158078693637,-18.7158562602452,25.43162723002808,14.44512377788051,0.7974090466511567,0.2257962133021665,1.5113557831631332,3402.8623318142363,11.968333333333334,0.2155555555555555,179.08424360143735,0.9557298246990128,88.40822995404632,1553.0,1435.0,1200.0,1528.0,1471.0,1010.0,61.0,293.85,1649170539.320094,1649170540.260717,cf5be521-1526-4209-b765-55f8102c7b2b
-0.1004740607432277,0.0575020501871756,-0.2101698070965184,-0.1167318767740952,-0.3570106320936299,0.1763470867617652,-0.5285326738956994,-0.551734651034477,-18.73522919671866,25.47626156052124,14.73828339364032,0.8109326578100425,0.2191265700572088,1.5284272412680728,3420.362711588541,11.967999999999998,0.2133333333333333,179.07860793646216,0.9733714325572806,88.4963113146729,1553.0,1435.0,1200.0,1528.0,1471.0,1010.0,61.0,293.85,1649170540.3695793,1649170541.800842,cf5be521-1526-4209-b765-55f8102c7b2b
-0.0971047071857558,0.0572007258965327,-0.2050883833339835,-0.1117737222116119,-0.3515457042600698,0.1722655124571821,-0.524492188011449,-0.5534604180338901,-18.7342465401735,25.4924211196618,14.800013415193185,0.7909469128438088,0.2171543084139884,1.5083926141371462,3426.286376953125,11.972666666666663,0.2133333333333333,179.07533855257944,0.9869085117532268,88.5341050280803,1553.0,1435.0,1200.0,1528.0,1471.0,1010.0,61.0,293.85,1649170541.9098675,1649170542.9223354,cf5be521-1526-4209-b765-55f8102c7b2b
-0.1046652079392903,0.0490786666530291,-0.2293039014866724,-0.3100862146850644,-0.3939913471654258,0.375536126893943,-0.4925791980526181,-0.5088781072580316,-18.79829674807396,25.13255255997058,16.63836568248156,1.6917369402457434,0.1937269845777271,1.553750379337736,3435.44140625,11.97222222222222,0.22,179.08141590312096,1.0719195600522748,88.59990327599468,1553.0,1537.0,1200.0,1528.0,1471.0,1010.0,61.0,293.85,1649170544.7577782,1649170545.8949392,9a7be51a-e4c2-4877-b334-9fa336407813
-0.099241370436337,0.0501469982224742,-0.233755283554117,-0.3117298019904602,-0.398689267705471,0.373947326205877,-0.4972771188632265,-0.5149182913430731,-18.77727820514492,25.111868915607165,16.311267693506696,1.6914738986417202,0.2004039907558658,1.57258238088772,3436.359700520833,11.972666666666663,0.22,179.0877103018961,1.0997479681707938,88.59893263022263,1553.0,1537.0,1200.0,1528.0,1471.0,1010.0,61.0,293.85,1649170546.0032456,1649170547.1269276,9a7be51a-e4c2-4877-b334-9fa336407813
-0.0999387992467731,0.0482864576986874,-0.2333454824696573,-0.3083719532111203,-0.3980986719840036,0.3747817204904548,-0.4961353734793634,-0.5246680525072125,-18.680941414789025,25.12278487292019,16.61543158900733,1.685964157369098,0.1896609288160196,1.5698899652403813,3437.1252170138887,11.973999999999998,0.22,179.07294495073037,1.0902607405499074,88.59259497358276,1553.0,1537.0,1200.0,1528.0,1471.0,1010.0,61.0,293.85,1649170547.2357275,1649170548.3549297,9a7be51a-e4c2-4877-b334-9fa336407813
-0.1015697855232281,0.040367655367589,-0.2540535857763009,-0.507303002365485,-0.4391763034081318,0.5746840713504574,-0.4631178933101854,-0.4799098786458037,-18.72965733298777,24.963869944049325,17.93786540099701,2.582012829347626,0.1717618989077662,1.6062506596959762,3437.8911404079863,11.961444444444444,0.2177777777777777,179.0769626197821,1.160209395602112,88.57496777315477,1553.0,1645.0,1200.0,1528.0,1471.0,1010.0,61.0,293.85,1649170549.2633488,1649170550.4000003,f0846c54-009c-48ea-ab2c-c528de189d75
-0.0985318886453449,0.0403577938449469,-0.248742607587211,-0.5114799061026587,-0.4334949696835703,0.5781788848985191,-0.4541910222259245,-0.4715736033023197,-18.601586248682327,24.77436276786372,17.942941692975243,2.598361675710517,0.1716212055352243,1.5786997509257477,3434.581115722656,11.961375,0.21625,179.07534253685645,1.1809640000234831,88.53678473896468,1553.0,1645.0,1200.0,1528.0,1471.0,1010.0,61.0,293.85,1649170550.5080783,1649170551.6301029,f0846c54-009c-48ea-ab2c-c528de189d75
-0.1030353173951359,0.0326017065988923,-0.256176552628002,-0.5028927094502419,-0.4389982481079285,0.5805051081886364,-0.4629261414668492,-0.4799372717010549,-18.73829477897144,24.94675481634409,18.253607784190105,2.5849717515378217,0.1392197098161059,1.6081742657235794,3436.0538736979165,11.96377777777778,0.2177777777777777,179.07516248548083,1.173235894441665,88.4878418801021,1553.0,1645.0,1200.0,1528.0,1471.0,1010.0,61.0,293.85,1649170551.7388017,1649170552.858021,f0846c54-009c-48ea-ab2c-c528de189d75
-0.0919706888875433,0.0338360404708742,-0.2594193502760407,-0.663939087150051,-0.4626587845994228,0.7330047681907621,-0.4278410290862017,-0.4560975839566484,-18.79208576914125,25.061349819826354,19.14379869600284,3.291653040169789,0.1559648156192895,1.5947755089763762,3438.504096137153,11.943888888888887,0.2022222222222222,179.08217633084854,1.2033378187743804,88.43130081524282,1553.0,1761.0,1200.0,1528.0,1471.0,1010.0,61.0,293.85,1649170553.7553885,1649170554.9061549,2ae88270-62f3-4152-b48b-2bf2dfbf617e
-0.0853700430153062,0.0332969439201414,-0.2595245398411552,-0.6743660070298972,-0.4635528961407065,0.7453513927779234,-0.4233573227043111,-0.4473405500073044,-18.69755029075533,24.96757471240612,19.476225721888635,3.3423918240917123,0.1516030027589551,1.5901696656851203,3437.125325520833,11.952666666666666,0.21,179.09758220197648,1.1995452495160253,88.37407521364672,1553.0,1761.0,1200.0,1528.0,1471.0,1010.0,61.0,293.85,1649170555.0142066,1649170556.3406763,2ae88270-62f3-4152-b48b-2bf2dfbf617e
-0.0978854110571095,0.0316018578121382,-0.2607785969077895,-0.6724561583061938,-0.4644053701722471,0.7449322781312047,-0.4241100856940069,-0.4395598075389126,-18.63990444629614,24.953813042505715,19.422708705150217,3.3370086818003184,0.1449968389272546,1.593894078336319,3432.68994140625,11.951777777777778,0.21,179.09309097314224,1.192665707486072,88.32333146157299,1553.0,1761.0,1200.0,1528.0,1471.0,1010.0,61.0,293.85,1649170556.449132,1649170557.5659287,2ae88270-62f3-4152-b48b-2bf2dfbf617e
-0.0783130278239886,0.0418742768118496,-0.2157032173806177,-0.6743325877009037,-0.4306707387193628,0.7341530875628863,-0.3861843073077924,-0.4037296034217475,-18.301533336338,25.64569774529785,19.385025654234703,3.324014527075255,0.1845640333866536,1.4336313904047169,3432.68994140625,11.905333333333331,0.2,179.08990051588992,1.206400648724537,88.21169884977829,1553.0,1887.0,1200.0,1528.0,1471.0,1010.0,61.0,293.85,1649170559.2559946,1649170560.23779,e6c257a8-256a-4596-8fbd-ace3acfef12a
-0.0789430695528804,0.0405594071787245,-0.214114416429536,-0.6737299387621677,-0.4280136057852369,0.7352762052519477,-0.3844996303073273,-0.4057566937567994,-18.410952664657263,25.622799306851142,19.45384883451517,3.3250621012026933,0.1798230720075911,1.425324079740033,3428.570556640625,11.91211111111111,0.2,179.0919966250552,1.2118419497575426,88.12314165263953,1553.0,1887.0,1200.0,1528.0,1471.0,1010.0,61.0,293.85,1649170560.350663,1649170561.4607084,e6c257a8-256a-4596-8fbd-ace3acfef12a
-0.08416145864738,0.0411209660903628,-0.2139637542615802,-0.6616632662182695,-0.4275342261265173,0.7226753725623903,-0.3888140470506456,-0.4117010013625711,-18.41582439330196,25.739306635424345,19.303029257230207,3.270280240061806,0.1818263117586188,1.430518397347924,3424.765435112847,11.909555555555556,0.2,179.09374970694216,1.2247077612820907,88.05589692244095,1553.0,1887.0,1200.0,1528.0,1471.0,1010.0,61.0,293.85,1649170561.5691316,1649170562.631534,e6c257a8-256a-4596-8fbd-ace3acfef12a
-0.1087330860651305,0.0693221802113166,-0.1756955658481391,0.1131785602899955,-0.3067442538796485,-0.0570422713733053,-0.5661297380680412,-0.5923449596025944,-18.855626472880832,26.54462318310063,13.27958140755191,-0.2236402553398306,0.2511365314341637,1.4673667102436756,3423.8535970052085,11.975222222222222,0.22,179.0688271055707,1.0100654973662797,87.9345138361511,1553.0,1335.0,1200.0,1528.0,1471.0,1010.0,61.0,293.85,1649170564.2366056,1649170565.3495407,c5bcbba7-7e0f-4d58-8eb1-10fd86929012
-0.1101553368064775,0.0666420376355715,-0.1812766400314802,0.1167254210289431,-0.3109359492974268,-0.0559695568736523,-0.5712801935067258,-0.5910426904421474,-18.870523801714263,26.522326330008628,13.481968491759494,-0.229631517500265,0.2386051723153963,1.4880077043152662,3423.7784423828125,11.973,0.215,179.07723962189846,1.002688738909091,88.04357336390348,1553.0,1335.0,1200.0,1528.0,1471.0,1010.0,61.0,293.85,1649170565.4579446,1649170566.4644587,c5bcbba7-7e0f-4d58-8eb1-10fd86929012
-0.107021016153959,0.0700617943707117,-0.1805030583298195,0.1175066726822951,-0.3095931384902835,-0.0598226729021874,-0.5715672734546716,-0.5894412883172734,-18.951047926409085,26.442111546812185,13.516072815780214,-0.2405806276672794,0.2516504952271683,1.4859783624425784,3433.912163628472,11.972444444444443,0.22,179.07477392360806,1.0051138473773669,88.13666542719616,1553.0,1335.0,1200.0,1528.0,1471.0,1010.0,61.0,293.85,1649170566.5731246,1649170567.808443,c5bcbba7-7e0f-4d58-8eb1-10fd86929012
-0.1099109902002887,0.0776907774553622,-0.1512472067750945,0.3227906835506285,-0.2662709176117013,-0.2671474974591869,-0.6047266522884636,-0.6283669209399313,-18.885482453130987,27.361406024816148,11.95300715993154,-1.162202922024668,0.2702485753378823,1.4344919223243515,3437.7379557291665,11.964333333333332,0.21,179.07491052739144,0.9419392933098032,88.25127144800952,1553.0,1236.0,1200.0,1528.0,1471.0,1010.0,61.0,293.85,1649170568.8111708,1649170569.9498775,8f827602-1824-418d-b159-cc1b847268a1
-0.1142254063822139,0.0730750372428905,-0.1561779682291271,0.3241192496317259,-0.2692430711939413,-0.2634220330532285,-0.6087945314756635,-0.6345851608058056,-19.002498465923274,27.34226828295245,11.979794006044974,-1.157255243957545,0.253051059157472,1.4504700135889992,3440.0380045572915,11.961333333333334,0.21,179.09013426014153,0.9397355256593182,88.33487068672076,1553.0,1236.0,1200.0,1528.0,1471.0,1010.0,61.0,293.85,1649170570.0577462,1649170571.1771576,8f827602-1824-418d-b159-cc1b847268a1
-0.1236721973368348,0.0751755414549002,-0.1554263010353753,0.3251716931355305,-0.2686760335920402,-0.2679791526220882,-0.6085436104400955,-0.6307386174443317,-18.94061860707679,27.291331193235337,11.76658374884246,-1.1701728331168155,0.2622981432601736,1.4483426791399066,3439.5771484375,11.962,0.2133333333333333,179.08716844022194,0.936358459575472,88.3951061250111,1553.0,1236.0,1200.0,1528.0,1471.0,1010.0,61.0,293.85,1649170571.28493,1649170572.4074676,8f827602-1824-418d-b159-cc1b847268a1
-0.1104709055163496,0.0791858937691664,-0.1275379143080635,0.4247730595936242,-0.2363959803852826,-0.3705258509775309,-0.612172651881624,-0.6369842503149401,-18.82696021939138,27.912540680692587,10.871513745765364,-1.6198639752179742,0.273983389679397,1.371448798452555,3436.2066514756943,11.950666666666669,0.2,179.0771948462139,0.9053218784014896,88.48259781263933,1553.0,1133.0,1200.0,1528.0,1471.0,1010.0,61.0,293.85,1649170573.323145,1649170574.4719589,146764ba-15a8-4fe9-b47c-b8f9821b3c21
-0.1064999990556989,0.0785416076650203,-0.1267358438485026,0.4281128281385407,-0.2366721031001763,-0.3682116800708707,-0.6137373473691604,-0.6376022393083361,-18.91909604693716,28.1527570995994,11.542200634270698,-1.6205045298296248,0.2659184827435174,1.3736936175909171,3433.1482747395835,11.947333333333336,0.2,179.09010086810557,0.9053618160353866,88.50715765507488,1553.0,1133.0,1200.0,1528.0,1471.0,1010.0,61.0,293.85,1649170574.579325,1649170575.9019802,146764ba-15a8-4fe9-b47c-b8f9821b3c21
-0.1052771701593672,0.0812239416780869,-0.1281296056899419,0.423392446638006,-0.2378291884483172,-0.3693161705057567,-0.6136847524293381,-0.636366261525005,-18.87428904476058,27.97756689756984,11.137839778919338,-1.613611102950811,0.2797354250682131,1.3769106710238534,3426.134195963541,11.947666666666668,0.2,179.07915435159578,0.8933427345245087,88.57114817958892,1553.0,1133.0,1200.0,1528.0,1471.0,1010.0,61.0,293.85,1649170576.010841,1649170577.127493,146764ba-15a8-4fe9-b47c-b8f9821b3c21
-0.1014377507381716,0.0861678514198296,-0.1061975790241352,0.4676904005278969,-0.2188161716006096,-0.4179006126475603,-0.6100951573374241,-0.6309884427161202,-18.75044128173831,28.66157877892164,10.80819423115246,-1.8170759021487333,0.29627111628296,1.3163352343744703,3429.9423828125,11.937,0.2,179.07133150826638,0.8792730369399258,88.59725923387597,1553.0,1026.0,1200.0,1528.0,1471.0,1010.0,61.0,293.85,1649170577.7401206,1649170578.755146,0890a214-1189-4a35-bef2-bb0cc694c749
-0.1052377241496531,0.0899678245867894,-0.1045671406540906,0.4691630543706733,-0.2180272497982743,-0.4223974677986228,-0.610529064472097,-0.6332631681574433,-18.767261609901453,28.701281923102297,10.895172511703317,-1.8301531025687257,0.309794209094377,1.314223345634075,3425.3736165364585,11.939333333333334,0.2,179.07833472889536,0.8727610029617985,88.61381561242408,1553.0,1026.0,1200.0,1528.0,1471.0,1010.0,61.0,293.85,1649170578.8644798,1649170579.914683,0890a214-1189-4a35-bef2-bb0cc694c749
-0.1138501206924078,0.085221145295339,-0.1067498242496081,0.4713194403708299,-0.2181324392632727,-0.4204909063536723,-0.6113048376121003,-0.6342756178162969,-18.81522979334592,28.63224473636661,10.777089640731951,-1.831342390909627,0.2929723097128167,1.3177191932168884,3422.4102783203125,11.9415,0.195,179.07799094270715,0.869124763215462,88.63324750061277,1553.0,1026.0,1200.0,1528.0,1471.0,1010.0,61.0,293.85,1649170580.022868,1649170581.1079628,0890a214-1189-4a35-bef2-bb0cc694c749
-0.106966229930184,0.0551325455509713,-0.2103615589317816,-0.0906399311188577,-0.3538330299416812,0.15574746334906,-0.5357507622811691,-0.5517894372451164,-18.86924619373829,25.58652670128045,14.866178757247027,0.7064598561563411,0.2068317300030387,1.534621106280869,3422.030707465278,11.973777777777777,0.2022222222222222,179.08696201672697,1.0190353737314397,88.67965256474375,1553.0,1435.0,1200.0,1528.0,1471.0,1010.0,61.0,293.85,1649170582.3368502,1649170583.380102,6b90401d-4559-416e-8ec8-b207572fc71f
-0.1057335395775293,0.0559406425081415,-0.2083070749494968,-0.0927218081558499,-0.3533536503227645,0.1568842776674921,-0.5339154229504244,-0.5645546337626373,-18.80629065929868,25.674306667563425,14.88139251076639,0.7144289532134741,0.2096702176448759,1.528663537117814,3429.7905002170137,11.974222222222222,0.21,179.08434681318482,1.036312384668856,88.66745157015637,1553.0,1435.0,1200.0,1528.0,1471.0,1010.0,61.0,293.85,1649170583.488928,1649170584.5923564,6b90401d-4559-416e-8ec8-b207572fc71f
-0.1108560527673065,0.0503250534854144,-0.2122790773346639,-0.0884347850913367,-0.3547096098478845,0.1598290376827677,-0.5365177697776576,-0.5585829326789861,-18.877543782172527,25.61516633503159,15.05468578095236,0.7107776777833226,0.186796131715267,1.5392068271927126,3441.4187825520835,11.974222222222222,0.21,179.0922607257031,1.0439494729403476,88.65611649177379,1553.0,1435.0,1200.0,1528.0,1471.0,1010.0,61.0,293.85,1649170584.6996949,1649170585.8199966,6b90401d-4559-416e-8ec8-b207572fc71f
-0.0652191172429122,0.0743351206250623,-0.0977895350871223,-0.1060211673083571,-0.2541768548372278,0.1472829903575252,-0.4182068676948193,-0.4420388856321547,-17.941938275955597,25.53707139273635,15.205547054338997,0.7279337260377633,0.2783113781641588,1.0814163571919326,3441.7255859375,11.974,0.21,179.06932950392968,1.0619770457765578,88.64691243241224,1553.0,1435.0,1200.0,1435.0,1471.0,1010.0,61.0,293.85,1649170586.9159338,1649170587.9734335,669627d9-2236-4f4f-aba2-1aa45d566813
-0.0683830224386629,0.0747597139354189,-0.0982826112090609,-0.1074045197612374,-0.2546425378676994,0.1472419007024518,-0.4192478063497518,-0.4493665456266479,-18.01672544771922,25.54997663998708,15.07217834925801,0.7309639891508478,0.2817545106775059,1.0839983708447103,3442.33984375,11.974666666666666,0.21,179.0583086142489,1.046871382807003,88.63963600421646,1553.0,1435.0,1200.0,1435.0,1471.0,1010.0,61.0,293.85,1649170588.085734,1649170589.306322,669627d9-2236-4f4f-aba2-1aa45d566813
-0.0634111714213423,0.075800652382563,-0.0933929395323669,-0.1058568085436102,-0.2509170734778005,0.1450093617285868,-0.4152073207208702,-0.4375190198609782,-17.94302813220521,25.622142724687155,15.135482206630671,0.7232249777194246,0.2846966373889472,1.0667569309639948,3441.572021484375,11.97488888888889,0.2044444444444444,179.06673099640545,1.04211349200392,88.65518379149712,1553.0,1435.0,1200.0,1435.0,1471.0,1010.0,61.0,293.85,1649170589.4142375,1649170590.543458,669627d9-2236-4f4f-aba2-1aa45d566813
-0.0285150782530053,0.0937546490690694,0.0283661827857363,-0.1069865007737557,-0.139161362553655,0.1205253941624678,-0.2915021733840679,-0.3139207039010204,-17.0885466660229,25.4765874005034,14.950188303043332,0.6762530171940787,0.3554849861965582,0.5749992419732972,3440.037353515625,11.976,0.2033333333333333,179.03478088928793,1.052429129078984,88.60886372527582,1553.0,1435.0,1200.0,1330.0,1471.0,1010.0,61.0,293.85,1649170592.363065,1649170593.6151392,24a3e9ee-42df-46ac-80c1-0cc8f858043e
-0.0270029781512276,0.0962923474102225,0.0309564759627563,-0.1084591549079763,-0.1383724407371406,0.1204465019669529,-0.2899243296090821,-0.3063076079449553,-17.049194182708284,25.57541133339833,15.114220925547174,0.6802277347056053,0.363617755694716,0.5686597977730219,3434.5245225694443,11.972666666666663,0.2,179.03254969415903,1.052990390387656,88.61919021239098,1553.0,1435.0,1200.0,1330.0,1471.0,1010.0,61.0,293.85,1649170593.727102,1649170594.841786,24a3e9ee-42df-46ac-80c1-0cc8f858043e
-0.0267794502874458,0.0942148534316124,0.0294706732851873,-0.1075913408476234,-0.1390693216703026,0.1210776393980784,-0.2907526975789984,-0.3207448783964144,-17.04985214459098,25.546706832736668,15.019665263353495,0.6794087363023757,0.3564670662480742,0.5724478972807376,3430.552625868056,11.97577777777778,0.2055555555555555,179.0437056698034,1.064225434958027,88.62852328643685,1553.0,1435.0,1200.0,1330.0,1471.0,1010.0,61.0,293.85,1649170594.9507482,1649170596.0039492,24a3e9ee-42df-46ac-80c1-0cc8f858043e
0.0151385941699248,0.1136031536046688,0.1421193879394484,-0.1030490139329927,-0.0384012544827657,0.0932226747023096,-0.1805989342582662,-0.2115942499344304,-16.1991124388967,25.703502445298337,15.2063421188656,0.6136751037802749,0.4280938704347326,0.1281259602692721,3431.7736002604165,11.974666666666668,0.2033333333333333,179.0192581460342,1.0601319104893678,88.56183331938084,1553.0,1435.0,1200.0,1210.0,1471.0,1010.0,61.0,293.85,1649170596.8728628,1649170598.1244304,27bbda1b-9034-4da4-99bf-e0c258c64fdc
0.0115095539427146,0.111439645250134,0.138381323266886,-0.1046328840672301,-0.0406118791098387,0.0964632804049959,-0.1839326769177918,-0.2060093401828699,-16.370716970522924,25.66813673999936,15.132487980418489,0.624011272134404,0.4218059759261129,0.1404935143282817,3431.3154296875,11.972,0.21,179.01651240998785,1.0492016868266432,88.57833960987503,1553.0,1435.0,1200.0,1210.0,1471.0,1010.0,61.0,293.85,1649170598.2370594,1649170599.2466934,27bbda1b-9034-4da4-99bf-e0c258c64fdc
0.0096599706531327,0.1150960784647858,0.1428863951997201,-0.1066922986674168,-0.0378944817980429,0.0923597915502104,-0.180119554657986,-0.2027188789598427,-16.2580718336767,25.6788576183941,14.820345579282227,0.6197380574420678,0.4380283965866254,0.125280836106234,3429.3328450520835,11.974444444444444,0.21,179.01996545006827,1.0406689307103971,88.59907758201501,1553.0,1435.0,1200.0,1210.0,1471.0,1010.0,61.0,293.85,1649170599.3554718,1649170600.4653676,27bbda1b-9034-4da4-99bf-e0c258c64fdc
0.0354368941853084,0.1274366774989334,0.2352970724340105,-0.0963513963841817,0.0449696990540464,0.0660897923744893,-0.0909823451058088,-0.1125955160222101,-15.515326990278448,25.914033215335635,14.8506178391282,0.5439184662760186,0.4833770244850795,-0.2384120138492537,3409.02734375,11.961,0.2,179.0083389502811,1.015861078888578,88.56227500494715,1553.0,1435.0,1200.0,1071.0,1471.0,1010.0,61.0,293.85,1649170602.3987572,1649170603.4432075,4c41b221-5133-4a73-a12e-d67f71979573
0.0404909243504127,0.1253137109623758,0.2306813324117336,-0.0938312294604159,0.0414085937948288,0.0658706474436141,-0.095803533998367,-0.1134036129899413,-15.55839674356947,25.914173467268075,14.817573596544102,0.5374852882695648,0.4754094192184984,-0.2207171176720136,3402.7099609375,11.962,0.2,179.0252550521255,0.9853411256343164,88.57445323223729,1553.0,1435.0,1200.0,1071.0,1471.0,1010.0,61.0,293.85,1649170603.5502512,1649170604.7675369,4c41b221-5133-4a73-a12e-d67f71979573
0.0333276241484713,0.1267792427020299,0.2313250706286314,-0.0951324026627702,0.0411757522950871,0.0660623992186417,-0.0960226789679718,-0.1145541240123102,-15.584358430413324,25.977577834261847,14.8796095509064,0.5413004975791332,0.4807420687553261,-0.2207562104723907,3398.662353515625,11.962000000000002,0.2066666666666666,179.03278192059082,0.9785779221216324,88.5853997487471,1553.0,1435.0,1200.0,1071.0,1471.0,1010.0,61.0,293.85,1649170604.8761418,1649170606.1129863,4c41b221-5133-4a73-a12e-d67f71979573
-0.1465218937672654,0.0342726867633379,-0.3318774428185697,-0.0648082204346113,-0.4646382116857073,0.1600481825994038,-0.6659639869249052,-0.6896727395467858,-19.6095168271789,25.982945612875472,14.98341068054264,0.6540774192323772,0.1219178342922558,2.033764590677201,3400.6103786892363,11.97011111111111,0.2022222222222222,179.08608319905375,0.9763193706621796,88.75321294319487,1553.0,1435.0,1200.0,1613.0,1471.0,1010.0,61.0,293.85,1649170606.7334433,1649170607.8436973,7edab08b-bfcd-48f3-94d0-49f13ae18e0c
-0.1432621125733478,0.035299928659471,-0.3297818690153902,-0.0653423862362099,-0.4627617827227238,0.1578430367378306,-0.6639368955234218,-0.6867827646211134,-19.57968468587501,25.951765740274112,14.759315269036582,0.6502040543004388,0.1277437100343728,2.025303387661863,3400.310302734375,11.97488888888889,0.2077777777777777,179.0785123138138,0.9762052614427648,88.74369545404141,1553.0,1435.0,1200.0,1613.0,1471.0,1010.0,61.0,293.85,1649170607.9521458,1649170609.183225,7edab08b-bfcd-48f3-94d0-49f13ae18e0c
-0.1391087678380644,0.0395162772827528,-0.3270825508351097,-0.0670407595686681,-0.4623958106072482,0.1556455609538377,-0.6626373655860236,-0.6876987907485436,-19.49514204819316,26.04325176548389,14.8257000109518,0.6498911655970555,0.1427526226221543,2.019885690946702,3398.662353515625,11.973333333333334,0.2,179.0862896225487,0.9766039263036952,88.72753143191562,1553.0,1435.0,1200.0,1613.0,1471.0,1010.0,61.0,293.85,1649170609.291518,1649170610.4073594,7edab08b-bfcd-48f3-94d0-49f13ae18e0c
-0.1912170553574699,0.0251579008754848,-0.4292216425111564,-0.015971221725102,-0.5520830913652721,0.1277966229760052,-0.7835528257499758,-0.8025789980526497,-20.42676834698218,26.502821949796903,14.692760231707444,0.469581071340452,0.0839170121460345,2.45111047899518,3402.7099609375,11.961999999999998,0.2,179.10896585059314,0.9821401859389116,88.73750350810384,1553.0,1435.0,1200.0,1694.0,1471.0,1010.0,61.0,293.85,1649170611.4094744,1649170612.4628956,2e679a5d-093e-4a34-a8ee-89d5dfea3d58
-0.1759645663438394,0.0252630904510405,-0.4331136574184296,-0.0175885113575519,-0.5566456902519428,0.1267710247352174,-0.7874974363998101,-0.8101526507025157,-20.357956932590973,26.52006031597398,14.319382680619468,0.4708202225523937,0.0870864248789977,2.4677594112548222,3401.6596950954863,11.960666666666668,0.2,179.0982394179566,0.9641051307253294,88.7012974342235,1553.0,1435.0,1200.0,1694.0,1471.0,1010.0,61.0,293.85,1649170612.57051,1649170613.6838093,2e679a5d-093e-4a34-a8ee-89d5dfea3d58
-0.1868516877947495,0.0271565027276374,-0.4392540998935192,-0.0157082477365504,-0.5621549955807913,0.1254430064557183,-0.7950447914763841,-0.8173186935027252,-20.45910135421036,26.51602820786038,14.588190035518805,0.4632540276458033,0.091900474260019,2.4949348493927954,3409.9299045138887,11.961333333333334,0.2,179.11195140217035,0.9582196539528616,88.69238479626655,1553.0,1435.0,1200.0,1694.0,1471.0,1010.0,61.0,293.85,1649170613.7926342,1649170614.8014257,2e679a5d-093e-4a34-a8ee-89d5dfea3d58
-0.2033352237567428,0.020178927853885,-0.5097409904737464,0.0283420768244853,-0.6256139110994409,0.0945786340003006,-0.8836708833639909,-0.9155838829876056,-21.06681516882417,27.04417932608036,14.379478450479835,0.2941831453629062,0.061998306942206,2.802240077180508,3446.8389892578125,11.93125,0.19,179.11201211496297,0.9696444704675546,88.65469087951203,1553.0,1435.0,1200.0,1774.0,1471.0,1010.0,61.0,293.85,1649170616.8473406,1649170617.986847,6c6fe819-2748-433d-9348-d5d915f9ea54
-0.1938730922817914,0.0158880699281443,-0.511374716431297,0.0315481672796356,-0.6262680589811939,0.0979227857043081,-0.886099558445791,-0.9115291510305124,-21.21711353197722,27.16632655873488,14.66041751936657,0.2951632532517342,0.0439825635529101,2.8085658324759697,3446.6657104492188,11.931625,0.19,179.1066060202349,0.9703279963126582,88.60191742288991,1553.0,1435.0,1200.0,1774.0,1471.0,1010.0,61.0,293.85,1649170618.0992336,1649170619.1413276,6c6fe819-2748-433d-9348-d5d915f9ea54
-0.2079509644344957,0.017302650515686,-0.5128227169336326,0.0292460496892483,-0.6286682446616315,0.0982630082143655,-0.8865882518508267,-0.9086260268811251,-21.07989050986609,27.13416489266749,14.596697777186607,0.3008944048720414,0.0490727154626869,2.8146748227391107,3440.6509602864585,11.928111111111113,0.19,179.09760952273317,0.9867048748806284,88.5478223246634,1553.0,1435.0,1200.0,1774.0,1471.0,1010.0,61.0,293.85,1649170619.2500544,1649170620.432205,6c6fe819-2748-433d-9348-d5d915f9ea54
-0.2183329569588525,0.0157960290520994,-0.5665817246592463,0.0592826027263907,-0.6777704248556121,0.0727874094690626,-0.9542766825495236,-0.9776430263946624,-21.52132102424734,27.47047624669058,14.228156246383834,0.1751638846732587,0.042712206521966,3.050321650369797,3441.879150390625,11.912,0.18,179.11837329781,0.9856244006153624,88.4652089099224,1553.0,1435.0,1200.0,1856.0,1471.0,1010.0,61.0,293.85,1649170621.3425725,1649170622.4887702,6c6db9d3-4522-4066-9fb8-20f7cf6c9953
-0.2176344323888397,0.015426221968153,-0.560993527111224,0.0625697768409079,-0.6726205169265399,0.0697056838390288,-0.9499348709518092,-0.9759035622981116,-21.509596428273,27.54844132093512,14.206105001091249,0.1616212578572302,0.0413885236098404,3.0294373218104056,3437.125325520833,11.911111111111111,0.1888888888888889,179.0936009606002,0.9881407680000488,88.40782014269614,1553.0,1435.0,1200.0,1856.0,1471.0,1010.0,61.0,293.85,1649170622.6203957,1649170623.7103488,6c6db9d3-4522-4066-9fb8-20f7cf6c9953
-0.2302423898927942,0.0153752707644623,-0.5666781485445362,0.0627894695748535,-0.6779556024455512,0.0698634681623591,-0.9562478925979954,-0.9769571021022284,-21.56821918556289,27.564844218037603,14.204121645152789,0.1612761025466783,0.0412427761345424,3.053386299084423,3436.81884765625,11.911666666666669,0.1866666666666666,179.08709103141132,0.9995002856532628,88.35356036101965,1553.0,1435.0,1200.0,1856.0,1471.0,1010.0,61.0,293.85,1649170623.8185484,1649170624.939492,6c6db9d3-4522-4066-9fb8-20f7cf6c9953
-0.1013720071955702,0.0433951426841019,-0.2263898214767854,-0.0672905849294023,-0.3283842720838849,0.1636925628009663,-0.5221829476903519,-0.553305921299359,-19.80026571088541,22.13789338061432,17.452719092688078,0.6479273016524245,0.1425250212823153,1.5056864753816268,7172.075303819444,11.642888888888889,8.051111111111112,178.97874753515694,0.8155545282669778,77.228892786001,1553.0,1435.0,1350.0,1528.0,1471.0,1010.0,61.0,293.85,1649170629.804284,1649170630.7778895,07e3ea16-ab30-4bc8-b96f-72f40c6ec203
-0.1190876849990092,0.0383268681163523,-0.2555191178768842,-0.0772446963378381,-0.3566545216493082,0.159733161757426,-0.5461875430345162,-0.5615961764723828,-19.36876058623024,21.811889021229035,14.679579228798238,0.6576476227929758,0.1444134849076774,1.6138991943316634,7166.744140625,11.637555555555556,8.086666666666666,178.95701842667742,0.7587239452068704,72.39645502158659,1553.0,1435.0,1350.0,1528.0,1471.0,1010.0,61.0,293.85,1649170630.8860922,1649170632.0031269,07e3ea16-ab30-4bc8-b96f-72f40c6ec203
-0.1128376710337965,0.0362554005818323,-0.2376845528546828,-0.0637272880844716,-0.3384167289745319,0.1651520680357044,-0.5325441231980487,-0.5640221110686053,-19.72662359974208,22.18220716327788,17.048097319705924,0.6428730098375628,0.1176575869587022,1.548129075695891,7178.7490234375,11.643666666666668,8.04888888888889,178.92770780821917,0.7396586460775434,68.00678806466777,1553.0,1435.0,1350.0,1528.0,1471.0,1010.0,61.0,293.85,1649170632.1105964,1649170633.2327654,07e3ea16-ab30-4bc8-b96f-72f40c6ec203
-0.0047214161153659,0.2461310497338396,-0.2523278193411167,-0.2039652656066391,-0.405195134501174,0.0919078050895607,-0.5825656135242899,-0.6125610869777184,-19.4170621484914,21.51016983384389,17.268930062175556,0.7896327638617017,0.9169972340831556,1.7552331272190234,7178.7490234375,11.618,8.09,178.8782086683942,0.7583180766307999,61.86336758551061,1647.0,1435.0,1350.0,1528.0,1543.0,1010.0,61.0,293.85,1649170634.2554014,1649170635.2962332,39099eb8-f895-4b3d-8632-d70c8e7aea2a
0.0031814983607652,0.2494045270657997,-0.2580940712758365,-0.2183603502151596,-0.4120845049458208,0.0922502190309574,-0.586962210307625,-0.6039322522574758,-19.42593376472757,21.374789160085403,15.85258717842512,0.8214591830851316,0.9432950641335476,1.777058157459002,7184.7666015625,11.615333333333334,8.1,178.87505463881746,0.8237336205082316,59.57705131221797,1647.0,1435.0,1350.0,1528.0,1543.0,1010.0,61.0,293.85,1649170635.4047348,1649170636.5102508,39099eb8-f895-4b3d-8632-d70c8e7aea2a
0.0031951948502596,0.2485964301528576,-0.2523963022226898,-0.2114024976901859,-0.4064552182240648,0.0927022054676269,-0.5835791592758302,-0.6079042551108008,-19.53968088302589,21.555702297619376,16.74794906358549,0.8083481207111806,0.9326413295061184,1.7578796952783982,7184.7666015625,11.615777777777778,8.093333333333334,178.90128711868974,0.8733503083631563,57.04734731913118,1647.0,1435.0,1350.0,1528.0,1543.0,1010.0,61.0,293.85,1649170636.6178553,1649170637.8525789,39099eb8-f895-4b3d-8632-d70c8e7aea2a
0.130326651235265,0.4813968194476588,-0.2496569901049521,-0.3794729925153772,-0.4650354122059934,0.0313279266159199,-0.6196011199237496,-0.6421045741136205,-19.4826616147523,21.158816427830413,18.32401472714936,1.0473431112274942,1.812272134380748,1.9143425291784848,7184.7666015625,11.608333333333333,8.130000000000003,178.76998811554483,1.0221174610205055,53.037687043604905,1745.0,1435.0,1350.0,1528.0,1614.0,1010.0,61.0,293.85,1649170639.8768091,1649170640.9316337,c6dbf579-704d-45d4-92fb-9f0dc3ac3be9
0.1293952852751901,0.483067799446754,-0.2452603942729941,-0.3734191124975614,-0.4596663599785447,0.02882145636538,-0.6176699045171219,-0.636201355152806,-19.673403950637496,21.20486443167135,19.017341556812017,1.028593352166706,1.81327855395752,1.8993678590606544,7184.7666015625,11.598125,8.12,178.77920260991766,1.0784894312659523,51.93285798387405,1745.0,1435.0,1350.0,1528.0,1614.0,1010.0,61.0,293.85,1649170641.0628471,1649170642.0375245,c6dbf579-704d-45d4-92fb-9f0dc3ac3be9
0.128966856915956,0.4800633226215325,-0.2456132176163428,-0.3771527952717005,-0.460199977963769,0.0297204984294869,-0.6156570575754088,-0.6382070796503104,-19.518778980330683,21.13840289378727,18.24472874668117,1.0385324188184812,1.8081993914735464,1.89635916641504,7184.7666015625,11.601444444444445,8.125555555555556,178.8026349019577,1.1290218743622529,50.942223710650296,1745.0,1435.0,1350.0,1528.0,1614.0,1010.0,61.0,293.85,1649170642.1464252,1649170643.27003,c6dbf579-704d-45d4-92fb-9f0dc3ac3be9
0.2436760786394941,0.7251024024986263,-0.2689258590226429,-0.5803133509008186,-0.5516623330872994,-0.0273842903108477,-0.6745237914802803,-0.6991513090347623,-19.09865851024686,20.60060861027189,17.35199469174898,1.3638340264375075,2.7557100885671586,2.1636494047874675,7187.026672363281,11.58475,8.12875,178.65906812015356,1.2928504760757993,49.159019551075744,1849.0,1435.0,1350.0,1528.0,1686.0,1010.0,61.0,293.85,1649170645.4088316,1649170646.3586824,2d3f39c9-26c4-4305-a094-13e561712a1b
0.2479937815451783,0.7135534654126202,-0.2529578611260816,-0.5541726391000219,-0.5313130762854312,-0.019075409849356,-0.6613619417613658,-0.6848515487564392,-19.511211475696825,20.946023935671903,20.45478802015036,1.3269099830997515,2.685614185084617,2.098204897947286,7190.79345703125,11.577625,8.076249999999998,178.65396426129627,1.3309719229481825,48.67927304018956,1849.0,1435.0,1350.0,1528.0,1686.0,1010.0,61.0,293.85,1649170646.470011,1649170647.5643666,2d3f39c9-26c4-4305-a094-13e561712a1b
0.2513083485573573,0.7063490762932654,-0.2608196867722003,-0.5673076428781852,-0.5393255653451616,-0.010076770641445,-0.6651558898942612,-0.6890290007925155,-19.46749432997789,20.916016835729263,18.96723108536131,1.3759549711469383,2.6725863994084023,2.122194424475613,7184.7666015625,11.571444444444444,8.122222222222222,178.6426612468573,1.352247361903177,48.24949258844914,1849.0,1435.0,1350.0,1528.0,1686.0,1010.0,61.0,293.85,1649170647.67253,1649170648.7982545,2d3f39c9-26c4-4305-a094-13e561712a1b
0.2566801385357589,0.705024345277249,-0.2275732042854299,-0.6025083577906244,-0.5192376390405178,0.0136396424858095,-0.6299102492483434,-0.656457476586985,-19.235998518466573,21.687376490051665,17.800130478205947,1.5153524824492102,2.682778058361312,1.997063326988718,7184.7666015625,11.544222222222222,8.126666666666667,178.6273919795128,1.4252749381671763,47.57749835567818,1962.0,1435.0,1350.0,1528.0,1760.0,1010.0,61.0,293.85,1649170649.8117244,1649170650.949859,b9378c63-e3ac-49c0-bcb7-161cbf2f3281
0.2401653769213923,0.6974769943643085,-0.2439564817432357,-0.575106465732592,-0.5292700970415352,0.0008065148955407,-0.6510402114720703,-0.6713155084095551,-19.464464986913768,21.701048197472424,18.36785087281155,1.4239531235396652,2.64664410166531,2.0631070405003125,7184.7666015625,11.506666666666666,8.103333333333333,178.67382815895,1.410551742075208,47.32730966474547,1962.0,1435.0,1350.0,1528.0,1760.0,1010.0,61.0,293.85,1649170651.0589988,1649170652.086496,b9378c63-e3ac-49c0-bcb7-161cbf2f3281
0.2485911622249228,0.6951157921800732,-0.2389220477919858,-0.5723174240665772,-0.5243625978468441,0.0031656945839972,-0.6465696532081309,-0.6648134760214112,-19.5164434126144,21.82415685049009,18.77457990773112,1.4240685743018962,2.634529072603636,2.0434207675975067,7184.7666015625,11.506555555555556,8.119999999999997,178.68081468356098,1.4129293119525417,47.08846022619984,1962.0,1435.0,1350.0,1528.0,1760.0,1010.0,61.0,293.85,1649170652.1957226,1649170653.3130434,b9378c63-e3ac-49c0-bcb7-161cbf2f3281
-0.2760787505683307,-0.2261399961030672,-0.2424575301356385,0.0973968377996983,-0.2824164231242009,0.2513943629571637,-0.4885354252083342,-0.5107435791979377,-19.31898830896686,22.88848157195314,13.993224116260398,0.4773769541764027,-0.8624229958735202,1.3810511722547307,7184.7666015625,11.536555555555555,8.113333333333332,179.14171433093364,1.3550368064170233,46.78349227975879,1459.0,1435.0,1350.0,1528.0,1394.0,1010.0,61.0,293.85,1649170654.322669,1649170655.664451,29f4c992-ff34-4a67-83bb-f2a3b9dc556e
-0.2573813021654547,-0.2227476321009763,-0.2444561322995314,0.1018936917897654,-0.2837838878188802,0.2455300447593063,-0.493479336292467,-0.5124660586509208,-19.45955821052637,22.89834346346752,14.194527813747968,0.4539824355941829,-0.8511689911559834,1.3933085742547382,7190.79345703125,11.629444444444449,8.148888888888889,179.1452311194463,1.378399006012327,46.56718663947869,1459.0,1435.0,1350.0,1528.0,1394.0,1010.0,61.0,293.85,1649170655.7741368,1649170656.7944782,29f4c992-ff34-4a67-83bb-f2a3b9dc556e
-0.2651916286790558,-0.2217746284682626,-0.2412609986616246,0.0949117342474485,-0.2827451405888988,0.2476864308380707,-0.4891665627955978,-0.5159899105514572,-19.332231438252617,22.933828650097222,13.750700288782904,0.4749653849580968,-0.8434244067338618,1.3809029879792882,7190.79345703125,11.628555555555554,8.154444444444444,179.16860250896627,1.378423113259866,46.42689683065636,1459.0,1435.0,1350.0,1528.0,1394.0,1010.0,61.0,293.85,1649170656.9224205,1649170658.0200815,29f4c992-ff34-4a67-83bb-f2a3b9dc556e
-0.3956075415105101,-0.4608442640498709,-0.2538755306405411,0.2644433475219361,-0.2370561546790371,0.3241603393156528,-0.4675144897745267,-0.4939762482931242,-19.672431480776083,24.03482754563991,13.53805975832386,0.2708560752611437,-1.757442405443794,1.2766093218910053,7189.454155815973,11.622666666666667,8.155555555555557,179.24105412004212,1.3745325260437342,46.20927106659168,1364.0,1435.0,1350.0,1528.0,1312.0,1010.0,61.0,293.85,1649170659.7518852,1649170660.999173,172c7da2-baa0-40c9-9e2b-16787b91a5e8
-0.3953062171707425,-0.4580638620075206,-0.251588205055641,0.2687440666334839,-0.235823464235605,0.3183803919667713,-0.4655421848777414,-0.4897714034896438,-19.43885681020785,24.00990114548934,13.682027198669536,0.2482555713913216,-1.750328300270111,1.2697551005240728,7190.79345703125,11.612000000000002,8.119999999999997,179.26989876781698,1.390031328061453,46.17985837475084,1364.0,1435.0,1350.0,1528.0,1312.0,1010.0,61.0,293.85,1649170661.111529,1649170662.2107327,172c7da2-baa0-40c9-9e2b-16787b91a5e8
-0.3887762445586301,-0.4628297176529679,-0.2531342728255021,0.2687769383943303,-0.2363039395987499,0.3220554523399043,-0.4669452606870375,-0.4970426342224307,-19.57574263917104,24.07572160301753,13.533607150475218,0.2567065561715111,-1.766019812565094,1.273606211207344,7190.79345703125,11.60822222222222,8.14,179.2671074971762,1.3565908760386456,46.15090102885467,1364.0,1435.0,1350.0,1528.0,1312.0,1010.0,61.0,293.85,1649170662.3190525,1649170663.4393823,172c7da2-baa0-40c9-9e2b-16787b91a5e8
-0.5428001091845256,-0.7103671511710989,-0.2570394360804603,0.4761581601600048,-0.1805271644151496,0.3712710188711003,-0.4446319179818576,-0.4693646218579235,-19.66292075053088,25.54304584329993,13.251552998211835,-0.0910569477726567,-2.717074574527804,1.14199523632831,7190.79345703125,11.607111111111111,8.137777777777778,179.319397907642,1.3153079676085209,46.10878077006301,1262.0,1435.0,1350.0,1528.0,1222.0,1010.0,61.0,293.85,1649170664.25904,1649170665.2897398,cb52ebcc-cebe-472b-810e-30a4cd3abdfd
-0.5343537130526627,-0.7095053633583644,-0.2614908181786238,0.463700867277866,-0.1861460410998679,0.374864995572552,-0.4484077860860853,-0.4659530820258116,-19.75401222338426,25.539635987199272,12.221257669221265,-0.05533454317942,-2.70281463403734,1.159571710936776,7190.79345703125,11.568222222222223,8.135555555555557,179.3591541620709,1.329768474150692,46.15513043377072,1262.0,1435.0,1350.0,1528.0,1222.0,1010.0,61.0,293.85,1649170665.398511,1649170666.4529583,cb52ebcc-cebe-472b-810e-30a4cd3abdfd
-0.5475204924553376,-0.7153373603502198,-0.2742905278134722,0.4656655014706053,-0.1959242891684628,0.3728225649154077,-0.4584643496506546,-0.4874703810454995,-19.649810460579413,25.317292041063773,11.290433198791511,-0.0665631022345234,-2.718232901911694,1.202818688109818,7185.519958496094,11.5675,8.1475,179.36611052001308,1.2994151416418276,46.19653172028849,1262.0,1435.0,1350.0,1528.0,1222.0,1010.0,61.0,293.85,1649170666.561918,1649170667.6065817,cb52ebcc-cebe-472b-810e-30a4cd3abdfd
-0.5846200979606305,-0.7823026034326496,-0.2725439425239731,0.5119401422878046,-0.1861323446495704,0.3897120638245131,-0.4554615155055476,-0.4782388980717029,-19.67475899862044,26.46995303302573,10.426462549280943,-0.1254165785052776,-2.967126474485358,1.1734193857305624,7184.7666015625,11.544,8.123333333333333,179.44363297736527,1.26090330528745,46.24606491619559,1153.0,1435.0,1350.0,1528.0,1121.0,1010.0,61.0,293.85,1649170669.785632,1649170671.017142,e6fd45e9-d13e-4eaf-bba6-49305c543cb8
-0.5757770491535226,-0.7817908997509313,-0.2651127366259722,0.5035863380583866,-0.1792911868720327,0.3953857259023151,-0.4494706392752254,-0.4733749747766915,-20.037704512395443,26.60076601565889,10.262879820396574,-0.092794540661509,-2.959686756407264,1.144892644269353,7178.7490234375,11.526,8.130000000000003,179.45659515859012,1.2397236238652136,46.28973562792884,1153.0,1435.0,1350.0,1528.0,1121.0,1010.0,61.0,293.85,1649170671.1261494,1649170672.2428277,e6fd45e9-d13e-4eaf-bba6-49305c543cb8
-0.5861404164312057,-0.7742490233127745,-0.2746532127397085,0.5167476339337571,-0.190433064377495,0.3860139933560305,-0.4602690086213108,-0.4890865749984729,-19.5567104095816,26.56138001419097,11.622776208976669,-0.1438199850355757,-2.9490831402401443,1.19174609719791,7178.7490234375,11.529111111111112,8.119999999999997,179.44534052465775,1.2397300508834954,46.34855569924117,1153.0,1435.0,1350.0,1528.0,1121.0,1010.0,61.0,293.85,1649170672.3508055,1649170673.382162,e6fd45e9-d13e-4eaf-bba6-49305c543cb8
-0.1179645671243894,0.0429836980650041,-0.2357686780907554,-0.0756285023309352,-0.3389996546689684,0.1621985422203033,-0.527354769711244,-0.5516798651196256,-19.37473985425052,21.931071203486827,16.036598374265335,0.6615287441820631,0.1509496276269314,1.5385552549880115,7186.775553385417,11.564666666666668,8.14,179.17165788025497,1.2665308356970444,46.5075993102496,1553.0,1435.0,1350.0,1528.0,1471.0,1010.0,61.0,293.85,1649170675.3179696,1649170676.4541626,9a6b3b47-13dd-46c9-9231-2015adc0bc08
-0.1132058345033899,0.0418304478251647,-0.2587882129666469,-0.0875395781701676,-0.3584947916718697,0.1607735522998409,-0.5466000835490746,-0.5698995803300453,-19.44026702890169,21.47984116807187,13.958481670240722,0.680693344321036,0.1655058592594471,1.6208521097996738,7185.519958496094,11.63275,8.166250000000002,179.15608903322433,1.2842864060323818,46.57032833676942,1553.0,1435.0,1350.0,1528.0,1471.0,1010.0,61.0,293.85,1649170676.5623353,1649170677.772734,9a6b3b47-13dd-46c9-9231-2015adc0bc08
-0.1173345254155769,0.0449970921821413,-0.2466848365540023,-0.0741766670347549,-0.3485872472852698,0.1551859044502093,-0.5389420615182436,-0.5598841063030632,-19.362503462328178,21.777095835725344,15.425709657739723,0.6408399332089755,0.1629553752484431,1.5824581605301131,7188.784505208333,11.630666666666668,8.153333333333332,179.131350657233,1.2800413411882507,46.64595276044224,1553.0,1435.0,1350.0,1528.0,1471.0,1010.0,61.0,293.85,1649170677.88182,1649170678.913082,9a6b3b47-13dd-46c9-9231-2015adc0bc08
-0.099570087849591,0.0474898658470486,-0.2675446978390912,-0.3715563801180419,-0.3996617236975018,0.4425670792136782,-0.4807864582652508,-0.5042486693718259,-19.45587724096579,21.1960780537598,17.847633556706203,1.9528883267291333,0.1867817684534657,1.5989397881117664,7196.83154296875,11.628222222222222,8.16,179.1070260768689,1.334148000932878,46.76216842917,1553.0,1537.0,1350.0,1528.0,1471.0,1010.0,61.0,293.85,1649170680.7338717,1649170681.885844,8e903a13-bdd7-4124-8967-30659b2bede6
-0.1015013027161646,0.0499552463920258,-0.2715030038225243,-0.3733917193250223,-0.4037159058715477,0.4401153954349144,-0.4836490397817334,-0.5089465905346846,-19.3211156975146,21.058431884444868,17.577094389801594,1.950434281237338,0.1974451168291648,1.613984425471975,7190.79345703125,11.629555555555555,8.142222222222223,179.0920846586045,1.3288686560173797,46.80568925619647,1553.0,1537.0,1350.0,1528.0,1471.0,1010.0,61.0,293.85,1649170681.9934304,1649170683.0088434,8e903a13-bdd7-4124-8967-30659b2bede6
-0.0974745142992541,0.0529958824080235,-0.2678734153229062,-0.3714331111172886,-0.4016751182495445,0.4387594362477447,-0.4818821832758655,-0.5124118204736191,-19.30150064345516,21.18235547014156,18.083130739965004,1.94406189217454,0.2042165842725508,1.6048033100268515,7196.83154296875,11.621,8.144444444444444,179.07173069487789,1.3155685345821702,46.83588476360718,1553.0,1537.0,1350.0,1528.0,1471.0,1010.0,61.0,293.85,1649170683.1171854,1649170684.1259308,8e903a13-bdd7-4124-8967-30659b2bede6
-0.0908179864539167,0.0534752619605664,-0.3090041866081658,-0.6651832831039548,-0.4721302312581567,0.7157312180193328,-0.4459561016072046,-0.472280893729544,-19.303816047967544,20.582860175687404,19.05693401654704,3.223214786303924,0.2309494380116075,1.7047806688221947,7190.79345703125,11.625,8.16,179.07668637657568,1.3860399362652265,46.932934542068935,1553.0,1645.0,1350.0,1528.0,1471.0,1010.0,61.0,293.85,1649170685.7131865,1649170686.697682,eae7fb01-418e-47c8-a80a-9803c825177f
-0.0816621105313534,0.0596337825506089,-0.2910945639204308,-0.659284447253376,-0.4574518998361813,0.7044063566158362,-0.4297607392262746,-0.4445661746042846,-18.952779075378928,20.63598234501848,19.20572573839332,3.185904336405601,0.2506543464435552,1.6385471654408832,7181.423502604167,11.616777777777775,8.165555555555555,179.0756254205246,1.3880663087247684,46.96523071210439,1553.0,1645.0,1350.0,1528.0,1471.0,1010.0,61.0,293.85,1649170686.80668,1649170687.961969,eae7fb01-418e-47c8-a80a-9803c825177f
-0.0820384919350198,0.0622547559996756,-0.2972114477688095,-0.6688402655035418,-0.4638027214953887,0.7040206615609067,-0.4343825069195282,-0.4580912556188363,-18.93282493855533,20.470411248865645,18.226201211538875,3.205044944654011,0.2698108010722114,1.661049339190974,7172.74169921875,11.614555555555556,8.17,179.0660965477225,1.378818683191329,46.97859701285515,1553.0,1645.0,1350.0,1528.0,1471.0,1010.0,61.0,293.85,1649170688.0949924,1649170689.1498716,eae7fb01-418e-47c8-a80a-9803c825177f
-0.0717611417933733,0.0627500235582355,-0.3295019114676283,-0.9367483648447232,-0.5291517587091786,0.9778071738301254,-0.4010702780589973,-0.4248562744534404,-19.135421956477416,20.76957912430835,22.144706887640734,4.425512849317631,0.2693159222804129,1.749616156738499,7169.409722222223,11.606666666666667,8.124444444444444,179.00105796862582,1.4626931216078702,47.01637251242477,1553.0,1761.0,1350.0,1528.0,1471.0,1010.0,61.0,293.85,1649170690.7130811,1649170692.0096347,35410569-ba1f-4446-accf-d33ef8971591
-0.0716165061220748,0.0661686845718985,-0.3315925545068993,-0.94128466762164,-0.5320313239921601,0.9707857705167756,-0.4022010661347738,-0.4299842674878422,-18.92931981320446,20.59422890913636,21.01820686657581,4.418625264347979,0.2910863870926159,1.7569991604448374,7172.74169921875,11.602333333333332,8.119999999999997,179.00209312174005,1.4671611088261816,47.02369219848529,1553.0,1761.0,1350.0,1528.0,1471.0,1010.0,61.0,293.85,1649170692.1189473,1649170693.102239,35410569-ba1f-4446-accf-d33ef8971591
