raw_voltage_G-,raw_voltage_G0,raw_voltage_G1,raw_voltage_G2,raw_voltage_G3,raw_voltage_G4,raw_voltage_G5,raw_voltage_G6,load_x,load_y,load_z,load_l,load_m,load_n,rpm,voltage,current,roll,pitch,yaw,aileron1_pwm,elevator_pwm,throttle_pwm,rudder_pwm,aileron2_pwm,pbaro,pdiff,Tt,sample_start_time,sample_end_time,uid
0.1883200699515239,0.264806032429373,0.4949870915176842,-0.2155289971775186,0.2199032370379876,0.0317191002751008,0.2150250709569251,0.1864924010650615,-6.303349924026865,24.66800344673412,15.641134577684465,0.744952235473865,0.9575043304678108,-1.2427080063080798,3145.769938151041,11.969333333333331,0.2255555555555556,178.8290707696853,0.4922705639349057,91.04478922105834,1553.0,1435.0,1200.0,1528.0,1471.0,1010.0,61.0,293.85,1649171239.3840342,1649171240.5789025,9fde6320-d52f-4748-97ca-1a147bea519e
0.1908446195413005,0.2671727976148701,0.4962362175507707,-0.2218535206988996,0.2197717500876163,0.0352298022450709,0.2160901153087082,0.1916598385517496,-6.3713401354385,24.72243911721981,15.650576967472771,0.7674981665085082,0.9676374645728562,-1.2455736549577667,3374.444580078125,11.974444444444444,0.2211111111111111,178.85175914028827,0.5623890902977959,89.39945812170478,1553.0,1435.0,1200.0,1528.0,1471.0,1010.0,61.0,293.85,1649171240.687959,1649171242.059981,9fde6320-d52f-4748-97ca-1a147bea519e
0.1860584942887589,0.2673700280549232,0.4962888123297819,-0.2163705137953636,0.2197980474735114,0.0300755132699603,0.2148672866106211,0.1985497550311691,-6.29774174676829,24.752605761998808,15.657812052912943,0.74378826881007,0.9671209332833066,-1.2438188848647278,3399.7110188802085,11.968222222222222,0.2211111111111111,178.859636625131,0.6515186478026235,87.85522520571605,1553.0,1435.0,1200.0,1528.0,1471.0,1010.0,61.0,293.85,1649171242.168156,1649171243.2303026,9fde6320-d52f-4748-97ca-1a147bea519e
0.2937068650396599,0.4718322394984834,0.529055360364828,-0.2444824295901955,0.209752443984061,-0.1449862355615017,0.1820086960299175,0.1674004947935152,-6.112754743916615,24.61015224520505,15.571372612257289,0.4145812916946914,1.7389713432762364,-1.2034578128581,3405.564507378472,11.956666666666669,0.2244444444444444,178.68062799172367,0.7235385992235199,86.09774543583053,1647.0,1435.0,1200.0,1528.0,1543.0,1010.0,61.0,293.85,1649171244.3521316,1649171245.479909,cf5c6139-f507-407c-b5b8-85a0b85ec93e
0.2928784972132503,0.4744488298188604,0.5308041368047265,-0.248453336382278,0.2103178378989426,-0.1447890051647188,0.1828633612570332,0.1568552408419106,-6.168221027408102,24.65887569933832,15.453868797408507,0.4243453075298445,1.7508197509552408,-1.2077712600431465,3400.310438368056,11.956888888888887,0.22,178.68850244092678,0.7667624849616099,85.37177373586877,1647.0,1435.0,1200.0,1528.0,1543.0,1010.0,61.0,293.85,1649171245.5879605,1649171246.8234165,cf5c6139-f507-407c-b5b8-85a0b85ec93e
0.298729666681226,0.4765920671210276,0.5286477508235313,-0.248847797261008,0.2070832587699574,-0.1450256816305969,0.1804571499387932,0.1599714816403115,-6.081053459537592,24.68617846803044,15.648639883369542,0.4248518163064719,1.756427318319561,-1.1964199891353462,3407.8207736545137,11.958444444444446,0.22,178.69520816887194,0.8455206373711192,84.59274133188482,1647.0,1435.0,1200.0,1528.0,1543.0,1010.0,61.0,293.85,1649171246.931496,1649171248.1066964,cf5c6139-f507-407c-b5b8-85a0b85ec93e
0.4300719837904419,0.697818860431304,0.5777449779706866,-0.2633245135870158,0.2113039900869549,-0.3539190444056575,0.1545936652795848,0.1282699759975556,-5.832661805961729,24.511239862150752,14.963040350353015,-0.0106027660554342,2.5953726234910466,-1.2063495532649655,3405.7144911024307,11.947444444444445,0.2211111111111111,178.49621591977296,0.8754099483499833,83.89283894616517,1734.111111111111,1435.0,1200.0,1528.0,1606.111111111111,1010.0,61.0,293.85,1649171248.7219293,1649171249.691409,903eead1-d8e8-4f93-b50e-9a09a3e0654c
0.4257340101124458,0.6911048080639127,0.5699313659690478,-0.2650108341067402,0.2055207554152433,-0.3463684043473807,0.1487896117711536,0.1264094354656434,-5.9539595902515385,24.496640189591048,14.82895083918224,0.0096001747110191,2.571949826069785,-1.1806531725657712,3406.31787109375,11.945333333333332,0.22,178.495145856803,0.9050558804788132,83.48623778487432,1745.0,1435.0,1200.0,1528.0,1614.0,1010.0,61.0,293.85,1649171249.800004,1649171250.9207487,903eead1-d8e8-4f93-b50e-9a09a3e0654c
0.4241999956766775,0.6979530866923915,0.5711092698978404,-0.2694211266104167,0.204329154886327,-0.3485735506922398,0.1493100809850486,0.1248754209719282,-5.843242680181665,24.48837264673754,14.898045449207537,0.0146640471629523,2.596856557808632,-1.1804085749757445,3405.113064236112,11.945222222222222,0.22,178.4979462343627,0.942255296280622,83.14711965149309,1745.0,1435.0,1200.0,1528.0,1614.0,1010.0,61.0,293.85,1649171251.0288532,1649171252.154148,903eead1-d8e8-4f93-b50e-9a09a3e0654c
0.5367993938623683,0.8852124184556672,0.6176090818282481,-0.2755023995219429,0.2092599157338123,-0.5352302932061966,0.1250808694092098,0.1028102654365942,-5.694344224397878,24.839970193629483,13.73201075478304,-0.3865254724868928,3.312176111898862,-1.1950912627383077,3403.161376953125,11.925222222222224,0.2155555555555555,178.3431149527974,0.9502409613591306,82.50285295111274,1849.0,1435.0,1200.0,1528.0,1686.0,1010.0,61.0,293.85,1649171253.3658717,1649171254.4911652,53907efa-377c-46a8-9fb3-a8d21cd406cc
0.5322241958576951,0.8929454947858503,0.61911077236709,-0.2776434457340156,0.2103046891798149,-0.5403938971419983,0.1255481959972327,0.0951221132705964,-5.714153755785621,24.705643821309742,13.804090182648892,-0.3941132776152952,3.341037748351752,-1.1981667563610563,3409.6280653211807,11.922777777777778,0.21,178.34899195112325,0.9767165651351636,82.28529624784969,1849.0,1435.0,1200.0,1528.0,1686.0,1010.0,61.0,293.85,1649171254.5998118,1649171255.8369358,53907efa-377c-46a8-9fb3-a8d21cd406cc
0.525649848339152,0.869540817459333,0.6099461319624174,-0.2708192717421553,0.2062943369186925,-0.5239448738337399,0.1229447540907242,0.1012231082756409,-5.69023216336987,24.73131179434168,13.7300289872102,-0.3728297366005784,3.252322313905487,-1.1793757471959545,3404.0623372395835,11.925,0.21,178.3561560606527,1.0346388341686277,82.0463314549981,1849.0,1435.0,1200.0,1528.0,1686.0,1010.0,61.0,293.85,1649171255.9696648,1649171257.066632,53907efa-377c-46a8-9fb3-a8d21cd406cc
0.5306200550584219,0.879783650966951,0.6030299184005165,-0.2919229320589864,0.1901740359480764,-0.5254438255983593,0.1072583597033099,0.0773450758781962,-5.931990032171832,25.399084518347973,12.088317089478531,-0.3248944224270611,3.30917190725811,-1.127361949091636,3393.2802734375,11.869,0.2,178.3065962080351,1.1098230308050914,81.7772538759157,1962.0,1435.0,1200.0,1528.0,1760.0,1010.0,61.0,293.85,1649171257.7418988,1649171258.8188798,c0f8b3cc-2733-43cf-be97-0da1dbb42528
0.5245585066596855,0.8759442319817156,0.6020043202036495,-0.2921070138667455,0.1908972143196063,-0.5230244649184783,0.1086389728542088,0.0836038554943836,-5.916409629170953,25.273580528076423,11.876280695290848,-0.3199515585903292,3.296496269154314,-1.129617477757754,3374.875786675347,11.872888888888887,0.2,178.3400717240672,1.1525719753075356,81.50067447239492,1962.0,1435.0,1200.0,1528.0,1760.0,1010.0,61.0,293.85,1649171258.9289076,1649171260.026282,c0f8b3cc-2733-43cf-be97-0da1dbb42528
0.5199800214637741,0.8761863871225694,0.6021045789967442,-0.291938272292963,0.1915913558411452,-0.5246702436624461,0.1082477991661764,0.089647872778722,-5.988323965636867,25.24408623499664,11.697865659318367,-0.3242856520721022,3.299479858088391,-1.1304016841497964,3371.922119140625,11.877,0.2,178.3456102485742,1.198227449893036,81.27658734937543,1962.0,1435.0,1200.0,1528.0,1760.0,1010.0,61.0,293.85,1649171260.1341712,1649171261.2508938,c0f8b3cc-2733-43cf-be97-0da1dbb42528
0.0332591413519002,0.0113172543267488,0.441361782169028,-0.1814207278628656,0.2189844719354322,0.2531847770128309,0.238351404849142,0.2118759582354165,-6.914892479285624,25.14508364213349,16.16128230944687,1.1659428021579068,-0.0011053413570554,-1.2318340950084752,3353.161810980903,11.96411111111111,0.2211111111111111,179.00215990581194,1.3319720876476022,80.89470312487103,1459.0,1435.0,1200.0,1528.0,1394.0,1010.0,61.0,293.85,1649171263.2869346,1649171264.2368984,d52c1569-b5f6-4351-a32b-5e93598e1e50
0.0404087449735236,0.0130019310641654,0.4426903482398783,-0.1790786161277181,0.2203404311729898,0.2496921547654147,0.239994991789616,0.2204773964403334,-6.796564956135444,25.065205037231504,16.21776913298656,1.152416379556943,0.0036695915014427,-1.2374124753662992,3354.473958333333,11.964666666666668,0.22,178.9929270078739,1.3727467873147952,80.74152171344525,1459.0,1435.0,1200.0,1528.0,1394.0,1010.0,61.0,293.85,1649171264.345815,1649171265.2930896,d52c1569-b5f6-4351-a32b-5e93598e1e50
0.0351492664561684,0.0066056381122203,0.4384718085423174,-0.1748463791520279,0.2175600298878379,0.252116445504745,0.2363106177089733,0.2079724391538671,-6.819545344344218,25.123689782468944,16.19448765873022,1.148479563217198,-0.0207389233419152,-1.2234391245676144,3347.3427734375,11.964444444444446,0.22,178.99913640873936,1.3942236412557636,80.57658402863805,1459.0,1435.0,1200.0,1528.0,1394.0,1010.0,61.0,293.85,1649171265.402344,1649171266.4836817,d52c1569-b5f6-4351-a32b-5e93598e1e50
-0.0771214271866248,-0.2098821793171537,0.4069971195121051,-0.1168688423252411,0.2311607119471972,0.4176530412207661,0.2651555685832464,0.2380363839198593,-6.989203068820612,25.67373063657419,17.145369575558693,1.3918245106884497,-0.8490509838143702,-1.2648192967785028,3348.6568196614585,11.948333333333332,0.22,179.14780230621386,1.4222126536835162,80.30372480148522,1364.0,1435.0,1200.0,1528.0,1312.0,1010.0,61.0,293.85,1649171268.3091688,1649171269.444091,0c5de5cf-61f7-47fb-97b0-cc9fc12a9c41
-0.0810249465746999,-0.2070469913988314,0.4026690073384709,-0.1170742907771335,0.2272297998118627,0.4143658674191688,0.2578826963553062,0.2338041472623303,-7.223183174488757,25.715166357941445,17.00226280333909,1.3848198132576683,-0.8357412813687874,-1.2432517553735216,3344.0045572916665,11.943888888888887,0.2177777777777777,179.16214570347086,1.424334316768353,80.14996282397998,1364.0,1435.0,1200.0,1528.0,1312.0,1010.0,61.0,293.85,1649171269.5518112,1649171270.671992,0c5de5cf-61f7-47fb-97b0-cc9fc12a9c41
-0.0837642584173954,-0.2100191449260241,0.4011349928964714,-0.1155950623229596,0.2251342264423189,0.4163518682527443,0.2564856474568023,0.2415563992889816,-7.150816066696997,25.823964604598043,17.0512251489742,1.3866349310105377,-0.8481123406557609,-1.2365890267447863,3335.185546875,11.945666666666666,0.22,179.17524297065933,1.438741355735928,80.03845087886063,1364.0,1435.0,1200.0,1528.0,1312.0,1010.0,61.0,293.85,1649171270.7803452,1649171272.0138366,0c5de5cf-61f7-47fb-97b0-cc9fc12a9c41
-0.219442378336464,-0.4476955647572256,0.370824511068747,-0.0599870317022551,0.2426384274194756,0.6034605381733248,0.2923295391912933,0.2624162568914794,-7.442310581182293,26.55148390845008,17.837252006405194,1.684947122484011,-1.7532025542389984,-1.2978130324073291,3323.54638671875,11.91411111111111,0.21,179.25223741644314,1.442517489851593,79.89480213478647,1262.0,1435.0,1200.0,1528.0,1222.0,1010.0,61.0,293.85,1649171273.8358543,1649171274.9744167,9d916b77-0dfa-4812-b476-6fdf3772155c
-0.2194078629742619,-0.4535072898393808,0.3601472226518292,-0.0589148649822773,0.233722516094597,0.6067509990946253,0.2822149052122782,0.2610323567122874,-7.532118175028127,26.573654398822768,17.556184879804995,1.6894479846855213,-1.772681843698095,-1.2578759784659,3323.54638671875,11.914666666666667,0.2166666666666666,179.25688498071838,1.4461654511986142,79.80487510526417,1262.0,1435.0,1200.0,1528.0,1222.0,1010.0,61.0,293.85,1649171275.0833333,1649171276.1129673,9d916b77-0dfa-4812-b476-6fdf3772155c
-0.2093343170199416,-0.4420936710419265,0.3768920860719587,-0.0611649358053496,0.2455557942655748,0.5970231562508631,0.2976027139209083,0.2760306353166836,-7.162722446789322,26.58327592164004,17.590158166205075,1.673752756021355,-1.731450700217004,-1.3170637690490192,3336.48388671875,11.916,0.21,179.2464302378288,1.4479856966124227,79.71056840666408,1262.0,1435.0,1200.0,1528.0,1222.0,1010.0,61.0,293.85,1649171276.2219973,1649171277.226982,9d916b77-0dfa-4812-b476-6fdf3772155c
-0.2492554069067813,-0.5135048058030741,0.3457494013068842,-0.0567453300580901,0.225175863965475,0.6571367982096912,0.2798612887334299,0.2568247741584264,-7.660219761593101,27.32940520518353,16.573562200973942,1.8018495928811,-1.9892604194427408,-1.2322846098255968,3327.9913194444443,11.88211111111111,0.21,179.2621654758567,1.427840931145051,79.61019042880176,1153.0,1435.0,1200.0,1528.0,1121.0,1010.0,61.0,293.85,1649171279.4144232,1649171280.479738,805c2674-7b72-4dc4-96f4-8d59dd2f9e98
-0.2524636891767637,-0.5066543332134387,0.3493652925291811,-0.0530242489391269,0.226780004835539,0.6506281942022885,0.2799007348247966,0.2554441611819311,-7.640815551477423,27.44422002730276,17.10189125995574,1.7798651981614468,-1.968613856853456,-1.237881384343585,3322.25830078125,11.884222222222222,0.21,179.27512158580234,1.424372368985448,79.53905249077626,1153.0,1435.0,1200.0,1528.0,1121.0,1010.0,61.0,293.85,1649171280.592254,1649171281.7335255,805c2674-7b72-4dc4-96f4-8d59dd2f9e98
-0.2549093469481464,-0.5072986195980143,0.3451971561128695,-0.0579155640880554,0.2234665335401779,0.6534551636202488,0.2782308504968808,0.2569562611496887,-7.610531608884318,27.2857098417634,16.75320748778434,1.7959527179223969,-1.967818989607332,-1.2258355285614495,3315.2626139322915,11.883111111111113,0.21,179.27647092761833,1.4245552662732228,79.49817001404419,1153.0,1435.0,1200.0,1528.0,1121.0,1010.0,61.0,293.85,1649171281.8418071,1649171282.875548,805c2674-7b72-4dc4-96f4-8d59dd2f9e98
0.1770867008881914,0.2512124727029421,0.4650431299264478,-0.2146622787919511,0.1963714546728208,0.0455586510451873,0.1857977118595278,0.1631983906003361,-6.896392680393177,24.68885793360648,15.603669449782773,0.7724391923729197,0.9090450346048544,-1.1303397724972992,3307.4453396267363,11.96588888888889,0.2288888888888889,178.87969916745303,1.3469592420918697,79.46531604522653,1553.0,1435.0,1200.0,1528.0,1471.0,1010.0,61.0,293.85,1649171284.8033369,1649171285.8293557,7be25021-23bb-4018-8018-5ea5f897c371
0.167293661825203,0.256102143858558,0.469713656000753,-0.2154977690884955,0.1989464075933281,0.0428193392669936,0.1901121276551514,0.1696631661916123,-6.726824601206069,24.697060965293048,15.819425707079,0.7685749434134966,0.9246709631936002,-1.145352354832292,3328.5677625868057,11.964888888888888,0.2233333333333333,178.85987947630147,1.3438369088617566,79.6694210703742,1553.0,1435.0,1200.0,1528.0,1471.0,1010.0,61.0,293.85,1649171285.9374378,1649171287.2634268,7be25021-23bb-4018-8018-5ea5f897c371
0.1744876420035364,0.2603223272588729,0.4716087116795338,-0.2186057923818051,0.2000618552766851,0.0418698938615365,0.1903712665381784,0.1711610218982554,-6.856389500423781,24.72360775081044,15.874061912646065,0.7736661845214319,0.941435256821528,-1.1493648153507543,3326.843207465278,11.969555555555557,0.2255555555555556,178.85713677589476,1.3423094959506452,79.88650876731425,1553.0,1435.0,1200.0,1528.0,1471.0,1010.0,61.0,293.85,1649171287.371875,1649171288.4242733,7be25021-23bb-4018-8018-5ea5f897c371
0.1814285098003098,0.2530204183448525,0.4634132396022334,-0.3975250600566259,0.1730462162858802,0.2223949148478733,0.2323112228055019,0.2044661203756229,-6.755901660977052,24.526402349795774,17.22959158950289,1.581479327242101,0.9228293030475614,-1.1615000164551703,3325.6962890625,11.967888888888888,0.22,178.84763522384935,1.3756635389656715,80.14147972903083,1553.0,1537.0,1200.0,1528.0,1471.0,1010.0,61.0,293.85,1649171289.3094018,1649171290.3480375,86048fcc-6d06-4821-bbf5-a01c4904e61f
0.1809902199529774,0.2564308612443574,0.4637282604152286,-0.4005656966479851,0.1728270713388621,0.2209019900312156,0.2339548097379111,0.2156562081234206,-6.620258565760772,24.38981888163113,17.10290388764511,1.5841417991784088,0.9361753405946658,-1.1636128223563211,3333.4578450520835,11.961,0.22,178.85812032313527,1.3832010677436364,80.21481622905918,1553.0,1537.0,1200.0,1528.0,1471.0,1010.0,61.0,293.85,1649171290.456072,1649171291.5582364,86048fcc-6d06-4821-bbf5-a01c4904e61f
0.1859007099278252,0.2549050647028145,0.4674931701070106,-0.4009124935801172,0.1776827751125061,0.2226118683261411,0.2388242100005115,0.2148146917012377,-6.679115131652004,24.319040325803808,17.122448526329755,1.5884581693282462,0.930976197518336,-1.1824636484862705,3333.887939453125,11.962625,0.22875,178.86645486146995,1.3868360134892903,80.31749987008504,1553.0,1537.0,1200.0,1528.0,1471.0,1010.0,61.0,293.85,1649171291.6662304,1649171292.7985904,86048fcc-6d06-4821-bbf5-a01c4904e61f
0.1962207925035178,0.2526369147181179,0.4550446430165297,-0.6040144311103346,0.1409277873333964,0.4234603815676132,0.2780577260181994,0.2503495894386533,-6.676987177145629,24.374714962470225,18.873097015603403,2.4979691621295967,0.9311562111840868,-1.1709009704647482,3331.296630859375,11.958,0.22,178.87503642497964,1.4230779177000903,80.49234275214485,1553.0,1645.0,1200.0,1528.0,1471.0,1010.0,61.0,293.85,1649171293.814251,1649171294.951607,598a55d6-e0c0-41a7-b7f6-72681540c5c2
0.2009871947070758,0.2534861013114739,0.4563595125357152,-0.6072468199329087,0.1424618018769845,0.4253231133950561,0.2815503482439039,0.2607315803131663,-6.599411733038569,24.23812928266119,18.852798337894043,2.508642289031941,0.9344510395181196,-1.1795993275328165,3335.3311631944443,11.953555555555557,0.22,178.8721692633481,1.4234403090390222,80.56868453540798,1553.0,1645.0,1200.0,1528.0,1471.0,1010.0,61.0,293.85,1649171295.0600717,1649171296.2713938,598a55d6-e0c0-41a7-b7f6-72681540c5c2
0.2021787952599468,0.2533080460599178,0.455345967286322,-0.607000281796214,0.1414893462389796,0.4245013199464869,0.2803313546068168,0.2582798964838823,-6.597889057343387,24.241343509611653,18.73487440859186,2.5061922882231413,0.9347230507794884,-1.1753436055252735,3332.7362467447915,11.958888888888888,0.2144444444444444,178.86632110359872,1.4385033781900027,80.6297282127501,1553.0,1645.0,1200.0,1528.0,1471.0,1010.0,61.0,293.85,1649171296.3798802,1649171297.4809008,598a55d6-e0c0-41a7-b7f6-72681540c5c2
0.2237163587826388,0.2506448873472175,0.4493742682453424,-0.7816331152923783,0.111373901717123,0.5982437934438147,0.3172298811193933,0.2889733345915928,-6.46697695675487,24.578488087837936,20.31587952698015,3.292799252301394,0.9309237977904196,-1.178391229482501,3338.505425347222,11.946333333333332,0.21,178.8527791152043,1.4604024113410752,80.71980626534406,1553.0,1761.0,1200.0,1528.0,1471.0,1010.0,61.0,293.85,1649171299.222929,1649171300.2985735,1ddc01b7-2a31-4b84-aa2f-6da405d5c454
0.203519962213674,0.2532088829790965,0.448848320438457,-0.7856303207737763,0.110151072986129,0.6001240568259132,0.3173087732740806,0.2977698118559495,-6.450105509640134,24.540343536352243,20.415646969347737,3.3057865140571696,0.9399948443842372,-1.1756777305210684,3339.733642578125,11.948,0.215,178.85163164342373,1.47836952633096,80.70631436500355,1553.0,1761.0,1200.0,1528.0,1471.0,1010.0,61.0,293.85,1649171300.4076955,1649171301.501325,1ddc01b7-2a31-4b84-aa2f-6da405d5c454
0.2052555900266405,0.2525382995061286,0.4474282613697696,-0.780160460677023,0.1100064373391744,0.5950749579529089,0.316493554161291,0.2860937701877856,-6.324692118555458,24.41549664534218,20.31279172049284,3.281250250067833,0.9367381086243202,-1.1724236410041884,3344.29443359375,11.944333333333333,0.21,178.8483288675051,1.4757619178168144,80.69792385706316,1553.0,1761.0,1200.0,1528.0,1471.0,1010.0,61.0,293.85,1649171301.6096013,1649171302.8251486,1ddc01b7-2a31-4b84-aa2f-6da405d5c454
0.1842500007648656,0.243693062432053,0.4166257994039494,-0.8080932355147971,0.0743762102619588,0.6335244813585659,0.286535895238585,0.2674291969838276,-6.763338516263818,25.117360988126865,20.64986774731377,3.433612874500138,0.905178540561733,-1.040688104105116,3328.8542209201387,11.901333333333334,0.2,178.83720324825703,1.466781736878063,80.72320694064081,1553.0,1887.0,1200.0,1528.0,1471.0,1010.0,61.0,293.85,1649171304.7191837,1649171305.810998,9546bf51-15f2-4aa9-8305-98161aefb93e
0.1916735352270907,0.2476102779847535,0.4172695376061748,-0.8046964874422137,0.0751432175314514,0.6251147951967794,0.2845088046963084,0.2579648755511179,-6.821914959908877,25.096655199626653,20.44000620715264,3.4068848090294264,0.9217673137566426,-1.0395488273346187,3319.684814453125,11.899888888888889,0.2044444444444444,178.83774055647177,1.462672903773608,80.68314939897851,1553.0,1887.0,1200.0,1528.0,1471.0,1010.0,61.0,293.85,1649171305.9195983,1649171307.1341212,9546bf51-15f2-4aa9-8305-98161aefb93e
0.1973713033723883,0.2505550379313213,0.4266516794688864,-0.8122432943818945,0.0809368617798943,0.6309906182705041,0.2972329068556374,0.2771811461732219,-6.463777631945867,25.098186103785853,20.78053862951454,3.437824192128993,0.9287829929150906,-1.0773250208360623,3308.154622395833,11.904333333333334,0.2,178.8328759439629,1.4594788416992426,80.65210087683145,1553.0,1887.0,1200.0,1528.0,1471.0,1010.0,61.0,293.85,1649171307.2693412,1649171308.359265,9546bf51-15f2-4aa9-8305-98161aefb93e
0.1586237405629098,0.2554436554994483,0.4599437962525629,0.0146455180970797,0.210725447477089,-0.1754669386801015,0.1094046316681785,0.0870139192842294,-7.296163090595477,25.786852301516863,14.465831987786572,-0.2348548161739612,0.9092912968463296,-1.033984467604086,3296.702392578125,11.967,0.22,178.82795820776047,1.2268604566673755,80.5633789962427,1553.0,1335.0,1200.0,1528.0,1471.0,1010.0,61.0,293.85,1649171309.267007,1649171310.4094694,c5b162f9-569a-4bbf-9ddb-6002ccb5727b
0.1580895747393358,0.2528286665293884,0.4596877759875604,0.0153988288024953,0.2116979030922544,-0.1751066138208346,0.1106036073103902,0.087456423164731,-7.270412385548958,25.69813074713344,14.25611257303135,-0.2363657647347555,0.90104949537965,-1.0372182678701467,3305.60205078125,11.971,0.22,178.83913239724262,1.2116042686608,80.71836964888863,1553.0,1335.0,1200.0,1528.0,1471.0,1010.0,61.0,293.85,1649171310.5222833,1649171311.6637394,c5b162f9-569a-4bbf-9ddb-6002ccb5727b
0.1557474633034557,0.2618820912686181,0.4687412004269354,0.00992020529009,0.2172176159569291,-0.178558146900352,0.1181093212733379,0.1007831747661978,-7.171864076034997,25.743053340313462,14.37194081711272,-0.2309467202542069,0.9345304955840702,-1.0665023939294092,3313.7010904947915,11.967,0.22,178.83411903839183,1.2187407847003076,80.85890306779136,1553.0,1335.0,1200.0,1528.0,1471.0,1010.0,61.0,293.85,1649171311.771848,1649171312.8647316,c5b162f9-569a-4bbf-9ddb-6002ccb5727b
0.1541586625457485,0.2632928367183335,0.4797806256634114,0.2117115996183169,0.2444737662030005,-0.3742956922632509,0.0690208558981851,0.0480240312821183,-7.259662574687749,26.65308836029688,13.002109969917557,-1.1196671991356129,0.9284542756904328,-1.0492095867691689,3313.1278483072915,11.96288888888889,0.22,178.82549782183946,1.15926312981085,81.03585126079908,1553.0,1236.0,1200.0,1528.0,1471.0,1010.0,61.0,293.85,1649171313.7408056,1649171314.817928,9b9d8a8c-40d2-4ce3-9d8e-0e549d4634bc
0.1516658889552653,0.2623066845537706,0.4818214127089298,0.2132593106688167,0.2460899600320911,-0.3765830180259198,0.0711712155628283,0.0507907360737315,-7.1514478277951925,26.669860300764725,12.757694339497812,-1.1280700703992914,0.926095040787722,-1.0576360596334065,3318.9708387586807,11.955444444444446,0.21,178.83280005297212,1.1511398767376546,81.15570134907519,1553.0,1236.0,1200.0,1528.0,1471.0,1010.0,61.0,293.85,1649171314.9263608,1649171316.05225,9b9d8a8c-40d2-4ce3-9d8e-0e549d4634bc
0.1591031200611097,0.2637859128031863,0.4846155104203092,0.2116020270535582,0.2488703612919323,-0.3755694726244865,0.0745131758506682,0.0516947092401632,-7.164925658185112,26.618888534851475,12.915088132285724,-1.1222345382507828,0.9307237751755472,-1.0695920287696714,3319.1138509114585,11.957,0.2177777777777777,178.82929692483782,1.1416484632543082,81.2074445854975,1553.0,1236.0,1200.0,1528.0,1471.0,1010.0,61.0,293.85,1649171316.1645536,1649171317.1620147,9b9d8a8c-40d2-4ce3-9d8e-0e549d4634bc
0.1480982094997559,0.2554310125253814,0.4707540464839562,0.3616330251979269,0.2493694638404441,-0.5109671068556287,0.0159275159287903,-0.0082792342989109,-7.494121508968163,27.4581966448326,11.85662934219782,-1.7603850417206786,0.891762344342483,-0.9697266295906792,3318.975043402778,11.953,0.2177777777777777,178.8202825929532,1.104699582585805,81.40310370228148,1553.0,1133.0,1200.0,1528.0,1471.0,1010.0,61.0,293.85,1649171319.3019302,1649171320.3529975,fe2c2e0d-8047-4084-85bd-814e6ead3e0b
0.1431280024593225,0.2548261725305959,0.4693734335080295,0.3527708046173472,0.2472788212675503,-0.5022626675169104,0.0165323560146161,-0.0101857952197823,-7.546159731267791,27.464260575607387,11.846903067894608,-1.7208902978366003,0.8909520524706465,-0.9660618236366476,3312.842041015625,11.947,0.21,178.82496658490402,1.10079953271176,81.46933528775318,1553.0,1133.0,1200.0,1528.0,1471.0,1010.0,61.0,293.85,1649171320.4613686,1649171321.6741164,fe2c2e0d-8047-4084-85bd-814e6ead3e0b
0.1361328961923978,0.2538137229751584,0.4722661464203302,0.3530732245746325,0.2497113299305656,-0.50168412480716,0.0211869944867561,-0.0001270424364627,-7.360436191544771,27.42351952405178,11.856262750031153,-1.7203034795253336,0.8859027481515327,-0.9799053399278174,3313.268798828125,11.947333333333331,0.2111111111111111,178.82824204006602,1.090859200302028,81.52977790844835,1553.0,1133.0,1200.0,1528.0,1471.0,1010.0,61.0,293.85,1649171321.7826602,1649171322.8104465,fe2c2e0d-8047-4084-85bd-814e6ead3e0b
0.1228072407399133,0.2464460705675099,0.447977219374657,0.4028744555803945,0.2305717598973881,-0.5424620784290323,-0.0230474120598705,-0.0458521828739148,-7.927065072751731,28.08235354544108,11.283952204088097,-1.9214947540906333,0.8596921934398569,-0.8596763759796389,3314.1245930989585,11.939333333333334,0.2033333333333333,178.81611465973967,1.0700298506659702,81.6312608591364,1553.0,1026.0,1200.0,1528.0,1471.0,1010.0,61.0,293.85,1649171323.8063242,1649171324.9442043,404d4643-94fe-4b8e-9dc3-a725c6362b40
0.1261355044112984,0.2412139854539993,0.450059096126582,0.4054494084228563,0.2328727816763358,-0.5367095219998858,-0.01891105111662,-0.0388258479745714,-7.816534094077498,28.138383285464297,11.732426121226853,-1.913774235151608,0.8351274673784935,-0.8714612458099434,3315.5473361545137,11.92088888888889,0.2044444444444444,178.82557067719063,1.0702301791656892,81.64058862081293,1553.0,1026.0,1200.0,1528.0,1471.0,1010.0,61.0,293.85,1649171325.0528748,1649171326.1731365,404d4643-94fe-4b8e-9dc3-a725c6362b40
0.1254298577322951,0.246266371727269,0.4483223726235721,0.3969109743909641,0.2295938256715066,-0.534424387979642,-0.0197974925222966,-0.0415322880905183,-7.782187706488783,28.07090113600501,11.63388958375886,-1.8899108613989628,0.8556472398091938,-0.862916528645139,3313.268798828125,11.940555555555555,0.2111111111111111,178.8163499218111,1.0844350397906444,81.65037552298365,1553.0,1026.0,1200.0,1528.0,1471.0,1010.0,61.0,293.85,1649171326.281155,1649171327.3117993,404d4643-94fe-4b8e-9dc3-a725c6362b40
0.1689372488024148,0.2509111484277946,0.4652348817289278,-0.2032119547603936,0.1954126956086753,0.0363271704170817,0.18186679969542,0.1589387610939435,-6.794554526308491,24.921401772314244,15.730456899194252,0.727488279672096,0.9046767058468088,-1.1234799681316108,3316.688720703125,11.969888888888889,0.21,178.8157534186236,1.216618730302549,81.64708944308296,1553.0,1435.0,1200.0,1528.0,1471.0,1010.0,61.0,293.85,1649171329.3371184,1649171330.475565,19eec735-dbec-411f-9f6e-f01384723263
0.1746624100940953,0.2518151212512919,0.4696862628861485,-0.2001302286907292,0.1994394836804237,0.0319031820594122,0.1847704700090932,0.1635134115466789,-6.78807218036588,24.9738183790212,15.658574661039673,0.711156297831146,0.9085620198980064,-1.1391484907817693,3322.262125651041,11.970333333333334,0.22,178.8211416789688,1.2444921631229404,81.62538234299076,1553.0,1435.0,1200.0,1528.0,1471.0,1010.0,61.0,293.85,1649171330.583543,1649171331.709919,19eec735-dbec-411f-9f6e-f01384723263
0.1709232497264286,0.2541161429717977,0.4711517945212597,-0.2029517200630465,0.2002201874786124,0.0329030308287744,0.1862770913854493,0.1631846941342774,-6.797564244987687,24.965615166314905,15.763402894218595,0.7197982105505596,0.9167704966223216,-1.1439563618697943,3325.4090169270835,11.969,0.2155555555555555,178.82525952412846,1.2346488526017303,81.62040541181553,1553.0,1435.0,1200.0,1528.0,1471.0,1010.0,61.0,293.85,1649171331.822323,1649171332.9363031,19eec735-dbec-411f-9f6e-f01384723263
0.2098625642818156,0.2747294624924509,0.5983243292043862,-0.1980483516301185,0.3157780460255172,0.0019351114626941,0.3122306375851185,0.2825638934293844,-5.887414857779611,24.98068059195674,15.843645657833408,0.6460515138767463,0.9943885808720077,-1.650750830213669,3337.4943576388887,11.966666666666669,0.21,178.8092267934167,1.2138981805787683,81.54849110895437,1553.0,1435.0,1200.0,1435.0,1471.0,1010.0,61.0,293.85,1649171334.7647886,1649171335.7632103,cc02c3c3-3419-4e2e-9cb0-1710db6503a2
0.2154096702749376,0.2720860268392958,0.596530080199965,-0.1962541022439752,0.3148329835320293,0.0024692772928156,0.3096967743874814,0.2897819793218476,-5.999635162098211,25.036798134323515,15.769558165746014,0.6434188383277019,0.9855912886712848,-1.64392030849214,3331.011962890625,11.962222222222222,0.21,178.81443443320387,1.2121109003140793,81.5343086005978,1553.0,1435.0,1200.0,1435.0,1471.0,1010.0,61.0,293.85,1649171335.8730383,1649171336.9321067,cc02c3c3-3419-4e2e-9cb0-1710db6503a2
0.2076985081218184,0.269949363822682,0.5931196374420175,-0.1944735495573573,0.3119430098728594,0.0027158152926409,0.3064917798855813,0.2754416833831204,-5.98168176986085,25.04713790946209,15.714415404420308,0.6398553250521067,0.9775039098084018,-1.631084408523036,3324.11962890625,11.964222222222222,0.21,178.81618751509083,1.2257254594684224,81.52069527467205,1553.0,1435.0,1200.0,1435.0,1471.0,1010.0,61.0,293.85,1649171337.0448368,1649171338.1551256,cc02c3c3-3419-4e2e-9cb0-1710db6503a2
0.2468186169127622,0.284870941734742,0.7159246134139218,-0.174741737652165,0.4229848370896515,-0.0358651998208684,0.4224457405742586,0.406325440294622,-5.137314069261163,25.45406001999569,15.801024213238165,0.5178997422345758,1.0320877339056522,-2.1122936698885284,3328.709228515625,11.955666666666666,0.2088888888888888,178.79049082561343,1.2097055472193403,81.5118228589402,1553.0,1435.0,1200.0,1330.0,1471.0,1010.0,61.0,293.85,1649171340.2936952,1649171341.338899,9ed2ae38-bec3-473b-891f-bbd416b23511
0.244076566002868,0.285275811981905,0.7127453685369917,-0.1771063116008023,0.4202416905813413,-0.0356893358812971,0.4205156217259702,0.3982313226358532,-5.0956433542908535,25.34622177099688,15.554437464011343,0.5227373221645648,1.0355845541778594,-2.101721798645093,3330.00244140625,11.957333333333334,0.21,178.7962934507683,1.2023318599756847,81.50269848511897,1553.0,1435.0,1200.0,1330.0,1471.0,1010.0,61.0,293.85,1649171341.4467204,1649171342.4892747,9ed2ae38-bec3-473b-891f-bbd416b23511
0.2484227577746206,0.2824647304619428,0.714846420421576,-0.1749126706224854,0.4227218632034221,-0.0356153744817716,0.4225903762471437,0.4023939804381256,-5.103500155089987,25.39084460824974,15.476183779075132,0.5183392062356234,1.0256543263976312,-2.111372942295075,3321.974663628472,11.954777777777776,0.21,178.78778910634173,1.2012882284148478,81.51969123686406,1553.0,1435.0,1200.0,1330.0,1471.0,1010.0,61.0,293.85,1649171342.6025794,1649171343.6854048,9ed2ae38-bec3-473b-891f-bbd416b23511
0.2566637026833523,0.2936170156475748,0.7792558507115014,-0.1344963144396744,0.4811228882718382,-0.0865857496723044,0.4712750635144243,0.4507713170427758,-4.712160679897902,25.95601871601002,15.500955871572708,0.3197872762202504,1.0636094982362558,-2.346250558382995,3323.2601453993057,11.95422222222222,0.21,178.7733667824543,1.1784486687286906,81.46347726217505,1553.0,1435.0,1200.0,1210.0,1471.0,1010.0,61.0,293.85,1649171345.8255966,1649171346.8750124,b5e652a2-28db-4754-b8a0-85d83d7f6896
0.2640324508043586,0.2902476624401232,0.7847207770718426,-0.1387422479647263,0.4870398010631618,-0.0792580905293918,0.4799038946559555,0.4579894027387572,-4.695434825423444,25.893787666535413,15.572389686076605,0.3457106765263245,1.0510890346659627,-2.374351452833632,3321.9722764756943,11.952222222222222,0.21,178.76522975042312,1.1842913975290097,81.46690525822848,1553.0,1435.0,1200.0,1210.0,1471.0,1010.0,61.0,293.85,1649171347.0083115,1649171348.1097133,b5e652a2-28db-4754-b8a0-85d83d7f6896
0.2721035583920778,0.2936674189827515,0.7875981498375205,-0.1395163775053721,0.488807204812155,-0.0814122853354694,0.480602419074018,0.4587361391418247,-4.783572918838814,25.979202827757994,15.654315196685143,0.3432943540511814,1.0640920875113304,-2.381249587470597,3318.399658203125,11.952222222222222,0.2,178.75457465531787,1.1936994257862386,81.46122329974894,1553.0,1435.0,1200.0,1210.0,1471.0,1010.0,61.0,293.85,1649171348.218373,1649171349.3331738,b5e652a2-28db-4754-b8a0-85d83d7f6896
0.2572800477933346,0.2870700610456814,0.8034165778135299,-0.0872979707710523,0.5075024577462958,-0.1274836760184109,0.4810133158076503,0.456592353951359,-4.8032570530539145,26.46727871464687,15.078658808615254,0.1258953503032703,1.039171209476185,-2.430226904483004,3316.830322265625,11.943888888888887,0.2022222222222222,178.77528530670116,1.1652925030166132,81.45936093483526,1553.0,1435.0,1200.0,1071.0,1471.0,1010.0,61.0,293.85,1649171350.236647,1649171351.380377,c81983fb-4472-47f0-9492-856f8da94510
0.2457338495509322,0.291046277113602,0.8101921593867973,-0.0877878864014952,0.5131960112594434,-0.1296235003889076,0.4875054839633266,0.4650768444766959,-4.739074316316003,26.44216621378998,15.31507974620296,0.1224329086051536,1.0520242037630474,-2.4555955888794507,3316.6893717447915,11.949,0.21,178.78002394016534,1.1800602139178598,81.42436532225783,1553.0,1435.0,1200.0,1071.0,1471.0,1010.0,61.0,293.85,1649171351.488547,1649171352.694227,c81983fb-4472-47f0-9492-856f8da94510
0.256211716276074,0.2918364631461407,0.7970887683176011,-0.0850654316896694,0.5005446066265488,-0.1336197348012358,0.4725762364814955,0.4539900080224288,-4.761227216515507,26.461452045947155,15.105514443798931,0.1067424750610924,1.0558364960907145,-2.399445983978721,3316.2603352864585,11.944333333333333,0.2066666666666666,178.7618920646487,1.1565023934358587,81.44968483351107,1553.0,1435.0,1200.0,1071.0,1471.0,1010.0,61.0,293.85,1649171352.8068497,1649171353.928774,c81983fb-4472-47f0-9492-856f8da94510
0.1254780696170705,0.2269010824391162,0.3213662415563982,-0.1802565203206209,0.0660076130260967,0.0471748449515866,0.0298760914034942,0.0083724938832917,-7.883559684579347,25.196709246016184,15.79652396016396,0.6942063195138771,0.8098043795865316,-0.5381997129668266,3314.4076877170137,11.967,0.2188888888888889,178.82678796868265,1.2060003237481836,81.48706418210882,1553.0,1435.0,1200.0,1613.0,1471.0,1010.0,61.0,293.85,1649171355.7644784,1649171356.910155,542e10b4-0c4e-46f3-bfcb-dfafa885a8f1
0.1292720162664636,0.2260792889614581,0.3248588637579518,-0.1844476675921133,0.0696235044779006,0.0511742400661297,0.0359436668934874,0.017467009029196,-7.82389034844153,25.096890475564525,15.739685701666538,0.7121808700073619,0.8075393262563813,-0.556658106162717,3310.851372612847,11.966777777777777,0.21,178.79980872146115,1.207465470472955,81.46692650770589,1553.0,1435.0,1200.0,1613.0,1471.0,1010.0,61.0,293.85,1649171357.0226915,1649171358.227146,542e10b4-0c4e-46f3-bfcb-dfafa885a8f1
0.1269156603761038,0.2326969178892832,0.3238831209920084,-0.1900205239055432,0.065932008021717,0.050718966446905,0.0333626873741321,0.0060133987873936,-7.804536430918763,25.1772216326032,15.852388759038458,0.724240455139853,0.8318492349647759,-0.5457339513965989,3325.9836697048613,11.968777777777778,0.21,178.79763823912492,1.2012407372557752,81.45136126549735,1553.0,1435.0,1200.0,1613.0,1471.0,1010.0,61.0,293.85,1649171358.335488,1649171359.45655,542e10b4-0c4e-46f3-bfcb-dfafa885a8f1
0.0976992578394143,0.2138285396645254,0.2227433552951249,-0.1654061623137201,-0.0242680492117454,0.0499826395070624,-0.07620540127174,-0.0975194390813351,-8.592411811089965,25.45090046691744,15.531533429222756,0.6633922833588772,0.7600638305196231,-0.1321950625113348,3332.595947265625,11.974,0.2066666666666666,178.83303531504353,1.2148068803295955,81.4453180659017,1553.0,1435.0,1200.0,1694.0,1471.0,1010.0,61.0,293.85,1649171360.2728796,1649171361.410157,658c972f-5a91-45e0-8615-f7823ad8879f
0.0831962460443372,0.2094894700907216,0.2175496205221462,-0.1603965087179843,-0.0277656024970873,0.0509687916341745,-0.0813202443384078,-0.1077096792245279,-8.640583106785508,25.46729075970325,15.683400656289429,0.6541577479467453,0.7418388579675385,-0.1133765112464863,3339.3721788194443,11.974555555555554,0.21,178.83672817065477,1.2230037950957149,81.45211182739614,1553.0,1435.0,1200.0,1694.0,1471.0,1010.0,61.0,293.85,1649171361.5191123,1649171362.6349945,658c972f-5a91-45e0-8615-f7823ad8879f
0.0866280557286577,0.2132894431420289,0.2226907605178954,-0.1625265976674803,-0.0232161534752157,0.047826253267419,-0.0760081707955492,-0.0931540715898363,-8.586471789392128,25.37458538134804,15.528289668485291,0.6515449553984347,0.7576694336242303,-0.1338459865887409,3335.185546875,11.974444444444444,0.21,178.83692852287044,1.2132820287394228,81.46262197070898,1553.0,1435.0,1200.0,1694.0,1471.0,1010.0,61.0,293.85,1649171362.742982,1649171363.867772,658c972f-5a91-45e0-8615-f7823ad8879f
0.0562556633085555,0.2002201875007021,0.1295185543403302,-0.1317570025032366,-0.1072812507299725,0.0389432132363072,-0.1815987831330081,-0.1986099106920416,-9.359769563178927,25.788090395073123,15.706751474953094,0.5599159205782361,0.702855283957366,0.256225839683635,3338.21630859375,11.973,0.2066666666666666,178.83146892499386,1.2007864941020674,81.47320572828286,1553.0,1435.0,1200.0,1774.0,1471.0,1010.0,61.0,293.85,1649171364.7751749,1649171366.03222,18f39b2b-fea5-45c2-ae61-a60fd54cc190
0.061734286712266,0.2019733469261314,0.1303403478402985,-0.1334416793386204,-0.1070621057706219,0.0379981506612348,-0.1800236787643551,-0.20812901988857,-9.254731844534987,25.729741699942974,15.605499372449072,0.5612833093994642,0.7098431889408143,0.2527165050105357,3336.48388671875,11.974,0.21,178.8355397177392,1.2082500054480891,81.46400774020059,1553.0,1435.0,1200.0,1774.0,1471.0,1010.0,61.0,293.85,1649171366.1452675,1649171367.242801,18f39b2b-fea5-45c2-ae61-a60fd54cc190
0.0572418154980134,0.1981794003489433,0.1280530225889754,-0.13498939072745,-0.1083358858215441,0.0433672015355999,-0.1809413482461023,-0.1965006405027668,-9.330132943558873,25.72723674985316,15.6257719138325,0.5766743187272537,0.6960130876890972,0.2583801339022921,3336.48388671875,11.973666666666666,0.21,178.8246478427428,1.199960325803711,81.45062739961652,1553.0,1435.0,1200.0,1774.0,1471.0,1010.0,61.0,293.85,1649171367.3549893,1649171368.6703503,18f39b2b-fea5-45c2-ae61-a60fd54cc190
0.0310539954074702,0.1862633948513538,0.0541053036237722,-0.1117463290923563,-0.174531358291923,0.0354779838963739,-0.2647232063088259,-0.2883771663287234,-9.997783376389991,26.039164049084874,15.27984785501912,0.5045100213645329,0.6515678846783023,0.5663062948552077,3309.8570149739585,11.962333333333332,0.21,178.8419692024779,1.2035326214613338,81.43660046779104,1553.0,1435.0,1200.0,1856.0,1471.0,1010.0,61.0,293.85,1649171370.828612,1649171371.969596,7441ba1f-1908-4499-a29f-45851e612d10
0.0290499149402834,0.1894245604483149,0.0555182406199869,-0.1121670874251112,-0.1740185590705063,0.033204902986271,-0.2643895580828638,-0.2924751773599716,-9.989747463935704,26.05894217283279,15.348353046041826,0.5005676643635979,0.6629018540989149,0.5636797461823536,3303.762939453125,11.963555555555557,0.2088888888888888,178.83683593586167,1.1952127751481214,81.40993692709112,1553.0,1435.0,1200.0,1856.0,1471.0,1010.0,61.0,293.85,1649171372.0783598,1649171373.1782348,7441ba1f-1908-4499-a29f-45851e612d10
0.0282735939879349,0.1880850370741879,0.0513659919289886,-0.112184619080737,-0.1781746431641036,0.0339576658311519,-0.268380187900082,-0.2991974493406317,-9.963520404476611,26.083130149511465,15.234773453795333,0.5022474576527948,0.6584381897121149,0.5803682453934604,3306.0271809895835,11.961666666666666,0.2,178.84086726529182,1.2059679040655604,81.40631768574093,1553.0,1435.0,1200.0,1856.0,1471.0,1010.0,61.0,293.85,1649171373.2867253,1649171374.4087365,7441ba1f-1908-4499-a29f-45851e612d10
0.1706482228678485,0.2471604830194715,0.4343716070552056,-0.2387101514172278,0.1936584403454204,0.0846688999672178,0.2029677169536583,0.1742378165955957,-6.1892196569073015,21.01317780800133,17.438489683461725,0.8893259417949566,0.8735345071611643,-1.1053924983696315,7136.90771484375,11.634,8.16,178.73363329532262,0.925055421420551,70.90583984949234,1553.0,1435.0,1350.0,1528.0,1471.0,1010.0,61.0,293.85,1649171379.2401917,1649171380.3434362,873b91e6-77c8-4630-844e-11306271dc78
0.1737513150484421,0.2480151482346336,0.4295854820441028,-0.2427993963699851,0.1895823447137591,0.0839062756010588,0.199246636095321,0.178116681982369,-6.198222373303464,20.872385411000334,16.883145047004238,0.895571853992735,0.8819234168937932,-1.0886828842037228,7138.89013671875,11.634333333333334,8.17,178.72788227604144,0.8326497209916447,65.58689833523661,1553.0,1435.0,1350.0,1528.0,1471.0,1010.0,61.0,293.85,1649171380.4517915,1649171381.5721886,873b91e6-77c8-4630-844e-11306271dc78
0.1727388654971817,0.2456220856434015,0.4150693225589729,-0.2519114440551192,0.176801812389972,0.0817235920320492,0.1914100134256403,0.1723838505738859,-5.807772876513534,20.39403535257101,14.9654873868835,0.9072186281415412,0.8873741516062361,-1.0429353016651448,7142.85498046875,11.63511111111111,8.184444444444445,178.72304801992888,0.8026001733005331,61.53938515133013,1553.0,1435.0,1350.0,1528.0,1471.0,1010.0,61.0,293.85,1649171381.680138,1649171382.799899,873b91e6-77c8-4630-844e-11306271dc78
0.2831254523821585,0.448045702194662,0.437293904561957,-0.2703661893873219,0.1577060710582439,-0.1085961204597304,0.142201567209881,0.1170135960930637,-5.799550920855695,20.379237842513817,13.586872191386112,0.5219671271156714,1.6624270681052078,-0.9547595475386352,7146.5787353515625,11.62225,8.16375,178.5941010683157,0.7891266528093637,55.86281180162917,1647.0,1435.0,1350.0,1528.0,1543.0,1010.0,61.0,293.85,1649171383.8217304,1649171385.053216,230fefa0-35ed-4464-8bb3-385a6597ca92
0.2871982608029852,0.4571714444640656,0.4521749402686458,-0.2626407815190733,0.1712004679925168,-0.1131006449535932,0.1517798442911807,0.1276651359303484,-6.021984522328507,20.55414179764464,15.32114307257896,0.4964831527853753,1.6828528628126025,-1.0036706673882083,7154.116807725694,11.620666666666668,8.173333333333334,178.61644849864263,0.8396233144893094,53.39837263765532,1647.0,1435.0,1350.0,1528.0,1543.0,1010.0,61.0,293.85,1649171385.162341,1649171386.2149518,230fefa0-35ed-4464-8bb3-385a6597ca92
0.283319395630071,0.4541603932840045,0.4562641844554008,-0.2622726179319531,0.1753423071933097,-0.1068418652280341,0.1566054156750724,0.1339239151615326,-6.0775795485787,20.64465700067428,15.872861016589887,0.51058059484965,1.6672786584314188,-1.0214156654735995,7148.81298828125,11.623666666666669,8.157777777777778,178.61704803746977,0.8974094837029839,51.478291866568654,1647.0,1435.0,1350.0,1528.0,1543.0,1010.0,61.0,293.85,1649171386.3231676,1649171387.422032,230fefa0-35ed-4464-8bb3-385a6597ca92
0.4057096430897644,0.6696833925170879,0.4854236072624763,-0.2672296770042651,0.1619246109690722,-0.3152361215790197,0.1084121578912309,0.0792110950636753,-5.98763789060924,20.62062352267133,15.545979251093296,0.054758577602415,2.480339966735829,-0.94862428538217,7154.77978515625,11.61111111111111,8.17,178.41418990130057,1.0008568252554506,47.8560285371169,1745.0,1435.0,1350.0,1528.0,1614.0,1010.0,61.0,293.85,1649171389.3539188,1649171390.4927132,d21a2c42-b151-4f05-a517-f838205da668
0.399614674988177,0.6703134341509746,0.4751785823400873,-0.2850078126469101,0.149159418727885,-0.3167016536807945,0.1007694783175011,0.0705548703977966,-5.753026048682888,20.50802597216472,13.030907864718712,0.0900290737246314,2.504870974714433,-0.909807637964741,7155.526916503906,11.609375,8.16,178.44623601052135,1.0663175138966736,46.781976262354256,1745.0,1435.0,1350.0,1528.0,1614.0,1010.0,61.0,293.85,1649171390.6006882,1649171391.818886,d21a2c42-b151-4f05-a517-f838205da668
0.3924667155809804,0.672113161773932,0.482903440692598,-0.2772358362077909,0.1581964078164164,-0.3175760419978601,0.1082445120020613,0.0849976169579046,-5.790103483035893,20.442594947769955,14.233460744181023,0.0706564579778354,2.50075698517073,-0.9413060988843952,7154.77978515625,11.610666666666669,8.17,178.44124200387327,1.1144307760261074,45.79716515228475,1745.0,1435.0,1350.0,1528.0,1614.0,1010.0,61.0,293.85,1649171391.9274185,1649171393.0442345,d21a2c42-b151-4f05-a517-f838205da668
0.5055575466034149,0.8618186983991224,0.5194184626105344,-0.2907192783150191,0.1502277502964315,-0.5051800356170844,0.073540720150656,0.0521193022759181,-5.472187267810429,20.887354906859333,12.22423328745875,-0.3158931027829121,3.2318081877929785,-0.910773572477548,7159.428602430556,11.58522222222222,8.146666666666668,178.29406660545766,1.150705792128372,44.769490715760135,1849.0,1435.0,1350.0,1528.0,1686.0,1010.0,61.0,293.85,1649171393.746172,1649171394.8861532,893d1479-353c-4adc-9071-5580b86543c2
0.5007774480827643,0.8440405669170697,0.5229247812787411,-0.2980195451890772,0.1573088708700003,-0.4735957634388756,0.0856621743779761,0.0591867267411814,-5.699269001090703,20.90237809249437,13.342758155132026,-0.2281132385609953,3.1579445125213503,-0.943258735032418,7158.764485677083,11.579,8.163333333333334,178.29317260958626,1.1988669263540783,44.22467005187536,1849.0,1435.0,1350.0,1528.0,1686.0,1010.0,61.0,293.85,1649171394.9939885,1649171396.114298,893d1479-353c-4adc-9071-5580b86543c2
0.4945181213757427,0.8290291400388149,0.5168298132314876,-0.3019641546038042,0.1538025519102728,-0.455242370591727,0.0852649740553896,0.0605152925425639,-5.762236101188688,20.932664396876792,13.31951908194858,-0.1781107594669952,3.102393958842788,-0.9315495728996028,7160.7568359375,11.579777777777778,8.162222222222223,178.30017886585492,1.27182557225411,43.72701525930411,1849.0,1435.0,1350.0,1528.0,1686.0,1010.0,61.0,293.85,1649171396.2224948,1649171397.3512049,893d1479-353c-4adc-9071-5580b86543c2
0.521915618951763,0.9017945666355052,0.509700481223149,-0.3365233166753559,0.1269025115427011,-0.5188300294490878,0.0536248281821194,0.0348221924065289,-5.687555913391607,21.061578992047856,9.742504956315411,-0.2430767240326962,3.410288164754613,-0.8366879952561009,7154.77978515625,11.512,8.156666666666666,178.27585580331055,1.3282318475989814,42.843660443212144,1962.0,1435.0,1350.0,1528.0,1760.0,1010.0,61.0,293.85,1649171399.2760332,1649171400.3267066,d3aff9e0-abfe-4e96-b365-94416100ba95
0.528713494285157,0.8997696675719355,0.5271356508617552,-0.3275559042993982,0.1422470397350013,-0.5213940258011425,0.0647091791853975,0.0351246126523783,-5.946054590642123,21.569259006333464,10.374534076428692,-0.2648623968327421,3.3989313203868243,-0.8967997070291104,7148.81298828125,11.515777777777778,8.15777777777778,178.31409272010413,1.3325498789627028,42.610556332123366,1962.0,1435.0,1350.0,1528.0,1760.0,1010.0,61.0,293.85,1649171400.435829,1649171401.653951,d3aff9e0-abfe-4e96-b365-94416100ba95
0.5136450897831617,0.8873310019650169,0.5060977387851512,-0.3284500157396068,0.127980704608173,-0.510638389372023,0.0518234568194664,0.0312720445320815,-5.929109716755293,21.11031039074282,9.929000161514638,-0.2428286137642314,3.354876195254613,-0.8322860246404489,7148.81298828125,11.519333333333334,8.16,178.32197779404592,1.3994829936383792,42.34885308061487,1962.0,1435.0,1350.0,1528.0,1760.0,1010.0,61.0,293.85,1649171401.7614012,1649171402.8809173,d3aff9e0-abfe-4e96-b365-94416100ba95
0.0276561531144359,-0.0096204012178907,0.3821449897712834,-0.2462575038460677,0.1914889055666447,0.3370449650219448,0.2469632525274235,0.2275163316318206,-6.083255397416889,20.8438333149871,16.531090068403014,1.469659188738253,-0.0846421796739863,-1.1261600447258922,7150.801920572917,11.623666666666669,8.193333333333332,178.96238543754524,1.5141456125297128,41.9473187813233,1459.0,1435.0,1350.0,1528.0,1394.0,1010.0,61.0,293.85,1649171404.8057578,1649171405.9461584,1dc66a59-86cd-4ec8-b33d-d10df5f92a51
0.0339412299468604,-0.0101463490862009,0.3782661246622502,-0.2546463730894687,0.1870577951001795,0.3375314667481134,0.2469501038273854,0.2228090987009201,-5.818881685525273,20.6443695103203,15.415525014317542,1.4881154970303507,-0.0778151839478503,-1.1162625247632374,7154.77978515625,11.627666666666666,8.19,178.9487933610969,1.5381612216976468,41.76324670101128,1459.0,1435.0,1350.0,1528.0,1394.0,1010.0,61.0,293.85,1649171406.0544872,1649171407.3770795,1dc66a59-86cd-4ec8-b33d-d10df5f92a51
0.0376009504436397,-0.0121312543969818,0.3897942432005812,-0.2400967912869025,0.1996723250145357,0.3420480435333508,0.2538559082913083,0.2342424371979624,-6.213783835500191,20.990674079999785,17.75322776868495,1.468488134075274,-0.1042384364653967,-1.156224231620918,7154.77978515625,11.62588888888889,8.194444444444443,178.93762524289406,1.5340371392472325,41.627489861068106,1459.0,1435.0,1350.0,1528.0,1394.0,1010.0,61.0,293.85,1649171407.4857333,1649171408.4426506,1dc66a59-86cd-4ec8-b33d-d10df5f92a51
-0.0891437190696325,-0.234489419161301,0.3724938474499223,-0.2178957627925188,0.2222962995481697,0.5471742620999209,0.3091434334229146,0.2870799223414654,-6.164481580497538,21.586240324984715,18.98558417499853,1.8826619537169995,-0.9533081141649044,-1.267356737865822,7154.77978515625,11.6,8.198888888888888,179.15024447829708,1.5752257175474134,41.42096770786415,1364.0,1435.0,1350.0,1528.0,1312.0,1010.0,61.0,293.85,1649171410.3353865,1649171411.4741814,28370bdc-3090-451e-8f09-f8a8a61e8a92
-0.0810178243709666,-0.2354755714898971,0.3808432689211599,-0.2034058981211171,0.2334989881998609,0.5484102394231304,0.316769676748765,0.2962708606348643,-6.3062419222347925,21.56875269185973,20.981990640006806,1.8533004731339624,-0.974952540514315,-1.3021230108067698,7148.81298828125,11.59975,8.19375,179.14850240060375,1.5732700022683286,41.37843218305734,1364.0,1435.0,1350.0,1528.0,1312.0,1010.0,61.0,293.85,1649171411.582142,1649171412.698372,28370bdc-3090-451e-8f09-f8a8a61e8a92
-0.0846134450753527,-0.2373985685361337,0.3634557630401255,-0.2237294017028948,0.2161629808883186,0.5479894811868972,0.3055878070396375,0.2901380898386714,-6.0154772746072345,21.16873732890637,17.889010926348025,1.894335610776329,-0.9554167090013784,-1.2432948017073333,7154.77978515625,11.598333333333334,8.193333333333335,179.15878980385867,1.551222298369873,41.355252940039655,1364.0,1435.0,1350.0,1528.0,1312.0,1010.0,61.0,293.85,1649171412.8061454,1649171413.9407492,28370bdc-3090-451e-8f09-f8a8a61e8a92
-0.2303081334308946,-0.4911651649938282,0.3377418458045753,-0.1582795685504272,0.2415328412287427,0.7589602921017067,0.3529022915405402,0.3356906493356827,-6.22708244647451,21.97659913953364,21.173328428578625,2.225268458581477,-1.944481568065063,-1.3361435293391395,7156.108018663194,11.564222222222222,8.185555555555554,179.26755525402177,1.585657799861452,41.356869797598165,1262.0,1435.0,1350.0,1528.0,1222.0,1010.0,61.0,293.85,1649171414.8403175,1649171415.8848476,ca14c9a3-0bf3-4867-b5b1-943e9cb08e58
-0.2251675404316575,-0.4892509334788961,0.3492524328118296,-0.1518087659062812,0.2500619617270727,0.758889070003865,0.3599494443163069,0.3327754739087542,-6.289256593125615,22.374913114902256,22.34317770971033,2.213880673318973,-1.9472905567032737,-1.3717529681721956,7154.77978515625,11.562333333333331,8.181111111111111,179.27272191267392,1.5676730224292603,41.36782731830164,1262.0,1435.0,1350.0,1528.0,1222.0,1010.0,61.0,293.85,1649171416.0011077,1649171417.2069008,ca14c9a3-0bf3-4867-b5b1-943e9cb08e58
-0.2378368585336761,-0.500386238467366,0.3378295037626384,-0.1568764929848584,0.2381596529289789,0.7635048098045423,0.3489921982660995,0.3253930292079727,-6.294560862139169,22.612916537348184,20.6969066906948,2.236428280328352,-1.9745224905359,-1.328185217834689,7158.100368923611,11.566555555555556,8.16,179.26926128349447,1.551910712662,41.45391236641581,1262.0,1435.0,1350.0,1528.0,1222.0,1010.0,61.0,293.85,1649171417.3148296,1649171418.4729588,ca14c9a3-0bf3-4867-b5b1-943e9cb08e58
-0.3154328042616702,-0.6307780635220368,0.2728793313218963,-0.1522311677264256,0.1961040977468561,0.8718286904382573,0.3192547801637591,0.2975594327467565,-6.536415026150316,23.18858980828544,18.173154435729987,2.469425866853044,-2.4441710456984964,-1.1597316747459026,7160.7568359375,11.488555555555555,8.15,179.35096400634615,1.5520372134572524,41.52306423721264,1153.0,1435.0,1350.0,1528.0,1121.0,1010.0,61.0,293.85,1649171420.2376297,1649171421.2013035,f571d76d-3f7b-456a-b0cf-95739d376730
-0.3258597220292026,-0.6311067809974812,0.2809789277400378,-0.1434872842045097,0.2053213334132478,0.8715657165627928,0.32735437649882,0.3123648636655632,-6.523822100473583,23.172082681585817,19.296422179773632,2.449590142901412,-2.456011927340131,-1.1932218799869434,7160.7568359375,11.496,8.1325,179.3499041886599,1.5355949189303764,41.5925338541015,1153.0,1435.0,1350.0,1528.0,1121.0,1010.0,61.0,293.85,1649171421.3096182,1649171422.3357413,f571d76d-3f7b-456a-b0cf-95739d376730
-0.3333018852438144,-0.6462662216858052,0.2864063046619387,-0.1392827353116208,0.2100806555528434,0.8830536303252194,0.3299866441696504,0.3109968936649677,-6.839510883443529,23.797478539999663,19.393488698274457,2.4701932219480147,-2.5116579741908,-1.2129881163316072,7160.7568359375,11.502444444444444,8.130000000000003,179.3383387811203,1.5432143047389215,41.63379867913148,1153.0,1435.0,1350.0,1528.0,1121.0,1010.0,61.0,293.85,1649171422.4443066,1649171423.6889565,f571d76d-3f7b-456a-b0cf-95739d376730
0.179168577721484,0.2496850325740188,0.4473493691693819,-0.2425364223882738,0.2075040169734828,0.093557418553782,0.2172077543835554,0.1945262542579048,-6.452460458213941,20.94158853748125,18.6591526673291,0.9181644637525932,0.875340154017088,-1.1603767216014866,7168.993225097656,11.627624999999998,8.165,178.89987156198427,1.461306739948703,41.81318653033334,1553.0,1435.0,1350.0,1528.0,1471.0,1010.0,61.0,293.85,1649171425.8106143,1649171426.9412034,0b257ea6-aadc-45f3-809f-3694bb7cd555
0.1738954028428535,0.2464871602395709,0.4485798678948806,-0.23338547658504,0.210204978207629,0.0957702345363004,0.2180804990445332,0.1952620332536829,-6.499889087462705,21.007342204178745,19.73310467488232,0.9031391444062034,0.8531159120059595,-1.1658275825198494,7166.744140625,11.629666666666669,8.183333333333332,178.90436981073515,1.4084737993158396,41.88832302236732,1553.0,1435.0,1350.0,1528.0,1471.0,1010.0,61.0,293.85,1649171427.0493822,1649171428.0856135,0b257ea6-aadc-45f3-809f-3694bb7cd555
0.1781550324163023,0.2561158404140238,0.448497688538108,-0.2438770417590241,0.2066712662256959,0.0906751147748793,0.2174093677109268,0.201069373898096,-6.337333806509922,20.94112381915296,18.97406207952649,0.9148738993264648,0.8960915693836357,-1.1598035978396424,7171.408908420139,11.633666666666668,8.148888888888889,178.86443141792836,1.3867521257818085,41.96192286413365,1553.0,1435.0,1350.0,1528.0,1471.0,1010.0,61.0,293.85,1649171428.1933506,1649171429.297387,0b257ea6-aadc-45f3-809f-3694bb7cd555
0.1769223421819888,0.2373104664526073,0.4192966280672749,-0.4909219144073827,0.1581854505904179,0.3362407031380407,0.2642926853898808,0.248212926455577,-6.053250621753644,20.04862661308634,19.001686001444355,2.0167421851744227,0.8518546662571801,-1.124549399144549,7172.74169921875,11.625333333333334,8.166666666666666,178.8591494049702,1.4361300534649657,42.04918991442919,1553.0,1537.0,1350.0,1528.0,1471.0,1010.0,61.0,293.85,1649171431.3382776,1649171432.5689087,dc70cc40-5288-4a04-9cc0-5d6d388c1700
0.1809628268102727,0.2352970724408989,0.4203649595393582,-0.4880730294074905,0.1593633545715095,0.3312003699443243,0.2647857614589559,0.2431178068415424,-5.981811726909387,20.065108728664843,18.38345460047793,1.999089365483084,0.8489942042765585,-1.1293594437100083,7166.744140625,11.6295,8.09375,178.8556016908788,1.4095588388985194,42.11894037541579,1553.0,1537.0,1350.0,1528.0,1471.0,1010.0,61.0,293.85,1649171432.6768844,1649171433.6168308,dc70cc40-5288-4a04-9cc0-5d6d388c1700
0.1771688802287402,0.2319140226378261,0.4167079787208833,-0.4910725765339699,0.1540901797231567,0.3330631017597653,0.2621012361453327,0.2341465614842138,-5.7993269257608135,20.17273159478377,17.75806881461878,2.010564935855634,0.8406962071005166,-1.114604385092891,7163.417860243056,11.626333333333331,8.173333333333334,178.85059952594918,1.425566750884685,42.171078055262655,1553.0,1537.0,1350.0,1528.0,1471.0,1010.0,61.0,293.85,1649171433.726009,1649171435.0463955,dc70cc40-5288-4a04-9cc0-5d6d388c1700
0.1894377090931798,0.2203897387873192,0.4066541576538157,-0.754678276265883,0.1200520409973841,0.6010707628655279,0.329352978220415,0.306184976794195,-5.745545079849049,19.53137156004124,19.97133081138848,3.203071423006735,0.809283664184476,-1.1505742070450529,7166.744140625,11.611777777777778,8.149999999999999,178.87022797180396,1.5216629590473176,42.206897464544966,1553.0,1645.0,1350.0,1528.0,1471.0,1010.0,61.0,293.85,1649171435.7188632,1649171436.9806943,102a6e1f-412f-426a-8d9e-0eeb7c62b877
0.1883315750645529,0.2287227246389852,0.4077504301158055,-0.7647573042581106,0.1163150720318736,0.6017621650738229,0.3292143690511507,0.2985751694490067,-5.603054400607266,19.67003137693564,19.91222052953036,3.2283969972476942,0.8413655999637181,-1.1459020232913433,7162.752604166667,11.608666666666668,8.173333333333334,178.87496812308797,1.5263881930084315,42.23272506598146,1553.0,1645.0,1350.0,1528.0,1471.0,1010.0,61.0,293.85,1649171437.0892537,1649171438.1052191,102a6e1f-412f-426a-8d9e-0eeb7c62b877
0.1872084572697504,0.2208472038224898,0.4181461172180647,-0.7452533965705811,0.1296144300950693,0.6012964821204555,0.335555875236557,0.3061356692489765,-5.93335204246976,19.959991517814828,21.36403199351944,3.185859488556281,0.7995606059267902,-1.1862999139947552,7160.7568359375,11.616,8.2,178.88807753283493,1.544539705318956,42.21039831594956,1553.0,1645.0,1350.0,1528.0,1471.0,1010.0,61.0,293.85,1649171438.2352495,1649171439.2295375,102a6e1f-412f-426a-8d9e-0eeb7c62b877
0.2100680126532578,0.209226496172155,0.4229322422568646,-1.0014005434096434,0.1047206614084894,0.8544066693988442,0.4125710704792432,0.3975552605353378,-5.48136339738652,19.76828428941908,22.51026119996041,4.3318147838881815,0.7744551817671043,-1.2702115515168453,7154.77978515625,11.604666666666668,8.114444444444445,178.84703872066186,1.5945368441970242,42.283859277202765,1553.0,1761.0,1350.0,1528.0,1471.0,1010.0,61.0,293.85,1649171441.2598283,1649171442.4139469,1dac26e6-4a81-435b-a6e4-5477b28d3d38
0.2084901691817974,0.2100022692202232,0.4175412772361799,-0.9975742705313378,0.1007497551738738,0.8465568984377149,0.4062202507079961,0.38430137576411,-5.474894927187827,19.650442455903896,21.95979753779561,4.304410053402388,0.781382912626377,-1.2490084154559744,7154.77978515625,11.604444444444445,8.137777777777778,178.8188573601464,1.5766821486662128,42.28494907183033,1553.0,1761.0,1350.0,1528.0,1471.0,1010.0,61.0,293.85,1649171442.5214903,1649171443.535512,1dac26e6-4a81-435b-a6e4-5477b28d3d38
0.2003248291357598,0.2064521213898972,0.4204339901982057,-1.0030046855683337,0.0979096368867981,0.8553928215496965,0.4061413585684029,0.3914016712512312,-5.449776355925876,20.27104932251846,22.013724453621123,4.340794594295671,0.7682744718101957,-1.249609098300039,7154.77978515625,11.609,8.168888888888889,178.81797095337413,1.5902568887663324,42.281878522343455,1553.0,1761.0,1350.0,1528.0,1471.0,1010.0,61.0,293.85,1649171443.644205,1649171444.7648993,1dac26e6-4a81-435b-a6e4-5477b28d3d38
