raw_voltage_G-,raw_voltage_G0,raw_voltage_G1,raw_voltage_G2,raw_voltage_G3,raw_voltage_G4,raw_voltage_G5,raw_voltage_G6,load_x,load_y,load_z,load_l,load_m,load_n,rpm,voltage,current,roll,pitch,yaw,aileron1_pwm,elevator_pwm,throttle_pwm,rudder_pwm,aileron2_pwm,pbaro,pdiff,Tt,sample_start_time,sample_end_time,uid
0.0261309043759909,0.1781035334107663,0.0791201502965082,-0.1711389943244076,-0.1140210536611855,0.1369086693320585,-0.2069428975459555,-0.2266659443021698,-13.381974901624158,23.41849013482268,21.152491393266924,0.8495190421338067,0.6017206985949862,0.3730079027302707,3148.4906955295137,11.968333333333332,0.23,179.52075340219378,-4.750675988885539,100.67610347703548,1553.0,1435.0,1200.0,1528.0,1471.0,1010.0,61.0,293.85,1649173482.2543552,1649173483.3462155,904b83f5-a9f7-4653-a697-9644f925e70d
0.043487183482404,0.1758551064336137,0.076450964975734,-0.1675099538556761,-0.1158618712486096,0.1364221675811844,-0.2106376815746098,-0.2260479557019316,-13.463162165786663,23.479671605023835,21.22036099651641,0.8404822045186292,0.5926458402385887,0.3841877391820595,3543.375732421875,11.97,0.22,179.49365576502657,-4.607556821631392,100.32223517068664,1553.0,1435.0,1200.0,1528.0,1471.0,1010.0,61.0,293.85,1649173483.4548955,1649173484.7802248,904b83f5-a9f7-4653-a697-9644f925e70d
0.0375702701854279,0.1795893360331923,0.0756751919021791,-0.1705736003403978,-0.1174923096863835,0.1363301267104655,-0.2113082651496291,-0.2290984530938597,-13.42615720599869,23.43596388574544,21.321070406897498,0.846892521209528,0.6058242539837717,0.3890315259870674,3573.9108072916665,11.97011111111111,0.22,179.4876846618722,-4.494183080780782,100.03390252942413,1553.0,1435.0,1200.0,1528.0,1471.0,1010.0,61.0,293.85,1649173484.888607,1649173486.0078323,904b83f5-a9f7-4653-a697-9644f925e70d
0.1546380420981502,0.3860550830919907,0.1001668298397469,-0.2530537368680906,-0.1400982072316038,0.0110296266014003,-0.2362343609275303,-0.252108674474348,-13.149113551724204,22.96215996921089,21.4726330935604,0.7496227806657988,1.3885918664811516,0.4467873766815566,3589.7087131076387,11.962444444444444,0.22,179.33662364472875,-4.377954558016451,99.66354083404951,1647.0,1435.0,1200.0,1528.0,1543.0,1010.0,61.0,293.85,1649173486.6751034,1649173487.745391,8bc556b8-0628-4b28-8040-f043c8eb4473
0.1612260865580443,0.3857400622694718,0.1027965690579489,-0.2518484395635293,-0.1379615439279756,0.0112624681033004,-0.234837311778751,-0.2649560482672639,-13.209004569411624,23.06996533578827,21.63406185639562,0.7482683345121887,1.3864236435694863,0.438417442770016,3590.87841796875,11.958666666666668,0.22,179.29873127303333,-4.3001136905261,99.42915530358148,1647.0,1435.0,1200.0,1528.0,1543.0,1010.0,61.0,293.85,1649173487.8535774,1649173488.9069126,8bc556b8-0628-4b28-8040-f043c8eb4473
0.1549393663796061,0.3878767252419678,0.1011666786081185,-0.2530948265527437,-0.1403173521818826,0.0104680676900893,-0.2360015194010463,-0.2649697447351312,-13.099940673500615,23.02957893755386,21.64472886282803,0.7490024707884656,1.3936204055693084,0.4458609416724104,3593.324615478516,11.959625,0.22,179.26533107880954,-4.2441153589015785,99.2273353561661,1647.0,1435.0,1200.0,1528.0,1543.0,1010.0,61.0,293.85,1649173489.014959,1649173489.9426527,8bc556b8-0628-4b28-8040-f043c8eb4473
0.2758662767556664,0.5962150593868705,0.1289022092314398,-0.3475052187866932,-0.1645739593159654,-0.1078428096563278,-0.2590802234050377,-0.2745299437693883,-12.832470680691832,22.89365006056802,21.504789477875736,0.6967011322109098,2.1877429391617462,0.4983785178232706,3593.889404296875,11.945777777777778,0.2055555555555555,179.06666876579297,-4.122864210285008,98.6402092594722,1745.0,1435.0,1200.0,1528.0,1614.0,1010.0,61.0,293.85,1649173492.2432134,1649173493.4833364,0a325207-6166-42a5-bb81-1f295e80a097
0.2909719363985757,0.5940493597517965,0.1272443778149036,-0.3466083679651625,-0.1645120508685419,-0.1065657424519949,-0.2590511866964299,-0.2802205907704482,-12.839091348490353,22.76807627248097,21.497356624578423,0.6966282867473309,2.1795153365930724,0.5002948991321035,3593.889404296875,11.94111111111111,0.21,179.03186363960242,-4.081557218323279,98.40421635781942,1745.0,1435.0,1200.0,1528.0,1614.0,1010.0,61.0,293.85,1649173493.592185,1649173494.7060792,0a325207-6166-42a5-bb81-1f295e80a097
0.2730584824035653,0.5984475982218128,0.1299842373312181,-0.3484502814824275,-0.162930372153551,-0.1071716782356488,-0.2571627049582117,-0.2839257841420521,-12.848423631260223,22.780238392060085,21.80027358210956,0.6996822137124613,2.1937933889367,0.4926488268666886,3591.882080078125,11.941666666666668,0.21,178.99864918857853,-4.049883259548468,98.19596313111585,1745.0,1435.0,1200.0,1528.0,1614.0,1010.0,61.0,293.85,1649173494.8140256,1649173496.0495193,0a325207-6166-42a5-bb81-1f295e80a097
0.3363639721513627,0.703486495825476,0.1551996010270934,-0.4150155688888117,-0.1719290119023001,-0.1664503880115269,-0.2610662246505471,-0.2886510976434578,-12.670699873265818,23.26087581921485,19.367272888759075,0.7207734052018582,2.617861139294637,0.4847133212853942,3592.2160915798613,11.916333333333334,0.2088888888888889,178.82932728123413,-3.993258667167469,97.83928837592804,1849.0,1435.0,1200.0,1528.0,1686.0,1010.0,61.0,293.85,1649173497.6956725,1649173498.704585,2b7296d5-819f-4e62-8212-11f16d262bf6
0.3346781998396488,0.7010139933086564,0.156552820968253,-0.4112868170368112,-0.1685749983566508,-0.1653667162232672,-0.2585778335804015,-0.2834025755066283,-12.71545618286602,23.16646139815884,19.681018710202167,0.7142663902017256,2.6057489010034884,0.4749409892424781,3586.5381944444443,11.91477777777778,0.2055555555555555,178.80123698990758,-3.97193106946102,97.64739193446682,1849.0,1435.0,1200.0,1528.0,1686.0,1010.0,61.0,293.85,1649173498.8128994,1649173499.9361086,2b7296d5-819f-4e62-8212-11f16d262bf6
0.3456228451199005,0.7022264125570737,0.1541175729235592,-0.4154401622774408,-0.1707921974422608,-0.1636562898396376,-0.2593678511778253,-0.284295591284432,-12.680500280298702,23.04448632457941,19.53830423441961,0.7265438757574104,2.611668591182162,0.4823887285144745,3579.382269965278,11.916333333333334,0.2011111111111111,178.77581957927623,-3.9376330848163232,97.4782969411848,1849.0,1435.0,1200.0,1528.0,1686.0,1010.0,61.0,293.85,1649173500.0446131,1649173501.3689716,2b7296d5-819f-4e62-8212-11f16d262bf6
0.3688253615333779,0.7533589480243367,0.1722523637684742,-0.4348098395975762,-0.1701002472663509,-0.1973837944599822,-0.2589065510424442,-0.2879257276353393,-12.546588242227369,23.51206157989249,19.395678748229123,0.6984941928957699,2.807305377779902,0.4617875507178145,3577.389892578125,11.873666666666669,0.1922222222222222,178.72920581492065,-3.905569046348914,97.2158097357416,1962.0,1435.0,1200.0,1528.0,1760.0,1010.0,61.0,293.85,1649173502.2788637,1649173503.3154657,33402b95-cc9f-4d09-80ae-d016c20145d7
0.3699955953919579,0.7525963237125782,0.1696752193996688,-0.4365323192279493,-0.1725064588702611,-0.19480664975338,-0.2610892348859097,-0.2766572936031013,-12.587417995578344,23.51756067919239,19.41214955831075,0.7080610756879294,2.8046368656827263,0.4715705460721493,3573.0820583767363,11.87388888888889,0.1988888888888889,178.705691750338,-3.898817546649964,96.96998287950385,1962.0,1435.0,1200.0,1528.0,1760.0,1010.0,61.0,293.85,1649173503.424073,1649173504.6544197,33402b95-cc9f-4d09-80ae-d016c20145d7
0.3688911050006698,0.7507292090267036,0.1723444046344592,-0.4368741853898769,-0.1702317342305913,-0.1922295050292843,-0.2577889117407514,-0.2880046201848236,-12.553837285912085,23.57004520915202,19.495810671147364,0.7151345039265015,2.796867081330193,0.4600259598516736,3571.593695746528,11.875666666666667,0.19,178.7020914817355,-3.8678836673308457,96.78660747848716,1962.0,1435.0,1200.0,1528.0,1760.0,1010.0,61.0,293.85,1649173504.7841885,1649173505.874633,33402b95-cc9f-4d09-80ae-d016c20145d7
-0.1008027781805301,-0.0802716357334227,0.0530643652028897,-0.0514540752531857,-0.0807236221929018,0.2803998374144333,-0.1769008630911431,-0.1997467251109572,-13.788805803575745,24.21489334645865,21.23704149062545,0.905773740042129,-0.3815872593782439,0.2896929162291023,3573.0824924045137,11.960888888888888,0.22,179.21133824369312,-3.839066672335739,96.50445767624328,1459.0,1435.0,1200.0,1528.0,1394.0,1010.0,61.0,293.85,1649173506.8770895,1649173508.024253,fbe95746-4a17-41fe-9318-3067103149a3
-0.1170978488455088,-0.0880129310262665,0.0515604830673414,-0.0472388222342408,-0.0810704190757505,0.2839110869686019,-0.177279436005554,-0.1927160072607331,-13.762592511233333,24.29597697280703,21.2013634775045,0.9046255462397368,-0.4111040921562903,0.2917892250522317,3584.53795030382,11.964111111111112,0.22,179.1999029892027,-3.8265901934518487,96.42965799791276,1459.0,1435.0,1200.0,1528.0,1394.0,1010.0,61.0,293.85,1649173508.132474,1649173509.1508472,fbe95746-4a17-41fe-9318-3067103149a3
-0.1092809484633946,-0.0868596807366403,0.0521056060932138,-0.0483038666673888,-0.0809838568280966,0.2832624179913688,-0.1772295805400464,-0.205102080093493,-13.77613605080981,24.31378555518525,21.132557071896866,0.9056977928597372,-0.4059070254384068,0.2908736572229026,3589.8758138020835,11.964333333333334,0.2166666666666666,179.17425790559903,-3.8163616531466698,96.33439279609914,1459.0,1435.0,1200.0,1528.0,1394.0,1010.0,61.0,293.85,1649173509.2591722,1649173510.4800062,fbe95746-4a17-41fe-9318-3067103149a3
-0.2353303880025002,-0.3134007823365041,0.0330536930361776,0.048763645800357,-0.0506322817092521,0.4179680620572868,-0.1455220448223729,-0.1741478551957391,-14.049917766005056,25.14307788185558,21.473731739357444,0.9939042262398036,-1.269804768923294,0.2037477725363492,3598.7516004774307,11.943777777777775,0.21,179.25831476698465,-3.799901134406285,96.18592345629077,1364.0,1435.0,1200.0,1528.0,1312.0,1010.0,61.0,293.85,1649173511.2914314,1649173512.311313,04a67742-b845-4424-b609-132c1356f06a
-0.2428771927184284,-0.3153456939584889,0.0318757889884815,0.0487499492415954,-0.051358199344841,0.419995152560591,-0.1460014244100499,-0.1701210661569106,-14.05583304592801,25.14071986568167,21.482872807007663,0.9984144615492424,-1.277211546643407,0.2067989150120558,3598.9195149739585,11.945666666666666,0.21,179.26277260378296,-3.799189419208396,96.04161901405628,1364.0,1435.0,1200.0,1528.0,1312.0,1010.0,61.0,293.85,1649173512.4191349,1649173513.5423024,04a67742-b845-4424-b609-132c1356f06a
-0.2289340944485373,-0.3139486447750103,0.0316977337222168,0.0484486249540168,-0.052152599773494,0.4186528899295172,-0.1481517842727966,-0.1760516766070601,-14.15882886149572,25.23658946015229,21.437668479050004,0.99664554582291,-1.2708147013247728,0.2111765505292218,3596.905517578125,11.943888888888887,0.21,179.23585103371437,-3.798086343657439,95.9168398059291,1364.0,1435.0,1200.0,1528.0,1312.0,1010.0,61.0,293.85,1649173513.650843,1649173514.8878126,04a67742-b845-4424-b609-132c1356f06a
-0.3672830529471103,-0.5423388088072946,0.0095640948070948,0.1366133715322043,-0.0271015933050694,0.5537831249315072,-0.1195122782802459,-0.1347017629763444,-14.367377102589598,26.18574971649794,20.39160041528263,1.1063414223565244,-2.128911373387691,0.1375772268773129,3597.744547526041,11.912777777777778,0.2044444444444444,179.31507363898743,-3.776273233337488,95.65666348115508,1262.0,1435.0,1200.0,1528.0,1222.0,1010.0,61.0,293.85,1649173516.7069428,1649173517.8566885,3d326f80-ef51-4f3d-a9d0-1addeaa41d75
-0.3651326929002949,-0.5472695713139331,0.0065782449871804,0.1404073181671297,-0.02793708340703,0.5550706013179781,-0.1220050520996452,-0.1384820133623957,-14.460321270322174,26.16482983239494,20.3641367342448,1.1003378201949865,-2.1471602425639187,0.1456759109767334,3596.905517578125,11.910111111111112,0.1944444444444444,179.31387152569354,-3.778250525670338,95.53763149775956,1262.0,1435.0,1200.0,1528.0,1222.0,1010.0,61.0,293.85,1649173517.965129,1649173518.994856,3d326f80-ef51-4f3d-a9d0-1addeaa41d75
-0.3668995492523126,-0.545913611625329,0.0054277340416525,0.1386815518270849,-0.0301011397264477,0.5567552778642662,-0.1230870802994245,-0.1460699078209728,-14.411730398759424,26.20315842758372,20.55715459224059,1.1082684440784472,-2.1439890034209803,0.1521717088356658,3596.402587890625,11.913666666666666,0.2,179.30686830506454,-3.7806973935086257,95.38708426262367,1262.0,1435.0,1200.0,1528.0,1222.0,1010.0,61.0,293.85,1649173519.106907,1649173520.2983885,3d326f80-ef51-4f3d-a9d0-1addeaa41d75
-0.404160222231245,-0.5925547906670456,0.0010431916339707,0.1720288359076079,-0.0295143791383429,0.5680017949789579,-0.1277614421365524,-0.1550186915508154,-14.414198225660812,27.100260519383543,19.979294102776297,1.0639528876094642,-2.318151259594851,0.1574682991147963,3590.210015190972,11.862,0.19,179.33284882684745,-3.773365517457701,95.18932827776447,1153.0,1435.0,1200.0,1528.0,1121.0,1010.0,61.0,293.85,1649173521.216896,1649173522.4661906,98ffd63e-50f9-43db-a92f-468da196c512
-0.4019249433948529,-0.5932648204850516,-0.0013893172135116,0.1746980211782662,-0.0314077914578764,0.5666869254830673,-0.1309697242177973,-0.1593446130562457,-14.451601188281058,27.12121687742516,20.021088684848976,1.0549828063996072,-2.321402484980431,0.1678925624385069,3586.370849609375,11.868000000000002,0.2,179.33964865962116,-3.779403214956515,95.0040927885638,1153.0,1435.0,1200.0,1528.0,1121.0,1010.0,61.0,293.85,1649173522.574854,1649173523.6911285,98ffd63e-50f9-43db-a92f-468da196c512
-0.3954820809815689,-0.5893859538444676,-0.0006398415286633,0.1622856523360091,-0.0313946427719798,0.571565091321997,-0.1288001892163903,-0.153243617504186,-14.569933392425378,27.014621171140043,19.643388541766274,1.0931548695085704,-2.301095370409982,0.1635528740266692,3585.7041829427085,11.868222222222222,0.19,179.3216063354736,-3.785241461445192,94.86366030467882,1153.0,1435.0,1200.0,1528.0,1121.0,1010.0,61.0,293.85,1649173523.7992618,1649173524.928134,98ffd63e-50f9-43db-a92f-468da196c512
0.0281092353010986,0.1675949861625592,0.0764991768639021,-0.1668201951063422,-0.1160196556120884,0.1446121615436433,-0.2082385921198946,-0.2289203980247807,-13.345246625473436,23.619478650287142,21.33141746636753,0.8583365448993424,0.5597670025604305,0.3801094264657685,3577.389892578125,11.954555555555554,0.2077777777777777,179.07108258581664,-3.78676364499272,94.62842251838433,1508.5555555555557,1435.0,1200.0,1528.0,1432.111111111111,1010.0,61.0,293.85,1649173526.6732476,1649173527.6844246,4a201b3c-a7a9-4b39-bb02-a4c25891cf3b
0.0382145562873441,0.1655202315381494,0.0752807310204046,-0.1659978536570078,-0.115138692910475,0.1447189946975967,-0.2081131316346598,-0.2331088061969325,-13.403727568361212,23.475686761547,21.16319680401325,0.8556514749907168,0.5537093310829967,0.3799287923877345,3592.8865559895835,11.967555555555556,0.2155555555555555,178.9969067314303,-3.769776442776336,94.82695714480889,1553.0,1435.0,1200.0,1528.0,1471.0,1010.0,61.0,293.85,1649173527.792652,1649173529.021229,4a201b3c-a7a9-4b39-bb02-a4c25891cf3b
0.0299719672703856,0.1673210550009692,0.073705078932496,-0.1659710084056912,-0.1175673668258108,0.1437766714916394,-0.2111148697136372,-0.2351112435201513,-13.428063990642954,23.55360864486487,21.265096092984106,0.8539154822413266,0.5596307586857531,0.3899712122703573,3602.95361328125,11.966888888888889,0.2111111111111111,178.96891509839176,-3.759840462240607,95.05360710658698,1553.0,1435.0,1200.0,1528.0,1471.0,1010.0,61.0,293.85,1649173529.1287873,1649173530.2168682,4a201b3c-a7a9-4b39-bb02-a4c25891cf3b
0.0197669353613836,0.1614441358307426,0.0612116261030091,-0.352288605715744,-0.1464325921079581,0.3300761565121731,-0.1689957566611017,-0.1933865903949997,-13.369568422654906,22.988981896103542,22.660285931327675,1.6887289286880405,0.5469472792461878,0.3862436764994973,3609.6970486111113,11.964666666666666,0.21,178.93918100820497,-3.6793236309835575,95.3508265828696,1553.0,1537.0,1200.0,1528.0,1471.0,1010.0,61.0,293.85,1649173532.282137,1649173533.4214354,baabc498-f4a8-49c8-9729-0c55b0c50c16
0.0479418522323775,0.167992186349545,0.0659391302541754,-0.3512443799007645,-0.1433579884021223,0.3242699117912117,-0.1670804297401122,-0.1882142216822497,-13.381876737481091,23.045398575524445,22.9084668087972,1.6739687608394491,0.5695660330402291,0.3740045750754143,3610.710584852431,11.962333333333332,0.21,178.92226642418038,-3.674660034736516,95.4369977672583,1553.0,1537.0,1200.0,1528.0,1471.0,1010.0,61.0,293.85,1649173533.5332172,1649173534.854388,baabc498-f4a8-49c8-9729-0c55b0c50c16
0.03509448021345,0.1641434535131393,0.0629121908127511,-0.3484091917961203,-0.1452892033106667,0.324324698019265,-0.1698608313699499,-0.1938709012756567,-13.393095318701208,23.056600445053903,22.7289793831508,1.667585661759323,0.5562603655953878,0.3840132787997179,3603.795355902778,11.963333333333331,0.21,178.90824632254407,-3.666998270035055,95.5271790315997,1553.0,1537.0,1200.0,1528.0,1471.0,1010.0,61.0,293.85,1649173534.962685,1649173535.965576,baabc498-f4a8-49c8-9729-0c55b0c50c16
0.0572829051931011,0.1643762950001439,0.0527219512409928,-0.5678144152596257,-0.1796812647271567,0.538593642885988,-0.1215256725061018,-0.1419335463367262,-13.320594140840065,22.778772235144302,24.648906281917142,2.641994400109183,0.5659670140726063,0.376904984328704,3606.1537272135415,11.95422222222222,0.2011111111111111,178.9006708838446,-3.6018417278795862,95.64791780337784,1553.0,1645.0,1200.0,1528.0,1471.0,1010.0,61.0,293.85,1649173537.6986475,1649173538.740042,35c4fe6a-53da-4b4c-98e9-6b1d7e6ff583
0.0544751106710315,0.1688413729532668,0.0543792348276261,-0.5686225124627075,-0.1800784649668511,0.5356077933922345,-0.1218543899384159,-0.1377560958355347,-13.281284140766823,22.876007559560545,24.7442783234827,2.63786976380427,0.5817964706781232,0.3763102355638287,3609.021484375,11.954,0.2033333333333333,178.88774513029531,-3.588774769655575,95.65909199285998,1553.0,1645.0,1200.0,1528.0,1471.0,1010.0,61.0,293.85,1649173538.847893,1649173539.860051,35c4fe6a-53da-4b4c-98e9-6b1d7e6ff583
0.0506126811535759,0.1700603666254016,0.0555571388604334,-0.5701839206070701,-0.1785581468379982,0.5338272409420655,-0.1203340718500121,-0.1397010073310693,-13.289690565138471,22.788461938214564,24.468210042343145,2.636820841727374,0.5891401537874845,0.3702437747862308,3609.021484375,11.955,0.2077777777777777,178.88177706278054,-3.582205408334493,95.69086679178878,1553.0,1645.0,1200.0,1528.0,1471.0,1010.0,61.0,293.85,1649173539.9687357,1649173541.090222,35c4fe6a-53da-4b4c-98e9-6b1d7e6ff583
0.0472477106485445,0.1636399680332017,0.0483522011709143,-0.684753481004586,-0.2015913776577652,0.6518247254446792,-0.0994391487110225,-0.1171109975065478,-13.251086968066843,23.14402224716421,25.39814779487073,3.162583767216604,0.5701997544549592,0.3810983101820004,3607.671440972222,11.944333333333336,0.2011111111111111,178.89318651433413,-3.55081691826468,95.70783601732673,1553.0,1761.0,1200.0,1528.0,1471.0,1010.0,61.0,293.85,1649173542.2054005,1649173543.2535412,193fe674-d191-420d-8f07-6d5b871689be
0.0624344548083763,0.1708060072475281,0.0528490552982993,-0.6870808011852665,-0.1990668277166826,0.6464469092036409,-0.0964543944753292,-0.1224362200362337,-13.182959165898492,23.126761235137828,25.355823172153872,3.155885995186245,0.5975410154169429,0.3681221384857398,3608.177707248264,11.943555555555555,0.2055555555555555,178.89283134449727,-3.53843544541487,95.68560451048825,1553.0,1761.0,1200.0,1528.0,1471.0,1010.0,61.0,293.85,1649173543.3618152,1649173544.478576,193fe674-d191-420d-8f07-6d5b871689be
0.0603832581863631,0.1739616942376932,0.0491279742516878,-0.6874621135234555,-0.2027616117416041,0.6439223597706871,-0.1008460592612695,-0.1235144130622122,-13.1946507686237,23.069530945441503,25.356094436532192,3.150502629227873,0.6092671867782511,0.3848737956969659,3605.985107421875,11.943,0.21,178.89201172179688,-3.5390550479227025,95.68222129011936,1553.0,1761.0,1200.0,1528.0,1471.0,1010.0,61.0,293.85,1649173544.586686,1649173545.7189417,193fe674-d191-420d-8f07-6d5b871689be
0.0545452370594675,0.174132627282603,0.0424615852421989,-0.7085657791557839,-0.2165677442057821,0.6658412342768131,-0.1088273183417733,-0.1271697509247797,-13.34395784568693,23.689172052438536,25.67002973049364,3.2511125859568226,0.6103688559535522,0.4240485774137951,3604.46875,11.90325,0.19,178.9093364966266,-3.5391739359029426,95.63171204120712,1553.0,1887.0,1200.0,1528.0,1471.0,1010.0,61.0,293.85,1649173547.7337203,1649173548.874154,d93dc1c0-a7d5-4a14-bca8-e5ba4e7f5ebf
0.054310751954177,0.1707999807615509,0.0422440838708337,-0.7022050953698132,-0.2154292861722705,0.6633966727387645,-0.1095411830406579,-0.1240184466149212,-13.356970536559247,23.70349364661625,25.687256530346847,3.231351490789102,0.5970121433419571,0.4234726653960439,3604.46875,11.894666666666666,0.19,178.90785927849117,-3.532989863655666,95.52787571089505,1553.0,1887.0,1200.0,1528.0,1471.0,1010.0,61.0,293.85,1649173548.985952,1649173550.1096752,d93dc1c0-a7d5-4a14-bca8-e5ba4e7f5ebf
0.052557592484296,0.1698412216896041,0.0452847199061101,-0.7013833015238499,-0.2125530085328196,0.6632597071689702,-0.1060759535389332,-0.1291820494780764,-13.300424320138193,23.710855800292904,25.66648732524459,3.2294153064644155,0.5932917751793653,0.4103750262375878,3600.767523871528,11.907555555555554,0.19,178.9129697778101,-3.550557062769069,95.45077957118356,1553.0,1887.0,1200.0,1528.0,1471.0,1010.0,61.0,293.85,1649173550.218119,1649173551.335149,d93dc1c0-a7d5-4a14-bca8-e5ba4e7f5ebf
0.0218636045217031,0.17252574708839,0.0933733368796589,0.058816919804279,-0.0792033041145609,-0.07806648970122,-0.2602718241448687,-0.2871307794784561,-13.73465171257878,24.520698409176106,19.756483929031187,-0.1446667217560608,0.5682793210855964,0.3807586500852201,3599.927001953125,11.968555555555556,0.21,178.92797494450667,-3.777348988131765,95.32296700015505,1553.0,1335.0,1200.0,1528.0,1471.0,1010.0,61.0,293.85,1649173553.2637618,1649173554.3973963,f1dd286c-11b9-46db-9c76-45b8e09d29d9
0.0293391863010511,0.1741457759816491,0.0949511804051002,0.0614614513309404,-0.0780988135858226,-0.0808074451320108,-0.2597349189924416,-0.2771306465232976,-13.699367486970807,24.552228853732835,19.94613071159021,-0.1564558526233971,0.5721998098478394,0.3768375067665486,3601.945203993056,11.965888888888893,0.2022222222222222,178.91619818055776,-3.776677210567773,95.47958247891351,1553.0,1335.0,1200.0,1528.0,1471.0,1010.0,61.0,293.85,1649173554.5059788,1649173555.637641,f1dd286c-11b9-46db-9c76-45b8e09d29d9
0.0310402988288158,0.1731831818775116,0.0910723150548925,0.0603372378040946,-0.0812303948957935,-0.0798881320751306,-0.2635042124035094,-0.285624158041468,-13.77546508551181,24.527835252354222,19.76693548145693,-0.1522758032309653,0.570608401272591,0.3913345492876037,3606.996826171875,11.966666666666669,0.21,178.90872291796617,-3.775974317697561,95.63453973952352,1553.0,1335.0,1200.0,1528.0,1471.0,1010.0,61.0,293.85,1649173555.7490308,1649173556.8661995,f1dd286c-11b9-46db-9c76-45b8e09d29d9
0.0092353773410428,0.173183181876052,0.1103433727098328,0.2777290086501416,-0.0436059469163403,-0.2894591944036032,-0.3078536752867186,-0.3229198924727691,-13.91043249526299,25.443860392370848,18.326382785527528,-1.106858096658478,0.5588028870600138,0.3763683026882582,3609.021484375,11.966,0.21,178.89791300523973,-3.846440240999722,95.8288722817887,1553.0,1236.0,1200.0,1528.0,1471.0,1010.0,61.0,293.85,1649173558.182017,1649173559.2265806,63c65b3b-6557-4df8-bfac-d35ba2e163e6
0.0178094231302868,0.1711423947179446,0.1093024342821871,0.2749349108590722,-0.0444962232454637,-0.2861172336401452,-0.3067716469809367,-0.3255496319708814,-13.831627238870036,25.386744206545284,18.151977054649205,-1.093464059142114,0.5524137384334383,0.3770203608162519,3605.985107421875,11.96,0.205,178.8878111554573,-3.852813661268989,95.92950828901968,1553.0,1236.0,1200.0,1528.0,1471.0,1010.0,61.0,293.85,1649173559.334542,1649173560.545333,63c65b3b-6557-4df8-bfac-d35ba2e163e6
0.0229593292205186,0.1745254445714812,0.1087819650672175,0.2724010476644101,-0.0458658791477428,-0.286172019892989,-0.3084837170639253,-0.334123679107583,-13.904642585110423,25.421448805547687,18.27502128289272,-1.0876843916167018,0.5648080454304334,0.3825283319724087,3605.985107421875,11.957666666666666,0.2033333333333333,178.8828137337146,-3.851381882864225,96.01719653431402,1553.0,1236.0,1200.0,1528.0,1471.0,1010.0,61.0,293.85,1649173560.6533232,1649173561.886572,63c65b3b-6557-4df8-bfac-d35ba2e163e6
-0.0006529902108286,0.1777485186220185,0.1182243723692,0.3759914004252095,-0.0310264792637504,-0.3915374713927257,-0.3329337215995624,-0.35268306677884,-13.882231202344462,26.10829476835996,17.240359891947204,-1.5532593817835347,0.5737641453404997,0.3838298511574923,3607.502685546875,11.942444444444444,0.1944444444444444,178.88201232485198,-3.888548689255934,96.11113288487913,1553.0,1133.0,1200.0,1528.0,1471.0,1010.0,61.0,293.85,1649173562.685271,1649173563.8218162,bc6de920-9ecf-4287-b203-8494dec02f15
0.0007670689879281,0.175092482076114,0.1185662384650167,0.3792917229636879,-0.0295143791463484,-0.3908537389870946,-0.3328548294137134,-0.3555757805875763,-13.968843088732902,26.13073368242585,17.401341919910987,-1.5590198266677615,0.5626043441168104,0.3810568180263283,3604.469970703125,11.942666666666668,0.2,178.87293272671528,-3.8942218254078,96.14906016643027,1553.0,1133.0,1200.0,1528.0,1471.0,1010.0,61.0,293.85,1649173563.9296758,1649173565.0511265,bc6de920-9ecf-4287-b203-8494dec02f15
0.0083801642069799,0.1733305568417297,0.1145032914148045,0.3747554230966458,-0.0341427203468521,-0.3847395940595453,-0.3348139854487113,-0.3600857844280294,-13.885291851639636,26.132557090907905,17.407616496947178,-1.535194907815392,0.5556500640658485,0.3955020138067306,3600.767523871528,11.943111111111111,0.2,178.87554337679808,-3.896559410219368,96.17626329207464,1553.0,1133.0,1200.0,1528.0,1471.0,1010.0,61.0,293.85,1649173565.1594698,1649173566.2822864,bc6de920-9ecf-4287-b203-8494dec02f15
0.0039211125111238,0.1782509083758704,0.1160959272053231,0.4093255342769651,-0.0336622450669533,-0.4203983175481313,-0.3493405579731106,-0.369145785652837,-14.02066123153275,26.700453141999684,17.493234418868866,-1.689517061163236,0.5701579307170365,0.4140508866636884,3596.905517578125,11.934111111111111,0.1977777777777777,178.8714407098366,-3.9144686879737023,96.27331724454088,1553.0,1026.0,1200.0,1528.0,1471.0,1010.0,61.0,293.85,1649173568.2143283,1649173569.3625307,06e023d8-fc00-468e-94a3-98ae4d141144
0.0102472790940042,0.175894552520486,0.1136880722296685,0.4042742438555292,-0.0353786978746127,-0.4143636126337017,-0.3499481374410678,-0.3724192635479945,-14.10233743356096,26.65769609344797,17.35108743920743,-1.6650289093494297,0.5636266444519163,0.4199665274083788,3590.87841796875,11.936,0.2,178.87019609758784,-3.942637479043828,96.2699932191448,1553.0,1026.0,1200.0,1528.0,1471.0,1010.0,61.0,293.85,1649173569.4742172,1649173570.6246767,06e023d8-fc00-468e-94a3-98ae4d141144
0.0083177078745461,0.1787576810253086,0.1160685340954451,0.4113663213296907,-0.034675790431563,-0.4246853413382581,-0.3520387804696566,-0.3742546026792487,-14.058311883775824,26.846732238407665,17.209654899662983,-1.702849910412773,0.5745879561060864,0.4189032896156273,3586.8716634114585,11.936333333333332,0.1966666666666666,178.87241363233838,-3.955800534234912,96.28848026449832,1553.0,1026.0,1200.0,1528.0,1471.0,1010.0,61.0,293.85,1649173570.7339478,1649173571.811203,06e023d8-fc00-468e-94a3-98ae4d141144
0.0403265656263322,0.1698549182550196,0.0788001986914805,-0.151110241155587,-0.11122585980896,0.127751698332402,-0.2115120699546779,-0.2413157850657517,-13.535266004489946,23.61143950871646,21.303247468373968,0.7849721673732271,0.5680492069570663,0.3753461735424621,3585.3712565104165,11.967222222222224,0.2088888888888888,178.90210522357037,-3.7980395284025033,96.27987953851344,1553.0,1435.0,1200.0,1528.0,1471.0,1010.0,61.0,293.85,1649173572.722388,1649173573.768216,07c84684-6dd2-42eb-a6f7-c40b11936f9b
0.0330262998458747,0.1685674417906169,0.0776222946619984,-0.1514115654549321,-0.1111573770122542,0.1294500715635873,-0.2110326903560428,-0.2341113945445487,-13.531580103808238,23.49671026363517,21.32456617008162,0.7886544005175978,0.5629658333255841,0.3760972819186423,3597.744547526041,11.969,0.2044444444444444,178.90003947080135,-3.7821321126892826,96.29699143911404,1553.0,1435.0,1200.0,1528.0,1471.0,1010.0,61.0,293.85,1649173573.877224,1649173575.096322,07c84684-6dd2-42eb-a6f7-c40b11936f9b
0.0434904706799426,0.1727174989015237,0.0793754541421055,-0.1537810702780573,-0.1118011153125213,0.1271079600995319,-0.2102656830094427,-0.2295230466851835,-13.40796956871568,23.56584328709985,21.267743388416065,0.7893351370009087,0.578563854778988,0.3739515804877218,3600.43115234375,11.971,0.2,178.8921893067153,-3.790996322707751,96.33526023012377,1553.0,1435.0,1200.0,1528.0,1471.0,1010.0,61.0,293.85,1649173575.2045753,1649173576.3180208,07c84684-6dd2-42eb-a6f7-c40b11936f9b
0.0605700792357337,0.1851402770902282,0.1598290376837522,-0.1635056276621151,-0.0392367445805835,0.120834936398609,-0.126387951135397,-0.1436867061208908,-12.85796551545694,23.491053731152004,21.46389997109163,0.8009934229403451,0.6258218626133508,0.0481350549824814,3607.502685546875,11.968333333333334,0.2044444444444444,178.89457683728517,-3.775617535177167,96.39177625095606,1553.0,1435.0,1200.0,1435.0,1471.0,1010.0,61.0,293.85,1649173577.2311304,1649173578.4723904,e84cb332-c0a4-485f-960e-2c3502e66a57
0.0619534316466775,0.181277847715367,0.1556515874485998,-0.1614374471384006,-0.042003449499791,0.1216704264534375,-0.1302777740312649,-0.1599993086135951,-12.916875181565011,23.4883300838663,21.284804053268967,0.7979213050261972,0.6128201633060382,0.0623941121355014,3605.985107421875,11.969,0.2,178.89822719394158,-3.7791773918270817,96.40976621031996,1553.0,1435.0,1200.0,1435.0,1471.0,1010.0,61.0,293.85,1649173578.5817616,1649173579.6184738,e84cb332-c0a4-485f-960e-2c3502e66a57
0.056044188441534,0.1825609412744357,0.1572628505419419,-0.1618954600938641,-0.0412167191573414,0.1197496211189404,-0.1293392857866242,-0.1589633008251108,-12.884476663736386,23.521462604426183,21.139844875087583,0.7949312348673431,0.6188471036534052,0.0577458659892031,3605.985107421875,11.969333333333331,0.2,178.90581022174013,-3.783528080032773,96.41454506600924,1553.0,1435.0,1200.0,1435.0,1471.0,1010.0,61.0,293.85,1649173579.7271526,1649173580.934019,e84cb332-c0a4-485f-960e-2c3502e66a57
0.1233751211757284,0.2026465854325786,0.2837259937871955,-0.1714844004930484,0.0721837073478472,0.1043853698289807,0.0004095256042809,-0.0298956916396174,-11.94977158575031,23.50296378237429,21.47965735972157,0.7887350750989893,0.693750497986321,-0.4503406429774345,3605.479654947917,11.965333333333334,0.2,178.8894572310473,-3.7825250382940334,96.43566856438235,1553.0,1435.0,1200.0,1330.0,1471.0,1010.0,61.0,293.85,1649173582.7548132,1649173583.8890202,a25f2734-72ef-4a86-950e-df01a8bb8aa2
0.1006314170594943,0.2037040439983998,0.2873954912509675,-0.173137596334577,0.0749783109943092,0.1045234311359795,0.003633484827892,-0.02826525331944,-11.959381205837976,23.550331416327616,21.45620198513456,0.7932626681565589,0.6984294831486395,-0.4636849394492971,3602.617133246528,11.96511111111111,0.2,178.88865430436485,-3.7865077026263214,96.43190816578932,1553.0,1435.0,1200.0,1330.0,1471.0,1010.0,61.0,293.85,1649173583.99673,1649173585.1350944,a25f2734-72ef-4a86-950e-df01a8bb8aa2
0.1001186178796648,0.2036514492152867,0.2832799495802236,-0.1703369237843503,0.0710731482401952,0.1020646249797054,-0.0018495215918699,-0.0238604397762473,-11.988690337072423,23.595316457772523,21.42863494768621,0.7814939082742811,0.6980790263018524,-0.4450090449857141,3605.31117078993,11.963111111111113,0.2,178.90568120705578,-3.783034836024585,96.40560131274606,1553.0,1435.0,1200.0,1330.0,1471.0,1010.0,61.0,293.85,1649173585.2439797,1649173586.5550172,a25f2734-72ef-4a86-950e-df01a8bb8aa2
0.1420892554684173,0.2204028874896175,0.402288790907603,-0.1623293671066438,0.1778537081809329,0.0715859474000699,0.1137406670363129,0.0839720188807144,-11.121030688778468,23.851249173661444,21.372937839112765,0.7029914981577374,0.7618226297675398,-0.9147256615343906,3605.985107421875,11.954,0.19,178.8944705898981,-3.783929069055296,96.38108624599506,1553.0,1435.0,1200.0,1210.0,1471.0,1010.0,61.0,293.85,1649173587.1921742,1649173588.1922016,af4ffd48-767f-4594-96d4-7fcafd09b907
0.1296418233336271,0.2176011195939178,0.3959850872828661,-0.1607389225967607,0.1747034998149387,0.0716232020381727,0.1087819650493401,0.0934555160502658,-11.23762745296692,23.664143271602125,21.15581644143033,0.6978400289166816,0.7534652692509943,-0.895418233673171,3607.502685546875,11.959111111111111,0.2,178.89265375957882,-3.782111052939341,96.36495182135567,1553.0,1435.0,1200.0,1210.0,1471.0,1010.0,61.0,293.85,1649173588.3003223,1649173589.41774,af4ffd48-767f-4594-96d4-7fcafd09b907
0.1290983438893803,0.2191274640126486,0.3994355240438504,-0.1628816123952987,0.1759339985839603,0.0717305830594563,0.1113870504291347,0.084603156447664,-11.161336537127545,23.795448971086568,21.124543272026315,0.7039903794736112,0.7594119709211488,-0.905385374850368,3598.919976128472,11.961444444444444,0.1988888888888889,178.896742766162,-3.7826958404551534,96.36976938145028,1553.0,1435.0,1200.0,1210.0,1471.0,1010.0,61.0,293.85,1649173589.5264332,1649173590.6618454,af4ffd48-767f-4594-96d4-7fcafd09b907
0.1595824996043851,0.2274626413155522,0.4940524384316394,-0.1389203031051038,0.262717581257172,0.0359847565905158,0.1973439102667369,0.1701425457822779,-10.670409167322257,24.250003929574223,21.027843614769555,0.5775701875709974,0.7911121036913423,-1.2737062490356952,3564.82666015625,11.95322222222222,0.1977777777777777,178.8938224808368,-3.788711007816081,96.33542491357372,1553.0,1435.0,1200.0,1071.0,1471.0,1010.0,61.0,293.85,1649173592.792626,1649173593.728258,36d07549-8144-4d4f-bde8-27b45657a8ee
0.1607330104831027,0.2285309728357857,0.4901489195955278,-0.1386463719086281,0.2588688485252274,0.0343411695557868,0.1926459908799797,0.1688824622385822,-10.695254529440987,24.25016709363601,20.945925072360485,0.5730400540281986,0.7957397014666663,-1.256455684579045,3557.2646484375,11.946555555555555,0.1944444444444444,178.8913423632582,-3.784645337712631,96.31960847218568,1553.0,1435.0,1200.0,1071.0,1471.0,1010.0,61.0,293.85,1649173593.8369274,1649173594.95351,36d07549-8144-4d4f-bde8-27b45657a8ee
0.1549667594989049,0.229380159425528,0.4942031005716151,-0.1386874615941409,0.2614848910705275,0.0333139276475162,0.1969741032163923,0.1728681608833016,-10.537826494279384,24.28775467417892,20.943779895344893,0.57135433963249,0.7980921531327722,-1.271513401430227,3556.6083984375,11.948333333333332,0.1911111111111111,178.91655183257478,-3.785424738187921,96.29766762784188,1553.0,1435.0,1200.0,1071.0,1471.0,1010.0,61.0,293.85,1649173595.0610657,1649173596.2937496,36d07549-8144-4d4f-bde8-27b45657a8ee
0.0115227026441578,0.155761159917009,-0.0186919061146437,-0.1355509494521302,-0.2006506979068897,0.1330933560578598,-0.3157428942371915,-0.3385887580129412,-14.186459566248152,23.89500169604308,21.35964701125731,0.758584143699733,0.5112068120854893,0.7763798425028021,3623.774576822917,11.972,0.2,178.9950838298318,-3.775711497710125,96.34694896052336,1553.0,1435.0,1200.0,1613.0,1471.0,1010.0,61.0,293.85,1649173598.2318318,1649173599.3672743,70e46201-e216-4ad6-9ed9-3897c9269d3b
0.0004147934494455,0.1518439442750162,-0.0226776047602545,-0.1329622996941602,-0.2039926585267744,0.136133991993603,-0.3192218206472912,-0.3350824383421449,-14.180136655756348,23.95208442802352,21.555556651695643,0.7597918580741488,0.494163355426513,0.791123930863539,3643.4588487413193,11.970666666666668,0.2,178.97510021414018,-3.788498560473773,96.35735816881844,1553.0,1435.0,1200.0,1613.0,1471.0,1010.0,61.0,293.85,1649173599.4755757,1649173600.5933385,70e46201-e216-4ad6-9ed9-3897c9269d3b
-0.0048868705275363,0.1529632270130589,-0.0222037038197358,-0.1313510364325174,-0.2030640317635774,0.1331875883849259,-0.3192459265943019,-0.3429135838670183,-14.194057238609574,23.90553562800677,21.50592523681463,0.7492363812809184,0.4987306270141666,0.7893363800179393,3658.312744140625,11.969,0.19,178.9633462174885,-3.79499995192624,96.34959224373216,1553.0,1435.0,1200.0,1613.0,1471.0,1010.0,61.0,293.85,1649173600.7015524,1649173601.780793,70e46201-e216-4ad6-9ed9-3897c9269d3b
-0.0320652263307331,0.1428650285767189,-0.1061055380543854,-0.1168217261365384,-0.2793133302642087,0.1324907074972075,-0.4104058541417077,-0.4383205426663705,-14.847739667207408,24.093379414871944,21.229625203800136,0.711590229605706,0.4608270747104987,1.1353320139317735,3648.450900607639,11.968444444444446,0.1911111111111111,178.97261250746246,-3.802322815922009,96.36395764937647,1553.0,1435.0,1200.0,1694.0,1471.0,1010.0,61.0,293.85,1649173603.7567997,1649173604.788483,ee161df0-824d-4d46-9c29-c2f22ac1f3af
-0.0405724330447636,0.1352913797345706,-0.1104446080694395,-0.1122065334627872,-0.2816537985199889,0.1349363649440753,-0.4142584229439314,-0.4319171258065668,-14.92036490435894,24.14757291980183,21.094790479723653,0.7067603519393633,0.433287963328578,1.1487805345286146,3640.6378784179688,11.9685,0.19375,178.9729272653467,-3.797090790225057,96.35499919223386,1553.0,1435.0,1200.0,1694.0,1471.0,1010.0,61.0,293.85,1649173604.896608,1649173605.9172642,ee161df0-824d-4d46-9c29-c2f22ac1f3af
-0.0194687749872212,0.1412214415903573,-0.1084723035158418,-0.1159670608291564,-0.2817984341951792,0.1329377631566698,-0.4124701998773641,-0.4387675981734539,-14.785836306385097,24.122939452523337,21.158418661830293,0.7107648256079092,0.4546008226503454,1.1446215132076785,3639.67138671875,11.967333333333334,0.1911111111111111,178.98139005945586,-3.791648700637225,96.3634529742878,1553.0,1435.0,1200.0,1694.0,1471.0,1010.0,61.0,293.85,1649173606.0262916,1649173607.14898,ee161df0-824d-4d46-9c29-c2f22ac1f3af
-0.0620004258830167,0.1250945660312916,-0.1856940545066822,-0.087736260534223,-0.3499295100646669,0.1266696702322161,-0.4994685688094422,-0.5276560943432059,-15.490717351534276,24.47760662879785,21.083868570425384,0.6311371160314608,0.3913996964984416,1.4640999169362563,3628.3744845920137,11.956,0.1955555555555555,178.96577928265282,-3.804790933237714,96.34941465881371,1553.0,1435.0,1200.0,1774.0,1471.0,1010.0,61.0,293.85,1649173609.2866924,1649173610.4233005,b96b6545-e4e8-4a56-84a7-a65627e2f677
-0.0473966066461706,0.1296637378725011,-0.1841430560670821,-0.0905637782387457,-0.3494484868371005,0.124864463848063,-0.4988571542644061,-0.5239054275579812,-15.508062234493266,24.46754729616912,21.102076620750523,0.6334634797791147,0.4089445366436525,1.461005798290113,3624.28173828125,11.955222222222224,0.1988888888888889,178.97880673012978,-3.8050984814778417,96.30894958253094,1553.0,1435.0,1200.0,1774.0,1471.0,1010.0,61.0,293.85,1649173610.5326912,1649173611.6534774,b96b6545-e4e8-4a56-84a7-a65627e2f677
-0.0576131440083346,0.1320830979274646,-0.1843008404576276,-0.0927333132362077,-0.3516311708103752,0.1232734716363871,-0.4995277379760308,-0.5168971705621493,-15.37388542691643,24.532510660215227,20.92431414838036,0.6352442454633132,0.4189026568986073,1.465238711316892,3615.619249131944,11.958111111111112,0.19,178.9851026467247,-3.803910977199645,96.29183995866003,1553.0,1435.0,1200.0,1774.0,1471.0,1010.0,61.0,293.85,1649173611.7620866,1649173612.7713983,b96b6545-e4e8-4a56-84a7-a65627e2f677
-0.0771077306575306,0.1225607027433955,-0.2417814679100065,-0.0620826051390576,-0.4030447743233079,0.1093983101902078,-0.567841808565428,-0.590578103536738,-15.825080919755225,24.91386073566962,21.15115903382725,0.5343993213510064,0.3769595596360098,1.7098474382728677,3609.021484375,11.94877777777778,0.19,178.9827227052539,-3.816546163117999,96.22183810876648,1553.0,1435.0,1200.0,1856.0,1471.0,1010.0,61.0,293.85,1649173614.7028787,1649173615.841697,e6a99479-78ad-4e85-8160-714aec4018d0
-0.0689582778966055,0.1213006193824035,-0.2368370096208884,-0.0633015988932299,-0.3975250600329291,0.108823054738832,-0.5607058992994824,-0.5847433673539387,-15.719496696085168,24.77806216561662,20.78209687761577,0.5351966904480796,0.3752184037653031,1.684875416362579,3609.021484375,11.94675,0.1925,178.99153782328773,-3.811691226710458,96.19898144989148,1553.0,1435.0,1200.0,1856.0,1471.0,1010.0,61.0,293.85,1649173615.9504845,1649173617.0661542,e6a99479-78ad-4e85-8160-714aec4018d0
-0.066972276830279,0.1206431845818652,-0.2372479064333085,-0.0629454883585882,-0.3977305084633276,0.1100283518726939,-0.5622125212100478,-0.5886605843009267,-15.849533580619196,24.853190173046425,20.900817821000043,0.5375328961925913,0.3725521525481279,1.687829697024452,3609.021484375,11.944666666666668,0.19,178.99187667656153,-3.823806749069461,96.1727761010484,1553.0,1435.0,1200.0,1856.0,1471.0,1010.0,61.0,293.85,1649173617.174102,1649173618.4115994,e6a99479-78ad-4e85-8160-714aec4018d0
0.0138894680136348,0.1558033453103583,-0.0167732921645588,-0.1593972076687017,-0.1695480019753097,0.1462573921060658,-0.2624172533750477,-0.2873077391009286,-13.013373052795778,19.591211575286977,20.37412978790729,0.8139554007612766,0.514781454505089,0.6564699699027899,7196.83154296875,11.63811111111111,8.04,179.78351229738396,-4.061585745190161,83.61577384030345,1553.0,1435.0,1350.0,1528.0,1471.0,1010.0,61.0,293.85,1649173622.235751,1649173623.213704,859a1f1a-f5ee-4373-b007-fd5201bcbe31
0.0188728239329166,0.1637451575959894,-0.0154584225419324,-0.1562941151069533,-0.1670103034228243,0.1400380589545001,-0.2622857664153924,-0.2916731065448373,-13.094778833585568,19.379739341175423,21.01059116825796,0.7917039869600936,0.539201020285204,0.6529497153686592,7202.87890625,11.636444444444445,8.066666666666668,-19.95961288907852,-4.088600661177377,77.81263338559633,1553.0,1435.0,1350.0,1528.0,1471.0,1010.0,61.0,293.85,1649173623.3249297,1649173624.5557928,859a1f1a-f5ee-4373-b007-fd5201bcbe31
0.0223018943939397,0.15793891266458,-0.0112957643768542,-0.1525620765509886,-0.1649574630604027,0.146351624429207,-0.2617510527010095,-0.2853365298530392,-13.273373563217532,19.89046656032126,21.6004410563651,0.8010699174273687,0.5132733546444315,0.6435457832664584,7202.87890625,11.640777777777778,7.935555555555556,-179.8400586746126,-4.060839499591468,73.17697640680959,1553.0,1435.0,1350.0,1528.0,1471.0,1010.0,61.0,293.85,1649173624.6742537,1649173625.7828891,859a1f1a-f5ee-4373-b007-fd5201bcbe31
0.1408269806630376,0.3767540247995914,0.0115095539600067,-0.2423654891776954,-0.1942807018790006,0.0233170833854745,-0.2934350320490834,-0.3134473507825468,-13.149388879501062,19.72583517955505,22.799571662967523,0.7274671231586061,1.3349573319793706,0.7250449586394414,7215.765075683594,11.624125,8.07125,179.9585372229579,-3.985451612721553,64.20278696691656,1647.0,1435.0,1350.0,1528.0,1543.0,1010.0,61.0,293.85,1649173627.7177894,1649173628.750679,b8c43edb-34ff-4031-8df1-73930c4141bd
0.1354354674836779,0.3757963614948913,0.0122486202587613,-0.2412746951167867,-0.1920355617889474,0.0259177859523427,-0.2914588922944459,-0.3061553020956684,-13.209598254609636,19.63051224133211,23.19036620333532,0.7302875652592004,1.3282389934880583,0.7186078505124254,7217.03125,11.625333333333336,8.09,179.88135551615431,-3.9500411195129055,61.78304076632172,1647.0,1435.0,1350.0,1528.0,1543.0,1010.0,61.0,293.85,1649173628.8627765,1649173630.0850408,b8c43edb-34ff-4031-8df1-73930c4141bd
0.1493922602922828,0.3831788060091934,0.0127006067089768,-0.2507801079279324,-0.1940352595228443,0.021562280276478,-0.2908699401833524,-0.3147430455754483,-13.072257151053018,19.52590110311701,22.360227253951564,0.741207876009503,1.363510282065966,0.7196549362093297,7221.0830078125,11.626555555555557,8.066666666666668,179.73498304442114,-3.9274788702502383,59.05375485113762,1647.0,1435.0,1350.0,1528.0,1543.0,1010.0,61.0,293.85,1649173630.1929123,1649173631.4078066,b8c43edb-34ff-4031-8df1-73930c4141bd
0.2613616220275616,0.5990913364130228,0.0311087816588991,-0.3559970866216868,-0.2284273216827053,-0.0952419750386796,-0.3231938232971509,-0.345683576718345,-12.901598192575928,19.25418686577257,22.005616081064414,0.7152215999949458,2.189365406697659,0.812361722463021,7227.17236328125,11.607777777777777,8.08,179.38928743886922,-3.880094622610751,56.37304182623606,1745.0,1435.0,1350.0,1528.0,1614.0,1010.0,61.0,293.85,1649173632.1714942,1649173633.248514,68b25f47-a504-490b-8361-8a893d914a35
0.2623603750497542,0.5885137591649449,0.0274852200574196,-0.3510657768264333,-0.2285593565508558,-0.0867243587427447,-0.3236375918945835,-0.3416250113363561,-12.971100510062884,19.21159357917152,22.373646367298324,0.7227988896226439,2.146085551457112,0.8173640049368477,7224.465983072917,11.612444444444444,8.075555555555555,179.25819637703904,-3.86438219931196,55.046520431131576,1745.0,1435.0,1350.0,1528.0,1614.0,1010.0,61.0,293.85,1649173633.3563335,1649173634.688831,68b25f47-a504-490b-8361-8a893d914a35
0.2531436873041502,0.5886956494455621,0.026191717059705,-0.3508608762918392,-0.2298106742885966,-0.088667626585302,-0.3255496317664184,-0.3434099473583556,-12.987897774101924,19.216629748444927,22.1373833373929,0.717892762458896,2.148873487352578,0.8232306327654649,7225.819173177083,11.610555555555557,8.08,179.12120706740563,-3.838972282915959,53.81860989216915,1745.0,1435.0,1350.0,1528.0,1614.0,1010.0,61.0,293.85,1649173634.796818,1649173635.8207085,68b25f47-a504-490b-8361-8a893d914a35
0.3226208462001347,0.7031177845043627,0.0424484364834854,-0.4132591219771615,-0.2472699534811769,-0.1551370296933325,-0.3421904053278309,-0.3690663453782833,-12.96739542686797,19.627542882794952,20.452340836733573,0.7125574768938772,2.601535558251011,0.8593110840203131,7221.0830078125,11.587666666666667,8.063333333333333,178.79750922444055,-3.786030348294328,52.3249294829574,1849.0,1435.0,1350.0,1528.0,1686.0,1010.0,61.0,293.85,1649173636.671378,1649173637.86769,511a8a17-26bb-47c9-a1e3-64317013f631
0.3240409052996159,0.6961621248654092,0.0462089636479584,-0.4119311033479117,-0.2442589016546691,-0.1496803203565176,-0.3388506359024978,-0.3690531970028366,-13.012252858040602,19.892712452153663,20.457427749334645,0.723747067758716,2.5757993972456728,0.8443657729680973,7217.70654296875,11.586333333333336,8.072222222222223,178.67191570598237,-3.783879407888205,51.651311941893695,1849.0,1435.0,1350.0,1528.0,1686.0,1010.0,61.0,293.85,1649173637.9760897,1649173638.990794,511a8a17-26bb-47c9-a1e3-64317013f631
0.3151786846424613,0.7000015437962216,0.0484179446058339,-0.4094591479502299,-0.2420104743512869,-0.1532436173012099,-0.3374568738813345,-0.3613086132564412,-13.0016849029375,19.832150409016435,20.823582675730915,0.7099359442551318,2.5867141932224467,0.8373427492236545,7221.0830078125,11.586,8.08,178.5614169055899,-3.756077265167276,51.03141687429177,1849.0,1435.0,1350.0,1528.0,1686.0,1010.0,61.0,293.85,1649173639.103758,1649173640.212674,511a8a17-26bb-47c9-a1e3-64317013f631
0.3539936332357413,0.7677173229614702,0.0542954118426348,-0.450719765896822,-0.2538837484731073,-0.1884821263847164,-0.3467530036881725,-0.3694345088832542,-12.941063418291044,19.752197841186888,19.83313970265302,0.7234594307723101,2.854490052405759,0.8652487659897088,7215.00537109375,11.523222222222222,8.08,178.27113234804457,-3.728378286761936,49.79749349213,1962.0,1435.0,1350.0,1528.0,1760.0,1010.0,61.0,293.85,1649173642.189967,1649173643.602662,6e0eae14-b9dc-41a7-90bd-8a0ec9e1d246
0.3665637859443512,0.7679539994720589,0.0477079150040268,-0.4631978814088445,-0.2620753872893624,-0.1833804316841479,-0.3517363604298936,-0.3693687653493815,-12.919224532970295,19.75190505719661,18.913800147463085,0.7626056822275838,2.864489952202257,0.891118769533345,7215.00537109375,11.52288888888889,8.07,178.2201336022418,-3.732520891357287,49.38657641019361,1962.0,1435.0,1350.0,1528.0,1760.0,1010.0,61.0,293.85,1649173643.7196846,1649173644.7214406,6e0eae14-b9dc-41a7-90bd-8a0ec9e1d246
0.3563603984057279,0.762931197983873,0.061329964336329,-0.4518242566144228,-0.249386893786615,-0.1811057070343207,-0.339889383094508,-0.3571141786387929,-12.887898413419345,20.07429226971887,20.119690137116688,0.7450846067628635,2.834210597769905,0.8394830189421608,7215.00537109375,11.532222222222222,8.072222222222223,178.18367101681264,-3.723348279325045,49.10676974229,1962.0,1435.0,1350.0,1528.0,1760.0,1010.0,61.0,293.85,1649173644.829548,1649173645.955123,6e0eae14-b9dc-41a7-90bd-8a0ec9e1d246
-0.1300493154773088,-0.1091823331452336,-0.0302901523009778,-0.0437018228657902,-0.1243164835218209,0.304751769219248,-0.2182244801311511,-0.2342395944064358,-13.601242671054475,20.62043186513914,21.24892434141501,0.915126291038249,-0.497752455223988,0.5197183136772172,7216.35595703125,11.62977777777778,8.10222222222222,178.6482984296523,-3.7294407606328255,48.48238572258356,1459.0,1435.0,1350.0,1528.0,1394.0,1010.0,61.0,293.85,1649173647.7891986,1649173648.9265006,f9625e5b-39a6-4614-ac03-8b0e8fcd11e2
-0.1365371018247361,-0.1146089099887887,-0.0307585746142403,-0.0384423441822034,-0.1226350938763562,0.3057658623510271,-0.2169769974533364,-0.2432880896876567,-13.564810723863708,20.54772259857677,21.32934040640732,0.9050668332620658,-0.5197544826177435,0.5158487998237262,7221.0830078125,11.62922222222222,8.100000000000001,178.60262571358234,-3.697474431816044,48.31162454259904,1459.0,1435.0,1350.0,1528.0,1394.0,1010.0,61.0,293.85,1649173649.0350027,1649173650.1638224,f9625e5b-39a6-4614-ac03-8b0e8fcd11e2
-0.1364412258926215,-0.1155950622657981,-0.0273344348664346,-0.0346620939107364,-0.1186767881924418,0.3056973795664537,-0.2140322370426835,-0.2449179804485658,-13.606987956142662,20.579695027037737,21.70123380338028,0.8968061242589584,-0.5266985302330056,0.5019929798913635,7215.00537109375,11.632222222222222,8.103333333333332,178.58050197195075,-3.691531313464486,48.16290817761566,1459.0,1435.0,1350.0,1528.0,1394.0,1010.0,61.0,293.85,1649173650.2750273,1649173651.230081,f9625e5b-39a6-4614-ac03-8b0e8fcd11e2
-0.2557656559493838,-0.34023234492404,-0.0394147999120216,0.0608987966649149,-0.0841751551753183,0.4401564851187567,-0.1766269319453663,-0.1989660214785841,-13.787145190273742,21.588972117441568,22.121384514052703,0.9894571172535264,-1.3841879001188466,0.3919193150134876,7215.00537109375,11.610666666666669,8.098888888888888,178.65196396450685,-3.670004027588552,48.008710585823366,1364.0,1435.0,1350.0,1528.0,1312.0,1010.0,61.0,293.85,1649173652.2948902,1649173653.3194206,8dcbb537-ae84-4c7a-857b-4cff08c7e183
-0.2526291435634568,-0.3413006766737718,-0.0418664839734358,0.0545846831584771,-0.0858050457289602,0.4410741544651382,-0.1762982145017775,-0.207375709271274,-13.730461140078186,21.396851874202127,21.270831975784823,1.0042596204195642,-1.380438843215971,0.3957474064007711,7210.454467773437,11.6135,8.0875,178.64788710048228,-3.672793460244431,47.9392425341862,1364.0,1435.0,1350.0,1528.0,1312.0,1010.0,61.0,293.85,1649173653.4278288,1649173654.5438912,8dcbb537-ae84-4c7a-857b-4cff08c7e183
-0.2615866940239824,-0.3389311716385371,-0.0382642889507769,0.0599263410075442,-0.0814358433254888,0.4384581119961503,-0.173161702312055,-0.2008150568972494,-13.727754441915502,21.32962566838773,21.954564538376577,0.9861756203276568,-1.3780612730528556,0.381747856135216,7208.9375,11.608,8.11,178.64466325119403,-3.6696302644589696,47.87753756172318,1364.0,1435.0,1350.0,1528.0,1312.0,1010.0,61.0,293.85,1649173654.6522317,1649173655.8909757,8dcbb537-ae84-4c7a-857b-4cff08c7e183
-0.3978400809947275,-0.5802919839466967,-0.0588776103439556,0.1539395176386328,-0.0540427249626973,0.5809433980276305,-0.1426731604558,-0.1663956021271745,-13.994534923245292,22.57220158961883,20.92272500949889,1.101200398300717,-2.285138426660532,0.2985942496449423,7221.0830078125,11.571888888888887,8.066666666666666,178.732033513237,-3.657522331199046,47.7977290780013,1262.0,1435.0,1350.0,1528.0,1222.0,1010.0,61.0,293.85,1649173656.6857307,1649173657.8299944,9d4b03fa-45f9-47f3-b65a-990e8b087b1a
-0.3903146423151142,-0.577381190420671,-0.0571660883553064,0.1506359077891878,-0.0527744236124972,0.5810321517175836,-0.1400686226976167,-0.1647618763906888,-13.945639426586991,22.481008775194184,20.925779953248924,1.108357768031122,-2.2740806275050307,0.2912246473808119,7221.0830078125,11.572777777777778,8.084444444444443,178.7439438453297,-3.654846509727955,47.82846492926636,1262.0,1435.0,1350.0,1528.0,1222.0,1010.0,61.0,293.85,1649173657.938162,1649173659.0612705,9d4b03fa-45f9-47f3-b65a-990e8b087b1a
-0.3911561591508909,-0.5793469211113312,-0.0536181316636571,0.1555557115034218,-0.0499885434827274,0.5813816878588768,-0.1382765648471269,-0.1675324164307371,-13.963931491016105,22.68090046200923,21.363675966759747,1.099607716687205,-2.285582328906781,0.2803704799353076,7221.0830078125,11.574777777777776,8.08,178.73517691807504,-3.671453071193718,47.84643098296817,1262.0,1435.0,1350.0,1528.0,1222.0,1010.0,61.0,293.85,1649173659.1698103,1649173660.320999,9d4b03fa-45f9-47f3-b65a-990e8b087b1a
-0.4335344158491827,-0.6522761891772056,-0.0741016098221264,0.1625223288337018,-0.061373671292528,0.6367826184052001,-0.1419094403340724,-0.1676019949147668,-13.91708588639364,23.322363505548672,19.89307159660727,1.2114075766126315,-2.548554461225037,0.3179030808178945,7221.0830078125,11.503444444444446,8.06777777777778,178.8156562781554,-3.655979894243354,47.888508363350034,1153.0,1435.0,1350.0,1528.0,1121.0,1010.0,61.0,293.85,1649173662.2177513,1649173663.3546302,0a38dd9c-9527-4c55-8cf9-b3f9f0467964
-0.4406215646599809,-0.6549190780800953,-0.0762054012819364,0.1521217104469856,-0.0645951019684464,0.6439618058560518,-0.1427772543013618,-0.1648670657706085,-13.99331577065977,23.40400540860238,19.1724496145386,1.251284632086788,-2.550391956476079,0.3248798934415752,7221.0830078125,11.507444444444443,8.062222222222223,178.83160249313767,-3.680958275493045,47.90404818207667,1153.0,1435.0,1350.0,1528.0,1121.0,1010.0,61.0,293.85,1649173663.4631722,1649173664.5804358,0a38dd9c-9527-4c55-8cf9-b3f9f0467964
-0.4367689958296252,-0.6615460234374813,-0.0659099716385985,0.1695568810537093,-0.0560353003672506,0.6471963848157949,-0.1386748607896659,-0.1615272967186839,-14.170648795540528,24.07407062966474,21.03874067037705,1.2243865092766977,-2.592015405176168,0.2949306267400131,7221.0830078125,11.512,8.07,178.84988311499623,-3.687981986689541,47.92458580200099,1153.0,1435.0,1350.0,1528.0,1121.0,1010.0,61.0,293.85,1649173664.6884644,1649173665.7209177,0a38dd9c-9527-4c55-8cf9-b3f9f0467964
0.0142894075429666,0.162513563086824,-0.0055158165119633,-0.1420979049573277,-0.1596979841126356,0.1419824223526455,-0.2611210109213558,-0.2823917695780027,-13.462654188250012,20.10605389060781,23.00858307107602,0.7694932738063424,0.5183721402719605,0.6300169270075923,7245.5,11.630888888888888,8.095555555555556,178.55956971887437,-3.716848121101177,48.148587547655865,1553.0,1435.0,1350.0,1528.0,1471.0,1010.0,61.0,293.85,1649173667.8595276,1649173668.9962237,e7464dce-23cb-4085-b992-cfb67ed13286
0.0216581561515512,0.1658144336024189,-0.0043926987113056,-0.1458918519931924,-0.1584515972181779,0.1400101179690251,-0.2585597541638231,-0.2746943024976928,-13.390482256588996,19.92071396074128,22.70754881860544,0.7724350833926249,0.5334448279336983,0.6232097821528976,7245.5,11.636777777777777,8.02111111111111,178.5854561358287,-3.7234335143940616,48.26166094991048,1553.0,1435.0,1350.0,1528.0,1471.0,1010.0,61.0,293.85,1649173669.1042995,1649173670.2264671,e7464dce-23cb-4085-b992-cfb67ed13286
0.0179874783876689,0.1651159091383207,-0.0133913378565058,-0.1460014244654577,-0.1675461128133281,0.1403936215956629,-0.2681199532525736,-0.2968005510780928,-13.39101946391502,19.97036029260565,22.57845547233692,0.7734042266375551,0.5314167567343889,0.6611863548336513,7248.224392361111,11.63577777777778,7.99888888888889,178.58754769153458,-3.7274306454464647,48.36681588618731,1553.0,1435.0,1350.0,1528.0,1471.0,1010.0,61.0,293.85,1649173670.3342144,1649173671.4542246,e7464dce-23cb-4085-b992-cfb67ed13286
0.0346424937637323,0.1594455340622846,-0.0283479802216159,-0.4368752811179013,-0.2103752555340976,0.4231727538908862,-0.2001987114473812,-0.2242772644411588,-13.184878545130552,19.184418343063715,24.12248913771646,2.059381899208073,0.5298569536446079,0.6426112920056878,7252.312065972223,11.624222222222222,8.059999999999999,178.6128102845447,-3.6424472973590505,48.44546665284488,1553.0,1537.0,1350.0,1528.0,1471.0,1010.0,61.0,293.85,1649173672.2528946,1649173673.2982168,d5a5432d-ad22-44de-9631-44aa52f9dec8
0.028999511582558,0.153323172556495,-0.0272522555122374,-0.4315062289875959,-0.2087179717806007,0.4286376803119524,-0.2003493736114752,-0.2164154388269135,-13.344449280887536,19.423448970331165,24.750657690534457,2.061209984922905,0.5018688077091505,0.6390574811259525,7251.6298828125,11.623666666666663,8.083333333333334,178.6295184450744,-3.636671186619074,48.54927718022009,1553.0,1537.0,1350.0,1528.0,1471.0,1010.0,61.0,293.85,1649173673.4064,1649173674.4510212,d5a5432d-ad22-44de-9631-44aa52f9dec8
0.0261232342737123,0.1545558627936602,-0.0193219479045066,-0.4256577971910781,-0.2019929608662156,0.4281172111275345,-0.1950488049578605,-0.2102519867255525,-13.39547592616767,19.62974965879106,25.66213800102086,2.0487298701940566,0.4985610434299328,0.6129066546422037,7245.5,11.620666666666663,8.07888888888889,178.63535446226518,-3.625499511026003,48.61868442420089,1553.0,1537.0,1350.0,1528.0,1471.0,1010.0,61.0,293.85,1649173674.562041,1649173675.6387434,d5a5432d-ad22-44de-9631-44aa52f9dec8
0.0438328846347621,0.1501729641705784,-0.0407433661272229,-0.7375696234849635,-0.2563546079515948,0.7297154029884885,-0.1315241609807244,-0.1466725561199019,-13.181022830777351,19.11190788049354,27.261689629256125,3.425921387322173,0.503464112816204,0.6250567040095738,7250.948784722223,11.606666666666667,8.025555555555554,178.678592595351,-3.5575448680405533,48.70015454116584,1553.0,1645.0,1350.0,1528.0,1471.0,1010.0,61.0,293.85,1649173676.7561429,1649173677.8039553,8315d33e-6a4c-4896-8f94-bb6544ee6679
0.043750157419783,0.1498995808721298,-0.0377323146094431,-0.7317863861829653,-0.2506886149259115,0.7248262799047004,-0.1283399848336395,-0.1526782234271023,-13.249609418660192,18.93137076144837,27.31199697959516,3.4008159309238466,0.5019541079858779,0.6088161478133857,7245.5,11.619333333333332,8.05888888888889,178.70724144436969,-3.541898185312524,48.72850248240608,1553.0,1645.0,1350.0,1528.0,1471.0,1010.0,61.0,293.85,1649173677.9118588,1649173679.1287498,8315d33e-6a4c-4896-8f94-bb6544ee6679
0.0494303942164126,0.1527791452683534,-0.0331565681526486,-0.7355074687479659,-0.2493080016221392,0.7196456940846211,-0.1240272121594443,-0.1471294732349472,-12.97343963097725,18.99108572979403,26.52202766091635,3.3982051039836008,0.518550277068654,0.5939282298841383,7237.34375,11.613666666666669,8.056666666666667,178.74054544676267,-3.54164134174061,48.772733649106215,1553.0,1645.0,1350.0,1528.0,1471.0,1010.0,61.0,293.85,1649173679.237008,1649173680.355178,8315d33e-6a4c-4896-8f94-bb6544ee6679
0.0590815372754996,0.1456919981916859,-0.0448194621008557,-1.0151146421174488,-0.2928827867729371,0.9989239785115598,-0.0611764408156711,-0.0842261064376984,-12.8865324135515,18.911302689564927,28.830744665601348,4.6558081219667615,0.5045768674850126,0.5797309593883044,7233.2705078125,11.596,8.073333333333332,178.75512562391089,-3.4462183340980466,48.90641980336602,1553.0,1761.0,1350.0,1528.0,1471.0,1010.0,61.0,293.85,1649173682.400362,1649173683.447616,730d3c5f-7943-4501-965b-44735685b29c
0.0509687916849055,0.1456919981893336,-0.0505391451940767,-1.0086849254734769,-0.2964197865873264,0.9912582891042276,-0.0680137631568266,-0.0985844838346154,-12.920884744915076,18.78827235136701,28.5361828217828,4.62291379691129,0.5062743793598368,0.6017473221964046,7233.2705078125,11.596444444444447,8.056666666666667,178.7494155857648,-3.4489099266656584,48.93411735881528,1553.0,1761.0,1350.0,1528.0,1471.0,1010.0,61.0,293.85,1649173683.5564003,1649173684.5048711,730d3c5f-7943-4501-965b-44735685b29c
