raw_voltage_G-,raw_voltage_G0,raw_voltage_G1,raw_voltage_G2,raw_voltage_G3,raw_voltage_G4,raw_voltage_G5,raw_voltage_G6,load_x,load_y,load_z,load_l,load_m,load_n,rpm,voltage,current,roll,pitch,yaw,aileron1_pwm,elevator_pwm,throttle_pwm,rudder_pwm,aileron2_pwm,pbaro,pdiff,Tt,sample_start_time,sample_end_time,uid
-0.0097781856100331,0.1307813770297912,0.0061317371747589,-0.1493121567988417,-0.1681016452363132,0.1622330575767407,-0.2776302969143865,-0.2979055894641317,-14.573057484797468,23.51561291186353,20.470723970438165,0.8534915906682672,0.4313937377907371,0.6394336674964384,3383.1557888454863,11.967888888888888,0.22,179.4240014958708,-4.449099942845419,101.0388586184044,1553.0,1435.0,1200.0,1528.0,1471.0,1010.0,61.0,293.85,1649174215.2433803,1649174216.2259858,7e2fcb2f-00ac-4402-a2b8-59e78ecdccd8
0.004238324841139,0.126797322158394,0.0060002502077585,-0.1490886289454975,-0.1669577085719867,0.1654018932730865,-0.2758026278934398,-0.2917125528028519,-14.562157001578674,23.453632063577658,20.40278029537632,0.8596853942212719,0.4169392340849254,0.6349097257155766,3490.152886284722,11.967222222222222,0.22,179.50160306958088,-4.433148700085024,100.74276156987536,1553.0,1435.0,1200.0,1528.0,1471.0,1010.0,61.0,293.85,1649174216.3388865,1649174217.4528377,7e2fcb2f-00ac-4402-a2b8-59e78ecdccd8
-0.012236991877412,0.1273495673886677,0.0069864024403068,-0.1471689191532085,-0.166300273705066,0.162890492368003,-0.2765389549794982,-0.3036384222787654,-14.615148889540334,23.532836436251927,20.374294961760462,0.850254489759659,0.4194655204924186,0.6336923269211004,3485.2648111979165,11.97,0.22,179.5516744274763,-4.417141060832106,100.53216179373692,1553.0,1435.0,1200.0,1528.0,1471.0,1010.0,61.0,293.85,1649174217.561371,1649174218.5678985,7e2fcb2f-00ac-4402-a2b8-59e78ecdccd8
0.1101905190844287,0.3198727689191133,0.0207662362870655,-0.2469675333522513,-0.1984356902321677,0.0705866464948521,-0.3026654181098469,-0.3330126141061034,-14.387553308855226,23.05304548941594,20.961674994439587,0.8656703954728338,1.1478805559175995,0.71948182183665,3463.669189453125,11.957,0.2133333333333333,179.4571279133454,-4.3512562497563865,99.90929787057574,1647.0,1435.0,1200.0,1528.0,1543.0,1010.0,61.0,293.85,1649174220.7103016,1649174221.8471444,392ce1df-6077-468f-a3a3-10ae61acdf9a
0.1052203119688081,0.3241592436067628,0.023277637297127,-0.2492817041870011,-0.1961215194648879,0.0692191820814736,-0.2994176896553712,-0.3174840015988345,-14.340117620592324,22.91853159334112,21.08487055150145,0.867094580913307,1.162971677023564,0.7090429576531474,3468.49693467882,11.958888888888888,0.2177777777777777,179.47112828332408,-4.3156952967295386,99.73266993754912,1647.0,1435.0,1200.0,1528.0,1543.0,1010.0,61.0,293.85,1649174221.956006,1649174223.186745,392ce1df-6077-468f-a3a3-10ae61acdf9a
0.1088093581079241,0.3227495938918593,0.0202474106449869,-0.2489995550506361,-0.2000069595836358,0.0715958089094386,-0.3031009687372265,-0.331973319006491,-14.33347118019939,23.05510944078104,21.235693479308782,0.8725806130943811,1.1560763293192318,0.7237030271706905,3477.7236599392363,11.957777777777778,0.2155555555555555,179.47144398984574,-4.292991226177855,99.5601575729524,1647.0,1435.0,1200.0,1528.0,1543.0,1010.0,61.0,293.85,1649174223.2947223,1649174224.4119232,392ce1df-6077-468f-a3a3-10ae61acdf9a
0.2167519329355345,0.5304167981714705,0.0433261120292726,-0.360571737936908,-0.2297832810891239,-0.0281973180166684,-0.3254126661088182,-0.3560792663495775,-14.091124184303476,22.827970507446537,21.374244389675045,0.8997991524880975,1.9472074985631087,0.7891753389089416,3492.4884643554688,11.946,0.22,179.30125275120196,-4.20403073957092,99.1852938342774,1745.0,1435.0,1200.0,1528.0,1614.0,1010.0,61.0,293.85,1649174226.3492534,1649174227.369867,8bebb13c-8d93-4cc6-8dcc-97a02293139c
0.224285039831058,0.5294717357166964,0.0426549806444319,-0.3601608411055033,-0.2301667847853787,-0.0267043930885574,-0.3261796735265547,-0.3468888736823701,-14.140495224325432,22.85413355294271,21.50296023173217,0.9023627576115352,1.94277887795054,0.7917300942141532,3512.72216796875,11.946666666666664,0.21,179.27752733021,-4.172688685301089,99.054768350056,1745.0,1435.0,1200.0,1528.0,1614.0,1010.0,61.0,293.85,1649174227.478443,1649174228.6035988,8bebb13c-8d93-4cc6-8dcc-97a02293139c
0.2265170308999645,0.5298968768559813,0.0426325182932841,-0.3605065423112929,-0.2300977541167114,-0.0267005580566416,-0.3263593723986779,-0.3569563939926213,-14.170421609306263,22.848002721677418,21.51691619113626,0.9030965926476376,1.9445025712361548,0.7919722261079397,3523.630669487847,11.943666666666664,0.2122222222222222,179.25708229729446,-4.14460399093512,98.92745134719723,1745.0,1435.0,1200.0,1528.0,1614.0,1010.0,61.0,293.85,1649174228.7127106,1649174229.9336102,8bebb13c-8d93-4cc6-8dcc-97a02293139c
0.2872640042777256,0.636545941897025,0.0637756218640395,-0.4345074195103142,-0.2427468013616461,-0.0767313491120746,-0.3302908332039752,-0.3607695168931874,-13.938983871473278,23.13301036507236,19.63545484181741,0.96035729311743,2.3699949777464444,0.7956248141726331,3533.151611328125,11.921333333333331,0.2077777777777777,179.06116211550216,-4.057257634554227,98.59140148657318,1849.0,1435.0,1200.0,1528.0,1686.0,1010.0,61.0,293.85,1649174231.678779,1649174232.8020656,0dc06105-e3bd-40dd-9716-46d541469a5e
0.286261964102855,0.6366472964208725,0.0673498757759946,-0.4331361197669885,-0.2395626250448056,-0.0798607389793476,-0.3280561023410615,-0.3576132810778463,-13.964256774289751,23.194649171166866,19.40611142190126,0.9507691246641408,2.372645456814615,0.7828918160664181,3532.1812337239585,11.923333333333334,0.2033333333333333,179.05366863907273,-4.04544420577039,98.43116297191494,1849.0,1435.0,1200.0,1528.0,1686.0,1010.0,61.0,293.85,1649174232.9110897,1649174234.0308654,0dc06105-e3bd-40dd-9716-46d541469a5e
0.2841346147429336,0.634402704617566,0.0648275175551109,-0.4332319957152966,-0.2416686081463008,-0.0773361891822141,-0.3299489670573694,-0.3547211153722666,-13.975234509185556,23.208611289199894,19.422677902194213,0.9566224726397856,2.3640098793725346,0.7916310508944483,3533.151611328125,11.925222222222224,0.2011111111111111,179.01638643094316,-4.022969847761416,98.31682636411884,1849.0,1435.0,1200.0,1528.0,1686.0,1010.0,61.0,293.85,1649174234.139851,1649174235.2562563,0dc06105-e3bd-40dd-9716-46d541469a5e
0.3124306072812879,0.6851040723989702,0.0765693032356019,-0.4747818854566544,-0.2491765146007986,-0.0853831916816549,-0.3292520860453197,-0.3526436207596392,-13.869654210050417,23.628931804850023,19.943798633123578,1.0357733891550154,2.5546720591540635,0.7912664142139826,3540.1260850694443,11.865666666666666,0.1888888888888888,178.92316042005174,-3.9435047233409417,97.94619297899726,1962.0,1435.0,1200.0,1528.0,1760.0,1010.0,61.0,293.85,1649174237.197634,1649174238.650037,8252f769-3eca-43c9-bbdc-20877133be1b
0.3086569316985537,0.6860770758264707,0.0794357190009636,-0.4710082087105196,-0.2464547341431609,-0.0888281502664708,-0.3283448258486846,-0.3576401265089807,-13.9230118080958,23.700744662661528,20.097449467013423,1.020136035507914,2.55705557508098,0.7826610102527028,3549.8985731336807,11.866,0.19,178.89967367622583,-3.940649988859092,97.69710736361552,1962.0,1435.0,1200.0,1528.0,1760.0,1010.0,61.0,293.85,1649174238.758701,1649174239.761347,8252f769-3eca-43c9-bbdc-20877133be1b
0.3213717201651998,0.7024997958419861,0.0828806773707713,-0.4819216292491232,-0.2477433065523462,-0.095481390912355,-0.3263856698264277,-0.3545633307619721,-13.727384560803062,23.60651701567769,20.031475444006347,1.029438164957399,2.6194113542158006,0.7789047042521287,3556.6083984375,11.864,0.1955555555555555,178.8948970972662,-3.925029867977835,97.49141849349031,1962.0,1435.0,1200.0,1528.0,1760.0,1010.0,61.0,293.85,1649174239.870105,1649174240.920389,8252f769-3eca-43c9-bbdc-20877133be1b
-0.1387559444547899,-0.1183480707124218,-0.016336097982057,-0.0085153628599863,-0.1323596510790764,0.2795095611607277,-0.2554369383603437,-0.2789950223314297,-15.109538653460392,24.60118322296471,20.86075708121363,0.8052942326557891,-0.5213939617937183,0.5605985235660572,3564.991455078125,11.964,0.2133333333333333,179.34243082334308,-3.9035282427431577,97.1892160147532,1459.0,1435.0,1200.0,1528.0,1394.0,1010.0,61.0,293.85,1649174241.699645,1649174242.855044,755c5a5c-d69c-4815-848a-7e0fbf424df7
-0.1433032022373797,-0.1220324452066747,-0.0176509676372264,-0.0060225891438882,-0.1332499274529157,0.2817010104036769,-0.257957105460935,-0.2794470091103947,-15.23945276563037,24.74776713608506,20.96950717318386,0.8054538156194678,-0.5356447389575926,0.5667700219950399,3573.9108072916665,11.964888888888888,0.22,179.32708262936816,-3.897196040768255,97.14944989449546,1459.0,1435.0,1200.0,1528.0,1394.0,1010.0,61.0,293.85,1649174242.9630108,1649174243.979146,755c5a5c-d69c-4815-848a-7e0fbf424df7
-0.1437414921751359,-0.1281685038603743,-0.0197739342821996,-0.0009274692473581,-0.1330581756313269,0.2840294252270774,-0.2578064433101613,-0.2836107638043801,-15.18371840353266,24.663680632537467,21.10583247219514,0.7985793895900407,-0.561024740532746,0.5687561481200203,3579.382269965278,11.966666666666669,0.2188888888888889,179.2897731004819,-3.885135207354482,97.13777330665438,1459.0,1435.0,1200.0,1528.0,1394.0,1010.0,61.0,293.85,1649174244.08729,1649174245.2028904,755c5a5c-d69c-4815-848a-7e0fbf424df7
-0.2840205642742144,-0.3526830666631029,-0.0371274744870804,0.1229447542333756,-0.0969671936511589,0.3899290174185094,-0.2315309621631714,-0.255369551439479,-15.530107684019129,25.3969959460908,21.13049886153521,0.7609512396718202,-1.4171968215988724,0.4792544480632247,3588.8110961914062,11.947,0.21,179.33368590447574,-3.860190585737721,96.98655604893366,1364.0,1435.0,1200.0,1528.0,1312.0,1010.0,61.0,293.85,1649174247.2355993,1649174248.3671465,936cd0e1-1b1c-4cf9-afb3-432a021c2533
-0.2877745175672621,-0.3554766172464883,-0.03996266220217,0.124724758951792,-0.0999946811211621,0.3916980647878114,-0.2344948977753991,-0.2616277838594522,-15.501574609381862,25.494735281977,21.202181300144115,0.761443812641517,-1.428908839351741,0.4912212100916504,3587.8720703125,11.941,0.21,179.3041316759371,-3.852410680107959,96.88337152736864,1364.0,1435.0,1200.0,1528.0,1312.0,1010.0,61.0,293.85,1649174248.4761393,1649174249.717946,936cd0e1-1b1c-4cf9-afb3-432a021c2533
-0.276283103307465,-0.3559559968763466,-0.0367028811636806,0.1239714482468008,-0.0962144307562552,0.3922185339753039,-0.2305913781480064,-0.2513553637849132,-15.533047471083137,25.444392239229312,21.139176872808783,0.7641153601010154,-1.4296270929739234,0.4759163315551872,3586.8712565104165,11.943,0.2066666666666666,179.27866873071127,-3.86384256693566,96.79231599881348,1364.0,1435.0,1200.0,1528.0,1312.0,1010.0,61.0,293.85,1649174249.8308363,1649174251.0281744,936cd0e1-1b1c-4cf9-afb3-432a021c2533
-0.4106463658814216,-0.5897837020139245,-0.0641781786938388,0.2400908677098248,-0.0715880172116296,0.5090090790715566,-0.2139363611018972,-0.2361110922422348,-15.96272558494307,26.489038533588243,20.32116851015784,0.7698326640015359,-2.312352866541588,0.4269549397592988,3592.048882378472,11.912666666666668,0.1877777777777777,179.35241807772945,-3.876315820452442,96.5558237344414,1262.0,1435.0,1200.0,1528.0,1222.0,1010.0,61.0,293.85,1649174252.6807382,1649174253.810499,8a85affc-9bb0-489c-b91f-b153638c26ba
-0.4192341099151241,-0.5968648250565635,-0.0660135176152698,0.2447066077143821,-0.0715469275276273,0.5101869830018818,-0.2149225134141432,-0.2367548307077123,-15.983385177086314,26.50724993401665,20.095674082655737,0.7620505861421023,-2.3374509465392133,0.4296485064388884,3587.8720703125,11.907666666666664,0.2,179.3452995027945,-3.8776685773630586,96.3886404352171,1262.0,1435.0,1200.0,1528.0,1222.0,1010.0,61.0,293.85,1649174253.923578,1649174254.967595,8a85affc-9bb0-489c-b91f-b153638c26ba
-0.4188916958550677,-0.5953992928225466,-0.068081698051299,0.244829876729777,-0.0737383770049557,0.5085570926786275,-0.2181685981509651,-0.2467396228956303,-16.039244052321276,26.53027185962521,20.063822597808223,0.7581263785639903,-2.3314225535606035,0.4401592050502986,3584.1217651367188,11.909,0.2,179.34601098083306,-3.8657673284733294,96.2752575874476,1262.0,1435.0,1200.0,1528.0,1222.0,1010.0,61.0,293.85,1649174255.0758293,1649174256.0079277,8a85affc-9bb0-489c-b91f-b153638c26ba
-0.4226998878152443,-0.6329870450243633,-0.0766130108753,0.2526434890468184,-0.0803735381702978,0.5357743435226575,-0.2221953868373356,-0.2471779127038565,-16.03552709571402,27.241751635845667,19.66352162818188,0.8058913239835909,-2.4703687242187784,0.4612253362126042,3578.883544921875,11.86877777777778,0.19,179.38059792042512,-3.8519801884627705,95.99644262506598,1153.0,1435.0,1200.0,1528.0,1121.0,1010.0,61.0,293.85,1649174257.6778386,1649174258.8122532,e226ac0e-534b-46dd-b717-cca8ca6fffab
-0.4347572448848898,-0.6326714761747503,-0.0795057241733944,0.252906462932522,-0.082976980158,0.5343674331514208,-0.2260874013314955,-0.2411558093223696,-16.11028872742545,27.25708497534592,19.516079952695435,0.8020330764619412,-2.467564733136682,0.4740297647854662,3571.9259440104165,11.865333333333332,0.19,179.35645547843882,-3.85083205263604,95.81518913615145,1153.0,1435.0,1200.0,1528.0,1121.0,1010.0,61.0,293.85,1649174258.919921,1649174260.0415351,e226ac0e-534b-46dd-b717-cca8ca6fffab
-0.4360589661173407,-0.6273594010617443,-0.07625799605462,0.2452407734257687,-0.0812413521689122,0.536721049560732,-0.2209331118595947,-0.2431149650358025,-15.99559877579075,27.13293115166566,19.62027613712573,0.824026910171477,-2.448228863653987,0.4607538239860301,3566.968994140625,11.868666666666668,0.19,179.34400632031162,-3.850774565210525,95.65683575370416,1153.0,1435.0,1200.0,1528.0,1121.0,1010.0,61.0,293.85,1649174260.1503468,1649174261.3791971,e226ac0e-534b-46dd-b717-cca8ca6fffab
-0.0041324640851525,0.1237249102033346,0.0008530834016867,-0.1410706629673184,-0.1687651065945767,0.1694577180614233,-0.2820767483184224,-0.3033201140949607,-14.877578395571044,23.4698138523702,21.557801245881148,0.8505891256415455,0.3960981630614339,0.654421004995047,3565.4853515625,11.975,0.22,179.09769603846266,-3.837803893681064,95.44084923504028,1553.0,1435.0,1200.0,1528.0,1471.0,1010.0,61.0,293.85,1649174262.180146,1649174263.1268091,61c16ddc-9468-4ba1-8123-4b7a0e9727d3
-0.0031600084112374,0.1313538931663016,0.0043730990255619,-0.1441386923037389,-0.1677378646096082,0.1646913158347793,-0.2793922224462983,-0.3095109594176492,-14.716971244016714,23.439931708512727,21.564626564508767,0.8468582204097466,0.4241146405101539,0.6454319167631112,3578.386067708333,11.973333333333333,0.2166666666666666,179.05664204809142,-3.8247838455757264,95.6322652865299,1553.0,1435.0,1200.0,1528.0,1471.0,1010.0,61.0,293.85,1649174263.2376611,1649174264.3408506,61c16ddc-9468-4ba1-8123-4b7a0e9727d3
-0.0154732148254575,0.1242590759764457,-0.0003933034511119,-0.1413719872694477,-0.1705456593676345,0.1694988077388202,-0.2837340321235149,-0.2998137944270879,-14.863377419903356,23.50988118022791,21.586846564814163,0.8515765012482616,0.3977024352434916,0.6610012083798017,3585.871283637153,11.972444444444443,0.22,179.0143404098318,-3.80429693031962,95.80749378968656,1553.0,1435.0,1200.0,1528.0,1471.0,1010.0,61.0,293.85,1649174264.4497578,1649174265.683697,61c16ddc-9468-4ba1-8123-4b7a0e9727d3
-0.0045296642818198,0.1201090188109133,-0.0189795338512534,-0.3399721102686612,-0.2068826326870751,0.3670442612172249,-0.2450275525623351,-0.2695170029457139,-14.812306026216008,22.920297388329,23.1770584570572,1.7389260367275412,0.3909453781248515,0.6809958214913948,3587.8720703125,11.972,0.21,178.99456018199544,-3.731490718589345,96.04780033525512,1553.0,1537.0,1200.0,1528.0,1471.0,1010.0,61.0,293.85,1649174266.6856306,1649174267.74079,9e2876b8-3f9b-4417-96cd-d62bfbf743de
0.0011954973088057,0.1227250614471271,-0.0144870625276254,-0.3406706348842259,-0.2044720381368975,0.3657704813599481,-0.2419321299585547,-0.2644903652149217,-14.756768117261316,23.043673839431467,23.29628973622552,1.7387279187075346,0.3996801955071074,0.6676483343173163,3586.7044542100693,11.973555555555556,0.21,178.97805389150122,-3.7117011941066185,96.12697209356438,1553.0,1537.0,1200.0,1528.0,1471.0,1010.0,61.0,293.85,1649174267.87353,1649174269.0195382,9e2876b8-3f9b-4417-96cd-d62bfbf743de
0.006486751898743,0.1239046090482009,-0.0128944266603168,-0.3417696469192477,-0.2043789015303115,0.3647098199438772,-0.2404457792464049,-0.2578283582340067,-14.633758609385698,23.09283615657495,23.176619646400745,1.7392716220977646,0.4045313283864842,0.663264445589701,3587.8720703125,11.974,0.21,178.9569668208037,-3.703945751463414,96.20805402811152,1553.0,1537.0,1200.0,1528.0,1471.0,1010.0,61.0,293.85,1649174269.1294725,1649174270.2942057,9e2876b8-3f9b-4417-96cd-d62bfbf743de
0.0074959143662646,0.1193831012182535,-0.0291560771623765,-0.5495842903953762,-0.2417677712438696,0.5716434356356307,-0.2009520222272049,-0.2168400320791466,-14.734838677542951,22.84727219307278,24.852070700244937,2.6708366082348824,0.3979902285600121,0.6801490936615152,3587.8720703125,11.963,0.21,178.96107859468404,-3.6189569487110393,96.37504152857962,1553.0,1645.0,1200.0,1528.0,1471.0,1010.0,61.0,293.85,1649174272.195101,1649174273.143149,5acfab24-7a6c-4b5e-b781-71669d398e1a
0.0089751427114147,0.115205650930147,-0.0353469218342372,-0.5500773666491475,-0.2463424223624312,0.5760263339653077,-0.2041844103856479,-0.2318651584484832,-14.666827465123395,22.726000982759828,24.793562571260384,2.680710549559826,0.3820256245596973,0.6989259866416914,3590.042914496528,11.964444444444446,0.21,178.9514449923147,-3.617554720360809,96.36093187557418,1553.0,1645.0,1200.0,1528.0,1471.0,1010.0,61.0,293.85,1649174273.2519152,1649174274.4924667,5acfab24-7a6c-4b5e-b781-71669d398e1a
0.0048935681794388,0.123382496245415,-0.0269235380385791,-0.5497760422684457,-0.2412062122676667,0.5685617102467039,-0.1993906143920985,-0.2237157053421685,-14.602962321409176,22.863769645228057,24.959592882522525,2.6646481570568508,0.4112694563268981,0.6748372713116105,3588.206108940972,11.966777777777777,0.2088888888888888,178.93295642914134,-3.6192375082175694,96.37166286167016,1553.0,1645.0,1200.0,1528.0,1471.0,1010.0,61.0,293.85,1649174274.600248,1649174275.7181098,5acfab24-7a6c-4b5e-b781-71669d398e1a
0.019977314450563,0.1218139663866867,-0.0317759549739712,-0.6807036809875477,-0.2637847179742666,0.6955967309837554,-0.1720199570661177,-0.1951485159783514,-14.477614867397804,23.045555547411585,25.74445943329992,3.2466051578675548,0.4133585451023712,0.6730166638656435,3588.3728841145835,11.947666666666668,0.2,178.9534970847053,-3.560006866645128,96.41172647461174,1553.0,1761.0,1200.0,1528.0,1471.0,1010.0,61.0,293.85,1649174276.7219818,1649174277.8622854,b174624f-80f9-4ef7-86cd-92bf935979d9
0.0147046871860333,0.1175932349697211,-0.0297247583015752,-0.6792573238735353,-0.2608262609273196,0.6984105517080832,-0.168325173114137,-0.1838011902818442,-14.44291629289322,23.02712980432497,25.768040794706927,3.2496667762597258,0.3970252920382177,0.6604976065764465,3589.37451171875,11.945666666666666,0.2,178.95661620442627,-3.5586300617768085,96.37528817429964,1553.0,1761.0,1200.0,1528.0,1471.0,1010.0,61.0,293.85,1649174277.9708278,1649174279.0860813,b174624f-80f9-4ef7-86cd-92bf935979d9
0.0074071606839679,0.1191316324103826,-0.0324465384997146,-0.6799936511833152,-0.264271219793768,0.6977005221800548,-0.1720462544692272,-0.1941229176292571,-14.452400957612785,23.07897460188729,25.75962503522064,3.2499342622002034,0.4028559271226795,0.6743377875487018,3587.3716634114585,11.947,0.2,178.94962664417562,-3.5595739322586746,96.34552372771653,1553.0,1761.0,1200.0,1528.0,1471.0,1010.0,61.0,293.85,1649174279.1944172,1649174280.242973,b174624f-80f9-4ef7-86cd-92bf935979d9
0.0071573354317076,0.1094804895411659,-0.0256486623457214,-0.6843590201958746,-0.259761216403279,0.7126900344542755,-0.1650379987858498,-0.186983175234432,-14.56935208012976,23.53261951670152,26.02290902325532,3.2967937552550794,0.3661286584509007,0.6478477861624775,3586.370849609375,11.911666666666669,0.19,178.96702541272137,-3.558267089397478,96.27181460292348,1553.0,1887.0,1200.0,1528.0,1471.0,1010.0,61.0,293.85,1649174281.2268944,1649174282.3686526,97daf045-cc8a-48c6-a23f-4343664570cd
0.0032088914508714,0.1065083363704541,-0.02807404899856,-0.6849748180108897,-0.2616825698778913,0.7130329962667664,-0.1666695329723682,-0.1818590179951507,-14.546012655027477,23.518712823001035,25.56176314017311,3.298678807176291,0.3588250360828651,0.6551003586502765,3584.870849609375,11.913666666666666,0.19,178.97517762295075,-3.535518172013432,96.17493444082612,1553.0,1887.0,1200.0,1528.0,1471.0,1010.0,61.0,293.85,1649174282.4774854,1649174283.592163,97daf045-cc8a-48c6-a23f-4343664570cd
0.0050990165786136,0.1126717876324837,-0.0258962961336044,-0.6786743983324509,-0.2608059900193706,0.7029249369883043,-0.1683679063750953,-0.1846805094656033,-14.505792361611222,23.59229987084306,25.80868072858026,3.2624083060916043,0.3788322213475468,0.6545032320897078,3583.2057020399307,11.908,0.1911111111111111,178.9590173953745,-3.567575996905971,96.09345028402784,1553.0,1887.0,1200.0,1528.0,1471.0,1010.0,61.0,293.85,1649174283.7005234,1649174284.7276666,97daf045-cc8a-48c6-a23f-4343664570cd
-0.0138433243350183,0.1341069013764787,0.0206857005267749,0.0729243750965555,-0.1352085354592648,-0.0474820731192131,-0.3310419525926248,-0.3576543708229266,-14.98883204167827,24.620835728575827,20.0526590533828,-0.111302063818741,0.4240938386161199,0.651857196520759,3581.2100423177085,11.973444444444446,0.21,178.97155762269065,-3.769918833247784,95.93961469226156,1553.0,1335.0,1200.0,1528.0,1471.0,1010.0,61.0,293.85,1649174286.7651794,1649174287.8013113,88deeea0-458d-4c23-a9cc-e8bc2803823e
-0.0097781856429163,0.1330692501232664,0.0206347493173628,0.0755437049418084,-0.1334416792947454,-0.0493820597976585,-0.3305932532766988,-0.3531432713751968,-15.037615266682597,24.503105168576493,19.98415941798904,-0.1222986165744986,0.4208266795082212,0.6486962758860676,3578.883544921875,11.97466666666667,0.2066666666666666,178.9662968592099,-3.7899221331651582,96.08647058960602,1553.0,1335.0,1200.0,1528.0,1471.0,1010.0,61.0,293.85,1649174287.9095333,1649174289.2351615,88deeea0-458d-4c23-a9cc-e8bc2803823e
-0.0223762805434498,0.130627975578082,0.0156316703443925,0.0766772321261243,-0.1379889370537987,-0.0473861972041213,-0.3348495965065292,-0.3573530463897977,-14.996707087687582,24.51093101258241,20.04022986405893,-0.1205383178238403,0.4104273294320553,0.6675887015749152,3577.0177001953125,11.975250000000004,0.21,178.9430639707481,-3.787645118850605,96.22427876302991,1553.0,1335.0,1200.0,1528.0,1471.0,1010.0,61.0,293.85,1649174289.3444593,1649174290.350196,88deeea0-458d-4c23-a9cc-e8bc2803823e
-0.0258689030659231,0.1358189711601227,0.0342179005215084,0.2826460728845004,-0.1031722828964054,-0.2525880538221586,-0.3789525229344446,-0.3965799975809665,-15.12762023651864,25.396236194731426,18.44728431047524,-1.0397950886296603,0.4207756355358862,0.657357711796504,3581.874755859375,11.956111111111111,0.2,178.9407307022367,-3.865802736363715,96.41613422335614,1553.0,1236.0,1200.0,1528.0,1471.0,1010.0,61.0,293.85,1649174291.576892,1649174292.808294,cb35ae06-5e6e-44b9-b691-10632d0f833b
-0.0164319739399286,0.1332303216485812,0.0357793082100557,0.2857141018268574,-0.1017615372816326,-0.2519717086088781,-0.3783635708077917,-0.3952514311544708,-15.160682661813732,25.52650186869253,18.5827556022708,-1.044384553567906,0.4098234091703523,0.6522974717966794,3583.3720703125,11.958000000000002,0.2066666666666666,178.93039738493235,-3.869573807127339,96.4992007073121,1553.0,1236.0,1200.0,1528.0,1471.0,1010.0,61.0,293.85,1649174292.9161313,1649174294.048154,cb35ae06-5e6e-44b9-b691-10632d0f833b
-0.0153362492487232,0.1419276361337739,0.0364778327076271,0.2804820167571182,-0.1011725852258987,-0.2581625538678797,-0.3764186591236712,-0.4058525696702377,-15.043174005431956,25.20698983501723,18.24282212962694,-1.0485722459454616,0.4453077964945355,0.6485143568382573,3584.870849609375,11.96,0.2,178.9295367810969,-3.8797476584872888,96.57925735457384,1553.0,1236.0,1200.0,1528.0,1471.0,1010.0,61.0,293.85,1649174294.1754904,1649174295.1732914,cb35ae06-5e6e-44b9-b691-10632d0f833b
-0.0162999391188745,0.1441404520782252,0.0502982082209757,0.4028804821657092,-0.0809126347155287,-0.3765742521548305,-0.4023194043261127,-0.4254085198130463,-15.108528504911076,26.09979972516292,17.683859537844718,-1.5842753853493234,0.4448452447769454,0.6390984760810461,3581.874755859375,11.946222222222222,0.1955555555555556,178.92926964480938,-3.9178979646876098,96.70710863000768,1553.0,1133.0,1200.0,1528.0,1471.0,1010.0,61.0,293.85,1649174297.3133366,1649174298.3426845,a8e04b49-5566-401a-9552-642a024b7c1c
-0.0347870065448558,0.135357123211281,0.0469715880646716,0.398870130110858,-0.0835555227947054,-0.3653584122653204,-0.4028585010030155,-0.4279856650252266,-15.155033353539553,26.190387374457988,17.514253130833804,-1.5496410964611522,0.4140191950025402,0.6465934309111746,3581.874755859375,11.939222222222222,0.2,178.91671272147525,-3.9390022057218266,96.73906025494496,1553.0,1133.0,1200.0,1528.0,1471.0,1010.0,61.0,293.85,1649174298.4506505,1649174299.472504,a8e04b49-5566-401a-9552-642a024b7c1c
-0.018311689685155,0.1440352625127871,0.0509687917228657,0.395201644184155,-0.081727853939173,-0.3686981815966739,-0.3999920846296516,-0.4167829731822449,-15.091543187631412,26.15298418265696,17.79440165054478,-1.5488430982106112,0.4443396128005594,0.6360470511861213,3580.37841796875,11.949666666666666,0.2,178.91288933335989,-3.9230618722913535,96.78651565038832,1553.0,1133.0,1200.0,1528.0,1471.0,1010.0,61.0,293.85,1649174299.5815842,1649174300.712356,a8e04b49-5566-401a-9552-642a024b7c1c
-0.0219275812734569,0.1426020546606483,0.0590289425104792,0.4162264078042188,-0.0747984907012493,-0.3896177612317305,-0.400675816986823,-0.4184528582096757,-15.079278388412945,26.560872522927035,17.39679387797678,-1.640230826913492,0.4403306820795676,0.6158869345972486,3572.91650390625,11.936111111111112,0.1988888888888889,178.93210341440505,-3.959950633065601,96.87297218490234,1553.0,1026.0,1200.0,1528.0,1471.0,1010.0,61.0,293.85,1649174302.730487,1649174303.776694,428b6c72-3433-4eeb-b357-c2e0c0d08d8f
-0.021896900961721,0.1421467810652669,0.0559543390496171,0.4208991253359049,-0.0775597170236119,-0.391402697149435,-0.4061128039840751,-0.4342181485423423,-15.191117230042842,26.67751764988797,17.657582543893362,-1.654176887867158,0.4363350869718583,0.6318075758142454,3572.91650390625,11.940777777777775,0.2,178.92929392992644,-3.949119470861777,96.87566707398486,1553.0,1026.0,1200.0,1528.0,1471.0,1010.0,61.0,293.85,1649174303.8849723,1649174305.004419,428b6c72-3433-4eeb-b357-c2e0c0d08d8f
-0.0318132096733149,0.1422289604140312,0.0557078010042545,0.420775856324135,-0.0769570684095515,-0.3936489331803822,-0.4059895348988271,-0.4297256763064632,-15.20267353724232,26.582531025805565,17.334497794777256,-1.6596456879455816,0.4395865311212872,0.6307313791901322,3569.610053168403,11.943777777777775,0.2,178.93764042109217,-3.947189468102556,96.88901478144288,1553.0,1026.0,1200.0,1528.0,1471.0,1010.0,61.0,293.85,1649174305.1123009,1649174306.234095,428b6c72-3433-4eeb-b357-c2e0c0d08d8f
-0.0044063952524084,0.1306964583700791,0.0033869467810566,-0.135482466652364,-0.1687103203636894,0.1565418637308238,-0.2837477286857421,-0.2988139456338062,-14.72179641027437,23.574586078005808,21.42560774528931,0.8098379361341631,0.4217891321362021,0.6540436196843816,3568.784152560764,11.973555555555556,0.21,178.94954164626597,-3.793865334182241,96.8981376374443,1553.0,1435.0,1200.0,1528.0,1471.0,1010.0,61.0,293.85,1649174308.2709365,1649174309.6227095,02d8586b-59e6-4d48-b904-1e11c34e3ae6
-0.0007494140434827,0.1289843885853814,0.0070439279819307,-0.1318254852673474,-0.1652313941961477,0.1571992985164198,-0.2812823478051268,-0.3137021075091947,-14.774546185770015,23.70540220668757,21.781373947794123,0.804145473307973,0.412371831561803,0.6410462539256436,3579.0496419270835,11.973222222222224,0.2088888888888889,178.93835227858568,-3.78616870705689,96.9069083592485,1553.0,1435.0,1200.0,1528.0,1471.0,1010.0,61.0,293.85,1649174309.7307217,1649174310.836466,02d8586b-59e6-4d48-b904-1e11c34e3ae6
-0.0089262596996612,0.1263546493939667,0.0033047674382639,-0.1326198857122186,-0.1671763056600432,0.1586511336845521,-0.2834190112274748,-0.3140308243967011,-14.8179597155424,23.58271473816924,21.496734252193185,0.8081331917953811,0.4051974196170749,0.6511277043177265,3582.2074924045137,11.971444444444444,0.2055555555555555,178.9474971429744,-3.7815067234934014,96.9327219208517,1553.0,1435.0,1200.0,1528.0,1471.0,1010.0,61.0,293.85,1649174310.9437573,1649174312.070407,02d8586b-59e6-4d48-b904-1e11c34e3ae6
0.019562582632421,0.1422289604157141,0.0846897188280517,-0.1414815597366187,-0.0949406507306028,0.1470638454655667,-0.2001713183125021,-0.2308516130343506,-14.191744014342108,23.537792623581847,21.53163651999957,0.8061601912491775,0.4662438705817099,0.3256251911163154,3583.3720703125,11.975555555555555,0.21,178.9403558007422,-3.800380623172393,96.95083330580086,1553.0,1435.0,1200.0,1435.0,1471.0,1010.0,61.0,293.85,1649174314.2060273,1649174315.3430583,197d55b0-9f39-4eb0-bb5b-ad0801faec95
0.0267121863019078,0.1407086424511247,0.0842377324009546,-0.1391805377333066,-0.095666568371133,0.1478582458375853,-0.2006917875818517,-0.230207874782189,-14.138449989677593,23.604585371277462,21.72906493304496,0.8032333424424859,0.458103922992195,0.3280955909047194,3585.206597222222,11.973444444444446,0.21,178.93489620286562,-3.801463635042664,96.96150509692404,1553.0,1435.0,1200.0,1435.0,1471.0,1010.0,61.0,293.85,1649174315.4508584,1649174316.476432,197d55b0-9f39-4eb0-bb5b-ad0801faec95
0.0114679164231711,0.1383391378770755,0.0835392079206606,-0.1382628682431773,-0.0948036851330308,0.1485156806333708,-0.2013629190155469,-0.2162647766114794,-14.27432743558221,23.57324659483878,21.60850576907669,0.8023105032069209,0.4510892612123778,0.3282971641532869,3589.0406358506943,11.973999999999998,0.21,178.94490015327,-3.783360882693716,96.96452176380748,1553.0,1435.0,1200.0,1435.0,1471.0,1010.0,61.0,293.85,1649174316.584016,1649174317.6063747,197d55b0-9f39-4eb0-bb5b-ad0801faec95
0.0563203110510198,0.1595901697197958,0.1887671256645659,-0.1457488598602639,-0.0024280642289829,0.1306367413648984,-0.0952447143435278,-0.1209372686546152,-13.382967579070048,23.62283680962992,21.85517786416269,0.7850770985536013,0.5298918923328423,-0.0885920735137899,3586.370849609375,11.97111111111111,0.2088888888888888,178.9118390020475,-3.7947030284248218,96.9141961710929,1553.0,1435.0,1200.0,1330.0,1471.0,1010.0,61.0,293.85,1649174319.6792572,1649174320.7740662,543004cd-e760-4b74-94ae-45eb3d5662a2
0.0516788212883539,0.159563872328458,0.1906473891536626,-0.146984837391311,-0.0002716780070283,0.1306630387618406,-0.0926938671392974,-0.112798225024112,-13.381973914185386,23.56762723409185,21.711264187819875,0.7876294479450112,0.5313321691429961,-0.0979176612920737,3584.870849609375,11.973777777777778,0.2055555555555555,178.92078047858095,-3.799147204844776,96.94626846270558,1553.0,1435.0,1200.0,1330.0,1471.0,1010.0,61.0,293.85,1649174320.8821518,1649174322.115898,543004cd-e760-4b74-94ae-45eb3d5662a2
0.0735997207876002,0.1535791928416138,0.1854774231334138,-0.1467041632784194,-0.0024983591834175,0.1354112351510342,-0.0946530229862828,-0.1259191077440908,-13.41452336052306,23.401805775746784,21.56420398612285,0.7962696401053879,0.5100546327577952,-0.0859319954848767,3584.870849609375,11.97222222222222,0.2,178.91735475925725,-3.786200059522456,96.95486691196068,1553.0,1435.0,1200.0,1330.0,1471.0,1010.0,61.0,293.85,1649174322.2244987,1649174323.2330875,543004cd-e760-4b74-94ae-45eb3d5662a2
0.0775127221316679,0.1733475405739461,0.2919323390428733,-0.1421663877294909,0.0913736393358609,0.1065631225974739,0.0061536516398029,-0.0189795342606379,-12.741839748258116,23.73942848898584,21.601068729370507,0.7290913435578742,0.5853058378546521,-0.4996104337063887,3596.905517578125,11.962,0.1933333333333333,178.8929542879023,-3.8018469319779618,96.95254768328252,1553.0,1435.0,1200.0,1210.0,1471.0,1010.0,61.0,293.85,1649174325.3697815,1649174326.523106,1450e5fa-8c07-4a55-b0ce-c448018d2fdb
0.088757596637859,0.1738132235496517,0.2864674124977391,-0.1446317684710672,0.084949953426699,0.1085902132345296,0.000839386837982,-0.0284438563287861,-12.685849646114468,23.786419054943376,21.589012165225554,0.7392734331999763,0.5867208958566815,-0.4758078683779339,3596.905517578125,11.963666666666668,0.2,178.90524862840837,-3.7913469865170137,96.95352819488338,1553.0,1435.0,1200.0,1210.0,1471.0,1010.0,61.0,293.85,1649174326.6319714,1649174327.5820763,1450e5fa-8c07-4a55-b0ce-c448018d2fdb
0.0832378835707545,0.1741556375044594,0.2810161825014093,-0.1459192450581953,0.0794439369104811,0.1055221841709764,-0.0049542575695813,-0.0316762443432097,-12.65414859061388,23.75786433117316,20.98926770904015,0.7347430211869111,0.5929087568207843,-0.4534107876969937,3570.123101128472,11.96622222222222,0.2,178.91493535447125,-3.793908544615115,96.92952615123004,1553.0,1435.0,1200.0,1210.0,1471.0,1010.0,61.0,293.85,1649174327.6901844,1649174328.642038,1450e5fa-8c07-4a55-b0ce-c448018d2fdb
0.0992217672542612,0.1800451574805416,0.3270366163996213,-0.1251963504547766,0.122259378405401,0.0781975501160043,0.0327523686661942,0.0165219463201274,-12.514652235451411,24.054624628671828,20.955994137261754,0.6309188320763387,0.6146766705415724,-0.6273209249342254,3500.293999565972,11.961444444444446,0.2,178.89230162538163,-3.802923398250277,96.91405653166989,1553.0,1435.0,1200.0,1071.0,1471.0,1010.0,61.0,293.85,1649174329.665742,1649174330.812514,67e72368-42f7-40eb-932e-663882d4f679
0.095950481256811,0.1750004412069727,0.3302207921261503,-0.1264991671862548,0.1256665342556933,0.0812765364621199,0.0386616119454721,0.0077227290552219,-12.37539887888911,24.02259607903016,20.55536744045928,0.6407290248116797,0.5986827818385173,-0.6457918344331922,3475.846435546875,11.955666666666666,0.2,178.89956135755946,-3.797262167497591,96.8933891381513,1553.0,1435.0,1200.0,1071.0,1471.0,1010.0,61.0,293.85,1649174330.9205923,1649174332.0376525,67e72368-42f7-40eb-932e-663882d4f679
0.0878673203349577,0.177223666516348,0.3294883002467385,-0.1262509855305254,0.1244508277717663,0.0805396616186226,0.0364093498878398,0.0153714354614584,-12.448545020295835,24.08091546275138,20.78083700871672,0.6388625859226867,0.6054646042762356,-0.6394166866114441,3466.003173828125,11.959,0.2,178.90086364696123,-3.7939839612872,96.85040903443416,1553.0,1435.0,1200.0,1071.0,1471.0,1010.0,61.0,293.85,1649174332.1505196,1649174333.2628355,67e72368-42f7-40eb-932e-663882d4f679
-0.047016390182873,0.1078095094256662,-0.1009397437192969,-0.1196629404355042,-0.2626276325319975,0.1679374001092111,-0.393963954042707,-0.418645158084231,-15.571325787363705,23.918830380367137,21.10307580157935,0.7963684720823511,0.3362648710265719,1.0772746784375622,3478.194742838541,11.968,0.1966666666666666,178.96777218007065,-3.7855126768734846,96.86509394114968,1553.0,1435.0,1200.0,1613.0,1471.0,1010.0,61.0,293.85,1649174335.4123354,1649174336.5389206,b4d9b254-0786-44e9-be27-356552abc6f0
-0.0394969792615908,0.1149043266483303,-0.095858320219355,-0.1229090250282868,-0.2600937688821585,0.1641845431811503,-0.390019344414096,-0.4115366426762537,-15.460886263658574,23.929609742104805,21.166879611953505,0.7956479148179444,0.3622495743205527,1.0622734516021577,3486.9972059461807,11.973999999999998,0.2,178.99231077302878,-3.786204186095079,96.8723642980662,1553.0,1435.0,1200.0,1613.0,1471.0,1010.0,61.0,293.85,1649174336.6474082,1649174337.6365197,b4d9b254-0786-44e9-be27-356552abc6f0
-0.0452928151795704,0.114963495779211,-0.1005962340310922,-0.1222126919421853,-0.2635611901019544,0.1631403175876779,-0.3937990474800577,-0.4096826761929222,-15.440859002215593,23.796910184093296,21.08657443639192,0.7906123258673265,0.362653146771392,1.0788044640487702,3495.687744140625,11.973,0.2,178.98065391684528,-3.7875025386516814,96.86251895983258,1553.0,1435.0,1200.0,1613.0,1471.0,1010.0,61.0,293.85,1649174337.7477808,1649174338.785968,b4d9b254-0786-44e9-be27-356552abc6f0
-0.0751929516329465,0.0984092874768372,-0.1945568244886615,-0.101030141010494,-0.3476208177611393,0.1659541384955317,-0.4952938566924943,-0.5113484191176617,-16.211873914308867,24.0649467967156,21.201939329779503,0.7458812295584037,0.2964392985444416,1.4635785111732915,3537.040283203125,11.972666666666669,0.2,178.97952010544307,-3.793933161755248,96.85913346273398,1553.0,1435.0,1200.0,1694.0,1471.0,1010.0,61.0,293.85,1649174340.719405,1649174341.8613417,f09d607b-9eca-4804-93fd-7c12dcb3b854
-0.0853963403970354,0.0946750577937834,-0.197304902248027,-0.0992550669156051,-0.3495273790263035,0.1684918367869384,-0.4970163363146762,-0.5147144862520976,-16.190887383925272,24.070818770497432,21.25748978758152,0.7475011534429126,0.281400123525348,1.4720280302739703,3540.44873046875,11.967999999999998,0.2,178.98218387921938,-3.79033194451536,96.85941805394938,1553.0,1435.0,1200.0,1694.0,1471.0,1010.0,61.0,293.85,1649174341.9695313,1649174343.200529,f09d607b-9eca-4804-93fd-7c12dcb3b854
-0.0784801258640679,0.0945567195275919,-0.1992114633991271,-0.0997415687053695,-0.3514865351238054,0.168347201130724,-0.4992121691640054,-0.5181331481545479,-16.207996749424453,24.086907277095275,21.14093331101875,0.7482580930976508,0.2820497218955548,1.480220177244879,3541.91162109375,11.971,0.1933333333333333,178.98383678499852,-3.7897193619241736,96.86031280873068,1553.0,1435.0,1200.0,1694.0,1471.0,1010.0,61.0,293.85,1649174343.3084707,1649174344.315279,f09d607b-9eca-4804-93fd-7c12dcb3b854
-0.1043090973725731,0.086031981560731,-0.2827204866952386,-0.0687528294474258,-0.4281368748298591,0.1547887042773016,-0.5968785216981537,-0.6223404329346304,-16.896905330034585,24.580867580109928,21.382691191979685,0.6466954260934636,0.2437089764840413,1.8364054733745592,3567.4639485677085,11.945,0.1766666666666666,178.99096750249203,-3.8108276346672745,96.85844589035754,1553.0,1435.0,1200.0,1774.0,1471.0,1010.0,61.0,293.85,1649174346.2507503,1649174347.2965477,a327b005-454a-488a-82ef-3eb784ec5480
-0.0968444725472762,0.0858265331846907,-0.2825150382709091,-0.0700950922395746,-0.4273561707896555,0.1555283184261127,-0.5957691000746609,-0.6181903743785631,-16.908370409979984,24.50747805489458,21.28957075069288,0.6508883606078578,0.2440219322771792,1.8333366335116423,3572.7514919704863,11.955333333333336,0.19,178.99563176278522,-3.819926632438463,96.8378392096316,1553.0,1435.0,1200.0,1774.0,1471.0,1010.0,61.0,293.85,1649174347.4041147,1649174348.4114058,a327b005-454a-488a-82ef-3eb784ec5480
-0.0967485966152395,0.0880864653279056,-0.2817069412013497,-0.0700676991234304,-0.4273698673418037,0.1529944551579125,-0.595139058177854,-0.6258604498074565,-16.80909673185953,24.49050642844566,21.252967007958315,0.6451045072282223,0.2521674037390667,1.831655173832532,3581.3764377170137,11.957444444444445,0.1988888888888889,178.99637549449483,-3.8263275157600174,96.80109051516722,1553.0,1435.0,1200.0,1774.0,1471.0,1010.0,61.0,293.85,1649174348.5197208,1649174349.6401577,a327b005-454a-488a-82ef-3eb784ec5480
-0.1345461699227125,0.0766613441181843,-0.3534851373329944,-0.0349579395341951,-0.4926772654993695,0.1347522831936011,-0.6810192498041563,-0.7008606407408464,-17.360603548293152,25.024409933426703,21.05396500378923,0.5245687947242509,0.2061193690717232,2.138762811765676,3585.870849609375,11.937666666666663,0.1833333333333333,178.99716931425837,-3.841348619564693,96.76251816019445,1553.0,1435.0,1200.0,1856.0,1471.0,1010.0,61.0,293.85,1649174350.7560005,1649174351.8075578,189994ca-24a7-421e-b72f-c4e5da57873c
-0.1247443640684609,0.0747323208212861,-0.3533536503246215,-0.0344429489176248,-0.4912369350024643,0.1389965726699291,-0.6802084131993319,-0.703780200247896,-17.4860674859473,25.00440915175318,21.460339051735733,0.5328201698261824,0.1961152688530585,2.135732066712057,3583.3720703125,11.935,0.1866666666666666,179.00450038396752,-3.840262477191053,96.72146872328264,1553.0,1435.0,1200.0,1856.0,1471.0,1010.0,61.0,293.85,1649174351.9194877,1649174353.0308678,189994ca-24a7-421e-b72f-c4e5da57873c
-0.127319317275555,0.0792795782405213,-0.355298562041416,-0.0356756392564498,-0.4946747721399482,0.13533959160624,-0.6840434511837789,-0.7079302594174756,-17.469357148158075,25.05321445368365,21.38960509094977,0.5276069212620106,0.2137081917706516,2.148957232478422,3583.3720703125,11.937,0.18,178.99350833286326,-3.845122868263556,96.67645094646312,1553.0,1435.0,1200.0,1856.0,1471.0,1010.0,61.0,293.85,1649174353.1396673,1649174354.2631483,189994ca-24a7-421e-b72f-c4e5da57873c
-0.0251095658373366,0.1137801131331197,-0.1064737016197479,-0.137320545011999,-0.2375004709787288,0.1733305568325706,-0.3548394532495036,-0.3777839326416902,-14.87628076902447,19.71750357586988,20.56643950634364,0.8204565130156783,0.3602470550875577,0.9969101231844406,7191.469346788194,11.639,8.011111111111111,179.80745286933478,-4.081437073398504,83.99263635794806,1553.0,1435.0,1350.0,1528.0,1471.0,1010.0,61.0,293.85,1649174359.3118432,1649174360.4023073,a2c64aa3-53a8-4f99-a75f-faf92fd4c595
-0.0263683006250869,0.1210993853276549,-0.0937427286876837,-0.1276006235163159,-0.2258365647103759,0.1692438410309813,-0.3450472129445363,-0.364074896933389,-14.871816765820569,19.795736480912748,22.36203404503411,0.790788363496961,0.3713645438818856,0.953202079160306,7196.83154296875,11.640666666666668,7.993333333333333,-179.9319247189493,-4.103949708925949,78.16534207760607,1553.0,1435.0,1350.0,1528.0,1471.0,1010.0,61.0,293.85,1649174360.5104835,1649174361.7286005,a2c64aa3-53a8-4f99-a75f-faf92fd4c595
-0.022045919546016,0.1161337297210541,-0.0954287961901466,-0.1335468689394766,-0.2294534679892072,0.1720419846355944,-0.3456485130327475,-0.3610193421359113,-14.7268750046257,19.94258855661478,21.27905979202912,0.8112793115071085,0.3619405405010432,0.9591435196552812,7196.83154296875,11.639666666666663,8.036666666666667,-179.8121975740782,-4.079260756942338,73.94323863377537,1553.0,1435.0,1350.0,1528.0,1471.0,1010.0,61.0,293.85,1649174361.8583946,1649174362.8600605,a2c64aa3-53a8-4f99-a75f-faf92fd4c595
0.0893366871329856,0.3359930694137859,-0.0873160501758051,-0.2441274147103343,-0.2730808474774433,0.0687984238027971,-0.3862385456723065,-0.4093013637632547,-14.751602559338808,19.56197523931702,22.629703897973883,0.8268035460662568,1.1888737105576306,1.0929758845453903,7202.87890625,11.625,8.08,179.98924063082438,-3.990810803259928,65.47106515710236,1647.0,1435.0,1350.0,1528.0,1543.0,1010.0,61.0,293.85,1649174364.679766,1649174365.7273004,968e6794-fcd5-4fd6-9a53-51cc59ec0e60
0.0859706209262338,0.3365453146166537,-0.089972086935339,-0.242036771761205,-0.2736725388923817,0.0638413653393467,-0.3880662148092705,-0.4080916834609867,-14.740349136354778,19.34431386861957,22.26113526396948,0.8093201518313458,1.1937024585164766,1.09966699271042,7208.9375,11.621444444444444,8.053333333333333,179.90229839396935,-3.9537303703020967,62.71668588581755,1647.0,1435.0,1350.0,1528.0,1543.0,1010.0,61.0,293.85,1649174365.8360453,1649174366.9571269,968e6794-fcd5-4fd6-9a53-51cc59ec0e60
0.092250219034185,0.3345834196971365,-0.0918041387301055,-0.2477257750342952,-0.2776527593627253,0.0690208559092494,-0.3871156734516121,-0.4094821584218516,-14.459249936673658,19.38524934240287,21.97423631550508,0.834068063368829,1.187482376849449,1.105719978663804,7208.9375,11.622444444444444,8.01,179.79459389985738,-3.910956263193024,60.443105638597245,1647.0,1435.0,1350.0,1528.0,1543.0,1010.0,61.0,293.85,1649174367.065707,1649174368.1875694,968e6794-fcd5-4fd6-9a53-51cc59ec0e60
0.2153274909409508,0.5420988658299165,-0.0630435557729083,-0.3619923453352629,-0.3026391207662495,-0.0235711682819123,-0.4054224972768248,-0.4351780038374472,-14.484360211110364,19.373551438388965,22.798351224158832,0.8852320760631881,1.974556812658825,1.1518705548404078,7208.9375,11.60375,8.09125,179.3483605659075,-3.842816452119059,56.33678381445892,1745.0,1435.0,1350.0,1528.0,1614.0,1010.0,61.0,293.85,1649174370.2118137,1649174371.2575588,af45e0a7-fd1f-4aa0-8cb9-d42ea1c780f1
0.218422913015729,0.5417027613936504,-0.0636577095147354,-0.3565860388137109,-0.3021285130327034,-0.0273755244953181,-0.4084412194410025,-0.4316294984277896,-14.644284750816205,19.427057056780107,22.896233862287904,0.8647470922969065,1.97263189671776,1.1563139953357016,7208.9375,11.605,8.073333333333332,179.18701214550916,-3.816831228652109,55.09873191496696,1745.0,1435.0,1350.0,1528.0,1614.0,1010.0,61.0,293.85,1649174371.3666403,1649174372.4860685,af45e0a7-fd1f-4aa0-8cb9-d42ea1c780f1
0.2118759582912069,0.5479894811955112,-0.0608636114334885,-0.357832425847898,-0.3002246910834981,-0.027608365991378,-0.4067839354915403,-0.4294791383296325,-14.703672675029386,19.411407233957053,23.59287602831748,0.8671519474336233,1.9907872518852845,1.1492498477778532,7208.9375,11.6065,8.0725,179.08716730185705,-3.791437154500432,54.22007275906565,1745.0,1435.0,1350.0,1528.0,1614.0,1010.0,61.0,293.85,1649174372.594466,1649174373.597638,af45e0a7-fd1f-4aa0-8cb9-d42ea1c780f1
0.2730447858288352,0.6513300057973485,-0.0473588041519551,-0.4222747465588859,-0.3183178477257578,-0.0876677777568335,-0.4221651739878347,-0.4469148612786193,-14.640130853182674,19.76439885053433,21.00319550867641,0.8801881656003161,2.409675937645107,1.1855706724375117,7208.9375,11.58488888888889,8.028888888888888,178.7075237588554,-3.755517426814681,52.08475612607766,1849.0,1435.0,1350.0,1528.0,1686.0,1010.0,61.0,293.85,1649174375.7398272,1649174376.7829373,d1b6240a-292c-4524-ac85-e436c79353fc
0.2725791028710713,0.6520696198890953,-0.0463863484856953,-0.4198367586116868,-0.3169344951095703,-0.0858461353805723,-0.4213570768802826,-0.4370259437201344,-14.687350254313236,19.769368476110103,21.69095419629244,0.8789493654671642,2.406450123874181,1.1822562055371717,7202.87890625,11.583,8.027777777777779,178.61333848584053,-3.734119250486808,51.47911148926906,1849.0,1435.0,1350.0,1528.0,1686.0,1010.0,61.0,293.85,1649174376.8917897,1649174377.9590323,d1b6240a-292c-4524-ac85-e436c79353fc
0.2795369542490661,0.6560416214926418,-0.0428252431174735,-0.4209598766714686,-0.3147841350690722,-0.0877499571142266,-0.4192888961000557,-0.4441344590734991,-14.699245769422284,19.82593534578171,21.84751096676978,0.8777759790477572,2.420409173969733,1.1721885496630602,7208.9375,11.583,8.100000000000001,178.49065614578856,-3.730081565186208,50.98570583327145,1849.0,1435.0,1350.0,1528.0,1686.0,1010.0,61.0,293.85,1649174378.067508,1649174379.1306736,d1b6240a-292c-4524-ac85-e436c79353fc
0.3276699452250248,0.7279556693111001,-0.0272265059937993,-0.4804489750513929,-0.3236507406212883,-0.0989132008245727,-0.4163885122422723,-0.4454734346586775,-14.563349084498084,20.10762447041069,22.55674507847341,0.9897090380810444,2.691200844628753,1.1680326013755915,7202.87890625,11.51988888888889,8.056666666666667,178.31083547877992,-3.716978890764661,50.24730280956532,1962.0,1435.0,1350.0,1528.0,1760.0,1010.0,61.0,293.85,1649174380.247103,1649174381.2929308,399966bc-9ab4-47f3-8eea-51b0d4fa9aa2
0.3172824758947025,0.7270089632745633,-0.0358257536113558,-0.4890876709023667,-0.3329205729817314,-0.1042121258347417,-0.4241330959977414,-0.4465779257277521,-14.441179810176738,20.01290076706027,20.479562994568987,0.9959626894772649,2.705712305176045,1.2004111400221225,7207.591145833333,11.520888888888887,8.08222222222222,178.2867264288296,-3.709648200510468,49.89929404661446,1962.0,1435.0,1350.0,1528.0,1760.0,1010.0,61.0,293.85,1649174381.4011545,1649174382.6131427,399966bc-9ab4-47f3-8eea-51b0d4fa9aa2
0.3077102256573249,0.7190014080313479,-0.0243600901396382,-0.4767015957736149,-0.3213234210297429,-0.0904322913204772,-0.4138245159691044,-0.4386755574900807,-14.617329194798124,20.43847770618216,23.022617644905804,1.002696689603246,2.653595905769541,1.1567378083627404,7208.9375,11.524,8.07,178.21733929596135,-3.6981155683925087,49.58617388994404,1962.0,1435.0,1350.0,1528.0,1760.0,1010.0,61.0,293.85,1649174382.7215865,1649174383.842494,399966bc-9ab4-47f3-8eea-51b0d4fa9aa2
-0.1704360869719412,-0.1403995315390372,-0.1096644521116963,-0.0111998884417847,-0.1838587155308797,0.3040263995240975,-0.3067716470265973,-0.3304666973520137,-15.2736914721198,20.71819924925582,20.41396440650046,0.8359007234608713,-0.6046304518677714,0.8292055419436529,7208.9375,11.633222222222225,8.098888888888888,178.6156395006809,-3.7304532413135423,49.002127449655866,1459.0,1435.0,1350.0,1528.0,1394.0,1010.0,61.0,293.85,1649174385.7751,1649174386.821885,3ee23bac-3e8d-4876-905a-e4e298a513dd
-0.1709154665559068,-0.1480969980323674,-0.1024463653046322,0.0010859248497338,-0.1753257587590047,0.3083682083116154,-0.2998274907860107,-0.3160716120442567,-15.303669154002591,20.91328188781036,21.618890268754427,0.8197731838523419,-0.6450194339855967,0.7986320415696427,7208.9375,11.631666666666668,8.09,178.61952815504836,-3.696811856034683,48.83341191132776,1459.0,1435.0,1350.0,1528.0,1394.0,1010.0,61.0,293.85,1649174386.9302037,1649174388.0506508,3ee23bac-3e8d-4876-905a-e4e298a513dd
-0.1730247367677911,-0.1413856838275893,-0.1066786021914441,-0.004296822785218,-0.1812015829542902,0.3035470200000339,-0.3035392587467017,-0.3317541741471148,-15.100308762322053,20.768057264520664,21.134080535298136,0.819933126115925,-0.6165984364165173,0.8179718075721265,7208.9375,11.630000000000004,8.108888888888888,178.5865793224922,-3.6999725735049753,48.730017266582,1459.0,1435.0,1350.0,1528.0,1394.0,1010.0,61.0,293.85,1649174388.1589923,1649174389.1674223,3ee23bac-3e8d-4876-905a-e4e298a513dd
-0.3014436849936209,-0.3802263031241634,-0.1245252191238865,0.1205199155170526,-0.1425635880117619,0.4190774832055257,-0.2733109496720076,-0.2975675585480253,-15.461233832388878,21.482265340185425,20.66994006330728,0.8015797835669868,-1.5222146483515977,0.717628201949203,7208.9375,11.6085,8.072500000000002,178.66019168627204,-3.700797022398072,48.58141435862985,1364.0,1435.0,1350.0,1528.0,1312.0,1010.0,61.0,293.85,1649174391.214059,1649174392.2368765,1686a7c4-1038-46d6-b68e-7c8df18cb508
-0.2998822771167773,-0.3723233873434557,-0.1135679715489045,0.1125896082333566,-0.1361946878049571,0.4212004496151458,-0.2633809433867264,-0.2872951380943573,-15.361372345776276,21.633875910236625,21.112211820526635,0.8259106138151143,-1.4955269548696146,0.6813974989233219,7208.9375,11.604333333333331,8.09,178.68066290157944,-3.699073787014819,48.52970527315342,1364.0,1435.0,1350.0,1528.0,1312.0,1010.0,61.0,293.85,1649174392.3458014,1649174393.375142,1686a7c4-1038-46d6-b68e-7c8df18cb508
-0.3024709270502155,-0.3800756409514432,-0.1111436805183225,0.1301485959957479,-0.1324829201582301,0.4245150165183846,-0.2652573721529181,-0.2881717180639498,-15.614309071258402,22.056785075645124,22.79950025146748,0.7968159848881263,-1.5397678178988905,0.6769542488384969,7208.9375,11.6065,8.11,178.64630932678398,-3.689487829958117,48.52089973635718,1364.0,1435.0,1350.0,1528.0,1312.0,1010.0,61.0,293.85,1649174393.484156,1649174394.6038003,1686a7c4-1038-46d6-b68e-7c8df18cb508
-0.4309857596961288,-0.6131637350970731,-0.1236212461899119,0.251349438245007,-0.0937490501271623,0.5289375699774038,-0.2335909248567148,-0.2512457912964448,-15.736772770843324,23.018229608974707,21.10691416227019,0.7634887788845562,-2.4138188950721853,0.5661108763338669,7208.9375,11.575888888888889,7.984444444444445,178.76788897073996,-3.6755123854266905,48.5048175816377,1262.0,1435.0,1350.0,1528.0,1222.0,1010.0,61.0,293.85,1649174396.7414448,1649174397.8813126,c7bfef18-dfc3-4a2f-afc6-d14e2e9641c8
-0.4462163362360933,-0.6206694517179256,-0.1300860222706895,0.2568828476352817,-0.0981456456694625,0.532128867834259,-0.2389462798773146,-0.2558889252991366,-15.7440808853135,23.046321783978783,21.193600931474244,0.7580524987738991,-2.4437771104875456,0.5877822330113496,7208.9375,11.574,8.093333333333334,178.76589607332212,-3.679428977165132,48.51492056978501,1262.0,1435.0,1350.0,1528.0,1222.0,1010.0,61.0,293.85,1649174397.9901495,1649174399.1288652,c7bfef18-dfc3-4a2f-afc6-d14e2e9641c8
-0.4320403949262665,-0.618943684756075,-0.1270042963936888,0.2556638539815354,-0.0958309271431523,0.5374020423982865,-0.2356454088886044,-0.2608196870610647,-15.78053219299452,23.10175547780773,22.04762030299528,0.7732904901273461,-2.4442692045542147,0.5770834406035085,7208.9375,11.574999999999998,8.103333333333332,178.77470549953165,-3.6817312252341177,48.556189331660136,1262.0,1435.0,1350.0,1528.0,1222.0,1010.0,61.0,293.85,1649174399.2368088,1649174400.3436103,c7bfef18-dfc3-4a2f-afc6-d14e2e9641c8
-0.4804621236610839,-0.6848060757057719,-0.1422907525601325,0.2576794394146022,-0.1056058876280994,0.5906306990501367,-0.2352914897603168,-0.2672033799482627,-15.58789126341542,23.82650436385836,20.63798237279298,0.8922712724830916,-2.6813680445963235,0.6006279219388888,7208.9375,11.522222222222222,8.025555555555554,178.88539402740102,-3.68739520703522,48.644564769875984,1153.0,1435.0,1350.0,1528.0,1121.0,1010.0,61.0,293.85,1649174401.254818,1649174402.1999686,3ae0d8e8-964b-4c81-8859-ecf8f45ff806
-0.4821057110816868,-0.6804933017183383,-0.1452623581510478,0.2550234029114298,-0.1086300879454432,0.5894604651985174,-0.2410900654967455,-0.2601819748684545,-15.857571068966738,23.872882601985,20.69174587338581,0.8956652694770127,-2.66362087964076,0.6174203122905937,7211.634331597223,11.523111111111112,8.062222222222221,178.851736372991,-3.687083864245554,48.65628537449172,1153.0,1435.0,1350.0,1528.0,1121.0,1010.0,61.0,293.85,1649174402.3080852,1649174403.6239078,3ae0d8e8-964b-4c81-8859-ecf8f45ff806
-0.4709950600909687,-0.6826496887147977,-0.133402233222303,0.2625313080729429,-0.0982820633771114,0.5919455685509338,-0.2322409918764647,-0.2556456741224113,-15.95082999830695,24.22385358046758,21.80281703453906,0.887360984988176,-2.6810625367511496,0.5757227892585798,7206.91796875,11.523666666666664,8.056666666666667,178.86613896522087,-3.7040182747914776,48.68700339137394,1153.0,1435.0,1350.0,1528.0,1121.0,1010.0,61.0,293.85,1649174403.7369814,1649174404.8449256,3ae0d8e8-964b-4c81-8859-ecf8f45ff806
-0.0304024640869626,0.1151508646935522,-0.0889004681657129,-0.123045990696814,-0.2195519507859816,0.1714437189883838,-0.3412321939377766,-0.3641739338431129,-15.076758495602498,19.93049432109545,22.47515392744221,0.7865069550164608,0.349250409466505,0.9318909811586332,7208.9375,11.634777777777778,8.08111111111111,178.69565592571752,-3.706244015255385,48.79206118718259,1553.0,1435.0,1350.0,1528.0,1471.0,1010.0,61.0,293.85,1649174406.665858,1649174407.9228108,8ce998f7-86e1-4114-9077-6f2a262fca5b
-0.0338797464782024,0.1138458566129982,-0.0955865805429519,-0.1262493420211748,-0.2264292675301829,0.1726336759599412,-0.3470685724661358,-0.3639777994014236,-15.02188007580724,19.917591495352152,21.995146021084743,0.7959395731933019,0.3481920361420699,0.9578624729237962,7208.9375,11.633,8.08,178.67444287597527,-3.691546491662641,48.86015096356349,1553.0,1435.0,1350.0,1528.0,1471.0,1010.0,61.0,293.85,1649174408.0545282,1649174409.1432438,8ce998f7-86e1-4114-9077-6f2a262fca5b
-0.048405010480828,0.1146388241297667,-0.0973459773735574,-0.1281442715860104,-0.2271387915108696,0.1709000709850394,-0.3470448036894152,-0.3695366639915267,-14.95841868642356,19.72034887067449,21.606684410268084,0.7948932985920713,0.3542783326980082,0.9608500555997956,7212.729919433594,11.63675,8.1025,178.6831206313158,-3.702224745378016,48.93693595021278,1553.0,1435.0,1350.0,1528.0,1471.0,1010.0,61.0,293.85,1649174409.2530124,1649174410.5740893,8ce998f7-86e1-4114-9077-6f2a262fca5b
-0.0162736417330208,0.1113739017708866,-0.1129297119027383,-0.3897492483123652,-0.2711611375980405,0.4396442338721602,-0.2918045935027235,-0.3122376705624848,-15.01903626933403,19.531359426621467,25.263755118774625,1.987437694893306,0.3412674409321645,0.9659064553046436,7215.00537109375,11.626777777777775,8.054444444444446,178.7470477868525,-3.636777434006163,49.09941249018904,1553.0,1525.6666666666667,1350.0,1528.0,1471.0,1010.0,61.0,293.85,1649174411.157552,1649174412.218729,f744bc2c-7e99-4ce0-b7a0-f63493157955
-0.009022135603128,0.1167944516970556,-0.1046104216551514,-0.3813631177643943,-0.2644766682055303,0.43595164198664,-0.2874184069190659,-0.3119078575607005,-15.05447714428522,19.726773286173685,26.637562793141672,1.9621337120322364,0.3491708184300857,0.9417789287989804,7215.00537109375,11.62811111111111,8.041111111111112,178.77155298777473,-3.632102880997328,49.190851268247634,1553.0,1537.0,1350.0,1528.0,1471.0,1010.0,61.0,293.85,1649174412.3273137,1649174413.5402625,f744bc2c-7e99-4ce0-b7a0-f63493157955
-0.0102137361997553,0.1125759117273507,-0.119060291889166,-0.3991686474516639,-0.2775979731014752,0.4368419182190324,-0.2981565104060427,-0.3236321139791107,-15.102408296574694,19.46025751124309,23.753920152312617,2.001329125220744,0.360517302737066,0.989978331104096,7215.00537109375,11.624222222222222,8.10222222222222,178.77333035477872,-3.631972111333844,49.26899887763633,1553.0,1537.0,1350.0,1528.0,1471.0,1010.0,61.0,293.85,1649174413.6499012,1649174414.774578,f744bc2c-7e99-4ce0-b7a0-f63493157955
-0.0086934181721477,0.1109871109581786,-0.1545343811392887,-0.7092588253189436,-0.3448480860372225,0.7360158193323288,-0.2484106030015132,-0.2667913872594434,-14.829096898586114,18.78694605322257,25.53078761758162,3.367291281249853,0.3727940225010289,1.059165374911427,7208.9375,11.615,8.020000000000001,178.80569179106624,-3.556197470931161,49.38711371840831,1553.0,1645.0,1350.0,1528.0,1471.0,1010.0,61.0,293.85,1649174415.6769016,1649174416.818222,8c22fb2d-fdb6-49b8-b987-ce87a4d1df08
-0.0038174432153323,0.1108227522607551,-0.1491242400898201,-0.7019585567265053,-0.339479034164291,0.7355090467147839,-0.2445070833302279,-0.262518060453766,-14.849030739144531,18.90136574378982,26.425540618503728,3.350845363616685,0.363834586265261,1.0401653261621653,7208.9375,11.616666666666664,8.100000000000001,178.8213875657789,-3.557548710021962,49.40210256854191,1553.0,1645.0,1350.0,1528.0,1471.0,1010.0,61.0,293.85,1649174416.9307938,1649174418.0441582,8c22fb2d-fdb6-49b8-b987-ce87a4d1df08
0.0042224368098823,0.1157398167040064,-0.1393859862442982,-0.6981783050657585,-0.3328909884270771,0.7318931555939466,-0.2389462799125856,-0.2699005065551859,-14.852495834147083,19.18317350096061,27.14635892957584,3.336658847949913,0.3760692008125033,1.0115271377675048,7208.9375,11.615333333333332,8.036666666666667,178.81758542714095,-3.564418670814329,49.44527164082611,1553.0,1645.0,1350.0,1528.0,1471.0,1010.0,61.0,293.85,1649174418.1525736,1649174419.3919022,8c22fb2d-fdb6-49b8-b987-ce87a4d1df08
0.0044415817168305,0.1111103799851416,-0.1664640846575786,-0.975506361231372,-0.391087676282294,0.9970722039026112,-0.1943639769689643,-0.2217981868457471,-14.740752920773934,19.00630812424897,27.963689226015685,4.5558014909763545,0.3830965448366871,1.0625395642330897,7215.00537109375,11.59177777777778,8.071111111111112,178.81999572500808,-3.500810257438862,49.52158534442266,1553.0,1761.0,1350.0,1528.0,1471.0,1010.0,61.0,293.85,1649174420.2958822,1649174421.433564,d0453265-d222-4dba-8716-e4379c621881
0.0096325775421426,0.1117678147857171,-0.156944975665283,-0.966302268279431,-0.3806782897478147,0.9942781061444942,-0.1857762339301372,-0.2022668923457964,-14.748421233513156,19.0063717613687,28.93208931349488,4.529385520030265,0.3765039349292598,1.0246796000143077,7215.00537109375,11.592444444444444,8.105555555555554,178.85217805855734,-3.4820627162595152,49.5424124884768,1553.0,1761.0,1350.0,1528.0,1471.0,1010.0,61.0,293.85,1649174421.5417068,1649174422.7529314,d0453265-d222-4dba-8716-e4379c621881
0.0126797879225847,0.1153579566594402,-0.1559653976946651,-0.9727232188143592,-0.3833984267783619,0.988352427436343,-0.1873644869822942,-0.2203545699293083,-14.650676435758529,19.18156790976518,27.74498709089029,4.531623964189288,0.4006542208187731,1.0280108428765682,7218.3818359375,11.589333333333334,8.073333333333334,178.85851647410712,-3.483220955074395,49.5577386740644,1553.0,1761.0,1350.0,1528.0,1471.0,1010.0,61.0,293.85,1649174422.8612392,1649174423.9854114,d0453265-d222-4dba-8716-e4379c621881
