raw_voltage_G-,raw_voltage_G0,raw_voltage_G1,raw_voltage_G2,raw_voltage_G3,raw_voltage_G4,raw_voltage_G5,raw_voltage_G6,load_x,load_y,load_z,load_l,load_m,load_n,rpm,voltage,current,roll,pitch,yaw,aileron1_pwm,elevator_pwm,throttle_pwm,rudder_pwm,aileron2_pwm,pbaro,pdiff,Tt,sample_start_time,sample_end_time,uid
0.0950037751370834,0.2093579831412378,0.2628468767993748,-0.1693639202160512,0.0293260376227322,0.0543085605689677,-0.0385343850292035,-0.053629088908867,-10.473503404506737,24.967039935759303,15.321140466259203,0.679849824018734,0.7614965650433807,-0.3154824487444727,3189.2271592881943,11.973777777777777,0.24,178.83522097557793,0.4296809604302057,89.92887063773193,1553.0,1435.0,1200.0,1528.0,1471.0,1010.0,61.0,293.85,1649169741.2754412,1649169742.361985,2de1d050-93e6-4bd5-bf81-ac43d8568d87
0.0980016778506294,0.2083455335717647,0.2638330289638532,-0.1705078568604201,0.0298651341773285,0.0574773963770377,-0.0376797197433974,-0.0551280404047836,-10.520696907804076,25.049926499457484,15.48708641343891,0.6901523275680712,0.7567672784416221,-0.318743319208204,3462.3751627604165,11.976,0.23,178.84536608322514,0.4872492602460194,89.08903285411688,1553.0,1435.0,1200.0,1528.0,1471.0,1010.0,61.0,293.85,1649169742.4706488,1649169743.589407,2de1d050-93e6-4bd5-bf81-ac43d8568d87
0.1022881527731863,0.2095683622723565,0.2625444568013662,-0.1726773919421363,0.0286554541082876,0.0571486789605625,-0.0377586119310075,-0.0534450071274392,-10.447299864779948,24.94405369339088,15.322398611191025,0.693552283347696,0.7624773992191556,-0.3152354572891474,3494.4210340711807,11.97411111111111,0.23,178.8795564923904,0.5527270940257254,88.33859313981841,1553.0,1435.0,1200.0,1528.0,1471.0,1010.0,61.0,293.85,1649169743.6974823,1649169744.818838,2de1d050-93e6-4bd5-bf81-ac43d8568d87
0.2142728559766572,0.4137358257986978,0.2845088047474793,-0.215894969195591,0.0071398038992116,-0.1037749315274611,-0.0788061038992748,-0.0955706929084972,-10.416818493134649,24.798717655261147,15.1551392940518,0.4295426188041644,1.53620716219541,-0.2332568966125178,3500.1291232638887,11.960444444444445,0.2255555555555556,178.79642398327243,0.6230190846633962,87.27742383505901,1647.0,1435.0,1200.0,1528.0,1543.0,1010.0,61.0,293.85,1649169745.9335506,1649169747.070187,df5a9684-757c-4e85-9488-c11639da0043
0.2085033178831933,0.4121634610003889,0.2839768304453101,-0.2134646515673796,0.0066839824258098,-0.1056584823569564,-0.078559017969674,-0.102726323257368,-10.272311245948538,24.771128934388777,14.98506933059457,0.4196640808558996,1.5304609608966615,-0.2325591448959823,3504.2626953125,11.963,0.22,178.78051571378558,0.6551409129344863,86.8219906157521,1647.0,1435.0,1200.0,1528.0,1543.0,1010.0,61.0,293.85,1649169747.1779318,1649169748.2213423,df5a9684-757c-4e85-9488-c11639da0043
0.2125268187619776,0.4129129366260713,0.2816495113452624,-0.2139905994881794,0.005224477115921,-0.1047775196715089,-0.0816358130438656,-0.1183601246498748,-10.437094866256466,24.756596625237783,15.126013815911897,0.4225574293914515,1.5331060300759274,-0.2228425611613439,3501.717556423612,11.96022222222222,0.22,178.78288503051766,0.6960767564484258,86.47939515717343,1647.0,1435.0,1200.0,1528.0,1543.0,1010.0,61.0,293.85,1649169748.334152,1649169749.283055,df5a9684-757c-4e85-9488-c11639da0043
0.3251190983357307,0.6371677655965148,0.3156958666832841,-0.2670790146628476,-0.0117477507523217,-0.2776938489888521,-0.1153074345349923,-0.1358659712144274,-10.17415850527432,24.719313189305808,14.832172801003756,0.1552794474528064,2.383635336374589,-0.1717393728386825,3505.0588650173613,11.94822222222222,0.2244444444444444,178.6064673155355,0.7728099415675196,85.61995473064046,1745.0,1435.0,1200.0,1528.0,1614.0,1010.0,61.0,293.85,1649169751.4636605,1649169752.6041105,7b421516-5a82-46e1-af5f-21042514cda8
0.3357563928631895,0.6317729656245445,0.3124043099401791,-0.2629957961009774,-0.0132757388581401,-0.2757763305500354,-0.1172424844426313,-0.1418962921345526,-10.15451054596287,24.69088507840948,14.867927179511865,0.1500408655393031,2.3622337220182645,-0.1629574780722274,3502.3539767795137,11.946111111111112,0.22,178.6084374456561,0.8256447038806108,85.29258300481185,1745.0,1435.0,1200.0,1528.0,1614.0,1010.0,61.0,293.85,1649169752.713501,1649169753.8310115,7b421516-5a82-46e1-af5f-21042514cda8
0.3265983265680064,0.6339216815271262,0.3135729002435498,-0.2666270281511048,-0.0138433242556619,-0.2737903292385432,-0.1169921113391932,-0.1405091044766174,-10.179036749295138,24.802421719325185,14.978387038468552,0.1634976854476268,2.370010356926528,-0.1638127801265269,3500.1291232638887,11.944777777777778,0.2155555555555555,178.61285885477884,0.8662388185636547,85.05011508382592,1745.0,1435.0,1200.0,1528.0,1614.0,1010.0,61.0,293.85,1649169753.9400885,1649169755.0589874,7b421516-5a82-46e1-af5f-21042514cda8
0.4146945847872598,0.7811733687224239,0.3413632156967079,-0.3067168608653746,-0.0231432878400096,-0.3921423114370134,-0.1370712676524871,-0.15471243742417,-10.01152186739254,25.078812670323885,13.442841476733811,-0.0089666315623304,2.941419946313072,-0.1451347947586169,3500.1301540798613,11.92677777777778,0.21,178.4643887560605,0.8981136335177299,84.73645306548134,1849.0,1435.0,1200.0,1528.0,1686.0,1010.0,61.0,293.85,1649169755.8553207,1649169756.9035676,06d054da-a9f4-4d34-8286-e6a119ff8aaa
0.4150643918540029,0.7801461269228346,0.3431848578465336,-0.3082645723254109,-0.0201711345732986,-0.3906219931891919,-0.1336471278289856,-0.1659847055697495,-10.03984338066912,24.960590270663573,13.335115377374729,-0.0027834490461707,2.93902642524831,-0.1568024094979681,3497.114013671875,11.925125,0.21375,178.43954071758748,0.9324066126179756,84.58298801147751,1849.0,1435.0,1200.0,1528.0,1686.0,1010.0,61.0,293.85,1649169757.0120242,1649169758.1305482,06d054da-a9f4-4d34-8286-e6a119ff8aaa
0.414872640033214,0.7958560781643856,0.3418425952281247,-0.3088124347908401,-0.0248827507885537,-0.4028804156527641,-0.1392627171824737,-0.1676967762211874,-9.918044665282148,24.933095955646667,13.68168714334712,-0.0292264605365149,2.993996470808628,-0.138078591595238,3495.687744140625,11.924888888888889,0.21,178.44873396248283,0.9571170408626296,84.43101914835688,1849.0,1435.0,1200.0,1528.0,1686.0,1010.0,61.0,293.85,1649169758.239118,1649169759.3653374,06d054da-a9f4-4d34-8286-e6a119ff8aaa
0.429719708324798,0.8113742776081564,0.3489921983127704,-0.3180028268652129,-0.0273070417005273,-0.4193710755131181,-0.1428786088514904,-0.1655601118622236,-9.91707704257114,25.511081888654093,12.30334795694831,-0.041583589327478,3.066003073496552,-0.1397575003018314,3491.416015625,11.866444444444443,0.2,178.45444855408843,1.0005678110182272,84.18903920644168,1962.0,1435.0,1200.0,1528.0,1760.0,1010.0,61.0,293.85,1649169760.566394,1649169761.5198965,db603085-27a4-46ff-b32f-6d1a803baac5
0.4262062674050837,0.8108318939393894,0.3506933107549676,-0.3209684061490986,-0.0253330936398521,-0.4173220698566002,-0.1401212175093775,-0.1621584344400598,-9.94491696640309,25.46099166691693,12.148883684637324,-0.0305755662322098,3.066006980303083,-0.1489992305427228,3491.2580837673613,11.867333333333333,0.2088888888888888,178.45558540113026,1.011112140850813,84.00259780939756,1962.0,1435.0,1200.0,1528.0,1760.0,1010.0,61.0,293.85,1649169761.6292288,1649169762.8412073,db603085-27a4-46ff-b32f-6d1a803baac5
0.4293356568590475,0.8061115124152929,0.3495099281864708,-0.3148805588696394,-0.0251358631875821,-0.4187421293824902,-0.1418305481038538,-0.159305166971128,-9.978229363376927,25.51203401929332,12.074908469420857,-0.0472484408475751,3.048370398238585,-0.1458874305358756,3487.7855360243057,11.86988888888889,0.2,178.46509606009457,1.0206024752591345,83.86430924600205,1962.0,1435.0,1200.0,1528.0,1760.0,1010.0,61.0,293.85,1649169762.9494195,1649169764.0705287,db603085-27a4-46ff-b32f-6d1a803baac5
-0.0401544140912255,-0.0426060980964111,0.2438437245647863,-0.1152389517555788,0.0596524098676039,0.2541846257433988,0.0151796838969896,-0.010556150730659,-10.601362982304485,25.67501967433814,15.849739333931687,1.0106723157725437,-0.1951585659980116,-0.4370096131563121,3480.547200520833,11.961222222222224,0.2211111111111111,179.16965587591824,1.0977816325997378,83.6466182156853,1459.0,1435.0,1200.0,1528.0,1394.0,1010.0,61.0,293.85,1649169765.8016057,1649169766.826463,efdb683f-20c0-469d-a4f1-a671cb8fa077
-0.0393233068861774,-0.0499474537504168,0.2425584395778349,-0.1068418650960733,0.0606593808622401,0.2513549168974237,0.0140735498179282,-0.0126314530116238,-10.588790903682828,25.681234807704456,15.514968273910512,0.9853019782406,-0.2209302637391934,-0.4363348621597266,3491.574625651041,11.964666666666666,0.2255555555555556,179.12523384337632,1.133507802685103,83.53169497053048,1459.0,1435.0,1200.0,1528.0,1394.0,1010.0,61.0,293.85,1649169766.9344733,1649169768.057645,efdb683f-20c0-469d-a4f1-a671cb8fa077
-0.0435648572933813,-0.0459343619407479,0.2457475461176848,-0.1091713759176554,0.0619534317169768,0.2495277960814076,0.0168232709581276,-0.0107342056038445,-10.479670881646426,25.702781322182023,15.531281206987964,0.986810158763824,-0.2063062849120268,-0.4458038922040653,3502.83056640625,11.964,0.22,179.11624683224838,1.1937776883704785,83.43895693870977,1459.0,1435.0,1200.0,1528.0,1394.0,1010.0,61.0,293.85,1649169768.165574,1649169769.2789104,efdb683f-20c0-469d-a4f1-a671cb8fa077
-0.1661627603146544,-0.2749819299818661,0.2211074384262416,-0.040031145002672,0.0858676228546841,0.4169819099168741,0.0536533172189986,0.0298760908901893,-10.73017902247809,26.310270509814984,16.52332930707813,1.209970735045523,-1.0824577781845568,-0.5233607105454758,3508.08740234375,11.949666666666666,0.22,179.20937873831124,1.2798520880299984,83.20295568904804,1364.0,1435.0,1200.0,1528.0,1312.0,1010.0,61.0,293.85,1649169771.3272855,1649169772.3724062,4247dfb9-1782-4e0d-a2b4-1ace00204b36
-0.1667473294815814,-0.2755396539234067,0.2249523361707712,-0.0408617043388028,0.0893498358661576,0.4170679242992478,0.0583320616253779,0.0351772072738492,-10.656156625999165,26.294578135629912,16.38184335621925,1.2121396901257335,-1.083473768457435,-0.5402222789853857,3509.0447591145835,11.949666666666666,0.22,179.20164696417078,1.2897959896878906,83.07550663586532,1364.0,1435.0,1200.0,1528.0,1312.0,1010.0,61.0,293.85,1649169772.4823198,1649169773.5957682,4247dfb9-1782-4e0d-a2b4-1ace00204b36
-0.1586022593517083,-0.2730233218466636,0.2243398261056153,-0.040058538117722,0.0886754173412621,0.4148452469496159,0.0567898291396926,0.0234113151272169,-10.682280736701534,26.27783892095069,16.513475805983955,1.2051996586996865,-1.0751557490111647,-0.5357871919726184,3508.56591796875,11.949,0.22,179.20190802917904,1.3072267273135016,82.95987077430709,1364.0,1435.0,1200.0,1528.0,1312.0,1010.0,61.0,293.85,1649169773.7069066,1649169774.7213604,4247dfb9-1782-4e0d-a2b4-1ace00204b36
-0.3034433828561618,-0.5227116348812164,0.2008502291633329,0.041668828423744,0.1151645612494883,0.5874355661747415,0.0954004275244464,0.0737735611244919,-10.84915446606261,27.277525126281507,17.014758076128903,1.4141295578726012,-2.0264350422716704,-0.6241364151119567,3505.69580078125,11.915,0.21,179.29477431677418,1.3511372427196386,82.83143210260465,1262.0,1435.0,1200.0,1528.0,1222.0,1010.0,61.0,293.85,1649169776.2703617,1649169777.3888383,36d74616-6947-4233-8a15-40fa387b04bd
-0.3020737267479826,-0.5239711707534068,0.2022050926689349,0.0385169763554887,0.1158444583866086,0.5922085424529314,0.0968577413206262,0.0692586277582625,-10.918551465889896,27.374951031876765,17.1152058674907,1.432659269458681,-2.031082555066505,-0.629111075360953,3503.78564453125,11.915666666666668,0.2066666666666666,179.27864596341408,1.3504813666898074,82.70893038311073,1262.0,1435.0,1200.0,1528.0,1222.0,1010.0,61.0,293.85,1649169777.5166943,1649169778.6113927,36d74616-6947-4233-8a15-40fa387b04bd
-0.3034022931246435,-0.5229170833218206,0.1990011938257302,0.0397239171088915,0.1136579398259197,0.5895859256671767,0.0938253232939881,0.0613781759483868,-10.919013550734904,27.26378953889441,17.024582698656264,1.4231322225273295,-2.026676220504858,-0.6173925632343437,3502.83056640625,11.91788888888889,0.2088888888888888,179.2794898712315,1.3447145644541685,82.62480218419378,1262.0,1435.0,1200.0,1528.0,1222.0,1010.0,61.0,293.85,1649169778.720425,1649169779.7290585,36d74616-6947-4233-8a15-40fa387b04bd
-0.3328942755537956,-0.5605640029222289,0.1814827482026566,0.0694032637623167,0.1001843614217089,0.5911040520653364,0.0719672595724666,0.0522047690493597,-11.042520184514528,28.12491961103636,15.72120470874948,1.3641606182513866,-2.160199236973436,-0.5506134117570728,3507.13037109375,11.867333333333333,0.19,179.32684888511656,1.3552988674945534,82.43577138654433,1153.0,1435.0,1200.0,1528.0,1121.0,1010.0,61.0,293.85,1649169781.866,1649169783.124894,26ed96aa-cef9-4d6b-904b-0a4096dc77fa
-0.3385087697998719,-0.5659155239031622,0.176052336856279,0.0710205533697404,0.0967131056642802,0.5965476117892243,0.0674441080868111,0.037070619634494,-11.175684021623056,28.138474424594538,15.923451160810968,1.372529480907278,-2.181663850856803,-0.5324899746200902,3499.6524793836807,11.868333333333332,0.2,179.3006877427756,1.3572474161146455,82.31975531112231,1153.0,1435.0,1200.0,1528.0,1121.0,1010.0,61.0,293.85,1649169783.2532675,1649169784.3411858,26ed96aa-cef9-4d6b-904b-0a4096dc77fa
-0.3313690265087921,-0.5666518511050639,0.1752371177037754,0.0674704054443376,0.0949906264676703,0.6018202384763593,0.0684039628882106,0.0472345617410115,-11.075606996426872,28.152998877917547,16.105440304838634,1.3925211192466724,-2.18636114634672,-0.5301988098510588,3498.541259765625,11.868333333333332,0.1933333333333333,179.31128516072783,1.3453832352307258,82.2346170031181,1153.0,1435.0,1200.0,1528.0,1121.0,1010.0,61.0,293.85,1649169784.4493563,1649169785.7811525,26ed96aa-cef9-4d6b-904b-0a4096dc77fa
0.0982082219506086,0.203260823380933,0.2530615080193164,-0.1747505032204409,0.0206446108515069,0.0640763982863134,-0.046523313981374,-0.076231151318734,-10.6197814805545,25.011938904727145,15.087262062114014,0.7136497515566355,0.7417803124756684,-0.2801805392838185,3493.4717610677085,11.96888888888889,0.22,178.9636771022083,1.322934324419598,82.14794417928036,1553.0,1435.0,1200.0,1528.0,1471.0,1010.0,61.0,293.85,1649169786.7811337,1649169787.8943882,fe210e44-9e35-4948-a258-b819f1db9c60
0.1007009955966831,0.2095612400624629,0.260252200884016,-0.1756133864785033,0.0259588756278085,0.059419568380807,-0.04030507618285,-0.0650547588130724,-10.51086979734636,24.99269271831521,15.241069264482496,0.7054414905190797,0.7638384307583647,-0.3050181313390116,3507.6092122395835,11.971,0.22,178.9416899643601,1.3232600034917412,82.3180272732623,1553.0,1435.0,1200.0,1528.0,1471.0,1010.0,61.0,293.85,1649169788.0027654,1649169789.0546353,fe210e44-9e35-4948-a258-b819f1db9c60
0.0952798977747084,0.2082666414003,0.2579424133718496,-0.1733874215943871,0.0240402616868915,0.0591604294882916,-0.0438333097847969,-0.0580207541572908,-10.59995938657218,25.06679151509704,15.292371398933115,0.7001774697185665,0.7587395278879461,-0.2943904482597488,3507.13037109375,11.972,0.22,178.93474138524448,1.3186091071276875,82.4907490969936,1553.0,1435.0,1200.0,1528.0,1471.0,1010.0,61.0,293.85,1649169789.1634345,1649169790.2856474,fe210e44-9e35-4948-a258-b819f1db9c60
0.1070151089941322,0.2092051295518442,0.2537463359071699,-0.3675980738118145,-0.0002563378633585,0.2462269256245041,0.0060440791938525,-0.0278549043624581,-10.4409476154692,24.58425954631445,16.77291697773209,1.5555408642249768,0.7716492405170525,-0.325784540379558,3510.1622450086807,11.971555555555556,0.2188888888888889,178.9534044976966,1.373705029653039,82.69600462956146,1553.0,1537.0,1200.0,1528.0,1471.0,1010.0,61.0,293.85,1649169791.2920954,1649169792.3286517,5c2d9f25-5381-44a5-bce5-308a60cb33f0
0.1123704633046629,0.2121361929638201,0.2546092190521856,-0.3698853994667708,-0.0002426413031722,0.2451312010109859,0.0067973899293867,-0.0158156294599988,-10.400587576998175,24.55899212763113,16.7323324955493,1.558127582857311,0.7830524436119104,-0.3277359966577492,3512.2402615017363,11.966333333333331,0.2222222222222222,178.9512795499548,1.3763409016322663,82.76977750278677,1553.0,1537.0,1200.0,1528.0,1471.0,1010.0,61.0,293.85,1649169792.439113,1649169793.772751,5c2d9f25-5381-44a5-bce5-308a60cb33f0
0.1023582791418391,0.2107939302785827,0.2570609029073964,-0.3684335640189229,0.0020857737027768,0.2446655180367629,0.0091121083664992,-0.0129119588004397,-10.378185857007171,24.60007097591316,16.686985002041588,1.5542045879054782,0.7782388706120372,-0.3377597990852727,3513.679741753472,11.968555555555556,0.22,178.94899219549276,1.3780466820876405,82.87264774078623,1553.0,1537.0,1200.0,1528.0,1471.0,1010.0,61.0,293.85,1649169793.8848035,1649169794.9942102,5c2d9f25-5381-44a5-bce5-308a60cb33f0
0.1251405864210896,0.2090424144442797,0.2513812142973246,-0.5787092091638835,-0.027226505925304,0.4531347950649933,0.0602912173665103,0.045577825739435,-10.268863018375894,24.39163846086625,18.728358189481035,2.4957091284074475,0.7783290578842269,-0.3619759966553332,3516.2423502604165,11.956333333333331,0.2066666666666666,178.94765499623523,1.4516506978584676,82.98156649075071,1553.0,1645.0,1200.0,1528.0,1471.0,1010.0,61.0,293.85,1649169795.7921298,1649169797.0440855,3aef1bff-6b90-4c85-82df-fd8870555213
0.1217526057607408,0.2097119021973706,0.2511302933546877,-0.5795797627236383,-0.0272111657818932,0.4536338976148928,0.0602824515701033,0.0365463149250387,-10.29650982853986,24.35336011327232,18.778181302877687,2.4985222134358978,0.7806847678834193,-0.3615023548275407,3517.2041015625,11.966111111111111,0.22,178.93893360357504,1.4485218190303994,83.02341050633592,1553.0,1645.0,1200.0,1528.0,1471.0,1010.0,61.0,293.85,1649169797.1517217,1649169798.2675817,3aef1bff-6b90-4c85-82df-fd8870555213
0.1195200667595715,0.2142043732176257,0.2547735777495369,-0.5877018244854711,-0.0266633034150438,0.4541954564731638,0.0641037914050345,0.0462297820928845,-10.164581857711518,24.401008160202707,18.448211556220524,2.5186165785832904,0.800756797932889,-0.3725758485632746,3512.879638671875,11.964444444444446,0.2144444444444444,178.9423426268808,1.4455999328796785,83.04595771969603,1553.0,1645.0,1200.0,1528.0,1471.0,1010.0,61.0,293.85,1649169798.3802683,1649169799.499581,3aef1bff-6b90-4c85-82df-fd8870555213
0.1282436786677351,0.2146437587959964,0.2469106577990327,-0.7357309967557067,-0.0539972523626756,0.5985988082081231,0.0923608872557007,0.0670759444553363,-10.109522745240923,24.558716913196104,19.73531798949339,3.1779145732940624,0.8083372412450258,-0.3643157204025155,3509.5236002604165,11.957666666666666,0.21,178.95493597789047,1.4859305635291151,83.06739237113135,1553.0,1761.0,1200.0,1528.0,1471.0,1010.0,61.0,293.85,1649169800.2987175,1649169801.5508392,b1a76fa6-192c-47c9-bbce-1de7372b2652
0.1303343213305701,0.2118562353171451,0.2455957882477054,-0.739320592225516,-0.0556013933588665,0.6054098322087378,0.0932024038153539,0.0673915131568004,-10.055904467380254,24.57502957892148,19.843019626096925,3.201403926816087,0.7969071564893834,-0.361722710060201,3508.56591796875,11.956,0.21,178.94230923484486,1.49687907217743,83.06494260994904,1553.0,1761.0,1200.0,1528.0,1471.0,1010.0,61.0,293.85,1649169801.6592171,1649169802.7777703,b1a76fa6-192c-47c9-bbce-1de7372b2652
0.1271523368857499,0.2112645440094777,0.241427651745268,-0.7353102381890909,-0.0589017162544944,0.6018991306510604,0.0865623122827281,0.0641437851530655,-10.208057205359106,24.64601039637384,19.744907957901788,3.1846393011597973,0.7958776209965337,-0.3424021919003358,3502.6719835069443,11.958,0.21,178.93873780481883,1.487545025778242,83.08252124014294,1553.0,1761.0,1200.0,1528.0,1471.0,1010.0,61.0,293.85,1649169802.8856971,1649169804.0097277,b1a76fa6-192c-47c9-bbce-1de7372b2652
0.1274092843484618,0.2117115996611203,0.2253670679437613,-0.7310774521003401,-0.0788608901475092,0.599036550178016,0.0625423837205198,0.0385323162266875,-10.341126668577358,25.257792079349503,19.79333564217635,3.171855172958597,0.79653804458055,-0.2593101066267075,3504.421929253472,11.913777777777776,0.2011111111111111,178.94401526431753,1.4740506945544452,83.10209124993483,1553.0,1873.0,1200.0,1528.0,1471.0,1010.0,61.0,293.85,1649169804.7515583,1649169805.70059,c76cc90e-f36e-4eac-8bb3-8f03038eee30
0.1199172669466187,0.2069041078092609,0.2191762237341751,-0.7178328749820405,-0.0825041749479916,0.5903803259611473,0.0526397718557425,0.0382857778520088,-10.495924945840072,25.362272969104136,19.564673426376707,3.12279694244817,0.7796078932942138,-0.2327490298455932,3497.590087890625,11.906,0.1966666666666666,178.94751839245183,1.4818861310451157,83.05735199305143,1553.0,1887.0,1200.0,1528.0,1471.0,1010.0,61.0,293.85,1649169805.8109162,1649169806.8685462,c76cc90e-f36e-4eac-8bb3-8f03038eee30
0.1205648402333528,0.2041905457364515,0.2223357457124602,-0.7105249358684591,-0.0787430997833602,0.5888950713022941,0.056254567593301,0.0387010576956228,-10.367749407007622,25.372249095672554,19.95724545767261,3.1033250113328763,0.7643445370364949,-0.2469502598603875,3499.969970703125,11.906666666666666,0.1933333333333333,178.93382158643624,1.479499015504098,83.00861403986394,1553.0,1887.0,1200.0,1528.0,1471.0,1010.0,61.0,293.85,1649169806.97709,1649169808.1042798,c76cc90e-f36e-4eac-8bb3-8f03038eee30
0.0791152194846103,0.2057399003797003,0.2663334725577452,0.0765676596343794,0.0549955799627709,-0.1775446014372656,-0.1084591548231489,-0.1319076654738995,-10.878540123025624,26.125625338441143,13.7843868106787,-0.3885114198951753,0.7343747531532814,-0.2568475838198112,3493.155083550347,11.971333333333332,0.22,178.93206698672944,1.1994595875601846,82.92961151846414,1553.0,1335.0,1200.0,1528.0,1471.0,1010.0,61.0,293.85,1649169809.7713964,1649169810.9673088,f260bac3-f575-4ff3-9579-71049a2841e6
0.07119860867429,0.2016446295331428,0.264210506098245,0.0781701569772838,0.0544066279454379,-0.1755859933746272,-0.108746782567908,-0.1263742550664096,-10.847298677275736,26.049544870147813,13.693685367153336,-0.3883337958114273,0.7192645861567639,-0.2532983832920191,3495.687744140625,11.971555555555556,0.2177777777777777,178.93408720490393,1.2015294076119467,83.11127026526943,1553.0,1335.0,1200.0,1528.0,1471.0,1010.0,61.0,293.85,1649169811.0761044,1649169812.202626,f260bac3-f575-4ff3-9579-71049a2841e6
0.0855662985288424,0.207766990962264,0.2711135712343325,0.0752527900378995,0.0593236924728186,-0.1785581468370834,-0.1031174966566421,-0.1285109182066025,-10.819331495743832,26.06614356955768,13.789900272293735,-0.3879485799135234,0.7419735581046139,-0.2765564693044989,3497.1151529947915,11.971333333333332,0.2166666666666666,178.92626739721422,1.190517945015188,83.26009932837408,1553.0,1335.0,1200.0,1528.0,1471.0,1010.0,61.0,293.85,1649169812.3116252,1649169813.4262712,f260bac3-f575-4ff3-9579-71049a2841e6
0.068719531586209,0.2064110317220943,0.277934457014613,0.2886862548505969,0.0844568773312575,-0.3837189262557048,-0.1590816388693483,-0.1837902336507822,-10.95224856540037,26.99534910465252,12.176553729756725,-1.324250483407989,0.7262976292491713,-0.2414478447467577,3512.7235514322915,11.95677777777778,0.2166666666666666,178.91914426881976,1.1231782680723532,83.4397112951581,1553.0,1236.0,1200.0,1528.0,1471.0,1010.0,61.0,293.85,1649169814.336571,1649169815.3610697,7b3ecbdf-90e8-47fd-82f1-a02df5bbde4a
0.0858391340185355,0.2021656466014614,0.2773235905325184,0.2942985563603457,0.0850239148489034,-0.3864489248196456,-0.1599757503061383,-0.18411675868764,-10.934195069956004,27.018350321993697,11.92578412753156,-1.3429539575595597,0.711740310295899,-0.240929454062954,3526.852294921875,11.955,0.2033333333333333,178.92057557290588,1.1067010651719649,83.563011387875,1553.0,1236.0,1200.0,1528.0,1471.0,1010.0,61.0,293.85,1649169815.4697237,1649169816.7039168,7b3ecbdf-90e8-47fd-82f1-a02df5bbde4a
0.0787580554290848,0.2092715051780581,0.2805399637363356,0.2913244225954421,0.0872920649325719,-0.3894872856866961,-0.1573621938477097,-0.1759094429226302,-10.926977557570323,26.921453385273573,12.117761224634384,-1.343520595226677,0.7372074654639089,-0.2509748601282128,3530.241455078125,11.959,0.2077777777777777,178.91996540934002,1.1136304818124196,83.68985938441074,1553.0,1236.0,1200.0,1528.0,1471.0,1010.0,61.0,293.85,1649169816.8126993,1649169817.9389822,7b3ecbdf-90e8-47fd-82f1-a02df5bbde4a
0.0557680658252287,0.1991151491997878,0.273602509707022,0.3984230745155166,0.0896917019570136,-0.4827236999406083,-0.1972260100753254,-0.2207227328439778,-11.23253601745337,27.743802342532657,11.280563405444678,-1.7898048394187325,0.6950856988664892,-0.1900510130993246,3538.987060546875,11.953,0.2022222222222222,178.914073232816,1.0762838730624036,83.85099720730967,1553.0,1133.0,1200.0,1528.0,1471.0,1010.0,61.0,293.85,1649169819.047589,1649169820.1851504,771c98c1-3cd8-441e-bbd5-33d477116289
0.0512449143131103,0.2022182413835493,0.2775076722495527,0.4077849454642352,0.0931366603085261,-0.4948205036380592,-0.1972654561907479,-0.2219061157456321,-11.195543188373556,27.823135745713863,11.232410438412456,-1.8373747525833872,0.7059853988306581,-0.1996272196697228,3526.691297743056,11.951,0.2077777777777777,178.92522769064055,1.0740610852323549,83.9423115241434,1553.0,1133.0,1200.0,1528.0,1471.0,1010.0,61.0,293.85,1649169820.2932682,1649169821.4154537,771c98c1-3cd8-441e-bbd5-33d477116289
0.0662738740953296,0.2088714813977521,0.2793090435498898,0.4027884413026898,0.0934785264389897,-0.4976080279451052,-0.1950564749962633,-0.2113214142468646,-11.080146227935543,27.702299875379914,11.125148164646715,-1.833038152314998,0.7318003301730945,-0.2049531975310819,3515.443332248264,11.954,0.2055555555555555,178.9297325798531,1.0595366523884209,84.00328158722446,1553.0,1133.0,1200.0,1528.0,1471.0,1010.0,61.0,293.85,1649169821.5238163,1649169822.5326283,771c98c1-3cd8-441e-bbd5-33d477116289
0.0519686404517759,0.1968782273407214,0.263772216234579,0.4493194820220297,0.0823886969951184,-0.5279437217858275,-0.2254688646885422,-0.2559437116393815,-11.396598948509782,28.32613923938516,11.050601948130064,-2.002978435650424,0.6830154722629406,-0.1269949557609875,3509.364203559028,11.931111111111113,0.2022222222222222,178.9259820470889,1.04756182481154,84.12202822049468,1553.0,1026.0,1200.0,1528.0,1471.0,1010.0,61.0,293.85,1649169824.2596729,1649169825.50886,617f35d3-fa24-434b-a961-d5165683fd71
0.0498045841914573,0.2019185606899841,0.2657308239843166,0.4411563337785644,0.0826900212508939,-0.5267932105882299,-0.2225104077480243,-0.2456575953392034,-11.331490421005432,28.24672665130834,10.867278876116009,-1.9824043797505184,0.7042116292039878,-0.1339295116288893,3501.2405870225693,11.934888888888889,0.1988888888888889,178.9205877154644,1.0280362705390798,84.14817646136721,1553.0,1026.0,1200.0,1528.0,1471.0,1010.0,61.0,293.85,1649169825.6170125,1649169826.7406838,617f35d3-fa24-434b-a961-d5165683fd71
0.0501469981817036,0.2007680498209519,0.267744217981236,0.4483333297758565,0.0851554017516481,-0.5304091034832934,-0.2227980355473765,-0.2460821885857733,-11.401072244990532,28.35685983489424,11.138026683550487,-2.0058808456760224,0.6972352304054419,-0.1394106843386942,3502.989691840278,11.932666666666668,0.2088888888888889,178.90396910630383,1.0426628241974794,84.17770033350955,1553.0,1026.0,1200.0,1528.0,1471.0,1010.0,61.0,293.85,1649169826.849472,1649169827.7959554,617f35d3-fa24-434b-a961-d5165683fd71
0.0940570690324332,0.2098444848792366,0.264280084609265,-0.1533619555638383,0.0304568255059683,0.0385958685248106,-0.0427025218809629,-0.0689867669226535,-10.40278607406244,25.162004570745324,15.23675246033095,0.6098307489190055,0.7616926310896911,-0.3129921151041104,3502.6715494791665,11.972111111111111,0.21,178.9027077980371,1.1878677130375497,84.18581004478408,1553.0,1435.0,1200.0,1528.0,1471.0,1010.0,61.0,293.85,1649169829.7918909,1649169830.8378415,f8635909-0bc6-4ed3-b132-d7007a88b6eb
0.0905381492467189,0.207876563426467,0.2601837180973886,-0.1514937448422354,0.0274654970915343,0.0407648555490318,-0.0480710251592261,-0.0650958485074276,-10.602805797667145,25.238628460657825,15.479095997026205,0.6107324501432799,0.7530911299075029,-0.2957416747376147,3504.42236328125,11.97411111111111,0.22,178.9014707748874,1.2166688539303645,84.1951195926228,1553.0,1435.0,1200.0,1528.0,1471.0,1010.0,61.0,293.85,1649169830.9457705,1649169832.067433,f8635909-0bc6-4ed3-b132-d7007a88b6eb
0.1040500780472748,0.2117641944484001,0.2627153898451397,-0.1555183419067355,0.0285502645402341,0.0392664520502015,-0.0447011237673819,-0.0580076053802563,-10.453898877893188,25.165663480003424,15.303665635872424,0.6161332003723601,0.7688277892837302,-0.3051463690096923,3514.31982421875,11.974,0.2,178.89968885442397,1.2207145670748334,84.16079182076423,1553.0,1435.0,1200.0,1528.0,1471.0,1010.0,61.0,293.85,1649169832.1761217,1649169833.293455,f8635909-0bc6-4ed3-b132-d7007a88b6eb
0.137243413175798,0.2291199248251148,0.3823296194415342,-0.1571641205247879,0.1365037990678694,0.0180696577964064,0.0759924041996028,0.0470241819587088,-9.570471111208011,25.20436532125954,15.41237607386926,0.5788882201361344,0.834492339226122,-0.7842313550184663,3506.1739908854165,11.973333333333333,0.21,178.89844575999504,1.2147506024167467,84.0787931230485,1553.0,1435.0,1200.0,1435.0,1471.0,1010.0,61.0,293.85,1649169835.3188932,1649169836.4589243,1a03a3d9-050f-46fa-bdec-922f72dd71b6
0.1296692164588689,0.2262984338924043,0.3806038531900687,-0.1570408514915708,0.136079205757982,0.020124141609209,0.0751021278883464,0.0610083688312435,-9.639876870654334,25.165166786858794,15.318395374703377,0.5828311532281419,0.8251089720294381,-0.7805383910998188,3507.13037109375,11.96922222222222,0.21,178.8967685690988,1.2287445690931105,84.05030364511046,1553.0,1435.0,1200.0,1435.0,1471.0,1010.0,61.0,293.85,1649169836.566779,1649169837.6867778,1a03a3d9-050f-46fa-bdec-922f72dd71b6
0.1329016041989672,0.2273256757368708,0.3828911782998075,-0.1571093343215003,0.1379830273545285,0.018686002912362,0.0772935772505591,0.052406929892975,-9.602161969008485,25.1556500781157,15.26526132024988,0.5798152649918518,0.829319017005805,-0.7892904620209235,3508.2469075520835,11.970333333333334,0.21,178.8823781194275,1.2074563991279637,84.06590835063422,1553.0,1435.0,1200.0,1435.0,1471.0,1010.0,61.0,293.85,1649169837.7952795,1649169838.91607,1a03a3d9-050f-46fa-bdec-922f72dd71b6
0.1807595699217542,0.2531299908088821,0.5395611676925219,-0.1462353616561666,0.2797429505030886,-0.0256881084274615,0.2293308518085607,0.2092396445216725,-8.513777479252408,25.31560970626861,15.155754855106206,0.4649636139603119,0.9279640585317124,-1.408641024704235,3508.56591796875,11.960444444444445,0.21,178.87526865141143,1.197959459831851,84.02318779410551,1553.0,1435.0,1200.0,1330.0,1471.0,1010.0,61.0,293.85,1649169839.938098,1649169841.0751388,c5ed28fc-f313-4751-a186-f1d2f0eea240
0.1800862471179868,0.2465967327062233,0.5337039719252664,-0.1362220808902434,0.2753458075922108,-0.0274166141736965,0.2215594248403476,0.2033703955199662,-8.576120256880168,25.483071685224218,15.256587993534652,0.4392950906794661,0.9014066096318883,-1.3842759369836244,3502.036919487847,11.95622222222222,0.21,178.86599932579782,1.2056661306555123,84.02822923262289,1553.0,1435.0,1200.0,1330.0,1471.0,1010.0,61.0,293.85,1649169841.1839163,1649169842.3059697,c5ed28fc-f313-4751-a186-f1d2f0eea240
0.1799837968644853,0.2520255003842485,0.5360636148197346,-0.1409890314781422,0.2766530070706786,-0.0293434460894491,0.2239793326989048,0.1996542455407337,-8.54333321856718,25.39262155897533,15.134218963583082,0.4452332021833152,0.9233552525666936,-1.3922157312825536,3497.433403862847,11.960777777777778,0.21,178.85805353906338,1.1902825643641033,84.00809838840914,1553.0,1435.0,1200.0,1330.0,1471.0,1010.0,61.0,293.85,1649169842.4158084,1649169843.5341232,c5ed28fc-f313-4751-a186-f1d2f0eea240
0.1988390265524331,0.254918213398027,0.6313916534693,-0.0983872529367891,0.365814310334958,-0.076008170798962,0.3067766682915853,0.2859885806714652,-8.036187796051916,26.020420848175608,15.155687836780253,0.2534393236711677,0.9312337020198368,-1.760634190287132,3498.700005425347,11.945777777777778,0.1833333333333333,178.848395651577,1.177433674158905,83.9987865638407,1553.0,1435.0,1200.0,1210.0,1471.0,1010.0,61.0,293.85,1649169844.3303006,1649169845.3721812,e422051f-a08d-4b51-9504-f478595ef03d
0.2063469317916334,0.2585866994548596,0.6347182732959067,-0.1028709585908586,0.3681679267882484,-0.074298840200285,0.3106555334414306,0.2872771528291841,-8.025701239809168,25.97653597794476,15.35082386672892,0.2673056690294197,0.9439512340111348,-1.7731919870089394,3502.194878472222,11.960777777777778,0.2,178.86722875984844,1.1733603082346715,83.95905838907836,1553.0,1435.0,1200.0,1210.0,1471.0,1010.0,61.0,293.85,1649169845.4806168,1649169846.8103702,e422051f-a08d-4b51-9504-f478595ef03d
0.210160053542752,0.258534104670329,0.6312470178247627,-0.1012273714950528,0.3651305781827131,-0.0762842934360726,0.3064610996042396,0.2820702694301989,-8.050792801848445,25.975345288088945,15.247100566773067,0.2589266575780884,0.9444284204592464,-1.7585066288993043,3500.925048828125,11.956666666666669,0.2,178.85615778211374,1.1785026461958814,83.96705350495682,1553.0,1435.0,1200.0,1210.0,1471.0,1010.0,61.0,293.85,1649169846.918781,1649169847.927495,e422051f-a08d-4b51-9504-f478595ef03d
0.2186009682896935,0.266155417308456,0.7019661779706046,-0.0724509004601171,0.4296649221154367,-0.1161429246921649,0.3669757784185347,0.3515397578421584,-7.571584625162768,26.40134740366328,14.907215159075976,0.1109787257759203,0.973581097549557,-2.028107348097661,3509.2043728298613,11.950666666666669,0.2055555555555555,178.8455133117472,1.1719060471238891,83.94671471942834,1553.0,1435.0,1200.0,1071.0,1471.0,1010.0,61.0,293.85,1649169849.8626096,1649169851.004253,96cd9721-cf1e-4bf1-8ab7-9f45467fbf98
0.2126188596200113,0.2639645159166665,0.6957676640169669,-0.0708801790568419,0.4243128553300886,-0.1159670608333457,0.3607520626609866,0.3287218406547658,-7.593538569701038,26.40446477200892,14.78498641120887,0.107512238465179,0.966016290916634,-2.0039474899703555,3508.0877278645835,11.950666666666669,0.2,178.8553062851972,1.1690697280652709,83.934760370561,1553.0,1435.0,1200.0,1071.0,1471.0,1010.0,61.0,293.85,1649169851.1118715,1649169852.0889783,96cd9721-cf1e-4bf1-8ab7-9f45467fbf98
0.2160671050601389,0.2633476229583592,0.6983365902959213,-0.0650958481767766,0.4267612519426508,-0.1206353961692325,0.3613191001439563,0.3464583349710848,-7.591968879176136,26.501669121219464,14.803499558014376,0.0847498683406774,0.9629797056293512,-2.0116279766647387,3496.797200520833,11.949666666666666,0.2,178.84787655720004,1.1595111747710205,83.9354820938833,1553.0,1435.0,1200.0,1071.0,1471.0,1010.0,61.0,293.85,1649169852.2003255,1649169853.2531445,96cd9721-cf1e-4bf1-8ab7-9f45467fbf98
0.0522562681948849,0.1834008142153266,0.1359833298494048,-0.1186083053504635,-0.0827918026446831,0.0402717794555946,-0.1814481209541546,-0.2038967836456972,-11.469802053064408,25.525347886313515,15.314211808075278,0.5306965880563213,0.6569722587628742,0.210002353054271,3495.8462185329863,11.977444444444444,0.21,178.93484915045136,1.199517584878293,84.02216781918946,1553.0,1435.0,1200.0,1613.0,1471.0,1010.0,61.0,293.85,1649169855.297412,1649169856.4320288,ec7e3886-b1bd-433b-8a40-c810b2f8dc00
0.0453395061092593,0.1824146620367387,0.1342712600725415,-0.1189644158986374,-0.0831479131794732,0.040833338352174,-0.1819959833415032,-0.2017738164689221,-11.500703335635976,25.411524070743905,15.202965201135903,0.5318886942852856,0.6544116544286245,0.2133469222861395,3502.3555501302085,11.975333333333332,0.21,178.9184172331281,1.196137020694091,84.00516368379576,1553.0,1435.0,1200.0,1613.0,1471.0,1010.0,61.0,293.85,1649169856.5399475,1649169857.6641228,ec7e3886-b1bd-433b-8a40-c810b2f8dc00
0.0536642744187789,0.1824294543159699,0.1342394840571656,-0.1182549341084724,-0.0839762810827592,0.0407785521191378,-0.1823416845096189,-0.2089020538724078,-11.438147418466666,25.47439366668875,15.287516840081812,0.5306253201994956,0.6531866994261414,0.2151559156371739,3512.879638671875,11.973111111111113,0.2022222222222222,178.9006223136105,1.20276298009314,83.99947261839732,1553.0,1435.0,1200.0,1613.0,1471.0,1010.0,61.0,293.85,1649169857.772641,1649169858.8931773,ec7e3886-b1bd-433b-8a40-c810b2f8dc00
0.0243295329555972,0.1719499437832072,0.0514947395849406,-0.1022135237442967,-0.1592657206343831,0.0387010581032462,-0.2722919255278979,-0.2985893219113801,-12.022785115590256,25.6684131095294,14.96847503286552,0.4865923157836228,0.6136304187280132,0.5564971963462103,3511.440673828125,11.974333333333334,0.21,178.92747861742703,1.1996650979916177,83.99587462652454,1553.0,1435.0,1200.0,1694.0,1471.0,1010.0,61.0,293.85,1649169860.8269622,1649169861.965058,0be8ae11-aa51-4112-b100-c01b1ea834bc
0.0359924266504063,0.1738959507606456,0.0530462857454322,-0.1023318620392946,-0.1585819883706158,0.038096218049701,-0.2712005835887406,-0.2908973333881024,-11.983560859860962,25.697107186967017,15.147572990818706,0.4858158685121135,0.619177584096411,0.5523998468992469,3509.2047526041665,11.973777777777778,0.2077777777777777,178.92938196347575,1.1906133897940585,83.97105903145007,1553.0,1435.0,1200.0,1694.0,1471.0,1010.0,61.0,293.85,1649169862.0737398,1649169863.193529,0be8ae11-aa51-4112-b100-c01b1ea834bc
0.0084853538153251,0.1689257437509031,0.0488387029433302,-0.0984266990199079,-0.1601598320529664,0.0373993371589927,-0.2752503825692512,-0.2920149727058491,-12.11097982202592,25.645308386353303,14.837109686018309,0.4747742739536472,0.603441328536978,0.5649774925976951,3508.407986111112,11.975555555555555,0.2,178.92704300313997,1.19980949245954,83.93721847975229,1553.0,1435.0,1200.0,1694.0,1471.0,1010.0,61.0,293.85,1649169863.3017108,1649169864.4214096,0be8ae11-aa51-4112-b100-c01b1ea834bc
-0.0068854723820843,0.1541586626067038,-0.034442948923533,-0.0756148056019578,-0.2358097675569815,0.03617650841074,-0.3674611081658435,-0.3804180555093304,-12.751266487540304,26.042415004968777,14.915481271219988,0.4187441582602926,0.5438114718532253,0.9107389109821372,3507.13037109375,11.970333333333334,0.2,178.95315102178736,1.2003978136496112,83.92701873059174,1553.0,1435.0,1200.0,1774.0,1471.0,1010.0,61.0,293.85,1649169866.3610003,1649169867.3850205,03ff1b5f-25c7-41d3-a2d7-3167d158afdc
-0.0138159311788161,0.1594866237395686,-0.0316762439991593,-0.077970613795633,-0.2338237663257887,0.0325743134748266,-0.3647628856175329,-0.3801578211410854,-12.686139650638522,25.93713601570744,14.859139569430496,0.4154273296673329,0.5642966281034151,0.9010542042682524,3510.00390625,11.969,0.2,178.94439016581197,1.1963543772348657,83.89415261921555,1553.0,1435.0,1200.0,1774.0,1471.0,1010.0,61.0,293.85,1649169867.4935386,1649169868.6170473,03ff1b5f-25c7-41d3-a2d7-3167d158afdc
-0.0063463758374146,0.1586697610091413,-0.0322230106344255,-0.0739701227726863,-0.2345814600330448,0.0333100926113408,-0.3669757020233526,-0.3787043419807488,-12.752258410133836,26.079522290715207,15.361350719047126,0.4090200393618646,0.5567249904109103,0.9065219770131584,3511.440673828125,11.970777777777776,0.2,178.94435222031657,1.1950073832963617,83.86075071744446,1553.0,1435.0,1200.0,1774.0,1471.0,1010.0,61.0,293.85,1649169868.7246668,1649169869.7540634,03ff1b5f-25c7-41d3-a2d7-3167d158afdc
-0.0199793827014077,0.1507208265045115,-0.0965431481688827,-0.0515773442898057,-0.2931572657544288,0.0214390112510929,-0.4409020701694854,-0.468267800976627,-13.210667216627895,26.367788516485746,14.96485026714529,0.3302457949219745,0.5268406361893767,1.1774715711667925,3508.7269422743057,11.956333333333331,0.1922222222222222,178.9659826705081,1.2066131672146498,83.80972616870483,1553.0,1435.0,1200.0,1856.0,1471.0,1010.0,61.0,293.85,1649169871.7787702,1649169872.9184692,cd9592cc-ab5f-4092-b10d-7d2cc025784d
-0.0226502116909745,0.1496798880778178,-0.0993372462912844,-0.0538235799791866,-0.2958691847618898,0.0244111644943398,-0.4431209131803725,-0.4738012127818156,-13.241215860135569,26.37593775738323,14.929116321502669,0.3418853987557824,0.5235689760273045,1.187912369430248,3501.042694091797,11.95325,0.19625,178.9628868872668,1.1897987429931889,83.77514226475238,1553.0,1435.0,1200.0,1856.0,1471.0,1010.0,61.0,293.85,1649169873.0266864,1649169874.140906,cd9592cc-ab5f-4092-b10d-7d2cc025784d
-0.0463062762072905,0.1483323574701183,-0.0988125627014119,-0.0476211458769349,-0.2937420035376191,0.0192349188781939,-0.4431567349462986,-0.4598581120487556,-13.247208542961674,26.310388149807675,14.8202715721971,0.3158337344081422,0.5187905180282761,1.1841114009815432,3505.69580078125,11.954,0.2,178.97293580308315,1.1920397253918271,83.73900714894843,1553.0,1435.0,1200.0,1856.0,1471.0,1010.0,61.0,293.85,1649169874.249045,1649169875.367385,cd9592cc-ab5f-4092-b10d-7d2cc025784d
0.0962660499747658,0.2009822639864997,0.2225987196392554,-0.1960031812280564,0.0152700811725316,0.0792910833196134,-0.0319994828085984,-0.0585861476845604,-9.442181819714106,21.34581862551644,14.127738572310136,0.7703998373023846,0.7340271071753298,-0.2515021498344839,7178.7490234375,11.638333333333334,8.114444444444445,178.79145919465574,0.8684608415548118,72.40949840617158,1553.0,1435.0,1350.0,1528.0,1471.0,1010.0,61.0,293.85,1649169880.308396,1649169881.322048,fc53910a-eabb-4518-9719-14d11a548224
0.096344942147728,0.1984182683240581,0.2214153370107129,-0.1848136396819489,0.0195960022687666,0.0812107929659653,-0.0323150515382698,-0.0671328010092861,-9.714498094810931,21.117057911820908,15.505870808765694,0.74798001513304,0.7126670291097779,-0.2536967757969581,7182.763834635417,11.637333333333332,8.11,178.79201775234787,0.7703335118167303,67.72832884130541,1553.0,1435.0,1350.0,1528.0,1471.0,1010.0,61.0,293.85,1649169881.4295285,1649169882.5362542,fc53910a-eabb-4518-9719-14d11a548224
0.0926107124554761,0.2007455874644762,0.2249391874252071,-0.1850503162578056,0.021870726712805,0.0775686041469372,-0.0324596872228464,-0.0655286599254832,-9.891336407623768,21.29529375109776,15.293232809078274,0.7415635144208211,0.724787670258215,-0.2616096934117234,7190.79345703125,11.637,8.11,178.7718823546747,0.7125963575109278,63.047959926391954,1553.0,1435.0,1350.0,1528.0,1471.0,1010.0,61.0,293.85,1649169882.6507924,1649169883.7661235,fc53910a-eabb-4518-9719-14d11a548224
0.2021377055726634,0.4105445279054273,0.2462954083855709,-0.2293997775240826,-0.0012424901490339,-0.0874897225338546,-0.0757243781251179,-0.0910645247914178,-9.86608241236228,21.130989034322088,15.163785592562457,0.4706632133485738,1.5194412514089848,-0.1727404813964724,7178.7490234375,11.621222222222222,8.14,178.70777419912494,0.7298615223390025,55.46607087217888,1647.0,1435.0,1350.0,1528.0,1543.0,1010.0,61.0,293.85,1649169885.812888,1649169886.8447063,887ddbf5-a825-4ac7-9412-606da7dc8b71
0.2062055833057221,0.406983422958908,0.2366393350653041,-0.2306187713658651,-0.0087345078709562,-0.0850791280587177,-0.0839286171097209,-0.0996659642391429,-9.949624747271212,21.02099825083081,14.784107072287688,0.4775173662408534,1.5095773912837878,-0.1386830696568164,7178.7490234375,11.624555555555554,8.137777777777778,178.70618655959788,0.8046172787586228,53.06059018571178,1647.0,1435.0,1350.0,1528.0,1543.0,1010.0,61.0,293.85,1649169886.957063,1649169888.1788757,887ddbf5-a825-4ac7-9412-606da7dc8b71
0.2126977517906875,0.4106677969222236,0.2420220823218851,-0.2380560035400192,-0.0065704515453125,-0.0847093209885252,-0.0780938828666584,-0.1122531025754778,-9.77352194984642,21.07731532879648,14.418096404614325,0.4957966047946178,1.5266514397721165,-0.1573108751155582,7178.7490234375,11.618,8.122222222222222,178.70926014472437,0.8558057876122314,51.24746107010863,1647.0,1435.0,1350.0,1528.0,1543.0,1010.0,61.0,293.85,1649169888.2876568,1649169889.4104528,887ddbf5-a825-4ac7-9412-606da7dc8b71
0.3222017315509314,0.628155430921611,0.2713053229948532,-0.2837751218805677,-0.0268961449943329,-0.2517799568290457,-0.1177728152856046,-0.1421116022503772,-9.68932291722922,21.256100322008542,14.933739081040931,0.226265585432479,2.344684665982768,-0.0864205501138475,7178.7490234375,11.61288888888889,8.14,178.5461294244076,0.9851371567386336,48.09767076412315,1745.0,1435.0,1350.0,1528.0,1614.0,1010.0,61.0,293.85,1649169891.3424947,1649169892.3037736,178a9048-307c-47df-884f-06fdcbef6073
0.3260504642470267,0.6257996230737846,0.2672100522175131,-0.2873910138360748,-0.0286630010792123,-0.2502459420500145,-0.1192931333712518,-0.13367452130248,-9.747488715864415,21.035085997332043,14.332046416345475,0.2360750475424886,2.3417752514707737,-0.0773824746585286,7181.423502604167,11.61288888888889,8.134444444444446,178.55120349605102,1.0308360433424522,47.22778659889426,1745.0,1435.0,1350.0,1528.0,1614.0,1010.0,61.0,293.85,1649169892.4121923,1649169893.4639823,178a9048-307c-47df-884f-06fdcbef6073
0.3216478427562607,0.6274075988955528,0.2622683341704646,-0.2946578609970636,-0.0339980847189598,-0.2505308305035365,-0.122672896356748,-0.1481550717540738,-9.670999350537269,20.905575293733747,13.533850294223416,0.2506337510087047,2.354918387046013,-0.0594560218104438,7184.7666015625,11.612666666666668,8.14,178.53301242556154,1.0660865192112474,46.48902005734229,1745.0,1435.0,1350.0,1528.0,1614.0,1010.0,61.0,293.85,1649169893.571966,1649169894.826141,178a9048-307c-47df-884f-06fdcbef6073
0.4261931187167278,0.7977752397762208,0.3027663161653394,-0.3319738669128955,-0.0357337127109011,-0.3845423636379235,-0.1386485634572157,-0.1667736269922353,-9.570759244576028,21.32383629550803,13.41762345530632,0.0384888723471491,3.001390112300038,-0.0695274726881383,7184.7666015625,11.588,8.135555555555557,178.38712717398914,1.1405053077738465,45.321066057279104,1849.0,1435.0,1350.0,1528.0,1686.0,1010.0,61.0,293.85,1649169895.9398696,1649169896.9880593,449150c7-a68e-47e9-a869-0c81788e44d4
0.4118873383678514,0.7852971282012442,0.2907878545682464,-0.3345904580269027,-0.0437807151854535,-0.3809264715563546,-0.1460381314217695,-0.1675099547527616,-9.562015953589157,21.12334206336793,11.779836481537968,0.0503344336717556,2.9686027765575647,-0.0354723809186225,7184.7666015625,11.586125,8.111249999999998,178.4099608758395,1.1853647629428736,44.84709508795048,1849.0,1435.0,1350.0,1528.0,1686.0,1010.0,61.0,293.85,1649169897.0965664,1649169898.2134962,449150c7-a68e-47e9-a869-0c81788e44d4
0.4186118002414836,0.7941440085091139,0.3057247726233232,-0.3266590533056636,-0.0301833191685464,-0.3889510127434176,-0.135304411478215,-0.1679844033180633,-9.625872931147768,21.20184496537831,13.007115479523682,0.0158385677359368,2.9913303043933106,-0.0868416097264863,7190.79345703125,11.583666666666668,8.135555555555557,178.41109810233627,1.2220543869431155,44.434572010353605,1849.0,1435.0,1350.0,1528.0,1686.0,1010.0,61.0,293.85,1649169898.3220685,1649169899.5303676,449150c7-a68e-47e9-a869-0c81788e44d4
0.4543324220197881,0.8484782515029788,0.3108061955340388,-0.3806235034814707,-0.0469205142883584,-0.4119064495089342,-0.1424951052465006,-0.1618757375424214,-9.326336129833344,21.528055637841856,10.23585416417156,0.0881097495102008,3.224530168143771,-0.0584652135989751,7190.79345703125,11.519777777777778,8.115555555555554,178.38342976491847,1.2452970345120096,43.94258399806375,1962.0,1435.0,1350.0,1528.0,1760.0,1010.0,61.0,293.85,1649169900.3537655,1649169901.401366,b93f9cd3-a43a-4bc0-83b2-d734fb1fc496
0.4409065085903386,0.8477797270651541,0.3067898169852183,-0.3775867019808953,-0.0486720302125409,-0.4146002891384771,-0.1452229119965979,-0.1669182627663115,-9.304728677118812,21.32863891733305,10.129520827820633,0.0736780321320942,3.2220678800168616,-0.0468319173604599,7190.79345703125,11.52022222222222,8.100000000000001,178.3872470817546,1.283487669659149,43.71318184950511,1962.0,1435.0,1350.0,1528.0,1760.0,1010.0,61.0,293.85,1649169901.5105088,1649169902.719695,b93f9cd3-a43a-4bc0-83b2-d734fb1fc496
0.4478358709236345,0.8429936020540063,0.317019501993554,-0.3738261741643716,-0.0405329869795601,-0.4065269880552401,-0.1359530805055403,-0.1506270268807786,-9.306635672201828,21.6993509426282,11.172810891211334,0.0864691995701069,3.195075638067991,-0.0842882011033964,7190.79345703125,11.523333333333332,8.11,178.3700213446678,1.2990280575682207,43.4967767920271,1962.0,1435.0,1350.0,1528.0,1760.0,1010.0,61.0,293.85,1649169902.8282983,1649169904.041074,b93f9cd3-a43a-4bc0-83b2-d734fb1fc496
-0.0492078396482089,-0.0616854049125341,0.2120129238640933,-0.1245526122386029,0.0639120395168995,0.2811942377573116,0.0358751840804642,0.0151385934969943,-9.75530482097984,21.50763047319885,15.81539677890103,1.0635851783855828,-0.2733432494290423,-0.4290251357622045,7190.79345703125,11.631444444444444,8.145555555555555,179.10347286068065,1.383965278162803,43.09129805848985,1459.0,1435.0,1350.0,1528.0,1394.0,1010.0,61.0,293.85,1649169905.883177,1649169907.1126738,aafbafbc-e44d-424b-b1a4-d92242e81620
-0.0467150658843278,-0.0638083715813217,0.2242302535837162,-0.1191835608963441,0.0728148025681057,0.285056667051089,0.0440794227048313,0.0231099911905543,-9.829527993143484,22.01725733807053,16.84386597743264,1.064266609722927,-0.2897735170263217,-0.4685059779223124,7196.83154296875,11.634555555555556,8.14,179.07375698433168,1.416290037757436,42.953469394498434,1459.0,1435.0,1350.0,1528.0,1394.0,1010.0,61.0,293.85,1649169907.220622,1649169908.3409424,aafbafbc-e44d-424b-b1a4-d92242e81620
-0.0523931114211489,-0.0620311060654342,0.2140652161330829,-0.1302333972466621,0.062118886089659,0.2849892799788743,0.0368470918874746,0.0133766686711174,-9.66010231526936,21.802864840821044,15.570826960990244,1.0869958755776312,-0.2723115051494931,-0.4312552618273509,7196.83154296875,11.633888888888889,8.145555555555555,179.0724941582451,1.412757122409247,42.82664378580496,1459.0,1435.0,1350.0,1528.0,1394.0,1010.0,61.0,293.85,1649169908.4494534,1649169909.4975784,aafbafbc-e44d-424b-b1a4-d92242e81620
-0.164985404036195,-0.2940267234174068,0.2050583595882514,-0.0616366452476619,0.0996058187545455,0.4590780052456953,0.0924134820210626,0.0697188323813585,-9.632812544413673,22.49338111836389,17.153747658179338,1.3278541179426933,-1.1656636632522483,-0.5746529593779958,7196.83154296875,11.604888888888889,8.142222222222223,179.17700060600575,1.449754253146731,42.71648459759624,1364.0,1435.0,1350.0,1528.0,1312.0,1010.0,61.0,293.85,1649169910.2804954,1649169911.416565,3ee67a5d-56ad-49b4-acc6-6703a51b3e52
-0.1785718434768323,-0.2993618076917968,0.200247580570826,-0.0631235436789971,0.0958250207908645,0.4581263684483733,0.0891411002985734,0.0559132490232493,-9.570701261399996,22.435231369594323,16.05061181103577,1.3283001341809175,-1.1764589110925214,-0.5604337374111011,7196.83154296875,11.603222222222222,8.165555555555557,179.1869468792571,1.449087657514453,42.68555408593984,1364.0,1435.0,1350.0,1528.0,1312.0,1010.0,61.0,293.85,1649169911.524773,1649169912.6419904,3ee67a5d-56ad-49b4-acc6-6703a51b3e52
-0.16265644101141,-0.2915684647371797,0.210958288895254,-0.0641370890649587,0.1042484041756688,0.4582770305750281,0.0975370905802178,0.0755130241936243,-9.648964869383958,22.539033303474515,17.096986438973502,1.3322738417547206,-1.1551436467114442,-0.5961480720114559,7194.81884765625,11.602666666666666,8.14,179.18701669896862,1.4362224033143685,42.68258295365087,1364.0,1435.0,1350.0,1528.0,1312.0,1010.0,61.0,293.85,1649169912.7499664,1649169914.075018,3ee67a5d-56ad-49b4-acc6-6703a51b3e52
-0.3163269156304109,-0.5541737345804223,0.1872418769236701,-0.0084370185754503,0.1306235926414897,0.6636454022175847,0.1485978599558106,0.1226423337896933,-9.688114061114964,23.364627457681262,17.100403324630413,1.6723911640192086,-2.1481736301051897,-0.7040918872122183,7190.79345703125,11.56777777777778,8.137777777777778,179.2742624997867,1.4542336477295938,42.66171748464639,1262.0,1435.0,1350.0,1528.0,1222.0,1010.0,61.0,293.85,1649169914.786435,1649169915.8272903,3a229510-5c34-4d37-8eaf-d2656a08b256
-0.300197297943729,-0.5521044579076131,0.1925775080753421,-0.0060910719860955,0.1332577147288981,0.6606299681723676,0.1501455710372051,0.1323948312074454,-9.70832595159128,23.653557052520824,17.290078430066718,1.6625242895065655,-2.1418963009718173,-0.7167505646606499,7186.105902777777,11.567111111111112,8.14,179.2817544583963,1.4342029914816372,42.65339565805263,1262.0,1435.0,1350.0,1528.0,1222.0,1010.0,61.0,293.85,1649169915.9349475,1649169917.1543243,3a229510-5c34-4d37-8eaf-d2656a08b256
-0.3118432095655449,-0.5542657754777752,0.1886882334505862,-0.0093705760419539,0.1308471204726979,0.6626592500953261,0.1489397260497443,0.12273437494954,-9.678131862978669,23.47725756817512,16.83082517348171,1.6730617354262205,-2.145991684292739,-0.7072934112178488,7187.445203993056,11.572333333333331,8.134444444444446,179.27799481871318,1.431349691813831,42.67362478109945,1262.0,1435.0,1350.0,1528.0,1222.0,1010.0,61.0,293.85,1649169917.2620966,1649169918.532694,3a229510-5c34-4d37-8eaf-d2656a08b256
-0.372116843303704,-0.6577197514263702,0.1330035065850822,-0.0018626703268146,0.0907961924052444,0.7465479240218837,0.1151607261861346,0.1041947131033961,-10.045473076064305,24.38720733273687,14.97666779808902,1.847413756569929,-2.519412759242901,-0.5444416766343092,7190.79345703125,11.500444444444447,8.102222222222222,179.32672290607186,1.442160897058675,42.76396503706653,1153.0,1435.0,1350.0,1528.0,1121.0,1010.0,61.0,293.85,1649169919.28776,1649169920.4250114,03b3faf7-3b62-49cd-aace-69ff4155d3f4
-0.3707888247396611,-0.6529730705324641,0.1375661040691999,-0.0009685590830329,0.0957663994995301,0.7418538399113623,0.1194866471471554,0.0990404246689975,-10.041623612213249,24.23881796643393,15.123473605933798,1.8341174621745675,-2.502761558129784,-0.5627369517443319,7190.79345703125,11.502999999999998,8.103333333333332,179.30737829252257,1.447047079210075,42.82263712094685,1153.0,1435.0,1350.0,1528.0,1121.0,1010.0,61.0,293.85,1649169920.533205,1649169921.6549156,03b3faf7-3b62-49cd-aace-69ff4155d3f4
-0.3688033713170675,-0.664609670956842,0.154541070443686,0.0073414170632717,0.1078369024633501,0.7595782807806322,0.1328851683270628,0.1086389729397685,-10.116486807331148,25.168186753116046,17.21499129660358,1.862503230941404,-2.5643443420398047,-0.6202118498963872,7190.79345703125,11.506,8.096666666666668,179.3144498150433,1.4296943788673246,42.86137226209485,1153.0,1435.0,1350.0,1528.0,1121.0,1010.0,61.0,293.85,1649169921.7629917,1649169922.9947767,03b3faf7-3b62-49cd-aace-69ff4155d3f4
0.0963712395278188,0.1957227857045495,0.2130133204845045,-0.1868122417017944,0.0095241008112592,0.0769111693255815,-0.0430706854218603,-0.0726552534704371,-9.681186932617855,21.3231320471264,14.1819466568004,0.7435799960513161,0.7137723911100581,-0.215484114837934,7196.83154296875,11.627555555555556,8.11888888888889,179.09073683460826,1.363355597371145,43.00645079243528,1553.0,1435.0,1350.0,1528.0,1471.0,1010.0,61.0,293.85,1649169925.0218923,1649169926.1588562,2f4b2391-0c50-4483-870c-87b0201009c1
0.0849713200233006,0.195814826571421,0.2178125943946033,-0.1821707515163144,0.0140604010641855,0.0740447535702708,-0.0415980313882574,-0.0699597705532068,-9.85036431128994,21.502249515443804,14.417629725822357,0.7280474852306155,0.7129619624254728,-0.2301089827419759,7199.521755642361,11.633777777777777,8.12111111111111,178.89071095021492,1.3193785231945023,43.038103027413975,1553.0,1435.0,1350.0,1528.0,1471.0,1010.0,61.0,293.85,1649169926.2681668,1649169927.387902,2f4b2391-0c50-4483-870c-87b0201009c1
0.0990574085646734,0.1981657037942426,0.2246137572079155,-0.1816809625539074,0.0200282656409928,0.0769648598113922,-0.0352099562742664,-0.0571518441374398,-9.887704352220544,21.56460448809119,15.274027573810509,0.734374239845994,0.7148251438938567,-0.2551585013088937,7208.9375,11.635555555555555,8.113333333333335,178.8584162979993,1.3236137978043738,43.06369726405383,1553.0,1435.0,1350.0,1528.0,1471.0,1010.0,61.0,293.85,1649169927.4954443,1649169928.7327166,2f4b2391-0c50-4483-870c-87b0201009c1
0.1005366368620859,0.1819489790596062,0.2149987735248365,-0.4831285703858017,-0.0163771877196875,0.3828500886150718,0.0469009137948735,0.0219594798213156,-9.582428272095674,20.66925084018444,17.325299612534575,2.095797622942175,0.6701514544667591,-0.3105063111053945,7208.9375,11.628,8.119999999999997,178.88500394770847,1.3653375261692122,43.163438516503525,1553.0,1537.0,1350.0,1528.0,1471.0,1010.0,61.0,293.85,1649169930.7584553,1649169931.8009615,efa34e7c-ba30-44cb-b801-aff43b62f2d6
0.1077136334611317,0.1891259754860272,0.2148344148307653,-0.4874977736249086,-0.0189932304666886,0.3791931077613344,0.0432576292041736,0.0174533123934994,-9.687530363640112,20.79272171790189,17.217645137231358,2.0981760036609867,0.699297197265798,-0.3009777709259635,7211.634331597223,11.628222222222222,8.141111111111112,178.8831279224164,1.374210214634307,43.20481580249547,1553.0,1537.0,1350.0,1528.0,1471.0,1010.0,61.0,293.85,1649169931.9092534,1649169933.1259816,efa34e7c-ba30-44cb-b801-aff43b62f2d6
0.1086723925532366,0.1854416013666011,0.2153959736929603,-0.4852241443245709,-0.0164867602050876,0.3799053287486759,0.0465858929332735,0.0261780202847946,-9.593267763083544,20.625829473637427,17.119866085310285,2.0936011845346747,0.6854308370160075,-0.3103252461740602,7208.9375,11.631666666666668,8.116666666666667,178.86818346851243,1.3590337951738194,43.23678564127057,1553.0,1537.0,1350.0,1528.0,1471.0,1010.0,61.0,293.85,1649169933.2346306,1649169934.4685333,efa34e7c-ba30-44cb-b801-aff43b62f2d6
0.1120006562115616,0.1695262008568916,0.2201760724392429,-0.7866581109849161,-0.0437155194441023,0.689050324475699,0.1370105716869032,0.1089600201039325,-9.468316180617526,20.37924563436172,19.75852923900777,3.467339343244373,0.6388794511262831,-0.4091585483235727,7202.87890625,11.618000000000002,8.103333333333333,178.8819182200234,1.4541716305605674,43.27761233812441,1553.0,1645.0,1350.0,1528.0,1471.0,1010.0,61.0,293.85,1649169935.264559,1649169936.3053658,b59b09eb-f05a-4345-9869-4e3b2a49e568
0.1111651661644284,0.1734982027111355,0.2179846231663455,-0.7921504335541268,-0.0478655768434332,0.6883381034989807,0.1350930535439366,0.1103296757810569,-9.335775830485256,20.364157064119464,19.47539476111778,3.4779406623671485,0.6558852391299449,-0.3976566957635565,7202.87890625,11.62388888888889,8.11888888888889,178.88756450973727,1.4521227279631388,43.30523438203785,1553.0,1645.0,1350.0,1528.0,1471.0,1010.0,61.0,293.85,1649169936.4166534,1649169937.532243,b59b09eb-f05a-4345-9869-4e3b2a49e568
0.1079738680774302,0.1709506429001479,0.2220661974278475,-0.7893837274355123,-0.0433594089224535,0.6898721179118118,0.139380076263005,0.1210677775738204,-9.352329375963242,20.409274037855823,19.732403002866626,3.4756817434061973,0.6440885197549827,-0.4154133032160678,7204.225260416667,11.624333333333333,8.10888888888889,178.87020824014635,1.4533308769624211,43.297654010424,1553.0,1645.0,1350.0,1528.0,1471.0,1010.0,61.0,293.85,1649169937.640602,1649169938.6557152,b59b09eb-f05a-4345-9869-4e3b2a49e568
0.1230893898523501,0.1502545956594098,0.2156299109127552,-1.028723551640407,-0.076875984857283,0.9424108861265682,0.1996410969852304,0.1796813766110112,-9.264118611882411,20.60571568914695,21.622564813062983,4.58438953704635,0.5781521294282024,-0.4487438082400065,7208.9375,11.598,8.11,178.87657549427263,1.5345791550749617,43.33131773611327,1553.0,1761.0,1350.0,1528.0,1471.0,1010.0,61.0,293.85,1649169940.7858083,1649169941.7242043,e0d6fbc4-262f-4ac9-b5b4-b02edcf80f39
0.127673733301379,0.1503931626832104,0.2095370076358654,-1.0223696928979351,-0.0805434598377105,0.9320451628190656,0.1923678453757117,0.1714690048256944,-9.2814790133088,20.43795748747454,20.951102270871623,4.545232375012809,0.5835744695832786,-0.4259055666506351,7190.79345703125,11.606666666666667,8.16,178.87979934356088,1.5334157817602383,43.33464859169851,1553.0,1761.0,1350.0,1528.0,1471.0,1010.0,61.0,293.85,1649169941.834438,1649169942.9553149,e0d6fbc4-262f-4ac9-b5b4-b02edcf80f39
