raw_voltage_G-,raw_voltage_G0,raw_voltage_G1,raw_voltage_G2,raw_voltage_G3,raw_voltage_G4,raw_voltage_G5,raw_voltage_G6,load_x,load_y,load_z,load_l,load_m,load_n,rpm,voltage,current,roll,pitch,yaw,aileron1_pwm,elevator_pwm,throttle_pwm,rudder_pwm,aileron2_pwm,pbaro,pdiff,Tt,sample_start_time,sample_end_time,uid
0.0121538401009403,0.1477694921425987,0.0853657809574006,-0.1228701267975296,-0.1188203280851539,0.076017058003169,-0.2359752219963001,-0.258880253929159,-13.595802406605664,25.983702713492097,14.47623071878252,0.6199489468400404,0.5431310625969799,0.3985012311371064,3513.9039713541665,11.976,0.22,178.9575542170723,1.0447723328658247,90.99061367838162,1553.0,1435.0,1200.0,1528.0,1471.0,1010.0,61.0,293.85,1649166815.836167,1649166816.8882306,5e7302b6-c07f-4d57-b0a3-14a49aff9925
0.0164271664319054,0.1491764026014467,0.0857339444488921,-0.123185695520235,-0.1183075288975699,0.0755568536416176,-0.2367246977676372,-0.2645604914802703,-13.712997788817187,26.002330500051634,14.564348442129486,0.6197235231515946,0.5485188359398492,0.398570175462049,3589.04443359375,11.974555555555556,0.2244444444444444,178.95354869057903,1.0327246617957646,90.2022808334778,1553.0,1435.0,1200.0,1528.0,1471.0,1010.0,61.0,293.85,1649166816.997207,1649166818.2105663,5e7302b6-c07f-4d57-b0a3-14a49aff9925
0.0204901136128358,0.1499127295694591,0.0853263348608333,-0.1256050557869493,-0.1181891906322344,0.0753333258076962,-0.2358437350280103,-0.2533052059501507,-13.686113324186651,25.87713106171059,14.321761388704203,0.6238033150140693,0.5535101825132454,0.3975062279090682,3595.020446777344,11.97625,0.22,178.96811368952916,0.9917033801451172,89.50093424220367,1553.0,1435.0,1200.0,1528.0,1471.0,1010.0,61.0,293.85,1649166818.3184884,1649166819.547388,5e7302b6-c07f-4d57-b0a3-14a49aff9925
0.1303869161067546,0.3618171069868258,0.0998161979534846,-0.2144639525810771,-0.1525861824144195,-0.0489744501938757,-0.2725811968836981,-0.2973533448621958,-13.486607026574744,25.47631327158249,14.452549133068263,0.54309674870741,1.3575614241779927,0.5022610293493809,3601.439453125,11.95977777777778,0.22,178.8386527661809,0.933712721767444,88.4751999588583,1647.0,1435.0,1200.0,1528.0,1543.0,1010.0,61.0,293.85,1649166821.3699963,1649166822.4072683,7600f4f7-d78f-4e49-a8a6-edae84926109
0.1568916527537056,0.365032974417241,0.1039302226550124,-0.2146601716033583,-0.1489166844436587,-0.049998025667379,-0.2697709155464331,-0.2961947414774145,-13.574705579584665,25.4984550949294,14.755972088016618,0.5415949125806075,1.3678425336806173,0.4883985843990766,3601.439453125,11.958666666666666,0.22,178.85717775702977,0.9213862224540788,88.19252726768796,1647.0,1435.0,1200.0,1528.0,1543.0,1010.0,61.0,293.85,1649166822.5160248,1649166823.5478375,7600f4f7-d78f-4e49-a8a6-edae84926109
0.1288748160508506,0.3603877342383881,0.1031937692486638,-0.2106765798014772,-0.1497268886257241,-0.0494543776260936,-0.2708592653063781,-0.2950884819956914,-13.525795816669822,25.632492254818303,14.698826283078551,0.5346979438204446,1.3500454898245555,0.4914270042844468,3599.759087456597,11.95711111111111,0.2111111111111111,178.88127770006122,0.919272622787012,87.94711174062023,1647.0,1435.0,1200.0,1528.0,1543.0,1010.0,61.0,293.85,1649166823.6576178,1649166824.9774911,7600f4f7-d78f-4e49-a8a6-edae84926109
0.2598686972279773,0.5858193724186109,0.1196844254992769,-0.3079632477638128,-0.1860501650527304,-0.1796401750584745,-0.3091548485333114,-0.3366712399471684,-13.352717253621137,25.277879781341863,14.77630438800287,0.46017779130726,2.206656977101236,0.5997468774197331,3598.415771484375,11.947,0.2155555555555555,178.74593370710787,0.8978817153930996,87.40863252792487,1745.0,1435.0,1200.0,1528.0,1614.0,1010.0,61.0,293.85,1649166827.00291,1649166828.0651352,3c701b04-79d0-49b8-a471-4a6f5286e065
0.2694738193036257,0.5914722155355517,0.1232603229396605,-0.3093186594169523,-0.1847478961431432,-0.1839195282159638,-0.307964343488306,-0.3369046290386804,-13.328514232893772,25.369171451580385,14.795026849035017,0.4544173969691333,2.227916457221341,0.5920817472960784,3599.927001953125,11.9395,0.21875,178.75560259878796,0.8961503810181743,87.28650238969456,1745.0,1435.0,1200.0,1528.0,1614.0,1010.0,61.0,293.85,1649166828.1944778,1649166829.369982,3c701b04-79d0-49b8-a471-4a6f5286e065
0.2520205695757796,0.5842305717748703,0.1203281637366128,-0.3091685450910993,-0.1856803579422678,-0.1765173594134662,-0.3085111101893188,-0.3327677204679237,-13.402436671597483,25.35410079300541,14.845417586785604,0.4704373522142351,2.2006278621145,0.597277766819544,3596.9068196614585,11.943,0.22,178.76308962448311,0.8956869420108183,87.16574037630049,1745.0,1435.0,1200.0,1528.0,1614.0,1010.0,61.0,293.85,1649166829.4786775,1649166830.708993,3c701b04-79d0-49b8-a471-4a6f5286e065
0.3215990830255843,0.6918718152704552,0.1426535537156768,-0.3735149881995529,-0.1957747225675397,-0.2370698511225509,-0.3149758868275351,-0.3381778619320343,-13.294144630672236,25.66390271461584,12.865442289359564,0.482421890611727,2.630472966344209,0.5994155649089435,3597.744547526041,11.918777777777777,0.2144444444444444,178.62283244878685,0.8851656818536321,87.00917726232565,1849.0,1435.0,1200.0,1528.0,1686.0,1010.0,61.0,293.85,1649166831.3336875,1649166832.6446364,c9a04d19-65fa-408c-bb92-39da2634ee59
0.3251322470350887,0.6844597863459483,0.1378422267256384,-0.3676068396366441,-0.1961609655793283,-0.2356596532760994,-0.317891610699104,-0.3400734653172101,-13.430066644265889,25.49987027724407,12.779898294357825,0.4708544391165904,2.603358334365412,0.6096579427834974,3592.55064561632,11.919444444444444,0.2188888888888889,178.60354854803018,0.9196049541788156,86.91204438322899,1849.0,1435.0,1200.0,1528.0,1686.0,1010.0,61.0,293.85,1649166832.7534502,1649166833.780222,c9a04d19-65fa-408c-bb92-39da2634ee59
0.3114499337670081,0.6888585726740231,0.143352078180285,-0.3687622815576587,-0.193665452352944,-0.2396858941505291,-0.3154415698956528,-0.3504773731664821,-13.404848986267863,25.69587736005067,12.697192956340066,0.4659865508366092,2.6209058674605537,0.5956027578079626,3585.870849609375,11.919666666666666,0.21,178.62815240724035,0.9602859640463,86.84427979974357,1849.0,1435.0,1200.0,1528.0,1686.0,1010.0,61.0,293.85,1649166833.8893006,1649166835.1135852,c9a04d19-65fa-408c-bb92-39da2634ee59
0.3406740049275143,0.7328075377572963,0.1503729339085558,-0.3888288393639794,-0.200578927946319,-0.2595376885876092,-0.3211261904939381,-0.3448990375454429,-13.337298154775176,25.996037029275,13.370709652642631,0.4691229084374549,2.7822145357005663,0.6095585193930809,3585.7044542100693,11.865777777777778,0.2,178.56809227713873,0.9901281751790124,86.73973540648755,1962.0,1435.0,1200.0,1528.0,1760.0,1010.0,61.0,293.85,1649166835.921113,1649166836.9575715,45057475-04fc-4890-bf3c-713da87ccca7
0.3482213560301071,0.7393687365550692,0.1575915679398716,-0.3910772668644907,-0.1952011106517077,-0.2668878106887487,-0.3153933580108817,-0.339679004088936,-13.258590983695944,25.95951224781184,12.995521142055896,0.4577752288043868,2.810325069682212,0.5845466663515135,3578.8848470052085,11.866333333333332,0.2,178.57207200069513,0.9926628394072566,86.58860760527222,1962.0,1435.0,1200.0,1528.0,1760.0,1010.0,61.0,293.85,1649166837.0883417,1649166838.1530688,45057475-04fc-4890-bf3c-713da87ccca7
0.3418310901043214,0.7306643004755057,0.1551459105161027,-0.3917478504909612,-0.1955298280890562,-0.2581439265676055,-0.3144598004259086,-0.341953729263304,-13.292064363149096,25.924522691084267,12.933126050291238,0.4785560530984654,2.7783949927641647,0.5858427360233562,3574.406494140625,11.866111111111111,0.2,178.5908701991108,0.9977387490356012,86.47729980691805,1962.0,1435.0,1200.0,1528.0,1760.0,1010.0,61.0,293.85,1649166838.2837725,1649166839.4155667,45057475-04fc-4890-bf3c-713da87ccca7
-0.1201149269400889,-0.1056376635727146,0.0722395471720072,-0.0102000395868743,-0.0734233561260396,0.2181078922382681,-0.1921314376343722,-0.2213325039386747,-14.024201053765788,26.64190004439269,14.240322103360224,0.6885463318790368,-0.4168699591322428,0.2615603644041789,3574.9039442274307,11.969555555555557,0.2288888888888889,179.18300661901588,1.0027050791880427,86.26905113367391,1459.0,1435.0,1200.0,1528.0,1394.0,1010.0,61.0,293.85,1649166841.3411548,1649166842.391893,367cdc4c-b055-4e91-882c-6a3ba2c73ba2
-0.1286204903945226,-0.1127461779024346,0.068774317868023,-0.005488423339737,-0.074847798285232,0.221545728283066,-0.1940352594599076,-0.2196889166789126,-14.023794331353846,26.64000796965773,14.334958144310985,0.6854735587872658,-0.4451726552894197,0.2702503494183516,3586.3758138020835,11.969333333333331,0.2266666666666666,179.16513732632734,1.003731694565791,86.22057424549469,1459.0,1435.0,1200.0,1528.0,1394.0,1010.0,61.0,293.85,1649166842.522627,1649166843.4993618,367cdc4c-b055-4e91-882c-6a3ba2c73ba2
-0.1291957458836959,-0.1051445874370456,0.0734722374357857,-0.0102685223843797,-0.0721632726828217,0.2167930226722477,-0.1904193676515094,-0.2143335616514269,-13.969696058670047,26.59020177772618,14.124857294774296,0.6854738211703338,-0.4142973341876891,0.2556817132704767,3599.928771972656,11.97025,0.2225,179.17450493077402,0.9892784895669908,86.19580911792909,1459.0,1435.0,1200.0,1528.0,1394.0,1010.0,61.0,293.85,1649166843.6078663,1649166844.7264557,367cdc4c-b055-4e91-882c-6a3ba2c73ba2
-0.2518758327577713,-0.3461218661031252,0.0595017477285733,0.1013173407517298,-0.034634700752393,0.3546077869354581,-0.152575773041507,-0.1702991218479725,-14.146237687863978,27.621953109148013,14.837733411290694,0.7496203663828641,-1.3377840917831811,0.1420072005225924,3610.54150390625,11.952000000000002,0.22,179.2197424120119,0.9807475388262676,86.14236402603859,1364.0,1435.0,1200.0,1528.0,1312.0,1010.0,61.0,293.85,1649166846.8667772,1649166848.013963,8b99b787-ff65-4fbf-9250-91d0c4250d51
-0.2557245662175611,-0.3456222155620392,0.0608960573901898,0.1033663458823592,-0.033472136827942,0.3520081803024805,-0.1517972605845523,-0.1767534889084655,-14.10651456034068,27.63740040524408,14.813981539457629,0.739344688337303,-1.3361443593745863,0.1374810762164604,3612.063232421875,11.955666666666666,0.22,179.2236599049558,0.9854762708877378,86.0949708612077,1364.0,1435.0,1200.0,1528.0,1312.0,1010.0,61.0,293.85,1649166848.1330843,1649166849.2427254,8b99b787-ff65-4fbf-9250-91d0c4250d51
-0.249860246935988,-0.3480941708801514,0.0585818868550066,0.1020646249771275,-0.0350894265077127,0.3549008932653377,-0.1531778737997407,-0.173255935161751,-14.146085880572492,27.622889320186594,14.696714895099912,0.7485313258902567,-1.3440829698316776,0.1443064191713925,3610.54150390625,11.951666666666666,0.2133333333333333,179.23856185990496,0.9821958235215256,86.05015647224342,1364.0,1435.0,1200.0,1528.0,1312.0,1010.0,61.0,293.85,1649166849.3737786,1649166850.4641333,8b99b787-ff65-4fbf-9250-91d0c4250d51
-0.3958403830608414,-0.5995082617144529,0.0392719306656433,0.2200391069039456,-0.0006946277493161,0.4934634864824589,-0.1203066787314069,-0.1438510656414384,-14.355761717992104,28.745263574840624,14.858175487104267,0.8001774866267746,-2.3027159534370645,0.0472132096028594,3610.372612847222,11.921333333333331,0.2088888888888888,179.3275091367363,0.9867232310140228,86.01632654528436,1262.0,1435.0,1200.0,1528.0,1222.0,1010.0,61.0,293.85,1649166851.373536,1649166852.5234308,95354cff-70ab-4f79-b507-43627c20e7c8
-0.395278823979448,-0.5924545317779891,0.0429836980544456,0.2125881793695585,0.0001545589009271,0.4939291694336796,-0.1158826900311362,-0.1326609759119779,-14.18782503768602,28.705514671245464,14.96237008886939,0.8180538706477231,-2.277220265406016,0.0357671066453926,3609.021484375,11.922888888888888,0.21,179.32372217629649,0.991246879530883,85.93331925630119,1262.0,1435.0,1200.0,1528.0,1222.0,1010.0,61.0,293.85,1649166852.633889,1649166853.746023,95354cff-70ab-4f79-b507-43627c20e7c8
-0.3918683802039999,-0.5853597121976081,0.0462297824566803,0.2065206041810324,0.00193511155143,0.4922718859935546,-0.1124311570425701,-0.1400434214853571,-14.13726128102823,28.59637939360164,14.947575660648347,0.8274779531148754,-2.2498861516060567,0.024867469852959,3605.31117078993,11.920333333333335,0.2,179.33335274302624,0.9989335459636938,85.85572527169022,1262.0,1435.0,1200.0,1528.0,1222.0,1010.0,61.0,293.85,1649166853.8542783,1649166855.0875778,95354cff-70ab-4f79-b507-43627c20e7c8
-0.398611471317058,-0.5980115013607447,0.0295890115316457,0.2177599996525512,-0.0148009876707763,0.4890833274354538,-0.1349932255815258,-0.1605805906520673,-14.299070558978054,29.16317717700689,14.04697065738382,0.7976632731531137,-2.290639901250646,0.0994210976644969,3598.415771484375,11.867,0.2,179.34750337716665,1.0087808407619194,85.77115235156731,1153.0,1435.0,1200.0,1528.0,1121.0,1010.0,61.0,293.85,1649166855.836909,1649166856.8187296,4e4f596a-9900-4f3c-856b-698ef063265d
-0.3952848504806139,-0.5909769466178664,0.0309959220403719,0.2195876683148387,-0.0152874894531905,0.4808390956157285,-0.1373994371564326,-0.1655113521435899,-14.30604487314855,29.25109534792227,14.089187508428475,0.7756707045914224,-2.264715191868812,0.1024776789831976,3566.32470703125,11.866,0.1955555555555556,179.32016592446865,0.989168687754201,85.65751773543589,1153.0,1435.0,1200.0,1528.0,1121.0,1010.0,61.0,293.85,1649166856.9281025,1649166858.046065,4e4f596a-9900-4f3c-856b-698ef063265d
-0.3951533634902344,-0.5943167165231895,0.032060966450194,0.2159586283333211,-0.0142224450281043,0.4886099744120697,-0.1340333706743565,-0.1582795686330421,-14.29637055032272,29.265910062565887,14.270345362325257,0.8015041199615173,-2.278400847662328,0.0946029759222038,3549.4082302517363,11.863777777777775,0.2011111111111111,179.32639961045118,0.9726734133116336,85.54771637324868,1153.0,1435.0,1200.0,1528.0,1121.0,1010.0,61.0,293.85,1649166858.1761887,1649166859.2655838,4e4f596a-9900-4f3c-856b-698ef063265d
0.0263423792218692,0.1519398201843808,0.0842788220785282,-0.1278534829995145,-0.1195533679508526,0.0746501414680704,-0.2373985685261814,-0.2712564666228856,-13.728030903108545,25.865172438274623,14.203084863052526,0.6271685572376945,0.5626717341316638,0.4030396886191904,3538.338134765625,11.972,0.2277777777777778,178.97708704027872,0.9631846915868664,85.4648145727427,1553.0,1435.0,1200.0,1528.0,1471.0,1010.0,61.0,293.85,1649166859.8320358,1649166860.9093688,535a8ec6-205b-482e-bd79-c12060a3fa5c
0.0155462037725895,0.1545805166033595,0.0854052270440747,-0.1281559030238646,-0.1186362463266344,0.0727824787525844,-0.2371454561021882,-0.2529896377951319,-13.770547626779722,25.850892566175894,14.271485030722008,0.6236047812193486,0.5723790454598898,0.4002842167479485,3548.1045193142363,11.972777777777775,0.2244444444444444,179.02146202040635,0.9528580621761072,85.61716573672936,1553.0,1435.0,1200.0,1528.0,1471.0,1010.0,61.0,293.85,1649166861.017578,1649166862.1430385,535a8ec6-205b-482e-bd79-c12060a3fa5c
0.0144811593454026,0.154446290331902,0.0837720494120665,-0.1280589313861711,-0.1211147757314809,0.0731572165940588,-0.2393297835208764,-0.2639288065417842,-13.734377431018851,25.933692337503555,14.302848243552605,0.6247188979067325,0.5712275704076417,0.4090164371441969,3554.3150770399307,11.972888888888887,0.2111111111111111,179.0240256180749,0.9552570001105318,85.77775107321544,1553.0,1435.0,1200.0,1528.0,1471.0,1010.0,61.0,293.85,1649166862.2753184,1649166863.3797576,535a8ec6-205b-482e-bd79-c12060a3fa5c
0.0274852200909292,0.1551590592193595,0.0789097711579675,-0.3118432094739884,-0.1461433207648991,0.2501715343036025,-0.1940571739558945,-0.2289669671736522,-13.561945515133717,25.59825884248254,15.665753957704965,1.4349043238271286,0.5829149045220229,0.3859308107711294,3570.435953776041,11.973333333333333,0.2166666666666666,179.04067761927138,1.0152274365474514,86.01494001688285,1553.0,1537.0,1200.0,1528.0,1471.0,1010.0,61.0,293.85,1649166865.5058472,1649166866.5518627,4c143c8f-825a-4ac5-9b81-177e1d44b36e
0.031999057980438,0.1511043301338548,0.0732804856171726,-0.3119626434803535,-0.1497268886255698,0.2550338123444031,-0.1974593994410262,-0.2226747667183458,-13.60628797220444,25.49757381641448,15.743177201326136,1.4451421924729135,0.5669909805968419,0.4029569818306027,3575.5661349826387,11.972,0.22,179.03220666688074,1.0282880626169202,86.09806721363144,1553.0,1537.0,1200.0,1528.0,1471.0,1010.0,61.0,293.85,1649166866.659901,1649166867.868104,4c143c8f-825a-4ac5-9b81-177e1d44b36e
0.0329030308380054,0.1564322912689769,0.0758554386167731,-0.3125515955800544,-0.1483983223391224,0.2503495895627577,-0.1972950407171054,-0.2204422278764098,-13.656980791420205,25.538182844459445,15.75263563255213,1.4363180579539765,0.5874854753036081,0.398004213073414,3579.880126953125,11.971,0.2166666666666666,179.0173730138233,1.0269812671875933,86.18715412988583,1553.0,1537.0,1200.0,1528.0,1471.0,1010.0,61.0,293.85,1649166867.9770005,1649166869.0208874,4c143c8f-825a-4ac5-9b81-177e1d44b36e
0.0288488494483238,0.1474747422121679,0.0623643284692308,-0.5344495888412464,-0.1853516405051957,0.4750416168262427,-0.1489187916070763,-0.1741478553649086,-13.544584631149448,25.323461547211707,17.534401855647687,2.440023972632318,0.5637634452114688,0.3974986298544827,3584.870849609375,11.975,0.22,179.0197256345374,1.0887832971130365,86.27372981325537,1553.0,1645.0,1200.0,1528.0,1471.0,1010.0,61.0,293.85,1649166870.0084982,1649166871.0726244,c3190ccf-488a-4e2d-987d-aa6234765a84
0.0326427962364692,0.1551722079140578,0.0681579727351052,-0.5390790269453755,-0.1829547425262607,0.4718777120724758,-0.1445358925285096,-0.1589446737786401,-13.416774352291364,25.385175025876887,17.588514859010385,2.444127687618989,0.5921877253875718,0.3811274557287397,3583.3720703125,11.975,0.2122222222222222,179.02068945012027,1.0935421009796025,86.30069995355802,1553.0,1645.0,1200.0,1528.0,1471.0,1010.0,61.0,293.85,1649166871.2017982,1649166872.1708424,c3190ccf-488a-4e2d-987d-aa6234765a84
0.0396280411497991,0.1526657377680815,0.0676648966273979,-0.5363534110461179,-0.1822836110963494,0.472165339771436,-0.1450974514723418,-0.1691075216431545,-13.484630516249284,25.38726866594165,17.633323083044573,2.4385880164941898,0.5825032689620228,0.3814205083953153,3580.877197265625,11.976333333333336,0.22,179.00489653493938,1.0935265551844602,86.34074459375191,1553.0,1645.0,1200.0,1528.0,1471.0,1010.0,61.0,293.85,1649166872.27941,1649166873.5203936,c3190ccf-488a-4e2d-987d-aa6234765a84
0.0465508297552038,0.1525950635276063,0.0641174879670697,-0.6480817536594601,-0.2021436229334621,0.5785338996657113,-0.1226728963396196,-0.1468270532296223,-13.37184594977633,25.641631934916514,18.18751868459208,2.931298822911784,0.5900636919664086,0.3811462079780236,3586.7044542100693,11.949,0.2022222222222222,179.01824879585683,1.1471256939282604,86.40655726095451,1553.0,1761.0,1200.0,1528.0,1471.0,1010.0,61.0,293.85,1649166875.3361828,1649166876.3843873,26bcb7ca-b0e9-4b3c-8cc0-4afc7be1a3ba
0.0426851130413163,0.1521874539556549,0.0598573103818685,-0.6524076763268457,-0.2067456671012461,0.5842667306775119,-0.1260652601970635,-0.1517315173863391,-13.412457856529,25.66817548983236,18.34976246115888,2.953908732963486,0.5876473781324895,0.3981537376077901,3587.038058810764,11.947555555555557,0.2,179.00457172149885,1.151280405508234,86.36965298995902,1553.0,1761.0,1200.0,1528.0,1471.0,1010.0,61.0,293.85,1649166876.493478,1649166877.606208,26bcb7ca-b0e9-4b3c-8cc0-4afc7be1a3ba
0.0437507053010524,0.1497346743141173,0.0629669770441929,-0.6340236009780592,-0.2017464227019234,0.5678083995920317,-0.1275795518110506,-0.1516718002981387,-13.41402799541406,25.747934718084394,18.080349587702365,2.8760945334607686,0.5787818915378772,0.3887123875418221,3586.370849609375,11.951,0.22,178.99841240868733,1.1464430900401146,86.33240265604559,1553.0,1761.0,1200.0,1528.0,1471.0,1010.0,61.0,293.85,1649166877.7148912,1649166878.840051,26bcb7ca-b0e9-4b3c-8cc0-4afc7be1a3ba
0.0380255437716921,0.1452558997779532,0.0561186977554201,-0.687166268433557,-0.2187712468013165,0.627251458125923,-0.1244978259774979,-0.140933698075403,-13.46237828414472,26.316865002179025,18.92857088280963,3.133089242784827,0.5609267155974241,0.4167691882140565,3582.3738606770835,11.916,0.1966666666666666,179.01979090078947,1.1660983823329036,86.264993242397,1553.0,1887.0,1200.0,1528.0,1471.0,1010.0,61.0,293.85,1649166879.8446677,1649166880.9074657,785ad8cd-d38f-47e8-b505-482cbf498b3f
0.0425864977887998,0.1485156806292293,0.0599263410480471,-0.6872210547488441,-0.214429437260584,0.623621870450047,-0.1192931333499375,-0.1416048296645693,-13.3518411814076,26.110133106251112,18.89609514615042,3.123926268392959,0.5729029765262034,0.3987651735397633,3583.3720703125,11.915777777777777,0.2,179.00595141971118,1.1504803840277944,86.23511647714756,1553.0,1887.0,1200.0,1528.0,1471.0,1010.0,61.0,293.85,1649166881.0431614,1649166882.006315,785ad8cd-d38f-47e8-b505-482cbf498b3f
0.0385038276254036,0.1507410974097935,0.0582268720542581,-0.6826759865435672,-0.2171857330011048,0.6158498960077844,-0.1255524610345682,-0.1482076666787708,-13.4425713104775,26.298875029467908,18.663907591519195,3.09729293129514,0.5832855489723028,0.4135885944417279,3580.7109375,11.920111111111112,0.2,178.992975578108,1.1391416652492403,86.19052444878628,1553.0,1887.0,1200.0,1528.0,1471.0,1010.0,61.0,293.85,1649166882.1157787,1649166883.2368538,785ad8cd-d38f-47e8-b505-482cbf498b3f
0.0071261072936945,0.1557337668006688,0.1056728463147297,0.1055221841654551,-0.0807373187496635,-0.153411263180815,-0.2881032349209227,-0.3146745630453914,-13.953889661192685,27.069917931773244,12.735543003187589,-0.4030501412232535,0.564149858848083,0.3929841483131845,3575.234809027778,11.976555555555557,0.2255555555555556,179.00101546967096,0.9130708584525098,86.14720966579976,1553.0,1335.0,1200.0,1528.0,1471.0,1010.0,61.0,293.85,1649166883.8315556,1649166885.013753,c005191a-afac-4f42-a6c1-9f713dce88a1
0.0027158153659022,0.1573773537805651,0.1051660736590128,0.1053441289167392,-0.0814495398312025,-0.1544932913738908,-0.2888154560629801,-0.3063470541061011,-13.937060531913872,27.047745759148068,12.782806210829406,-0.4052361645529565,0.5697657239609834,0.3959438997007364,3580.8775770399307,11.97577777777778,0.21,179.00698505500563,0.913267048521638,86.28101155382052,1553.0,1335.0,1200.0,1528.0,1471.0,1010.0,61.0,293.85,1649166885.1283827,1649166886.3004582,c005191a-afac-4f42-a6c1-9f713dce88a1
0.0034625517468814,0.1556587096608413,0.1027878032622828,0.1056673676923628,-0.0820828687310126,-0.1528360076655393,-0.2893194894865885,-0.3147096268856674,-13.942726477881024,26.90405779961465,12.811970602828602,-0.4033103242121105,0.5629083783604305,0.4006570188483463,3588.039008246528,11.97577777777778,0.21,178.99294218607207,0.9122041359059566,86.36561027688029,1553.0,1335.0,1200.0,1528.0,1471.0,1010.0,61.0,293.85,1649166886.408927,1649166887.446771,c005191a-afac-4f42-a6c1-9f713dce88a1
-0.0054747268433694,0.1558159461480556,0.1187804526516674,0.3147371076495187,-0.0486873703169609,-0.3554629206815578,-0.3353974589333091,-0.3657627352841053,-14.097092294220104,27.82957824514975,11.271863709758748,-1.3236416556554775,0.5535291876285809,0.3981687928770895,3593.889404296875,11.962666666666667,0.2088888888888889,179.00264712597274,0.8485492096537198,86.54396321212728,1553.0,1236.0,1200.0,1528.0,1471.0,1010.0,61.0,293.85,1649166888.3525822,1649166889.381322,20fc3195-3800-4b32-890c-bee960921214
0.0101804399195977,0.1641982397439612,0.124519310582073,0.310135064262552,-0.0458247894717067,-0.3604621654512212,-0.3317404771935127,-0.3563531974761256,-14.04952346558357,27.864226929069066,11.161891770878537,-1.3239726818923403,0.5865368937025665,0.3820782434957048,3593.889404296875,11.958875,0.20375,178.99255381392675,0.8508828687369852,86.61873699265722,1553.0,1236.0,1200.0,1528.0,1471.0,1010.0,61.0,293.85,1649166889.4956105,1649166890.7197635,20fc3195-3800-4b32-890c-bee960921214
-0.0032421877346788,0.158692223365521,0.121588247107118,0.3111760026455162,-0.0474546800012259,-0.3555724931781778,-0.3333977610520107,-0.3657353421016842,-14.10029807125251,27.888970414019525,11.208607876368427,-1.315333069042972,0.5655177552094931,0.3900163189247254,3592.048882378472,11.958444444444446,0.2077777777777777,178.9873869655471,0.8595482510297222,86.70925530786141,1553.0,1236.0,1200.0,1528.0,1471.0,1010.0,61.0,293.85,1649166890.828069,1649166892.0454285,20fc3195-3800-4b32-890c-bee960921214
-0.0085701491483103,0.1627464045794227,0.1325454937254634,0.4341710894946124,-0.0294437048960888,-0.4778827871482387,-0.3625851324445037,-0.3763364807343382,-14.173540630819764,28.692198466089952,10.407602372075944,-1.8619216725127672,0.5739060095467033,0.392163745395014,3593.889404296875,11.96211111111111,0.2022222222222222,179.0093164262423,0.8022084038475931,86.84077591269937,1553.0,1133.0,1200.0,1528.0,1471.0,1010.0,61.0,293.85,1649166893.8848858,1649166894.9025276,60b73f04-6929-4b81-9eb0-dd4b7e64cd6b
-0.0026384434241072,0.1618648940969678,0.1330166553241295,0.4427078797621183,-0.0282652529769495,-0.4847486000200905,-0.3645563415095923,-0.3865146684573565,-14.19282371239585,28.758350557229257,10.419817913757091,-1.896152746569665,0.5696079535830068,0.392667770144585,3589.8770616319443,11.953222222222225,0.2,179.01027417054593,0.8234293865699669,86.89659449532644,1553.0,1133.0,1200.0,1528.0,1471.0,1010.0,61.0,293.85,1649166895.0110314,1649166896.138222,60b73f04-6929-4b81-9eb0-dd4b7e64cd6b
-0.000468908492237,0.1632718045486189,0.1341211457884453,0.435173677462612,-0.0277524537988222,-0.4796074583602987,-0.3608878546116607,-0.3892758954917061,-14.135428280445888,28.65427264512848,10.379724112012672,-1.868217048893949,0.5758297180440386,0.3853711138167942,3581.874755859375,11.943,0.2011111111111111,178.99999397693514,0.8199283098640026,86.95715019359785,1553.0,1133.0,1200.0,1528.0,1471.0,1010.0,61.0,293.85,1649166896.2468035,1649166897.3670666,60b73f04-6929-4b81-9eb0-dd4b7e64cd6b
-0.0069128655166364,0.1565966499660636,0.1307375480340893,0.4579757063034583,-0.0318269061611423,-0.4944282339956157,-0.3734875950526934,-0.3951555559528247,-14.210377028393689,29.237511012923267,10.259861562447131,-1.9493160582309328,0.5493746089471899,0.4124036222058393,3583.3720703125,11.942555555555556,0.2,179.00779101732766,0.7765588557192268,86.99998230988301,1553.0,1026.0,1200.0,1528.0,1471.0,1010.0,61.0,293.85,1649166898.3841026,1649166899.4129822,ffa8166d-055e-4b29-9e5c-8036fe3d6398
-0.0043740713229981,0.1587092070980903,0.1309128639577353,0.466467571790812,-0.0299745835637487,-0.5060363448647391,-0.3764690625029223,-0.3908800368872842,-14.311164937286168,29.176422174257485,10.006182978809724,-1.9950440089439787,0.5592242292122822,0.4138135657520355,3581.874755859375,11.937555555555557,0.2055555555555555,179.00987650175426,0.799289298390206,87.02530258004613,1553.0,1026.0,1200.0,1528.0,1471.0,1010.0,61.0,293.85,1649166899.521165,1649166900.581641,ffa8166d-055e-4b29-9e5c-8036fe3d6398
-0.0158397347332678,0.1532130522300845,0.1266526864758,0.4702806932842305,-0.0323939437469036,-0.5030515904840221,-0.3789147204635262,-0.4036079775309779,-14.275057861378595,29.132198268022435,10.138527411300148,-1.997404357352632,0.5364414850340521,0.4259964679812855,3580.877197265625,11.937,0.2,179.00966400698005,0.7914710796680686,87.05244802853751,1553.0,1026.0,1200.0,1528.0,1471.0,1010.0,61.0,293.85,1649166900.690163,1649166901.6428823,ffa8166d-055e-4b29-9e5c-8036fe3d6398
0.0014508012362177,0.1565659696765288,0.0880086688738992,-0.1175843505619041,-0.117334525314966,0.0601071356261135,-0.2400118722147334,-0.2594324994861465,-13.750142812209456,26.077188192009825,14.12624779096766,0.5728916551401729,0.5798358131338831,0.3990930953857063,3576.56103515625,11.972888888888887,0.21,179.02194468710775,0.9307469255637776,87.05624030134669,1553.0,1435.0,1200.0,1528.0,1471.0,1010.0,61.0,293.85,1649166903.393285,1649166904.346823,b581a43b-8f75-4084-a2b4-bd920812ad4e
0.0256986409671784,0.1564185947108347,0.0914010324616674,-0.1146363031098729,-0.1133214334063985,0.0597345892318106,-0.2362480574814203,-0.2633946405771054,-13.734510113708245,26.035925089022417,14.46643301487456,0.5653618964302901,0.5760087601813672,0.3841597690239165,3581.376302083333,11.972333333333331,0.2033333333333333,179.01608438479985,0.9636917738429034,87.02553025301849,1553.0,1435.0,1200.0,1528.0,1471.0,1010.0,61.0,293.85,1649166904.4561846,1649166905.4630506,b581a43b-8f75-4084-a2b4-bd920812ad4e
0.0235756743582658,0.1562268428959459,0.090921652919867,-0.1152937379618165,-0.115074593010326,0.0593784787080005,-0.2374533547753098,-0.2613949432227523,-13.680339336662058,26.14107646691598,14.29510100557484,0.5667178286523136,0.5764770156177609,0.3886412811148853,3586.8716634114585,11.975333333333332,0.21,179.02133907700133,0.9668450089358238,87.00554056604759,1553.0,1435.0,1200.0,1528.0,1471.0,1010.0,61.0,293.85,1649166905.5718412,1649166906.6428058,b581a43b-8f75-4084-a2b4-bd920812ad4e
0.051927550795581,0.1709643394624011,0.1755937761009852,-0.124853936469926,-0.0398667862912968,0.051023577974771,-0.1499871232604081,-0.1709291633772969,-13.02291071513864,26.12081435649422,14.56801648604794,0.5739649403055963,0.6312241094176851,0.0488072369059817,3613.586181640625,11.976,0.21,178.99849437095736,0.9669352599250132,86.92691598178186,1553.0,1435.0,1200.0,1435.0,1471.0,1010.0,61.0,293.85,1649166908.8122702,1649166909.7712953,954c0d2f-4e1e-42e0-8210-1aaa13ff581b
0.0472570243148277,0.1714711121142752,0.1772236665167225,-0.1252237435835217,-0.0379355714627077,0.0494758668462658,-0.1488777019291881,-0.1746272352795038,-13.0892950553777,26.103187737688472,14.381401813535431,0.571222366022503,0.6353971867489222,0.0421312364806139,3616.63525390625,11.974444444444446,0.2022222222222222,178.99111624883392,0.9730210533392328,86.94060368087855,1553.0,1435.0,1200.0,1435.0,1471.0,1010.0,61.0,293.85,1649166909.900057,1649166910.8807886,954c0d2f-4e1e-42e0-8210-1aaa13ff581b
0.0504559925511996,0.1713319550830808,0.1776959238401461,-0.1246977957046555,-0.0376271249569112,0.0493777994801848,-0.1490360341568661,-0.161921757928475,-13.12176511369219,26.14983969635452,14.417725331012411,0.5701378083106369,0.634749118288334,0.0412899645703693,3620.539794921875,11.974777777777778,0.2055555555555555,178.9896211963156,0.9680812138857596,86.9155573771921,1553.0,1435.0,1200.0,1435.0,1471.0,1010.0,61.0,293.85,1649166910.990555,1649166912.116801,954c0d2f-4e1e-42e0-8210-1aaa13ff581b
0.0880481149077305,0.1887408282770527,0.2979407450023775,-0.1320742147785457,0.0701395908224365,0.0318111412357419,-0.0255434727517656,-0.0411378274985413,-12.13213869850516,26.133651282331968,14.31314902521387,0.5536641329150368,0.7024963029462081,-0.4426332038884581,3624.6224500868057,11.970333333333334,0.2,178.97214501895925,0.9824670270918509,86.85434142730092,1553.0,1435.0,1200.0,1330.0,1471.0,1010.0,61.0,293.85,1649166913.841048,1649166914.9761713,989e128b-2dab-45e2-8178-8d42ad5cc27a
0.0909276793567512,0.1871892821777468,0.29535045200241,-0.130417478940188,0.0673783646236045,0.033862337858878,-0.028462483400683,-0.0553121222321875,-12.133820801589115,26.22044174386084,14.58309282117133,0.5550248044904688,0.6939297437039947,-0.4310146859437938,3628.372965494792,11.97,0.2066666666666666,178.96308667030002,0.981020817540872,86.8433850449623,1553.0,1435.0,1200.0,1330.0,1471.0,1010.0,61.0,293.85,1649166915.085151,1649166916.2062542,989e128b-2dab-45e2-8178-8d42ad5cc27a
0.0906252593574989,0.1902397795894378,0.3017407179736273,-0.1324555269978053,0.0728350735326598,0.0327184012779538,-0.0219407298973602,-0.0542339291441131,-12.088139179622097,26.18692951850624,14.628431414730937,0.5571778215361168,0.7053012733637292,-0.4559822569714201,3631.96044921875,11.969333333333331,0.2066666666666666,178.94643922256296,0.9827986588635832,86.83334694361211,1553.0,1435.0,1200.0,1330.0,1471.0,1010.0,61.0,293.85,1649166916.3147862,1649166917.645939,989e128b-2dab-45e2-8178-8d42ad5cc27a
0.131573038047269,0.2089722880686711,0.4205978010871982,-0.1224296454445684,0.1804286611052804,-0.0018862283637957,0.092085860385358,0.0663911160520355,-11.336967210817896,26.3886961840433,14.521049930222096,0.4644174942457361,0.7774986047830543,-0.92424787409036,3630.2513020833335,11.964,0.2011111111111111,178.92075164000445,0.9844546239982918,86.74106729337569,1553.0,1435.0,1200.0,1210.0,1471.0,1010.0,61.0,293.85,1649166918.3482196,1649166919.391404,be97dc98-1e23-46d5-95b7-399d648df83a
0.1228894200891348,0.2129442898834473,0.4238438852035317,-0.1256346403581226,0.1826748966306594,-0.0020779801858435,0.0947566892710404,0.074047492390214,-11.37061145041637,26.38424559076576,14.65043766986028,0.4713521048926157,0.792087704348487,-0.9349214899867088,3624.963161892361,11.96211111111111,0.2055555555555555,178.9241075396167,0.9898610388914746,86.70682376051688,1553.0,1435.0,1200.0,1210.0,1471.0,1010.0,61.0,293.85,1649166919.499337,1649166920.716109,be97dc98-1e23-46d5-95b7-399d648df83a
0.1227935441830292,0.2077122047322569,0.4164751372910276,-0.1206901823882399,0.1766484110755973,-0.0017492627709714,0.0874701201948568,0.0578307670745479,-11.361373569085355,26.42801321977322,14.558698304174074,0.4608505438129621,0.7721367385191525,-0.9070248849057228,3623.771158854168,11.967,0.2,178.92196893149654,0.9790461102448956,86.69423420405673,1553.0,1435.0,1200.0,1210.0,1471.0,1010.0,61.0,293.85,1649166920.8515174,1649166921.9390051,be97dc98-1e23-46d5-95b7-399d648df83a
0.1503784124992863,0.2233536739336752,0.5264037068628457,-0.097542997026496,0.2753047178817009,-0.0434963744437425,0.1869208295917529,0.1633079628748172,-10.708804529614154,26.96247378677067,14.628967798597609,0.3241812311582812,0.8296882732361116,-1.3304080124556796,3615.9576822916665,11.961555555555556,0.2077777777777777,178.88807297937552,0.967362300901714,86.65013394931569,1553.0,1435.0,1200.0,1071.0,1471.0,1010.0,61.0,293.85,1649166922.8487864,1649166923.9924078,0f2c284b-1428-4396-9a95-96cb20e69c34
0.1605001690026686,0.2242576467581617,0.5206648493547174,-0.1019943787873656,0.2703328674305166,-0.0425102221832126,0.1829625243405912,0.1602399338213681,-10.689535852879796,26.798014117949588,14.2771178380408,0.3350161062570611,0.8362422375842778,-1.3105226249594248,3610.54150390625,11.956,0.2,178.90718840213265,0.9794702578775732,86.62463229968459,1553.0,1435.0,1200.0,1071.0,1471.0,1010.0,61.0,293.85,1649166924.1194944,1649166925.328738,0f2c284b-1428-4396-9a95-96cb20e69c34
0.1496114052474334,0.2222031630668604,0.5190623521388082,-0.0988441701427382,0.2688399426051236,-0.0432087466981936,0.180291695486231,0.1541175724128663,-10.716296313244897,26.89306854730677,14.286565868436575,0.3268786986770879,0.8281545051025708,-1.3027675082023915,3607.502685546875,11.94811111111111,0.1833333333333333,178.9087547921823,0.9839072009374696,86.6116686006399,1553.0,1435.0,1200.0,1071.0,1471.0,1010.0,61.0,293.85,1649166925.4426727,1649166926.5582526,0f2c284b-1428-4396-9a95-96cb20e69c34
-0.0175276986566636,0.1380652067092072,-0.0062417340752842,-0.0962007341878929,-0.203814603246776,0.0655556266122511,-0.3413828560315082,-0.3650505144483302,-14.314428131751484,26.50858908367523,14.367551692085252,0.5348201285413677,0.5037014684591862,0.7874040073858625,3603.963704427084,11.975333333333332,0.2066666666666666,178.99299834540523,0.9822496824090432,86.7268438038841,1553.0,1435.0,1200.0,1613.0,1471.0,1010.0,61.0,293.85,1649166928.380019,1649166929.524598,a25d6f18-8d89-4efe-abfe-0e8bde414951
-0.0116190031264325,0.1394595163399094,-0.0068460262523935,-0.0965069892548422,-0.203195518735763,0.0653271680132979,-0.3420983643750327,-0.3743258256436403,-14.44309350221199,26.416832212654608,14.485836202312557,0.5343133192277797,0.5087911280556306,0.7886837762272705,3606.1537272135415,11.975333333333332,0.2088888888888889,178.99007654226028,0.99588639224632,86.68841336506406,1553.0,1435.0,1200.0,1613.0,1471.0,1010.0,61.0,293.85,1649166929.6363118,1649166930.8581476,a25d6f18-8d89-4efe-abfe-0e8bde414951
-0.0173496433980029,0.1347095499407723,-0.0098165359443935,-0.092475270058238,-0.2057047285250062,0.0657336818690089,-0.344848085943604,-0.374186120159679,-14.37853754378076,26.49075507440814,14.386575980572948,0.5264910446124754,0.4907152440212338,0.7994009724820641,3610.034830729168,11.977,0.2,178.97689731280175,0.9985129675791764,86.68721276958996,1553.0,1435.0,1200.0,1613.0,1471.0,1010.0,61.0,293.85,1649166930.966092,1649166932.1855023,a25d6f18-8d89-4efe-abfe-0e8bde414951
-0.0428866036875127,0.1226028881468104,-0.0929831384708665,-0.0749036802403098,-0.2806150513688517,0.0641963801479563,-0.436072114678126,-0.4556242308901979,-15.094628364915794,26.729786600457327,14.111593961957896,0.4804384525129506,0.4453816708775065,1.142382795401284,3613.586181640625,11.978222222222222,0.1977777777777777,179.02311492618554,1.0142397627343462,86.60793248716392,1553.0,1435.0,1200.0,1694.0,1471.0,1010.0,61.0,293.85,1649166934.3169296,1649166935.4620428,587078e6-62e6-4714-b71c-bcea47a40b66
-0.0440042429127292,0.1207226246238465,-0.0950080377981176,-0.0757977916312092,-0.2826005047714213,0.0666946324210218,-0.4364008321550991,-0.4540332382721808,-14.989723461234751,26.69695639379397,14.0785881554459,0.4877983384479027,0.4378607376376729,1.148120172170489,3613.586181640625,11.972444444444443,0.2,179.01909877495356,1.015337940944805,86.57444331075344,1553.0,1435.0,1200.0,1694.0,1471.0,1010.0,61.0,293.85,1649166935.594308,1649166936.6965387,587078e6-62e6-4714-b71c-bcea47a40b66
-0.0401253773817644,0.121564141165334,-0.0938772498605995,-0.0748247880633643,-0.281653798513264,0.0654192088905539,-0.435703951098575,-0.4593979073922172,-14.979187992117676,26.70425603829116,14.148712545703791,0.4828586112510822,0.4402728703012543,1.144510756493584,3615.110107421875,11.97222222222222,0.2,179.00773485799448,1.006530412010073,86.54766896920698,1553.0,1435.0,1200.0,1694.0,1471.0,1010.0,61.0,293.85,1649166936.8096297,1649166937.8181093,587078e6-62e6-4714-b71c-bcea47a40b66
-0.0693965677951735,0.117150562213982,-0.1743396064124397,-0.0503857436421345,-0.3563395005855743,0.0523932338347606,-0.529258591686366,-0.5533782396837637,-15.617422832068806,27.10144463442658,14.209992978795984,0.3967740297452514,0.419590290414128,1.4882736303565045,3615.110107421875,11.960444444444445,0.19,179.03436348883866,0.9984008979301384,86.53895592455576,1553.0,1435.0,1200.0,1774.0,1471.0,1010.0,61.0,293.85,1649166939.8474257,1649166940.8782284,b908c553-3325-477f-9ac8-2df7c98d7fa0
-0.0740123082184448,0.1075492748162078,-0.1801469477736181,-0.045619341091034,-0.358900757505302,0.0567487394588782,-0.5331347188604806,-0.5516113824995421,-15.698506930515885,27.0705030435543,14.079346232123186,0.3952536721695143,0.3843559118755703,1.5038487443234618,3614.432807074653,11.960888888888888,0.1944444444444444,179.03044903153432,0.9817611934457472,86.51644286214147,1553.0,1435.0,1200.0,1774.0,1471.0,1010.0,61.0,293.85,1649166940.9865253,1649166942.1248658,b908c553-3325-477f-9ac8-2df7c98d7fa0
-0.0640165593512976,0.1105060878335151,-0.1755701053541275,-0.04726511963409,-0.3541951670167053,0.0535327875071809,-0.5281524573224884,-0.5507287756598663,-15.678507298612956,26.942591437157933,13.856957776134164,0.3910940439109467,0.3977658378860541,1.484203309650486,3613.586181640625,11.961,0.19,179.02336991991456,0.971453643504388,86.49218127129969,1553.0,1435.0,1200.0,1774.0,1471.0,1010.0,61.0,293.85,1649166942.233546,1649166943.3514414,b908c553-3325-477f-9ac8-2df7c98d7fa0
-0.0902745069668704,0.1037082119825796,-0.2293088323529223,-0.015353232903981,-0.403437043818239,0.0322056021166361,-0.5952371256656056,-0.6174584298758594,-16.080562290059095,27.41283942243659,13.587138422739176,0.2713797185504132,0.370178908948067,1.7186411411709483,3615.110107421875,11.952111111111114,0.1944444444444444,179.04756852123398,0.9678080537508283,86.45938042617557,1553.0,1435.0,1200.0,1856.0,1471.0,1010.0,61.0,293.85,1649166944.357133,1649166945.6058693,f1ffd0ed-808d-4b37-92e2-63dbc8015a9c
-0.0903386068679698,0.1045634250895097,-0.2294545637351046,-0.0159388977703511,-0.4043322510564816,0.0348753353267272,-0.5950979685446208,-0.6305857643875693,-16.038501831165473,27.45147072958082,14.00814953326045,0.2790372009138381,0.3694208980751312,1.720566667263779,3613.586181640625,11.956555555555555,0.19,179.04719513755938,0.9616709746279968,86.42796231490343,1553.0,1435.0,1200.0,1856.0,1471.0,1010.0,61.0,293.85,1649166945.714049,1649166946.7327363,f1ffd0ed-808d-4b37-92e2-63dbc8015a9c
-0.0922835182641069,0.1034403072980306,-0.2261947823815292,-0.015706056266921,-0.4001821929157476,0.0344233488932072,-0.5909068202558332,-0.6137252953861915,-16.044319603773456,27.37053454964675,13.847725996803096,0.2770935723370947,0.3668481423857958,1.7041724252487591,3610.034830729168,11.957333333333333,0.19,179.04124224824275,0.9563311422212548,86.43612135532196,1553.0,1435.0,1200.0,1856.0,1471.0,1010.0,61.0,293.85,1649166946.8652377,1649166947.953036,f1ffd0ed-808d-4b37-92e2-63dbc8015a9c
0.0060922910266669,0.1467044477732622,0.0175316569475567,-0.135400835203751,-0.1519287475789553,0.0820654582233184,-0.2657175765510054,-0.2794842641492085,-13.460322612637876,22.053240435997623,13.219037255028857,0.6322413152102443,0.5464958985429162,0.578104226469501,7208.9375,11.638333333333334,8.066666666666668,178.90965182369325,0.6506149165400988,74.50838442281025,1553.0,1435.0,1350.0,1528.0,1471.0,1010.0,61.0,293.85,1649166951.8849285,1649166952.9764736,fe47dcec-21a4-461b-adcc-1e06a381f116
0.0088272198664139,0.1464940686406832,0.0263938783117357,-0.1224625172337067,-0.1455121833284964,0.0829727182447531,-0.2647445729074298,-0.2831001560283308,-13.766372557440326,22.684651808726144,15.043196697234944,0.609858079733771,0.5306850580744187,0.5580867343960864,7213.656955295139,11.641666666666667,8.05,178.91157945485904,0.5695924141251226,69.36521934466464,1553.0,1435.0,1350.0,1528.0,1471.0,1010.0,61.0,293.85,1649166953.1030896,1649166954.2089102,fe47dcec-21a4-461b-adcc-1e06a381f116
0.0129197516518498,0.1440369060969703,0.0277531247931599,-0.1220324452408655,-0.1422896567906592,0.0833885457645933,-0.2609840453142695,-0.2788306638221651,-13.73194626482194,22.507199626983294,14.838137553921603,0.6086983337986377,0.5230731862092046,0.5460046851031093,7215.00537109375,11.640888888888888,8.059999999999999,178.9335165046533,0.5289508438569082,65.03496516769613,1553.0,1435.0,1350.0,1528.0,1471.0,1010.0,61.0,293.85,1649166954.3179944,1649166955.4353223,fe47dcec-21a4-461b-adcc-1e06a381f116
0.1301485960008026,0.3671401371190253,0.0390116960266815,-0.2195793438512957,-0.1822562180088334,-0.0457289135680066,-0.3031694515658397,-0.328453303728026,-13.582113707396966,22.04691787136564,14.675519541757753,0.5361549047297199,1.3729427879146423,0.6713614893194378,7215.00537109375,11.624666666666666,8.062222222222223,178.7998208640197,0.569530076790979,57.41118884003307,1647.0,1435.0,1350.0,1528.0,1543.0,1010.0,61.0,293.85,1649166957.367862,1649166958.389448,f7d75d7c-eabd-485c-b4ed-20cd4729b3b6
0.1215334608172432,0.3608534171946989,0.0341357211429277,-0.2199491509883966,-0.1855570889238804,-0.0422636841290216,-0.3053609012552442,-0.330028408485522,-13.521483912033366,21.97224556658425,14.217683607392962,0.5439956673352012,1.3527275854262004,0.6842874160446805,7218.3818359375,11.622777777777776,8.064444444444446,178.82149684880562,0.6122734658357389,55.16008674537128,1647.0,1435.0,1350.0,1528.0,1543.0,1010.0,61.0,293.85,1649166958.4970272,1649166959.6193628,f7d75d7c-eabd-485c-b4ed-20cd4729b3b6
0.1269288090709065,0.3606337244111556,0.0342699474027123,-0.2176722348295208,-0.1843534352616666,-0.0432021723551526,-0.3052557116889694,-0.3300147112638416,-13.570494005284807,21.91837908048201,14.35347813891898,0.5363971661032673,1.3507742003755032,0.6824880049936148,7221.0830078125,11.624000000000002,8.07,178.83432394406694,0.6616001374552027,53.27684839412263,1647.0,1435.0,1350.0,1528.0,1543.0,1010.0,61.0,293.85,1649166959.7273197,1649166960.8495996,f7d75d7c-eabd-485c-b4ed-20cd4729b3b6
0.2498702100015694,0.5935716238335091,0.0505852880693155,-0.3221939743695477,-0.2247155538798415,-0.1684637822833699,-0.3474230394241361,-0.3792675444656424,-13.583673741173325,21.85806547940814,15.210810349411693,0.4912356380839092,2.230829863482107,0.8037541362894998,7227.17236328125,11.609,8.065555555555555,178.69210878080855,0.7535137737436691,50.81639796576033,1745.0,1435.0,1350.0,1528.0,1614.0,1010.0,61.0,293.85,1649166961.8736172,1649166962.8959725,f45dfc05-5c3f-40f3-8006-a4800089ff81
0.2553351365815501,0.5905446846771046,0.0447642506604385,-0.3247963209272761,-0.229427170553682,-0.1676830783891707,-0.3512169867977078,-0.3764186603179808,-13.532216505875192,21.741179933441515,14.524039268642383,0.4977119700046686,2.225149033909586,0.8222342656045724,7227.17236328125,11.608,8.072222222222223,178.70303556566074,0.8067057691799128,49.60114566460469,1745.0,1435.0,1350.0,1528.0,1614.0,1010.0,61.0,293.85,1649166963.009097,1649166964.2404191,f45dfc05-5c3f-40f3-8006-a4800089ff81
0.2529108458264233,0.5921745749924544,0.0491882390894903,-0.3321239809622366,-0.2267015550969954,-0.1628618893572242,-0.3449165687649657,-0.3662284185026852,-13.439277777822316,21.72870501924201,14.518158683293224,0.5252586642110683,2.231838873067664,0.803715830246477,7221.0830078125,11.608,8.07888888888889,178.70914175477876,0.8624810346524003,48.704819180914015,1745.0,1435.0,1350.0,1528.0,1614.0,1010.0,61.0,293.85,1649166964.3494277,1649166965.35612,f45dfc05-5c3f-40f3-8006-a4800089ff81
0.3174901156954465,0.7078283044785603,0.0633230875401754,-0.3990864681049382,-0.2452056078890397,-0.2250442713241183,-0.3630782086501094,-0.389841290626469,-13.614394295869568,22.054211324790685,13.004561965896889,0.5391097307444939,2.689411186526883,0.8465260982981485,7221.0830078125,11.586666666666666,8.08,178.53911861467952,0.9768473585145828,46.91143082983202,1849.0,1435.0,1350.0,1528.0,1686.0,1010.0,61.0,293.85,1649166967.4037445,1649166968.5394714,63d8ffc9-b799-4e80-aab6-4e649e8bd5bb
0.3214374635910292,0.7294020257654776,0.067562446325075,-0.4171379882621551,-0.2486768641435468,-0.225101249079609,-0.3605985832484293,-0.388066215187945,-13.40891842591921,22.087272171249605,13.66241147583668,0.5803400533930626,2.765532788697749,0.8454550131460793,7221.0830078125,11.587555555555554,8.072222222222223,178.56252339623546,1.006232622877041,46.40541209116712,1849.0,1435.0,1350.0,1528.0,1686.0,1010.0,61.0,293.85,1649166968.6507847,1649166969.766414,63d8ffc9-b799-4e80-aab6-4e649e8bd5bb
0.3287086921291517,0.7407756469353943,0.0614088564883056,-0.4185186016233347,-0.2550671312936977,-0.2378291885626434,-0.370118241087191,-0.3903409404772417,-13.48306627864042,21.90950232314833,13.199007721500484,0.553256940532351,2.8125995826582537,0.8768323932340718,7217.03125,11.583333333333334,8.063333333333334,178.5608613835374,1.0227461941631664,46.08967255695,1849.0,1435.0,1350.0,1528.0,1686.0,1010.0,61.0,293.85,1649166969.874522,1649166970.9955397,63d8ffc9-b799-4e80-aab6-4e649e8bd5bb
0.3577278627107641,0.7702287237081871,0.0834197738829888,-0.4615279965597096,-0.2512803063103714,-0.2263372266458245,-0.3546290741188435,-0.3784939626202973,-13.450787751828903,22.655738818512628,13.440144309456633,0.6821971463850768,2.927404288466988,0.8228611446465315,7215.00537109375,11.50711111111111,8.054444444444446,178.54141204042085,1.0719417463091103,45.41778950448051,1962.0,1435.0,1350.0,1528.0,1760.0,1010.0,61.0,293.85,1649166971.9071443,1649166973.044233,e9e84b9e-8590-4e5b-93e0-46781d6909bc
0.3606600217838174,0.7592758607697074,0.0776211988895181,-0.4539280484303402,-0.2513329010961772,-0.2254168178242434,-0.3565619328198943,-0.3736946872049536,-13.486463979467896,22.38179870016294,13.014210897345349,0.6649312397029503,2.8890439769538294,0.8318169344512489,7215.00537109375,11.510777777777776,8.06,178.54841374323007,1.093652439365413,45.19739675489208,1962.0,1435.0,1350.0,1528.0,1760.0,1010.0,61.0,293.85,1649166973.1525247,1649166974.2016451,e9e84b9e-8590-4e5b-93e0-46781d6909bc
0.354506432375423,0.7599201468258842,0.0796592467881938,-0.4532574647907892,-0.2496761651627626,-0.2251538438830801,-0.3546553715451846,-0.3706178919111724,-13.46563249541178,22.40445239280952,13.243784714497606,0.664308241541591,2.8893253166764685,0.8244806820797838,7215.00537109375,11.516,8.05,178.56454513222974,1.121894002780914,45.00931080007782,1962.0,1435.0,1350.0,1528.0,1760.0,1010.0,61.0,293.85,1649166974.3097515,1649166975.2520704,e9e84b9e-8590-4e5b-93e0-46781d6909bc
-0.1384957097992647,-0.1169510216508679,0.025191868319405,-0.0414281940401756,-0.0911467038228592,0.2627997606410401,-0.1924738516540723,-0.2130049955057058,-13.679281143707197,23.11590623084476,14.787679568011727,0.8339619695793635,-0.4657919204117609,0.3511365090731515,7215.00537109375,11.620111111111113,8.098888888888887,179.1529097698932,1.229878748092319,44.56418054167892,1459.0,1435.0,1350.0,1528.0,1394.0,1010.0,61.0,293.85,1649166977.4368927,1649166978.5777318,5a295a41-b7a9-4003-8b2c-6722ca4e98c4
-0.1335238586832413,-0.1266755788740613,0.0106735160442569,-0.0363330740982134,-0.1003233985683544,0.2627860640760467,-0.2042391966203444,-0.2225378012932958,-13.761165329279214,22.875714361081943,14.000782367145662,0.8199560169740546,-0.496262894240752,0.3979764242626188,7219.05712890625,11.631333333333332,8.09,179.1449882682758,1.256788068880648,44.41786878273834,1459.0,1435.0,1350.0,1528.0,1394.0,1010.0,61.0,293.85,1649166978.6866238,1649166979.6892202,5a295a41-b7a9-4003-8b2c-6722ca4e98c4
-0.1426046777048303,-0.1259085715440114,0.0162754085698144,-0.0370726882784459,-0.0960363755081988,0.2630599952346364,-0.1995138834538331,-0.2315638343924426,-13.763033016544716,22.98204623876313,14.088179692486555,0.8232367804525001,-0.4936995359045439,0.3779381510982214,7221.0830078125,11.632333333333332,8.09,179.14297563920036,1.2778554672104352,44.25942319273725,1459.0,1435.0,1350.0,1528.0,1394.0,1010.0,61.0,293.85,1649166979.7971485,1649166981.0334637,5a295a41-b7a9-4003-8b2c-6722ca4e98c4
-0.2549224956389335,-0.3600857839590331,0.012719234040784,0.0639465548943824,-0.0498291155240022,0.4050631655961891,-0.1481156253943662,-0.1799223251900011,-13.816126016738076,23.81876471657331,15.054249405726196,0.9199591076496832,-1.3928418166563816,0.2202017834435604,7221.0830078125,11.606222222222222,8.088888888888889,179.1998954001036,1.3191800563956508,44.12710876813576,1364.0,1435.0,1350.0,1528.0,1312.0,1010.0,61.0,293.85,1649166982.8610318,1649166983.903136,9594e0b8-7218-4d5b-82ae-b5a1f6c68e32
-0.2652705208808064,-0.3670414455237854,0.0127455314636167,0.0717831778180052,-0.0489350041196949,0.4057206003464448,-0.148838803715201,-0.1719016196140461,-13.8269406926724,23.98447176382812,15.199998954955513,0.9048765409449584,-1.4211053861081848,0.2193348480981496,7221.0830078125,11.610666666666669,8.09,179.208771610385,1.3424195853191423,44.07985714000266,1364.0,1435.0,1350.0,1528.0,1312.0,1010.0,61.0,293.85,1649166984.011328,1649166985.1305428,9594e0b8-7218-4d5b-82ae-b5a1f6c68e32
-0.2632713709363351,-0.3633110501456413,0.0117966338650363,0.066555475356832,-0.0503035643127435,0.4071751747573546,-0.1487270397887698,-0.163957614619171,-13.810047981873696,23.87420483001152,15.240043260807534,0.9191742448845516,-1.4070069925418878,0.2228522896965489,7215.6806640625,11.609777777777778,8.091111111111111,179.20890821416842,1.3465165367403538,44.06175144687782,1364.0,1435.0,1350.0,1528.0,1312.0,1010.0,61.0,293.85,1649166985.2390108,1649166986.3576317,9594e0b8-7218-4d5b-82ae-b5a1f6c68e32
-0.4028979471399826,-0.6194175858281198,0.0035019978367111,0.182771320382989,-0.0035982982471993,0.5473977899183874,-0.0996232304665592,-0.1230279121147898,-13.785211421654672,24.74955466027908,14.860619411526322,0.9774605126667228,-2.3791948242217646,0.0697842082899745,7221.0830078125,11.568,8.073333333333332,179.28992032900405,1.351852420443982,44.09712879113886,1262.0,1435.0,1350.0,1528.0,1222.0,1010.0,61.0,293.85,1649166987.3595502,1649166988.704914,fbeb0809-0edc-4f87-9494-8252860610d6
-0.4056060312624835,-0.6206146654546291,0.006208437877619,0.1809902199758911,-0.0029682565268441,0.5517560344508267,-0.0985702389633282,-0.1140199584830657,-13.853759471908786,25.018398544274987,15.091747887170149,0.9931910953065536,-2.384852495373436,0.0637449043666292,7221.0830078125,11.562,8.07,179.2938590714254,1.3593008128816846,44.10135326314051,1262.0,1435.0,1350.0,1528.0,1222.0,1010.0,61.0,293.85,1649166988.813236,1649166989.8478248,fbeb0809-0edc-4f87-9494-8252860610d6
-0.4000041376737022,-0.61823146345547,0.0064138862540709,0.1819215859240781,-0.002940863415227,0.5481264467683321,-0.0996522671530168,-0.1207997554923443,-13.879200866973394,25.01396779664371,15.02650325164211,0.9828916448340452,-2.375257431297481,0.0651566616646938,7227.17236328125,11.571888888888887,8.074444444444444,179.30728266987418,1.3534403445622714,44.12893963828828,1262.0,1435.0,1350.0,1528.0,1222.0,1010.0,61.0,293.85,1649166989.9592154,1649166991.1609137,fbeb0809-0edc-4f87-9494-8252860610d6
-0.4328375347919888,-0.667502385022951,0.0006750280763664,0.1812723690104011,-0.0082134907457651,0.591353877263049,-0.0962571640879805,-0.1329157324389409,-13.742220501591316,25.92631727917396,14.20345538689918,1.0871939992389532,-2.5539966121968085,0.0679199958228986,7221.0830078125,11.514888888888889,8.07,179.34045462194322,1.3362247460375485,44.196558890526354,1153.0,1435.0,1350.0,1528.0,1121.0,1010.0,61.0,293.85,1649166991.8313577,1649166992.910079,b1f4aa86-0f7d-4ff3-9998-cfe68c3c41c2
-0.433784241135574,-0.670487140097595,0.0076701346110455,0.1903055230020014,-0.0007976259030617,0.593036910230134,-0.0899063434337403,-0.1117726267350949,-13.738822157700572,26.05612274366256,15.258614810505575,1.071978131633359,-2.5752336831672387,0.0403973633591445,7221.0830078125,11.523888888888887,8.064444444444446,179.32534472567934,1.3317373591847197,44.24128258975664,1153.0,1435.0,1350.0,1528.0,1121.0,1010.0,61.0,293.85,1649166993.0185745,1649166994.1420395,b1f4aa86-0f7d-4ff3-9998-cfe68c3c41c2
-0.4329032783440896,-0.6740898843429993,0.0030680908550294,0.1886093412450726,-0.0026384434037505,0.59683688307093,-0.0908661982875926,-0.1092743742963302,-13.740935867935644,25.81277794055513,15.056594543782287,1.082467768122075,-2.58702773941282,0.0499070029276653,7221.0830078125,11.521555555555556,8.08,179.33566741824495,1.3391129081292423,44.294340258139215,1153.0,1435.0,1350.0,1528.0,1121.0,1010.0,61.0,293.85,1649166994.2503912,1649166995.2625256,b1f4aa86-0f7d-4ff3-9998-cfe68c3c41c2
0.0084327590110227,0.1437854372891013,0.024355830363068,-0.144236759711103,-0.1453412502700562,0.1016964614821691,-0.2562899601562053,-0.2718317218074663,-13.72779531180101,22.17435854154552,14.508250165472289,0.6975000554619948,0.5275372407170714,0.547557687618039,7221.0830078125,11.624333333333333,8.088888888888889,179.00159072338113,1.306171320791127,44.41320983481449,1508.5555555555557,1435.0,1350.0,1528.0,1432.111111111111,1010.0,61.0,293.85,1649166996.811724,1649166997.8286316,3e094c55-a54f-46e6-98a1-06e776e675c9
0.0162617120009487,0.1463242313195046,0.0224388600041685,-0.149987123298899,-0.1469327905039416,0.0981534357623186,-0.2556423867826137,-0.2841449295045109,-13.56465242588374,21.90387367536646,13.603502174379235,0.7005591857324548,0.5445052151754282,0.5506222671570221,7221.0830078125,11.633666666666668,8.107777777777777,178.97356873394628,1.296857349930593,44.43616685952481,1553.0,1435.0,1350.0,1528.0,1471.0,1010.0,61.0,293.85,1649166997.9364536,1649166999.0608876,3e094c55-a54f-46e6-98a1-06e776e675c9
0.0099749915174353,0.1400786007706744,0.0285749183222657,-0.1377697921198704,-0.1410706629784475,0.1022760998334772,-0.253450937134601,-0.2791867746155664,-13.767604864829387,22.351930220072067,14.945868178558086,0.6856516320127399,0.5095117719053807,0.5320724266730403,7221.0830078125,11.638666666666666,8.091111111111111,178.98716991731348,1.2850950408438253,44.46228246727131,1553.0,1435.0,1350.0,1528.0,1471.0,1010.0,61.0,293.85,1649166999.1725645,1649167000.4937832,3e094c55-a54f-46e6-98a1-06e776e675c9
0.0214116180894253,0.1360929023207816,0.0089888393023497,-0.41019437928477,-0.1862282203729664,0.3649212947917541,-0.1951720739559066,-0.2196889174831737,-13.538364965889365,21.52120384836863,16.22308788669474,1.8842103265597767,0.5139060658328303,0.5367317006251834,7227.17236328125,11.639888888888889,8.097777777777777,178.9732803481813,1.3431495380707528,44.53053237364275,1553.0,1537.0,1350.0,1528.0,1471.0,1010.0,61.0,293.85,1649167001.3904612,1649167002.4393885,c1601bc7-0afe-4193-baf9-0c288643d1bb
0.026275540029308,0.1361854910517154,0.0076043911372359,-0.4125885382404728,-0.1887451002087294,0.3644599947289046,-0.1968052517553907,-0.2166860828573891,-13.479973165814943,21.578425900899383,15.84460992073799,1.88885381674924,0.5174024637533213,0.5438459854277411,7227.17236328125,11.63425,8.085,178.966139764859,1.3382342950059702,44.56393038600056,1553.0,1537.0,1350.0,1528.0,1471.0,1010.0,61.0,293.85,1649167002.5477726,1649167003.7650588,c1601bc7-0afe-4193-baf9-0c288643d1bb
0.0213842249527975,0.136133991998467,0.0119609925711244,-0.4095369443199896,-0.1848037781366312,0.3671812267911037,-0.1943913700333811,-0.2267289488062289,-13.629900582160788,21.752956241460414,16.64803202278407,1.8895116531640583,0.5110531792609663,0.5300795846984944,7231.23779296875,11.634666666666666,8.106666666666667,178.9731725829744,1.3365643226473776,44.59691536164106,1553.0,1537.0,1350.0,1528.0,1471.0,1010.0,61.0,293.85,1649167003.8797114,1649167004.9829557,c1601bc7-0afe-4193-baf9-0c288643d1bb
0.0318242898725508,0.1328194248973972,0.001135232491576,-0.693904977065139,-0.2269157692950909,0.6423313676812131,-0.1271434533696832,-0.1505875812988108,-13.307178053669816,21.308338604979163,18.29584696326321,3.146214016626216,0.5160507999724815,0.5062854732901648,7231.23779296875,11.621666666666666,8.08,178.9677084316384,1.41856903235253,44.60395387158076,1553.0,1645.0,1350.0,1528.0,1471.0,1010.0,61.0,293.85,1649167005.897309,1649167007.0408225,1e780af9-c685-4530-97d2-2da628fcacb2
0.0294788911702322,0.12687511860874,-0.0011466142154431,-0.6917957062156938,-0.2289067012746603,0.6491659497511196,-0.1291820492891066,-0.145426169961337,-13.370109251407746,21.479732135517622,18.696965422037835,3.157869067173106,0.4902448994694082,0.5147607515244474,7227.17236328125,11.619333333333332,8.09,178.96200598259136,1.4164144871243447,44.62108853947859,1553.0,1645.0,1350.0,1528.0,1471.0,1010.0,61.0,293.85,1649167007.1529114,1649167008.26701,1e780af9-c685-4530-97d2-2da628fcacb2
0.0516262265395652,0.1364879110620157,0.0081960824944077,-0.6925769581926889,-0.2214459110541653,0.6422787729015276,-0.1218182310410983,-0.1395426749982551,-13.328791739740431,21.42729976441444,19.019132622459104,3.144344751150292,0.5238384975128743,0.4830403541113284,7227.17236328125,11.622875,8.09,178.9638482363925,1.4216703117616858,44.66289940018722,1553.0,1645.0,1350.0,1528.0,1471.0,1010.0,61.0,293.85,1649167008.397921,1649167009.4965255,1e780af9-c685-4530-97d2-2da628fcacb2
0.0276804277000738,0.1255623561734474,0.0009152446807096,-0.9667026293707596,-0.2615529793660651,0.915103574745142,-0.0561804417447611,-0.0760299168285858,-13.107488670369056,21.505293318701288,20.618752224830537,4.376299740587287,0.5004078010212918,0.452791310344134,7227.17236328125,11.602444444444444,8.094444444444443,178.96692371879374,1.4933799757520063,44.661954320192685,1553.0,1761.0,1350.0,1528.0,1471.0,1010.0,61.0,293.85,1649167010.5184162,1649167011.5472832,59572f57-a357-4f0b-afda-83dab5a27bfb
0.0380173258740441,0.1244568542770182,-0.0031117964817163,-0.9652942008862796,-0.2648892086099149,0.9159688600302092,-0.0602428833328502,-0.085185961685527,-13.14315356214313,21.505184552085176,20.74111656739938,4.374867394557826,0.4950007095526,0.4686349976244005,7227.17236328125,11.608444444444444,8.08888888888889,178.96200598259134,1.4873809115106849,44.650631384368616,1553.0,1761.0,1350.0,1528.0,1471.0,1010.0,61.0,293.85,1649167011.6557283,1649167012.8812287,59572f57-a357-4f0b-afda-83dab5a27bfb
