raw_voltage_G-,raw_voltage_G0,raw_voltage_G1,raw_voltage_G2,raw_voltage_G3,raw_voltage_G4,raw_voltage_G5,raw_voltage_G6,load_x,load_y,load_z,load_l,load_m,load_n,rpm,voltage,current,roll,pitch,yaw,aileron1_pwm,elevator_pwm,throttle_pwm,rudder_pwm,aileron2_pwm,pbaro,pdiff,Tt,sample_start_time,sample_end_time,uid
0.0225484324514075,0.1617465558366508,0.0457230097901587,-0.1396462207606834,-0.1372356262746739,0.1326002799642757,-0.2471231262791327,-0.2709962310536438,-14.131316154980707,23.608443951814333,22.102072585441423,0.7681679761774146,0.5312682131393217,0.5063932962439598,3320.97119140625,11.973,0.23,179.05138735588994,-4.440590286049491,100.12006840144346,1553.0,1435.0,1200.0,1528.0,1471.0,1010.0,61.0,293.85,1649172744.2097275,1649172745.2476697,405ac886-4374-44bb-b412-34f0e0abb059
0.0203717753634678,0.1662565585024986,0.0488255542496335,-0.1408706931823456,-0.1354271325476393,0.1296505891804716,-0.243483128428803,-0.2676898813125454,-13.9527290204236,23.527258099384976,22.176597538365915,0.7640198080224495,0.5466050232606574,0.495316667270501,3618.20857747396,11.973666666666666,0.22,179.08148116937298,-4.31609272836187,99.65402182707624,1553.0,1435.0,1200.0,1528.0,1471.0,1010.0,61.0,293.85,1649172745.3563757,1649172746.475424,405ac886-4374-44bb-b412-34f0e0abb059
0.0183731734918601,0.1624697341071113,0.0472477106972762,-0.1419357376587129,-0.1357164038872696,0.1339239153548838,-0.2437855484769367,-0.2734358623618775,-14.0397584922697,23.50405751323327,22.110743099191524,0.7757383503600156,0.5336324782850664,0.4976802551662653,3660.744059244792,11.974666666666666,0.2188888888888889,179.09180386193864,-4.193491164783223,99.20198548851656,1553.0,1435.0,1200.0,1528.0,1471.0,1010.0,61.0,293.85,1649172746.5838327,1649172747.7032824,405ac886-4374-44bb-b412-34f0e0abb059
0.1514642756396572,0.3735062970747607,0.0680620968201129,-0.2384603258719934,-0.1643674152005455,0.0191357979369279,-0.2703985130273196,-0.3009166417087147,-13.77372095342138,23.02740768514939,22.53418360209269,0.7336080096683646,1.332707688014793,0.5718908670540253,3659.527452256944,11.957,0.21,178.95215836762802,-4.034287281488651,98.39126024787384,1647.0,1435.0,1200.0,1528.0,1543.0,1010.0,61.0,293.85,1649172749.289924,1649172750.266193,4937a768-8fb6-49b0-b74b-65afcda69f14
0.1366982901525867,0.3720336432059699,0.0672731750468309,-0.2391835042538994,-0.1654456083816826,0.0197537866678671,-0.2702275799556886,-0.2935665195433183,-13.676116029250329,23.023427096971737,22.319519076083463,0.7365772683407286,1.3284350410556525,0.5737740137153261,3656.232666015625,11.955333333333334,0.21,178.96896518644567,-3.972693441895253,98.08425083378084,1647.0,1435.0,1200.0,1528.0,1543.0,1010.0,61.0,293.85,1649172750.3789637,1649172751.6029737,4937a768-8fb6-49b0-b74b-65afcda69f14
0.1410768058624716,0.3697326215363736,0.0668787141650589,-0.2381973519226258,-0.1655770953493835,0.0209897641285394,-0.2714635575532756,-0.2952758500825777,-13.77556720677746,23.115828428169195,22.296961121679125,0.7376693976864531,1.3205637762424651,0.5758415010572334,3659.87451171875,11.957222222222224,0.21,178.9516438267105,-3.910178143378203,97.68071111505796,1647.0,1435.0,1200.0,1528.0,1543.0,1010.0,61.0,293.85,1649172751.7146485,1649172752.915467,4937a768-8fb6-49b0-b74b-65afcda69f14
0.2512535623219872,0.5821760881835474,0.0885521483139103,-0.3429031742996338,-0.1972128613565809,-0.0925985390893951,-0.2989646074288277,-0.3143321487633053,-13.47255731418629,22.894985885286065,22.013008502587912,0.7183344602073755,2.1319897387470816,0.6532325776316409,3651.7345106336807,11.941666666666666,0.2044444444444444,178.75995684438385,-3.838272235957902,97.05605692342436,1745.0,1435.0,1200.0,1528.0,1614.0,1010.0,61.0,293.85,1649172754.854203,1649172756.0699155,f7121987-8ca0-449e-8648-b536c3374b96
0.2376013813421234,0.5783103718575623,0.0883899810437813,-0.341717052133716,-0.1958059507538281,-0.0912869565662862,-0.2976557641306736,-0.3209815548914025,-13.48531214798867,22.823242806661973,21.821735715066453,0.7180855814269546,2.119118939374799,0.6489672518740965,3636.582763671875,11.943,0.21,178.76326265594213,-3.801029301416068,96.83172846705418,1745.0,1435.0,1200.0,1528.0,1614.0,1010.0,61.0,293.85,1649172756.180479,1649172757.1310513,f7121987-8ca0-449e-8648-b536c3374b96
0.2587729725769966,0.5789573972234806,0.0898259282419774,-0.3399036274566853,-0.1945694252979683,-0.0915302074599372,-0.2967457646212494,-0.3266453569340393,-13.485164762017387,22.85593715293164,22.1231218259486,0.7137846746442044,2.1187417717044963,0.6445360136542894,3622.751220703125,11.939,0.21,178.7526849696475,-3.770889953338526,96.64383223971684,1745.0,1435.0,1200.0,1528.0,1614.0,1010.0,61.0,293.85,1649172757.241271,1649172758.3518276,f7121987-8ca0-449e-8648-b536c3374b96
0.3243696227029114,0.6844597863454708,0.1163835549410605,-0.4116812779633709,-0.2005657792349221,-0.145972387712535,-0.2961173664242284,-0.326372521675041,-13.363460507698694,23.099849461602663,19.78561538507303,0.7559865877439047,2.5448208572588755,0.6244321954450607,3610.54150390625,11.919888888888888,0.1988888888888889,178.60493431752178,-3.7157142622670847,96.23057695635458,1849.0,1435.0,1200.0,1528.0,1686.0,1010.0,61.0,293.85,1649172760.2866924,1649172761.5203133,aa27a8c2-221a-4c3f-96a0-dfe9ea485216
0.3142303349814719,0.6743813116550471,0.1202322878189643,-0.4066469698431369,-0.1957747225910103,-0.139714703568293,-0.2914725888318998,-0.3136336243469246,-13.403712355118424,23.291640463551783,19.960881316703045,0.7601629974232843,2.505379375367025,0.6050121611897614,3602.4495985243057,11.916111111111112,0.2,178.60921456940164,-3.703162461574848,96.12091143904084,1849.0,1435.0,1200.0,1528.0,1686.0,1010.0,61.0,293.85,1649172761.628837,1649172762.6551228,aa27a8c2-221a-4c3f-96a0-dfe9ea485216
0.3111760026130437,0.674299132311707,0.115643940787788,-0.4088521162436911,-0.200034352713279,-0.139016179030781,-0.2950473911268819,-0.3193313938638848,-13.370689280173872,23.217841293220527,19.72949353164608,0.7659689911014945,2.5068675801596414,0.6218558619257409,3589.3758951822915,11.92,0.2033333333333333,178.59981167564425,-3.6936629965316974,96.00926896141736,1849.0,1435.0,1200.0,1528.0,1686.0,1010.0,61.0,293.85,1649172762.7632897,1649172763.974717,aa27a8c2-221a-4c3f-96a0-dfe9ea485216
0.3388857823257696,0.7180415532974191,0.1289800056756216,-0.4397668991769523,-0.2018412029014469,-0.1535460373350252,-0.2917651473532622,-0.3111068824711253,-13.267722423282944,23.462142188449235,19.7704141061224,0.8053965365833083,2.674492651967684,0.6065163471805648,3562.192355685764,11.875777777777778,0.19,178.53505085757385,-3.669953560079685,95.79382734006728,1962.0,1435.0,1200.0,1528.0,1760.0,1010.0,61.0,293.85,1649172765.81685,1649172766.9600842,baa98604-cc78-4dfb-b5ad-05cad7ae4a81
0.3416097537166078,0.7176761291490923,0.1336412183872374,-0.433999003157395,-0.1974183097690024,-0.1575476241960116,-0.2895961600175888,-0.3095794422507549,-13.32247909498284,23.595665193289538,19.930587948520028,0.7845086832561635,2.671677635810495,0.5911894602090958,3556.6083984375,11.875,0.19,178.57933021505312,-3.66051224650822,95.6299339152932,1962.0,1435.0,1200.0,1528.0,1760.0,1010.0,61.0,293.85,1649172767.0692377,1649172768.1873577,baa98604-cc78-4dfb-b5ad-05cad7ae4a81
0.3495362255500111,0.7211577940061893,0.1320830978975029,-0.4395302226062134,-0.1995270321705786,-0.1570830369076976,-0.2898717348624462,-0.3151303841325294,-13.257959630827964,23.47225570746962,19.75171931269996,0.7971380332161376,2.6864447931885587,0.596794140628084,3551.532552083333,11.879333333333332,0.1944444444444444,178.563119899423,-3.6584350152268894,95.47976385838147,1962.0,1435.0,1200.0,1528.0,1760.0,1010.0,61.0,293.85,1649172768.3083248,1649172769.4218752,baa98604-cc78-4dfb-b5ad-05cad7ae4a81
-0.1205806100119887,-0.1014465164076857,0.0183572855401388,-0.0118436266571316,-0.1032955519280338,0.2693330187210902,-0.2213462000690708,-0.2434387517578627,-14.71887376979782,24.50244212799811,21.59609760901641,0.791320731210759,-0.4646777102018536,0.4285500884261841,3574.905517578125,11.964333333333334,0.22,179.06497032541938,-3.667831932568749,95.3255397047424,1459.0,1435.0,1200.0,1528.0,1394.0,1010.0,61.0,293.85,1649172771.232603,1649172772.2794962,81cec088-64a9-46d5-9728-cb8de61ad0fd
-0.136893212368436,-0.1075140922145801,0.018083354356347,-0.0081318591992566,-0.1014465164187661,0.2727571581719548,-0.2187164605450083,-0.2423430271075597,-14.641341903838802,24.40114855113777,21.73339420364956,0.7900181778929206,-0.4896764979444649,0.4222486500470339,3591.882785373264,11.966111111111111,0.2155555555555555,179.04598998862582,-3.657850464870422,95.33628662794646,1459.0,1435.0,1200.0,1528.0,1394.0,1010.0,61.0,293.85,1649172772.389369,1649172773.5102608,81cec088-64a9-46d5-9728-cb8de61ad0fd
-0.1200168595910955,-0.10235815939962,0.0206478980220691,-0.010396174325462,-0.1004910444348563,0.2703416332372375,-0.2172646251693434,-0.2435225748329206,-14.6079399248001,24.414692095864112,21.82683400558518,0.7899470985004571,-0.4709615869706393,0.4161380066855624,3605.985107421875,11.964,0.22,179.0362243359325,-3.6656754426339258,95.35011700210585,1459.0,1435.0,1200.0,1528.0,1394.0,1010.0,61.0,293.85,1649172773.619311,1649172774.741287,81cec088-64a9-46d5-9728-cb8de61ad0fd
-0.2528208954127099,-0.3338497475564213,-0.0050090437899552,0.0999613814706389,-0.0739164322705257,0.3929992377521414,-0.1954870948205927,-0.2127310641068013,-14.967888943442253,25.27536228481789,21.44232015680049,0.8208209645923299,-1.3484395151608084,0.3557189375318328,3603.965738932292,11.951666666666666,0.21,179.10530942265748,-3.665783587295784,95.44726961286013,1364.0,1435.0,1200.0,1528.0,1312.0,1010.0,61.0,293.85,1649172776.8757818,1649172777.8997376,22e3374a-c8bf-4bbb-a7ea-65530e6b8bb6
-0.2511362185283541,-0.3280013160927688,-0.000653538071011,0.0983588841404757,-0.0718345552707176,0.3894381327988411,-0.1924053688445461,-0.2178398809888294,-14.864008375408051,25.311189017900045,21.56850630043856,0.8169603081202405,-1.3278839419300406,0.3434881175204808,3590.0431315104165,11.95411111111111,0.21,179.09331864611454,-3.6718138379911287,95.45810456961344,1364.0,1435.0,1200.0,1528.0,1312.0,1010.0,61.0,293.85,1649172778.0079772,1649172779.142149,22e3374a-c8bf-4bbb-a7ea-65530e6b8bb6
-0.2508075010755788,-0.3323979121125651,-0.0022012492172764,0.0992628569909903,-0.0718208587049353,0.3924376788930261,-0.1920355617287268,-0.2217434007916047,-14.861033177815122,25.24408662428232,21.497147886916107,0.8211297745617934,-1.3439730130636338,0.3444575499155771,3583.705268012153,11.952222222222222,0.21,179.08796984908454,-3.674880687792202,95.44017684086198,1364.0,1435.0,1200.0,1528.0,1312.0,1010.0,61.0,293.85,1649172779.2493637,1649172780.2652135,22e3374a-c8bf-4bbb-a7ea-65530e6b8bb6
-0.3787470746089996,-0.5596786570255015,-0.0273344348114422,0.2050139828004232,-0.0470300866781231,0.510912900540102,-0.1720659775011246,-0.2021436234394854,-15.231148024978769,26.207611985919943,20.495843965197786,0.8536007271831324,-2.1995170749930053,0.2878782001535889,3575.8974609375,11.915666666666665,0.1922222222222222,179.17846681994757,-3.689355898213837,95.45110817917364,1262.0,1435.0,1200.0,1528.0,1222.0,1010.0,61.0,293.85,1649172782.2911766,1649172783.2516549,48bc069f-8315-4989-961d-8fc1669a87de
-0.3874717841118946,-0.5653490339738557,-0.024964930109541,0.2095612400579688,-0.0450577821758416,0.514117894956653,-0.1706141421630861,-0.1888168704716338,-15.252471421203468,26.443551339340488,20.76871267222728,0.8522600984762004,-2.223457592176807,0.2795217161906018,3573.5787217881943,11.919666666666664,0.2,179.18898682908923,-3.693764453299996,95.37045578763431,1262.0,1435.0,1200.0,1528.0,1222.0,1010.0,61.0,293.85,1649172783.3701391,1649172784.4543574,48bc069f-8315-4989-961d-8fc1669a87de
-0.3989401888079608,-0.5737652978364309,-0.0279102381573162,0.2127897927029779,-0.0459896960626235,0.5188256756390751,-0.1715729013597909,-0.1858260897432997,-15.26047343359838,26.453329149016326,20.673244408909184,0.855455201897508,-2.254704984555276,0.2850365453768252,3583.705268012153,11.919444444444444,0.2,179.18776953759712,-3.701361947818642,95.32618098361448,1262.0,1435.0,1200.0,1528.0,1222.0,1010.0,61.0,293.85,1649172784.5635817,1649172785.7957003,48bc069f-8315-4989-961d-8fc1669a87de
-0.4167566758498875,-0.6197068572784963,-0.0362333631159946,0.239876105647346,-0.0473834579103926,0.5339466749126239,-0.1770559081698541,-0.1915326243165946,-15.32778741235516,27.07846494518295,19.90948538922524,0.8319080533546623,-2.42362010070608,0.2993845738352853,3599.927001953125,11.85,0.17,179.22412283999955,-3.7039667637814864,95.26201439200184,1153.0,1435.0,1200.0,1528.0,1121.0,1010.0,61.0,293.85,1649172786.7054307,1649172787.7325249,ef473718-bf69-4a41-9f8b-0d94718190f7
-0.4176113413167558,-0.6155518678640026,-0.0369170953511631,0.2360498352398203,-0.0498685615920531,0.5350906113828217,-0.177568707359773,-0.204155373722688,-15.2292015247759,27.08653895928641,20.144603980405403,0.8432163431443107,-2.410390093271223,0.3052979428214576,3596.905517578125,11.865555555555556,0.19,179.23252549049852,-3.725058957120917,95.11737451158812,1153.0,1435.0,1200.0,1528.0,1121.0,1010.0,61.0,293.85,1649172787.8410184,1649172789.0794442,ef473718-bf69-4a41-9f8b-0d94718190f7
-0.426302631295728,-0.6164459795312935,-0.0349579395547889,0.23080350568924,-0.0486983275915495,0.5402843459033712,-0.1748600757189818,-0.2038529540405889,-15.277997982287324,27.14450445192545,20.08919195450784,0.8671702094405157,-2.4121359523735024,0.2968867261411395,3595.396728515625,11.866444444444443,0.19,179.24299692940608,-3.720716379764866,94.98901097196654,1153.0,1435.0,1200.0,1528.0,1121.0,1010.0,61.0,293.85,1649172789.2114022,1649172790.3949175,ef473718-bf69-4a41-9f8b-0d94718190f7
0.0136133453958639,0.1492815921698155,0.0425141800344959,-0.1358347421626502,-0.1358347421614466,0.1410899546302762,-0.2448900390967326,-0.2708718665262711,-14.12341447023071,23.41366457572325,22.07020801100451,0.7771955506053151,0.4840675088686369,0.5042454715219674,3593.8907063802085,11.969666666666663,0.2166666666666666,178.97936528782188,-3.7366485074819593,94.85323212363603,1553.0,1435.0,1200.0,1528.0,1471.0,1010.0,61.0,293.85,1649172792.2340844,1649172793.3785248,0bf7dea7-7a43-4539-91d8-a849c6ff6cec
0.0241191537949086,0.1490975104261579,0.0430664252779775,-0.1343752367724668,-0.1349537794534755,0.139485813731041,-0.2455737713848851,-0.276696740033148,-14.2162509770775,23.45294919963424,22.007136937785777,0.7705296804545609,0.484449141005763,0.5030868075451305,3609.021484375,11.967999999999998,0.21,178.941271046091,-3.7288751830240536,95.1244065707936,1553.0,1435.0,1200.0,1528.0,1471.0,1010.0,61.0,293.85,1649172793.4875782,1649172794.6967037,0bf7dea7-7a43-4539-91d8-a849c6ff6cec
0.0173344264716178,0.1534497287599992,0.0421854626188335,-0.1373862884244103,-0.1380568719964834,0.1377633345679169,-0.2471121690432964,-0.2723050743964683,-14.087934180004098,23.494707742034908,21.96385567954436,0.7737418830894168,0.5005635966077838,0.511216301148481,3611.048746744792,11.969666666666669,0.21,178.91705574875357,-3.7234574200561568,95.29609475923048,1553.0,1435.0,1200.0,1528.0,1471.0,1010.0,61.0,293.85,1649172794.8054368,1649172795.9338355,0bf7dea7-7a43-4539-91d8-a849c6ff6cec
0.0226169152208547,0.1477075837024591,0.0263971655078165,-0.337712177733014,-0.1730384332436934,0.3386649938774804,-0.2064717358881369,-0.2284136255405908,-14.077078790810054,23.09286881445223,23.5996518906158,1.6738970916566531,0.4881089050904196,0.5225487053011203,3619.690185546875,11.925999999999998,0.1988888888888889,178.9003840158995,-3.6853985624997225,95.71554502416994,1553.0,1537.0,1200.0,1528.0,1471.0,1010.0,61.0,293.85,1649172797.970682,1649172799.1108704,db3f2052-ee9c-4595-b6da-a472ec5452a0
0.0235893708980729,0.1422015672978091,0.024794668137686,-0.3339182303669443,-0.1723673018124994,0.3381993109176179,-0.2070880810899708,-0.236932885739287,-14.114260465107812,23.02947713692621,23.255790554818844,1.6637188695784717,0.4701990120412011,0.5235785907016591,3616.640625,11.967666666666666,0.21,178.9039114291508,-3.658500613502042,95.78408900813066,1553.0,1537.0,1200.0,1528.0,1471.0,1010.0,61.0,293.85,1649172799.2186987,1649172800.4355392,db3f2052-ee9c-4595-b6da-a472ec5452a0
0.0275750694859926,0.1465707693691441,0.028273594048429,-0.3354796382988214,-0.1707511077599641,0.332816563765713,-0.2046774865325544,-0.235015367321601,-13.993162794047578,23.038002365651693,22.916911207616184,1.6553819519703794,0.489145488490258,0.5133211554836968,3587.5413682725693,11.960888888888888,0.21,178.90764526589712,-3.65867032473017,95.88411029833632,1553.0,1537.0,1200.0,1528.0,1471.0,1010.0,61.0,293.85,1649172800.5433092,1649172801.7700012,db3f2052-ee9c-4595-b6da-a472ec5452a0
0.0215074939791653,0.1391883244876234,0.0136319727623329,-0.5462560256899801,-0.2067593636482995,0.5475237982475251,-0.1606704398034365,-0.1850640131694449,-13.999223778358123,22.78305204142896,24.934250728956744,2.6112170386256204,0.4686386608027902,0.5198714790590244,3564.9911295572915,11.955,0.2066666666666666,178.92319836554714,-3.614279976676872,96.02332549072926,1553.0,1645.0,1200.0,1528.0,1471.0,1010.0,61.0,293.85,1649172802.7728655,1649172804.226731,59a74c47-20f6-4821-a569-e63bb5861d91
0.0271367796243531,0.1448997892673229,0.0165767328978862,-0.5459547013192764,-0.2064169496463399,0.5405385540234643,-0.1611498193880204,-0.1865843311553026,-13.95809586170869,22.92234434730933,24.783924153441976,2.595907302953784,0.4912533185474823,0.516526902062035,3558.9058430989585,11.957333333333333,0.21,178.9198986252681,-3.601716555176673,96.04689495573514,1553.0,1645.0,1200.0,1528.0,1471.0,1010.0,61.0,293.85,1649172804.3350413,1649172805.456137,59a74c47-20f6-4821-a569-e63bb5861d91
0.0378885781845637,0.1519809098588395,0.0188503616470404,-0.5527071066507855,-0.2064717358914808,0.5385388566569529,-0.1582187556207697,-0.1757503523033633,-13.784549390054066,22.82942099550502,24.62238597394117,2.6062043082065807,0.5189891412409999,0.510058384305634,3555.13330078125,11.956333333333331,0.21,178.9290100976209,-3.6021088641671253,96.081376786305,1553.0,1645.0,1200.0,1528.0,1471.0,1010.0,61.0,293.85,1649172805.5643203,1649172806.7808526,59a74c47-20f6-4821-a569-e63bb5861d91
0.0366235640105912,0.1451923477511069,0.016045854274389,-0.6620456740795038,-0.2242860297366617,0.6527714314824,-0.1347565490040673,-0.1551633273579264,-13.855471666072315,23.225487678415988,25.67744089423256,3.1121595859786275,0.4979697953681093,0.504235569412746,3558.0849609375,11.937777777777775,0.2,178.90907656998323,-3.5562154238936663,96.11176126228276,1553.0,1761.0,1200.0,1528.0,1471.0,1010.0,61.0,293.85,1649172807.8007247,1649172808.9421709,3f2d7f73-b291-4b7d-afd3-083dea435dbc
0.0354401813728708,0.1441010059881776,0.0148230255136348,-0.6521315536050131,-0.2240625018684402,0.643817170210842,-0.1379779798138734,-0.165300972947154,-13.836024114238176,23.212430144861933,25.53334392029513,3.0695137093272007,0.4937177003783497,0.509955196241055,3555.297200520833,11.943222222222223,0.2,178.91312155979165,-3.5628221378117733,96.08906150803116,1553.0,1761.0,1200.0,1528.0,1471.0,1010.0,61.0,293.85,1649172809.069403,1649172810.1781845,3f2d7f73-b291-4b7d-afd3-083dea435dbc
0.0415148790638612,0.1461390538519504,0.0131136949767549,-0.6576014131699014,-0.2264818622450572,0.6464732065939895,-0.1395426747913312,-0.1686933370772637,-13.892516875949273,23.21152431464117,25.466516873388784,3.087690633033236,0.5029188262862228,0.5178735055972031,3546.307861328125,11.943,0.2,178.93516941043242,-3.575189736839832,96.07794651352184,1553.0,1761.0,1200.0,1528.0,1471.0,1010.0,61.0,293.85,1649172810.2913582,1649172811.490363,3f2d7f73-b291-4b7d-afd3-083dea435dbc
0.0350123008426721,0.1457489758718501,0.0149742355208666,-0.6842899896056084,-0.2323719309628828,0.6718885382377984,-0.1352907148609214,-0.1511924210357146,-13.853084839057331,23.695782191103863,25.54895664652234,3.2083410033764608,0.5038581408487549,0.5169698795731379,3542.725016276041,11.904666666666666,0.1944444444444444,178.9567512903899,-3.57725961618143,95.99570572354553,1553.0,1887.0,1200.0,1528.0,1471.0,1010.0,61.0,293.85,1649172812.4020293,1649172813.54924,21953d5b-2c6c-4581-bbcf-3cee5f9cdad9
0.032094933869747,0.1410921460789592,0.0127827861080259,-0.6772773489267744,-0.233358083304789,0.6725322764296978,-0.1383039579419962,-0.1543974156883962,-13.908966771281564,23.79915291017655,25.88861838851379,3.194570921722501,0.4827767236524585,0.5254860262997384,3538.013617621528,11.915444444444445,0.19,178.96096931165732,-3.581445834380544,95.92250734512042,1553.0,1887.0,1200.0,1528.0,1471.0,1010.0,61.0,293.85,1649172813.6575806,1649172814.6769,21953d5b-2c6c-4581-bbcf-3cee5f9cdad9
0.0365578205434658,0.1417210920321702,0.0190174596485711,-0.6641626149727727,-0.2261136987359426,0.6570710547355081,-0.1348485898987148,-0.1577273233939033,-13.79224007869707,23.75994277378804,25.532441837724853,3.130296362516169,0.4862461499429074,0.5019871189148891,3533.151611328125,11.912999999999998,0.19,178.983511971558,-3.5819506517648247,95.8642245820228,1553.0,1887.0,1200.0,1528.0,1471.0,1010.0,61.0,293.85,1649172814.785024,1649172815.9041831,21953d5b-2c6c-4581-bbcf-3cee5f9cdad9
0.0121664409166903,0.1531725104197688,0.0594332649425784,0.0636928946507564,-0.1056513601370688,-0.0592200242684236,-0.292376561801053,-0.3147293493192272,-14.3128534982748,24.60596811028625,20.1257933531444,-0.1146721099740698,0.4937615965697396,0.5065387594197888,3536.877712673612,11.970666666666666,0.2055555555555555,178.97430184091718,-3.799431511468978,95.74267301773342,1553.0,1335.0,1200.0,1528.0,1471.0,1010.0,61.0,293.85,1649172817.7234812,1649172819.0662549,4c1e73ef-a1fb-4180-bf00-38b73173cb8c
0.008511651183975,0.1559479809709662,0.057661478127134,0.0620925887486263,-0.1080778425973201,-0.0605058572389526,-0.2948550913944806,-0.3137234736273464,-14.315240638948248,24.60487508402141,20.10378448424134,-0.1140518292324709,0.5044679497894782,0.5160772929817055,3543.701416015625,11.96922222222222,0.2,178.9530432565805,-3.800404007083928,95.90807894995372,1553.0,1335.0,1200.0,1528.0,1471.0,1010.0,61.0,293.85,1649172819.1740742,1649172820.299617,4c1e73ef-a1fb-4180-bf00-38b73173cb8c
0.0055373064530639,0.1513234750637687,0.0584060230352648,0.0649118883635985,-0.1058705050994986,-0.0579051545885542,-0.292691582715206,-0.3091959385121371,-14.31834595990257,24.578745119561187,20.20987089387772,-0.1146881500027306,0.485904619390845,0.5085988797854885,3548.755208333333,11.968666666666667,0.2066666666666666,178.95786385231466,-3.799180596880719,96.03739568041948,1553.0,1335.0,1200.0,1528.0,1471.0,1010.0,61.0,293.85,1649172820.4123366,1649172821.5239182,4c1e73ef-a1fb-4180-bf00-38b73173cb8c
-0.00035221384216,0.1565966499665328,0.0719382228849603,0.2726612822668755,-0.0752860881782122,-0.2653258549148279,-0.3422320428112075,-0.365707949074303,-14.466206390860004,25.41826228949144,18.506343368834084,-1.0435288000120055,0.4971207825212277,0.5186399693918458,3556.6083984375,11.960888888888888,0.2,178.9579716175216,-3.870463723857948,96.23594776177193,1553.0,1236.0,1200.0,1528.0,1471.0,1010.0,61.0,293.85,1649172823.1906178,1649172824.3016732,b8621c3e-9f95-4953-8889-8d8c432afa53
-0.0084879697887054,0.1547887042868718,0.0733215752879926,0.2741952967354272,-0.0744779911897697,-0.264586240663041,-0.3415883044620529,-0.3659407905367799,-14.46726812658512,25.539297958912176,18.566783581879804,-1.0444468069798225,0.4897126014583088,0.5145666208116074,3556.6083984375,11.953666666666669,0.1933333333333333,178.9429376122485,-3.880573826785645,96.29160849113818,1553.0,1236.0,1200.0,1528.0,1471.0,1010.0,61.0,293.85,1649172824.4139004,1649172825.526825,b8621c3e-9f95-4953-8889-8d8c432afa53
-0.0054917105796337,0.1570130253352207,0.0751492440562168,0.2719326253893967,-0.072050413035078,-0.2643106658621148,-0.3387322975754863,-0.3559307955404478,-14.490809168453998,25.403268920566035,18.639341575127634,-1.039534552432489,0.4979708365727699,0.5050935190615669,3559.562255859375,11.95811111111111,0.2,178.94577289966395,-3.8813641365908578,96.36590121765032,1553.0,1236.0,1200.0,1528.0,1471.0,1010.0,61.0,293.85,1649172825.635638,1649172826.8483694,b8621c3e-9f95-4953-8889-8d8c432afa53
-0.0077795837648017,0.1562109548859656,0.0863124870643925,0.3878778209238318,-0.0541024419444038,-0.3760088581682996,-0.3637937169872898,-0.3878689844188291,-14.485369101399392,26.195722673546044,17.76407155667775,-1.5464069171881545,0.4891273716874533,0.5004767690483523,3552.1865234375,11.946,0.19,178.9237037995457,-3.931450909843816,96.51387195364929,1553.0,1133.0,1200.0,1528.0,1471.0,1010.0,61.0,293.85,1649172828.7389553,1649172829.6826696,f85aae76-2947-4912-b719-5bc894512c11
-0.007293081991816,0.1626669645414672,0.0896259584798742,0.3945573580977985,-0.0521432861247605,-0.3866724528339251,-0.3654636017385123,-0.3836088059773278,-14.530651787624633,26.321397059155057,18.026696688966737,-1.5844196683418854,0.5107239866961514,0.496796169662111,3564.9918348524307,11.942555555555556,0.1922222222222222,178.92486796734426,-3.933803103671108,96.54434522208628,1553.0,1133.0,1200.0,1528.0,1471.0,1010.0,61.0,293.85,1649172829.7916632,1649172831.0573738,f85aae76-2947-4912-b719-5bc894512c11
-0.007634948110911,0.1579860288272877,0.0872460444935074,0.4041164595071471,-0.0526955313828455,-0.3913270921775274,-0.3692241294983924,-0.3930101256936786,-14.56019067418357,26.3701067221724,17.940309797421584,-1.6162664965105606,0.4928153678423646,0.5055015543604806,3584.374213324653,11.942888888888888,0.2,178.92504403444286,-3.935210549526954,96.57845898135083,1553.0,1133.0,1200.0,1528.0,1471.0,1010.0,61.0,293.85,1649172831.16557,1649172832.285612,f85aae76-2947-4912-b719-5bc894512c11
0.0003052209987402,0.1616369833698426,0.0927022055082302,0.420351263048297,-0.0505501023620312,-0.4095232477602494,-0.3732821466466698,-0.3964430319195204,-14.533285595455204,26.85333161854278,17.986732598793903,-1.6902814469273784,0.5042620303752031,0.501389886502812,3596.0673014322915,11.940666666666663,0.19,178.93622581302407,-3.943945555133622,96.6277600456899,1553.0,1026.0,1200.0,1528.0,1471.0,1010.0,61.0,293.85,1649172833.287593,1649172834.4287298,c87a90eb-73ef-4eec-bf00-837d9c586638
0.0026736299168781,0.1641527671709473,0.0933075933682268,0.4300588350842749,-0.0486062867347174,-0.423449363648692,-0.3761666424983342,-0.4025297835976183,-14.57300930625097,26.7995345502222,17.620521717710904,-1.7438780479469551,0.5160668777735071,0.5018913549476729,3596.905517578125,11.93288888888889,0.19,178.94289663111346,-3.9538807767594455,96.62662547537776,1553.0,1026.0,1200.0,1528.0,1471.0,1010.0,61.0,293.85,1649172834.5374978,1649172835.655131,c87a90eb-73ef-4eec-bf00-837d9c586638
-0.0144985677040242,0.1591036679724141,0.0929262812056239,0.4255619813630021,-0.0490401936872334,-0.4138376645979669,-0.373392266994811,-0.397349196638772,-14.517609699349666,26.820885733286897,17.70356300490073,-1.7119717997604789,0.4965314362081761,0.4985487341935517,3594.391845703125,11.921,0.1833333333333333,178.95360636773205,-3.9537796520142336,96.63427452833828,1553.0,1026.0,1200.0,1528.0,1471.0,1010.0,61.0,293.85,1649172835.7636385,1649172836.8107288,c87a90eb-73ef-4eec-bf00-837d9c586638
0.0196584585536538,0.1558981254996077,0.0488321285960193,-0.1354961632100599,-0.1345237074839838,0.1310662654399761,-0.2447536213584629,-0.2677364501219322,-14.067298211983603,23.78106346737228,21.631592855109844,0.756615684448085,0.5127388584314927,0.4937269037832281,3588.3783094618057,11.966222222222225,0.2,178.96308211684058,-3.8111785830677536,96.60291637094883,1553.0,1435.0,1200.0,1528.0,1471.0,1010.0,61.0,293.85,1649172837.7938592,1649172838.9377327,162ca440-b535-45a8-97b2-a785567061f3
0.0238496055334183,0.1525835584199887,0.0460243340827567,-0.1342086866088726,-0.1356468253607423,0.132668762758924,-0.2461095808159889,-0.2670516218556794,-14.082466152278968,23.696730440870105,21.551364885513568,0.7565931909138475,0.5007876847064973,0.5005356370897119,3576.394938151041,11.966666666666669,0.2,178.95812795296257,-3.797262594384416,96.61990153359484,1553.0,1435.0,1200.0,1528.0,1471.0,1010.0,61.0,293.85,1649172839.0473137,1649172840.269925,162ca440-b535-45a8-97b2-a785567061f3
0.0064001896535506,0.1496114052906366,0.0480788178694243,-0.1339347554238356,-0.1335101620816075,0.134545191238893,-0.2441098830297353,-0.2661202559635887,-14.129270706128374,23.774688394444738,21.45496078242064,0.7607720192908284,0.4909238403176958,0.4914198679334878,3572.91650390625,11.9675,0.2,178.9705554821574,-3.793342457113748,96.62730773538486,1553.0,1435.0,1200.0,1528.0,1471.0,1010.0,61.0,293.85,1649172840.3785708,1649172841.401985,162ca440-b535-45a8-97b2-a785567061f3
0.0296569464314047,0.1593496581586002,0.117657334868022,-0.1396325241941814,-0.0711908169775043,0.1275325534061087,-0.1713674529426072,-0.1995960630297215,-13.515346602783604,23.73567426412856,21.61368204434415,0.7614067072057136,0.526808025554916,0.209923345732837,3569.7750379774307,11.96922222222222,0.1888888888888888,178.9656517857883,-3.799512050782941,96.62536492602096,1553.0,1435.0,1200.0,1435.0,1471.0,1010.0,61.0,293.85,1649172843.2207196,1649172844.3550818,1ca85e83-78a9-4d0a-bb79-2de830c151f0
0.0268146365613316,0.156894687072309,0.1136354774813289,-0.1392008086382815,-0.0726289556900068,0.1278886639224998,-0.1740448564463701,-0.1958453970000714,-13.61626517111498,23.572644691725515,21.35573047419437,0.7598601673730266,0.520290003834962,0.2205156802896787,3568.61900499132,11.968,0.2,178.96912759316595,-3.802154337922482,96.6234972487379,1553.0,1435.0,1200.0,1435.0,1471.0,1010.0,61.0,293.85,1649172844.463583,1649172845.699819,1ca85e83-78a9-4d0a-bb79-2de830c151f0
0.0451751473943864,0.1605275621572939,0.1207390604882412,-0.1401666900253854,-0.0675612287942678,0.1275873396368883,-0.1681076717222722,-0.1905700299713496,-13.581080486369764,23.673102356968705,21.74105844354188,0.7624606348261017,0.5308222672059234,0.196434957737049,3569.279595269097,11.96811111111111,0.2,178.98604976628965,-3.799349549198938,96.65781667258749,1553.0,1435.0,1200.0,1435.0,1471.0,1010.0,61.0,293.85,1649172845.8082027,1649172847.1327045,1ca85e83-78a9-4d0a-bb79-2de830c151f0
0.0698634681523647,0.175920849912777,0.2267800048642837,-0.1461038746729543,0.0274457740420282,0.1109662921899444,-0.0598747198002701,-0.0825562219230757,-12.737006970088943,23.684898599317712,21.565605428878133,0.7442590025547169,0.5915909711135767,-0.2294656464628937,3566.968994140625,11.968333333333334,0.1988888888888889,178.9467898389404,-3.801043151521885,96.6420632207218,1553.0,1435.0,1200.0,1330.0,1471.0,1010.0,61.0,293.85,1649172848.248603,1649172849.27554,49a2862e-053b-4161-9ec8-10e8da3ff20b
0.0668787141224461,0.1728703524910403,0.2232561544370165,-0.1444076927333296,0.0257495922109217,0.1132015705117079,-0.0619785112872699,-0.08408147074275,-12.768610362637991,23.5984969312356,21.65998719406373,0.7447067058484239,0.5791032339908111,-0.2195643998745612,3566.1447482638887,11.965777777777776,0.1944444444444444,178.93542136852182,-3.800189567603111,96.64965383761944,1553.0,1435.0,1200.0,1330.0,1471.0,1010.0,61.0,293.85,1649172849.3837097,1649172850.5068862,49a2862e-053b-4161-9ec8-10e8da3ff20b
0.0752938796659451,0.1809436516970738,0.2283841457282174,-0.1501931195244961,0.0274589227392554,0.1089939877858711,-0.05951970499466,-0.0893672471929543,-12.753153560650192,23.703892334953817,21.45701703669769,0.749231655600473,0.6121117190870142,-0.2317759782593706,3565.4853515625,11.96777777777778,0.1922222222222222,178.93886226604369,-3.8014360771266382,96.65436970378636,1553.0,1435.0,1200.0,1330.0,1471.0,1010.0,61.0,293.85,1649172850.615532,1649172851.7424247,49a2862e-053b-4161-9ec8-10e8da3ff20b
0.1045771215967271,0.1927555633725396,0.3322002186573695,-0.1383861372728689,0.1217936954587185,0.082799593766369,0.0415592559397323,0.0261917169465247,-12.0035850266431,23.927685183791368,21.70617090782472,0.6708056229127477,0.6540315517495657,-0.643374467940142,3570.105441623264,11.968222222222222,0.1911111111111111,178.92424414340005,-3.797989582644197,96.59757592192778,1553.0,1435.0,1200.0,1210.0,1471.0,1010.0,61.0,293.85,1649172852.7545931,1649172853.8657176,3bf158ed-2b0e-4656-a7b3-c6910d478684
0.1023582791311227,0.1921392182608416,0.3320358599735106,-0.1395229517361701,0.1213417090454362,0.0831694008346094,0.0403265656784308,0.0234661017375124,-12.09796571884663,24.01124750392566,21.518309623419423,0.67466930941993,0.6541838598986772,-0.6412295243576708,3571.427490234375,11.968777777777778,0.2,178.91665504432228,-3.801353687969775,96.60064419468496,1553.0,1435.0,1200.0,1210.0,1471.0,1010.0,61.0,293.85,1649172853.9737718,1649172855.123073,3bf158ed-2b0e-4656-a7b3-c6910d478684
0.1071400216171966,0.1914757569877459,0.3293003834751302,-0.1406077192381453,0.1197364724043687,0.0848003870227489,0.0397266563997227,0.0179918612360498,-12.045238065174685,23.860888090470663,21.5044472558264,0.6796726957036998,0.6514027386642139,-0.6344709933166094,3566.3095974392363,11.968444444444446,0.1955555555555555,178.90913880059563,-3.79813785466743,96.63840906951584,1553.0,1435.0,1200.0,1210.0,1471.0,1010.0,61.0,293.85,1649172855.2311094,1649172856.4421856,3bf158ed-2b0e-4656-a7b3-c6910d478684
0.1272449256124254,0.2059316521898983,0.4131057841395689,-0.1215667621997144,0.1933719084583066,0.0488458251504436,0.1136031535716819,0.0920310737614839,-11.47948423069841,24.36915243694882,21.49729476853044,0.5637522015582344,0.7046573465254268,-0.952092422355239,3557.1005859375,11.947,0.1833333333333333,178.89805871594206,-3.8015155255076087,96.61791167181666,1553.0,1435.0,1200.0,1071.0,1471.0,1010.0,61.0,293.85,1649172858.3834362,1649172859.5194728,fd50615f-a0ce-4432-aaf6-f465528ffcb1
0.1287696264949671,0.2069517718315557,0.4183039016232345,-0.1238562790767141,0.1988521752458915,0.0501535725695698,0.1204202045598497,0.0976466629773212,-11.453322139491664,24.25464275458624,21.57303766430399,0.5713804499752504,0.708236418638115,-0.9760728969991704,3556.4444986979165,11.951,0.19,178.89174003204988,-3.796726282238961,96.58857069696212,1553.0,1435.0,1200.0,1071.0,1471.0,1010.0,61.0,293.85,1649172859.6279032,1649172860.7386615,fd50615f-a0ce-4432-aaf6-f465528ffcb1
0.1285986934455483,0.2040985048658301,0.4154111886924975,-0.1193594246709093,0.1964722613317914,0.0487203646736106,0.1159627966332062,0.1008680933517879,-11.51902298542576,24.36605195533112,21.531260511836344,0.5585708142726052,0.6976350648538537,-0.962998293264648,3555.13330078125,11.949888888888887,0.1855555555555555,178.90345608320615,-3.798521578489551,96.56848690516262,1553.0,1435.0,1200.0,1071.0,1471.0,1010.0,61.0,293.85,1649172860.8475797,1649172861.9250653,fd50615f-a0ce-4432-aaf6-f465528ffcb1
-0.0170072294368598,0.1349286948714664,-0.0538098834277375,-0.1172660425169876,-0.2267974309978607,0.1400101179765368,-0.3525592497733816,-0.3685020470494058,-14.773217935623146,24.035523815451928,21.559114150169545,0.7318000953444486,0.4309822886580001,0.9097338697137242,3549.4082302517363,11.96977777777778,0.19,178.9297371333126,-3.7852753277998255,96.55967216658377,1553.0,1435.0,1200.0,1613.0,1471.0,1010.0,61.0,293.85,1649172863.8136694,1649172864.8391736,e2bd8eca-3b2c-4d80-b2e3-9220dd8e17bb
-0.021349038603808,0.1315702987866652,-0.0518014200006457,-0.1147442319939696,-0.2240887992684571,0.1413792259413722,-0.3503163009418972,-0.3725901966405476,-14.803152927606616,24.07545804045822,21.63207351925548,0.7295493755596968,0.4177690111967982,0.8997947013659965,3551.696044921875,11.969,0.1966666666666666,178.9772752499358,-3.790139703149345,96.58332131713,1553.0,1435.0,1200.0,1613.0,1471.0,1010.0,61.0,293.85,1649172864.9472296,1649172866.069335,e2bd8eca-3b2c-4d80-b2e3-9220dd8e17bb
-0.0251566820081117,0.1349423914302112,-0.0520430273025222,-0.1185124294319555,-0.2246470710510936,0.1406675527721469,-0.349861027254184,-0.3697347375372108,-14.769263042556384,23.96705517467215,21.50934750712497,0.7357171310746597,0.4317110528019126,0.9005062923294528,3558.0849609375,11.968,0.19,178.98610440780297,-3.7862611517700313,96.5861421852572,1553.0,1435.0,1200.0,1613.0,1471.0,1010.0,61.0,293.85,1649172866.1780713,1649172867.2963362,e2bd8eca-3b2c-4d80-b2e3-9220dd8e17bb
-0.0342216125527621,0.1224451037957487,-0.1409232879781862,-0.0986633755496313,-0.3052688603600513,0.1391833937251089,-0.4473405498904237,-0.4685888480285992,-15.46261646797686,24.25140556554553,21.4387680319886,0.6847065072856162,0.3822979995204075,1.2682204706079845,3562.192355685764,11.970333333333334,0.19,178.98667662587343,-3.8067382011973376,96.567430502571,1553.0,1435.0,1200.0,1694.0,1471.0,1010.0,61.0,293.85,1649172869.2307866,1649172870.369707,aa4f0b4f-693e-4516-acda-3ba3b2b95683
-0.0579287127342729,0.1146216296845546,-0.1426589160164237,-0.0946135768898353,-0.3053083064620034,0.1433778277173223,-0.4475114829897458,-0.470114097416657,-15.461881009912863,24.288102573252,21.46764313512669,0.6851584262241072,0.3520860661668461,1.269998468821421,3566.475558810764,11.969333333333331,0.1944444444444444,178.98923263444283,-3.8103337266129182,96.5532859397098,1553.0,1435.0,1200.0,1694.0,1471.0,1010.0,61.0,293.85,1649172870.4769485,1649172871.59858,aa4f0b4f-693e-4516-acda-3ba3b2b95683
-0.054865066385914,0.1158181610206968,-0.1451571684821809,-0.0955734317671332,-0.3073069085865735,0.1425889059618074,-0.4500886280301073,-0.4745978037016606,-15.509586082528395,24.228059523825355,21.377997468348305,0.684990078659264,0.3576647427264363,1.279796544180978,3572.91650390625,11.965777777777776,0.19,178.98833863857146,-3.811268608755564,96.55222877820827,1553.0,1435.0,1200.0,1694.0,1471.0,1010.0,61.0,293.85,1649172871.706149,1649172872.7357094,aa4f0b4f-693e-4516-acda-3ba3b2b95683
-0.0851333664503999,0.1096251252013785,-0.2186978332417239,-0.0694864171580797,-0.3759431145500826,0.1281779352296761,-0.5371856141910584,-0.563417271444096,-16.087148298169687,24.72463832803141,21.26035631408825,0.5930813536082834,0.3317020528188886,1.5962388540729942,3574.406494140625,11.953,0.19,178.97156976524917,-3.8287299873687015,96.5433168991612,1553.0,1435.0,1200.0,1774.0,1471.0,1010.0,61.0,293.85,1649172874.7601929,1649172875.8155992,bf2bef65-6e59-4567-a679-9363105bad89
-0.0766146545211512,0.1081793165003188,-0.2208394273788639,-0.0701361819203654,-0.3765830178958277,0.1308471205029836,-0.5365862526344903,-0.5637739296778537,-16.027216798050333,24.550499723746785,21.349142591022524,0.5993283775225702,0.3250095812128035,1.5992342572317153,3571.427490234375,11.952,0.19,178.9881261437973,-3.82279860840478,96.48596038560603,1553.0,1435.0,1200.0,1774.0,1471.0,1010.0,61.0,293.85,1649172875.945691,1649172877.033085,bf2bef65-6e59-4567-a679-9363105bad89
-0.0844101881516743,0.1081393225502072,-0.2205123535025012,-0.0707355433475518,-0.3764296163818697,0.1301107935373966,-0.5365807739724723,-0.5663625801004262,-16.039788251136567,24.566729671665406,21.16170311188708,0.5991134343451695,0.32670463282216,1.5982817667008808,3572.91650390625,11.95411111111111,0.18,178.98638368664902,-3.812571989090306,96.45878951363277,1553.0,1435.0,1200.0,1774.0,1471.0,1010.0,61.0,293.85,1649172877.141692,1649172878.353372,bf2bef65-6e59-4567-a679-9363105bad89
-0.0929699898263001,0.103668765894459,-0.2760524532327386,-0.0403883512569846,-0.4275780551429528,0.1111766713202854,-0.6052827328266929,-0.6283061081005479,-16.47740344432228,25.00978637935493,21.338508243202927,0.4880895530425146,0.3042178195196737,1.8409586535755245,3579.882269965278,11.934111111111111,0.1711111111111111,178.96543929101415,-3.8238490108649503,96.41360022317404,1553.0,1435.0,1200.0,1856.0,1471.0,1010.0,61.0,293.85,1649172879.2659194,1649172880.3117678,849dd8aa-00bb-4b1d-aa25-c932b1dd1de4
-0.0924067873318569,0.1055358807354268,-0.2798305124623399,-0.0389902065145854,-0.4322321467472649,0.109521579214032,-0.6106572641508746,-0.6257645735789484,-16.466057183329678,25.094001064208868,21.509901914628347,0.4816196478523177,0.3092110494110202,1.86055307989335,3597.5767415364585,11.931222222222225,0.1744444444444444,178.97392542160293,-3.8290634808413007,96.35827872653658,1553.0,1435.0,1200.0,1856.0,1471.0,1010.0,61.0,293.85,1649172880.4200733,1649172881.4234111,849dd8aa-00bb-4b1d-aa25-c932b1dd1de4
-0.0941325538126928,0.1035224866527815,-0.2792689534538278,-0.0405242211228228,-0.4310542424168464,0.1133292224334596,-0.6091095524851048,-0.6403788065840827,-16.528967909500867,25.083065249469715,21.57848022065109,0.4935710228652996,0.3017213407409107,1.855779798890096,3607.1654459635415,11.935666666666666,0.18,178.99292093659466,-3.8324603615885215,96.29407494833843,1553.0,1435.0,1200.0,1856.0,1471.0,1010.0,61.0,293.85,1649172881.5316093,1649172882.6550877,849dd8aa-00bb-4b1d-aa25-c932b1dd1de4
0.0008854072059908,0.1437196938097361,-0.048632584158863,-0.1235801564906751,-0.190520174400034,0.1372242380282148,-0.3040460314599936,-0.3302776845974415,-13.956854188228078,19.7863188817157,21.814370759481108,0.7123238734237476,0.4569470767641048,0.7878764412698375,7200.863118489583,11.639333333333331,8.043333333333333,179.88072258529124,-4.085795825021965,82.25507114295256,1553.0,1435.0,1350.0,1528.0,1471.0,1010.0,61.0,293.85,1649172887.8205106,1649172889.0067654,c82ec9b4-5c5c-4010-9107-65ce274be59f
0.002134533369001,0.1423916755232942,-0.0370748797527297,-0.1089193592755825,-0.1810136661414721,0.1391307989290054,-0.3006273699325446,-0.3225331015675879,-14.322259468460386,20.45061099170515,23.869969159668905,0.688659911468811,0.4352726376015693,0.7566452871058859,7208.9375,11.640555555555556,7.981111111111111,-179.89167061962087,-4.097547497512055,76.60161656063602,1553.0,1435.0,1350.0,1528.0,1471.0,1010.0,61.0,293.85,1649172889.1148407,1649172890.234956,c82ec9b4-5c5c-4010-9107-65ce274be59f
-0.0063989706376571,0.1459155260200702,-0.0595591511273008,-0.1314825234245224,-0.19813327025864,0.1315045553056091,-0.309594782118906,-0.3302645359667263,-13.780622630293433,19.169697544579485,20.216684542005044,0.7124990889788301,0.4783655185356793,0.8193594327340531,7215.00537109375,11.633666666666665,8.033333333333335,-179.811787762728,-4.0590320133504845,71.85383367861454,1553.0,1435.0,1350.0,1528.0,1471.0,1010.0,61.0,293.85,1649172890.3438222,1649172891.5725937,c82ec9b4-5c5c-4010-9107-65ce274be59f
0.1135565852428819,0.3580302827454505,-0.0323150515838115,-0.2190134020226489,-0.2267579849556255,0.0285239671397778,-0.3427295019559017,-0.3694476576473582,-14.142218301955936,19.89764001860076,23.6328539303828,0.6850809060921682,1.258723083847639,0.8975524038834942,7217.70654296875,11.626666666666669,8.056666666666665,179.97183275535974,-3.992881109488348,63.907964981896335,1647.0,1435.0,1350.0,1528.0,1543.0,1010.0,61.0,293.85,1649172893.210529,1649172894.5419958,1b0cc8e6-589a-4e55-9ad4-4a9673a7506b
0.1236021889815149,0.3537438080821937,-0.0349447909075464,-0.2231026470116013,-0.2286776948264218,0.0315087212065753,-0.3418748365431466,-0.3722614796020472,-13.999989290047846,19.7686305910456,22.91918524970963,0.6999840508393227,1.2482993374528908,0.9011262073785868,7217.03125,11.614666666666666,8.056666666666665,179.88113239664142,-3.972752779163667,61.5898283750804,1647.0,1435.0,1350.0,1528.0,1543.0,1010.0,61.0,293.85,1649172894.6505718,1649172895.6747887,1b0cc8e6-589a-4e55-9ad4-4a9673a7506b
0.1123732026034191,0.361725066118859,-0.0340506795346114,-0.2313468804847276,-0.2294008732107318,0.0250527112944887,-0.3394160299490676,-0.3696711853604673,-13.75844350198574,19.51185874100543,22.049146409066804,0.7023987533484681,1.2853028070502444,0.8973322500466051,7215.00537109375,11.624333333333333,8.063333333333333,179.74015577435253,-3.946157967242277,59.48700589275005,1647.0,1435.0,1350.0,1528.0,1543.0,1010.0,61.0,293.85,1649172895.7843742,1649172896.9030485,1b0cc8e6-589a-4e55-9ad4-4a9673a7506b
0.2299280216713611,0.5646307983051798,-0.0148842628072513,-0.3387120267578853,-0.262394791081285,-0.0698074645158463,-0.3682007225138104,-0.3911150698274966,-13.794674273440998,19.54809571442302,22.7344547046809,0.7327103210747811,2.054939841480269,0.9816650765975536,7215.00537109375,11.603,8.11,179.33820065951716,-3.8690921364952455,55.7180467959444,1745.0,1435.0,1350.0,1528.0,1614.0,1010.0,61.0,293.85,1649172898.723822,1649172899.763554,7470a861-95ec-48e3-a08e-9f9934d7c54e
0.2294760352600554,0.5628776389734815,-0.0197191480845569,-0.337972412511899,-0.2654765171434316,-0.0727522247389497,-0.3718987939858501,-0.3924436363317745,-13.76919865815991,19.391138787382488,22.137715418332235,0.7230611317723846,2.053072772995139,0.99675318370377,7208.9375,11.604666666666668,8.105555555555556,179.2016226790537,-3.848880420944447,54.430694259000205,1745.0,1435.0,1350.0,1528.0,1614.0,1010.0,61.0,293.85,1649172899.8723545,1649172900.998604,7470a861-95ec-48e3-a08e-9f9934d7c54e
0.2212307073761446,0.5601520240728993,-0.0205957278835785,-0.3383422195928942,-0.2648875650641408,-0.0675064425721169,-0.3703099929223613,-0.3921286154539276,-13.774393106232296,19.289545727123592,22.459183169471164,0.7350148074739561,2.040025902146913,0.9950421930606448,7208.9375,11.60725,8.08,179.06672796076575,-3.8196734766943816,53.41978803175172,1745.0,1435.0,1350.0,1528.0,1614.0,1010.0,61.0,293.85,1649172901.107156,1649172902.2433803,7470a861-95ec-48e3-a08e-9f9934d7c54e
0.2885262790338381,0.6740328712386944,-0.0001664884981558,-0.4032003672070833,-0.2784849623600559,-0.1313378877604878,-0.3829513709913479,-0.4080916832483279,-13.850945477503052,19.758018665278943,20.783021361177184,0.7416981969438722,2.4918343927044373,1.014314695120904,7202.87890625,11.58288888888889,8.09,178.75919034537696,-3.819778123255884,52.18068537406057,1849.0,1435.0,1350.0,1528.0,1686.0,1010.0,61.0,293.85,1649172903.2352352,1649172904.2801876,297609d7-93fe-4b6d-958c-2522a8d3729f
0.2914529594747101,0.6706284549676452,0.0033869467174941,-0.4060032315839599,-0.273940991473735,-0.1231281699946054,-0.3768980388395811,-0.4042363753243784,-13.924710101713051,19.71854392307966,21.14662513376188,0.766405188097362,2.476934930610007,0.9947042003294144,7202.87890625,11.583111111111114,8.09,178.6654604183068,-3.802577240468592,51.52812189111343,1849.0,1435.0,1350.0,1528.0,1686.0,1010.0,61.0,293.85,1649172904.412062,1649172905.5952804,297609d7-93fe-4b6d-958c-2522a8d3729f
0.2958632510890285,0.6711352275860735,-0.0013657592114491,-0.4107285453422238,-0.2792963466362629,-0.1234842805574411,-0.3806235034629,-0.4109476906317456,-13.828452792010031,19.660430062495383,20.51594736532357,0.7755901332109513,2.484023537097148,1.0130026550525422,7196.83154296875,11.584,8.130000000000003,178.5767028689524,-3.777635049735129,50.97306315311776,1849.0,1435.0,1350.0,1528.0,1686.0,1010.0,61.0,293.85,1649172905.7029364,1649172906.7321815,297609d7-93fe-4b6d-958c-2522a8d3729f
0.3398018081158557,0.7413574766730799,0.0131936828334201,-0.4563791851288816,-0.2860076612157166,-0.1492612056790981,-0.3827053807606576,-0.4056334245481216,-13.851250257226855,19.899310194231905,20.702095349968207,0.8229693252283444,2.7524588090087523,1.0135069276241866,7202.87890625,11.514666666666669,8.085555555555556,178.3089807029653,-3.760314448909883,49.93871030940469,1962.0,1435.0,1350.0,1528.0,1760.0,1010.0,61.0,293.85,1649172908.8695576,1649172909.8958576,930c6632-323a-43e3-8b7b-172869020ec7
0.332127352918631,0.7353583845863696,0.0118119739431962,-0.45960828668145,-0.2879125789115366,-0.1445391799486149,-0.3827804379786338,-0.411221073619278,-13.805492490339676,20.011147743039093,20.108209824751714,0.8414653587607498,2.7352101716994706,1.0164860534927715,7202.87890625,11.524555555555557,8.09,178.24873388102637,-3.7641216153259967,49.6108585730594,1962.0,1435.0,1350.0,1528.0,1760.0,1010.0,61.0,293.85,1649172910.004288,1649172911.0377944,930c6632-323a-43e3-8b7b-172869020ec7
0.3372947902131236,0.7339120281391713,0.0125483009570491,-0.4589377030360356,-0.285953422887945,-0.1445523285279634,-0.3804136721562808,-0.4042917095198603,-13.76540622285107,19.887016256123218,20.005949172732343,0.839140798749052,2.730370079294767,1.0092097671370868,7198.175401475694,11.521888888888888,8.054444444444446,178.19683355025316,-3.745612466721432,49.341161344037324,1962.0,1435.0,1350.0,1528.0,1760.0,1010.0,61.0,293.85,1649172911.1463497,1649172912.1532466,930c6632-323a-43e3-8b7b-172869020ec7
-0.1378201955115004,-0.1211739448657199,-0.0580601996937969,-0.0092653864545162,-0.14222500903698,0.2831221652378964,-0.2566975697954414,-0.2885831629827183,-14.36451342166785,20.767349242694216,20.759247315288302,0.7879704209718511,-0.5389838958490584,0.6343077245412732,7203.557074652777,11.625666666666667,8.108888888888888,178.6029399022841,-3.736554924403957,48.74938578579339,1459.0,1435.0,1350.0,1528.0,1394.0,1010.0,61.0,293.85,1649172914.2873757,1649172915.4390514,36ae4211-0e35-4e4b-8ccf-95bb9608be9e
-0.1398450948701796,-0.1247109443819306,-0.053629088899147,-0.001415614634004,-0.1376098163277172,0.2853705921573469,-0.2528055552358987,-0.2756711411020731,-14.345248422833256,20.915429161561377,21.64340961532025,0.776668691953262,-0.560905510389043,0.6172807549264714,7208.9375,11.632777777777775,8.11,178.60303704275233,-3.712359690747225,48.60347473128414,1459.0,1435.0,1350.0,1528.0,1394.0,1010.0,61.0,293.85,1649172915.548111,1649172916.6539316,36ae4211-0e35-4e4b-8ccf-95bb9608be9e
-0.154808312380357,-0.1204573408715659,-0.0622743570191876,-0.0145418487980371,-0.1442893545116533,0.2848512186911252,-0.2575599052508173,-0.278077353209578,-14.372028353926206,20.4518697500198,20.398657011021943,0.8013957896763392,-0.5326699635441536,0.6437476670461116,7215.00537109375,11.633333333333333,8.113333333333332,178.6062229465452,-3.7015003540130738,48.48615371027569,1459.0,1435.0,1350.0,1528.0,1394.0,1010.0,61.0,293.85,1649172916.7620993,1649172917.9964402,36ae4211-0e35-4e4b-8ccf-95bb9608be9e
-0.275657992318735,-0.3560096874044188,-0.0685660084539545,0.1150949826907458,-0.0994917435171464,0.408942030674914,-0.218553197587193,-0.2446402141715825,-14.587075840719676,21.675218145256384,22.31038023563947,0.7958084148320045,-1.4478951577925747,0.510449328328368,7215.00537109375,11.607888888888889,8.100000000000001,178.6581475624354,-3.704491360255239,48.30999174793245,1364.0,1435.0,1350.0,1528.0,1312.0,1010.0,61.0,293.85,1649172919.706989,1649172920.956803,4f3cadc3-641a-418f-bc54-e4ac9b064b42
-0.2697087543222548,-0.3516963664128711,-0.0670818492927192,0.1048784458929876,-0.1007616885052907,0.4089557272362037,-0.2169769974520966,-0.2448631941841896,-14.512969772646542,21.69549981637934,21.58731530487272,0.8190155900260593,-1.4244812737960793,0.5073678074415415,7215.00537109375,11.606333333333332,8.091111111111111,178.68609973215877,-3.6882786730316135,48.29329421214149,1364.0,1435.0,1350.0,1528.0,1312.0,1010.0,61.0,293.85,1649172921.066241,1649172922.2958746,4f3cadc3-641a-418f-bc54-e4ac9b064b42
-0.2694896093865417,-0.3500390825385931,-0.067752980692418,0.1058509015423625,-0.1005562401060359,0.4072710506639325,-0.2177166116939057,-0.2483010307811045,-14.556248114638867,21.604294437318043,21.701795467573664,0.8123947093790477,-1.4191375960159238,0.5094335474294267,7215.00537109375,11.604555555555557,8.066666666666666,178.6995992215983,-3.689281667338482,48.243173904556976,1364.0,1435.0,1350.0,1528.0,1312.0,1010.0,61.0,293.85,1649172922.40532,1649172923.6172514,4f3cadc3-641a-418f-bc54-e4ac9b064b42
-0.4054964588265375,-0.5941392090322318,-0.0799977046078516,0.2168615054268061,-0.0637261922659551,0.5413877405739365,-0.1820370730643188,-0.2065950055766336,-14.804310797353702,22.990172785943884,21.3737360265926,0.871760381050856,-2.3444187007842263,0.3953927822656251,7221.0830078125,11.571000000000002,8.09,178.77958680805847,-3.6858550942411217,48.255343404383176,1262.0,1435.0,1350.0,1528.0,1222.0,1010.0,61.0,293.85,1649172924.731437,1649172925.8699462,8173f18e-dc54-4833-8b30-54425fd77db0
-0.4154127692891308,-0.6055895357075435,-0.0847093210143501,0.2283392209931096,-0.0645753789563053,0.5408261817255919,-0.1849544403182419,-0.2085399170584125,-14.755164643418684,22.940246445849468,21.17256560814552,0.8440346654891271,-2.3876419541386897,0.4056118400143144,7225.142578125,11.568666666666664,8.076666666666666,178.81644250881988,-3.675176662656237,48.30619530111878,1262.0,1435.0,1350.0,1528.0,1222.0,1010.0,61.0,293.85,1649172925.9781857,1649172927.098642,8173f18e-dc54-4833-8b30-54425fd77db0
-0.4231239333838208,-0.6097669874452762,-0.0829835545529059,0.2272434963631051,-0.0629591849655813,0.5455104043232634,-0.1832834600085333,-0.2059786601852922,-14.85255303569923,23.077988005634325,21.12512104168962,0.8579748767402903,-2.4019534993767944,0.397972362176499,7227.17236328125,11.567666666666668,8.08,178.8245248993377,-3.6769789788234735,48.3463408763304,1262.0,1435.0,1350.0,1528.0,1222.0,1010.0,61.0,293.85,1649172927.207409,1649172928.4382064,8173f18e-dc54-4833-8b30-54425fd77db0
-0.4617909705641475,-0.6826496887354593,-0.1154016669132414,0.2172340517981386,-0.0877762545294938,0.605449278294156,-0.1977782553818497,-0.2286513977901227,-14.885749873275143,23.71668051294588,17.997551018029665,1.0173488853763084,-2.6481653350436494,0.4829979773899978,7224.465983072917,11.481444444444444,8.045555555555556,178.89175521024805,-3.679674484520297,48.36746475415847,1153.0,1435.0,1350.0,1528.0,1121.0,1010.0,61.0,293.85,1649172929.4528134,1649172930.6840153,1c9ae4bc-69f8-487a-a38b-dea5771b05ee
-0.4529024497295617,-0.6827154322016977,-0.0903008043268297,0.2343668021773606,-0.0650684550537582,0.604187003575577,-0.1793963763055729,-0.2056411766457629,-15.065532244332314,24.278388090813745,20.21198745973007,0.9811010771176372,-2.667274573146589,0.3945912883398529,7221.0830078125,11.485555555555557,8.05777777777778,178.89723302196236,-3.668182880969228,48.42113638065642,1153.0,1435.0,1350.0,1528.0,1121.0,1010.0,61.0,293.85,1649172930.7925117,1649172931.8274229,1c9ae4bc-69f8-487a-a38b-dea5771b05ee
-0.4538097100363221,-0.6779030075916793,-0.0864350874519867,0.2424401012793879,-0.0611895895162217,0.6002818411667913,-0.1755438079939976,-0.200907645423011,-14.881943700421274,24.180008178862195,21.41318880123876,0.9539384777609254,-2.661921265237745,0.3810695439509736,7221.0830078125,11.484625,8.05375,178.91688727075405,-3.6726184366469496,48.45099829973081,1153.0,1435.0,1350.0,1528.0,1121.0,1010.0,61.0,293.85,1649172931.9399948,1649172933.0433629,1c9ae4bc-69f8-487a-a38b-dea5771b05ee
-0.0189247476775879,0.1307375480403455,-0.0505090127515018,-0.1188685400452019,-0.1904330642832585,0.1397361868094309,-0.3051691494436678,-0.3213858776533567,-14.007331868969873,19.93150046595871,20.967439354639826,0.7080488830916107,0.4154231431248307,0.7890957169378661,7221.0830078125,11.632444444444443,8.091111111111111,178.67179579821698,-3.708740496828895,48.54632615904369,1553.0,1435.0,1350.0,1528.0,1471.0,1010.0,61.0,293.85,1649172935.2794068,1649172936.335873,11655d92-ffa3-4eca-8885-a45fc4024dfe
-0.0079675005652688,0.1315867346558673,-0.0405653108530925,-0.1117600256948497,-0.1818042315639134,0.1417906705461223,-0.2991426627516276,-0.3214954502924798,-14.195501947506989,20.25624121832937,22.36606187051125,0.6994066197308427,0.407304649521732,0.7570809836444367,7227.17236328125,11.630333333333333,8.086666666666666,178.7151462499691,-3.716499164839206,48.6324848214189,1553.0,1435.0,1350.0,1528.0,1471.0,1010.0,61.0,293.85,1649172936.4463854,1649172937.6458156,11655d92-ffa3-4eca-8885-a45fc4024dfe
0.0034494030661953,0.1296505891790426,-0.0451218821342189,-0.1092480766889048,-0.1851949519233399,0.1447189946887669,-0.3025339311697259,-0.327753134934071,-14.178985367744133,20.21047954051056,22.811080776301715,0.6998696196415625,0.3953829220931228,0.7731845622342859,7227.17236328125,11.631777777777778,8.095555555555556,178.71882999866148,-3.721698077162448,48.72985637768156,1553.0,1435.0,1350.0,1528.0,1471.0,1010.0,61.0,293.85,1649172937.7542026,1649172938.993611,11655d92-ffa3-4eca-8885-a45fc4024dfe
0.0097010603238332,0.1331207491792244,-0.0596446177021695,-0.4043733407296133,-0.2302763573491105,0.4236384368403228,-0.2374944445132113,-0.2662161317140381,-14.04075852310432,19.513735982708614,24.512853633340853,1.9873680574738264,0.4277407829534542,0.7623958087644632,7227.17236328125,11.622555555555556,8.056666666666667,178.72394808707952,-3.659901893214888,48.836816381174046,1553.0,1537.0,1350.0,1528.0,1471.0,1010.0,61.0,293.85,1649172939.7225678,1649172940.7237427,c90a01e3-01ac-4c93-8ad5-edd5396aa766
0.0066604242614712,0.130189685710804,-0.0633563852032395,-0.4009218072677407,-0.2331800280831495,0.4278843696545071,-0.2415212331932929,-0.2586282372081972,-14.132314128632638,19.60527958530596,25.12922203670209,1.989597619862839,0.4112739519427198,0.77758688948327,7227.17236328125,11.624333333333333,8.073333333333332,178.7349947796972,-3.649564307042335,48.896822249217294,1553.0,1537.0,1350.0,1528.0,1471.0,1010.0,61.0,293.85,1649172940.854809,1649172941.9538286,c90a01e3-01ac-4c93-8ad5-edd5396aa766
0.0054140373808547,0.1274640706131379,-0.0692048159505567,-0.4087014541304227,-0.2371657270621431,0.4281583007984459,-0.243205910083466,-0.2672707670230778,-14.0460370455787,19.29789693768548,23.745190150075683,2.0052560745025696,0.4132890985864382,0.7912226552532955,7227.17236328125,11.622444444444444,8.067777777777778,178.7363441215132,-3.658019274893034,48.95264310857408,1553.0,1537.0,1350.0,1528.0,1471.0,1010.0,61.0,293.85,1649172942.0837362,1649172943.488744,c90a01e3-01ac-4c93-8ad5-edd5396aa766
0.0146044283651305,0.129833575191864,-0.0804770842162402,-0.7076837204612939,-0.2829259351469269,0.7253462012189723,-0.1769419528283115,-0.1921588310182778,-14.107408614105369,19.143968478510192,27.396344485795467,3.3464771378704143,0.4263443696814876,0.7774043929450288,7228.527506510417,11.611555555555556,8.05,178.74620539685486,-3.580421970051211,49.04634229979299,1553.0,1645.0,1350.0,1528.0,1471.0,1010.0,61.0,293.85,1649172944.2937396,1649172945.3390236,51e6fa36-2faa-4cbd-adb9-c8ac3fdada17
0.0286949001311686,0.1284803552375467,-0.076047616932455,-0.7035166777708075,-0.2797472373731746,0.7199481140687505,-0.1740448564919511,-0.2014335936198428,-13.980240475516249,19.27679883892934,27.01212175279733,3.3260509601838164,0.4235442688432427,0.7622774929538038,7233.2705078125,11.613625,8.06375,178.7723792509368,-3.5725722269229827,49.07980088264781,1553.0,1645.0,1350.0,1528.0,1471.0,1010.0,61.0,293.85,1649172945.447562,1649172946.7657187,51e6fa36-2faa-4cbd-adb9-c8ac3fdada17
0.0100160811878569,0.1271079600894442,-0.0826137474207984,-0.702479026164151,-0.2846517017345217,0.709841698395585,-0.1805030583463875,-0.204869238563731,-13.903740922239342,19.08950126657508,25.47271673918009,3.2992243571051745,0.4309520241663354,0.784905224326752,7227.17236328125,11.609222222222222,8.076666666666666,178.8143706847716,-3.5721576783148428,49.13550738376787,1553.0,1645.0,1350.0,1528.0,1471.0,1010.0,61.0,293.85,1649172946.874095,1649172948.002054,51e6fa36-2faa-4cbd-adb9-c8ac3fdada17
0.0176368464981317,0.1197627698123321,-0.1030155943419443,-0.9713031587496112,-0.3358527327255254,0.9767026833783086,-0.1296285571517174,-0.1528491570417756,-13.763473760895856,19.02658719526672,27.31186445437339,4.504228839998612,0.4179135678392153,0.8094904180204141,7215.00537109375,11.592222222222222,8.100000000000001,178.82684261019605,-3.508982697360456,49.22711653710077,1553.0,1761.0,1350.0,1528.0,1471.0,1010.0,61.0,293.85,1649172950.2305896,1649172951.3724368,8320e860-e93e-4c1e-b117-8681b9b6cce5
0.0355848170136695,0.1289931543773565,-0.0911949157906992,-0.9671744656182452,-0.3241240938019455,0.968866060980369,-0.1207005918356488,-0.134638211134429,-13.885286522524671,18.94339159634872,28.10504998222164,4.477407781053962,0.4466049259955212,0.7669119363831679,7216.35595703125,11.595777777777778,8.06,178.8604668725701,-3.4927874413487743,49.21258568909652,1553.0,1761.0,1350.0,1528.0,1471.0,1010.0,61.0,293.85,1649172951.4806716,1649172952.594368,8320e860-e93e-4c1e-b117-8681b9b6cce5
