raw_voltage_G-,raw_voltage_G0,raw_voltage_G1,raw_voltage_G2,raw_voltage_G3,raw_voltage_G4,raw_voltage_G5,raw_voltage_G6,load_x,load_y,load_z,load_l,load_m,load_n,rpm,voltage,current,roll,pitch,yaw,aileron1_pwm,elevator_pwm,throttle_pwm,rudder_pwm,aileron2_pwm,pbaro,pdiff,Tt,sample_start_time,sample_end_time,uid
-0.019587113257263,0.1236679325197293,0.0137579811081446,-0.114836272876949,-0.1752545366053598,0.0963580908844103,-0.3112383693429887,-0.3295413575891131,-15.172071585954702,26.048833960901867,14.504580237963417,0.6436127954306926,0.4581131576071696,0.6761997429982142,3498.541259765625,11.976000000000004,0.22,179.0599250923525,1.1767206783005466,90.99680031194984,1553.0,1435.0,1200.0,1528.0,1471.0,1010.0,61.0,293.85,1649167559.7816975,1649167560.8227336,0bfb60df-2ce1-4dcb-8477-c77651f08e64
-0.0173123887484698,0.1250616942919305,0.0141261446058918,-0.1154805590422479,-0.175215090514798,0.0946750577850105,-0.3106203805292353,-0.3364444243585329,-15.104769068443224,26.004931022080523,14.379162105418075,0.6410253272680266,0.4640777591781815,0.6748154740175355,3576.0639377170137,11.973555555555556,0.2255555555555556,179.05377640427963,1.1522404265415749,90.4613901309215,1553.0,1435.0,1200.0,1528.0,1471.0,1010.0,61.0,293.85,1649167560.9326668,1649167562.0551443,0bfb60df-2ce1-4dcb-8477-c77651f08e64
-0.0201130611136997,0.1228264159795565,0.0127586801819022,-0.1159276147336777,-0.1753860235768838,0.0957006560864216,-0.3106466779218611,-0.3444256841352093,-15.113913445291995,25.91897611728168,14.150940332976312,0.6436595527376068,0.457748446364286,0.6763823446323705,3575.8974609375,11.974777777777778,0.2288888888888889,179.0397183571479,1.1401416120585108,90.02693242255572,1553.0,1435.0,1200.0,1528.0,1471.0,1010.0,61.0,293.85,1649167562.1639967,1649167563.2880845,0bfb60df-2ce1-4dcb-8477-c77651f08e64
0.1066403711452505,0.3334027764338714,0.0301281080983691,-0.2263898213513237,-0.2093228118120701,-0.0052155878865732,-0.3383246879275018,-0.3735632012284974,-14.923923644093929,25.523911618280792,14.639795672218844,0.6644824663573281,1.2565551048153871,0.7638323356383583,3555.13330078125,11.972666666666663,0.2188888888888889,178.89822719394158,1.1318282520534166,89.42446723880575,1647.0,1435.0,1200.0,1528.0,1543.0,1010.0,61.0,293.85,1649167564.2894433,1649167565.337776,b803267b-a3c7-419c-adfc-947c65e2ff2a
0.0899902869216075,0.3253382432884409,0.0217266389900888,-0.2228254285622501,-0.2151964446004729,0.0017022700539212,-0.3451631068419323,-0.3686937992250508,-15.022293629580242,25.547195875969468,14.907919436148669,0.671716660605441,1.2236570002443792,0.7923762742148703,3557.4287109375,11.959,0.2144444444444444,178.9016164855897,1.1321551999280617,89.16476295599436,1647.0,1435.0,1200.0,1528.0,1543.0,1010.0,61.0,293.85,1649167565.469733,1649167566.557357,b803267b-a3c7-419c-adfc-947c65e2ff2a
0.0927022054554073,0.3301594315846908,0.0244933438529323,-0.2265234997846927,-0.2142787750813445,0.0013187664069906,-0.343341464245164,-0.3679541854491312,-15.011688406610787,25.58868481021693,15.057868525143345,0.6796388590896054,1.240966741140838,0.7855142388374645,3558.0849609375,11.95622222222222,0.22,178.8896257090468,1.1418008025603277,88.97749055260121,1647.0,1435.0,1200.0,1528.0,1543.0,1010.0,61.0,293.85,1649167566.6650765,1649167567.6737387,b803267b-a3c7-419c-adfc-947c65e2ff2a
0.2200528034259038,0.5436065828588386,0.0401074207414686,-0.335808355765582,-0.2520127982938332,-0.1051034977659742,-0.3774732943416607,-0.4113585877634917,-14.930144326892806,25.44322419707916,15.284119934293903,0.6869039957155619,2.053383610917009,0.8895268311549939,3552.841362847222,11.957444444444445,0.2177777777777777,178.77683955419232,1.1564478823601392,88.65514053363239,1745.0,1435.0,1200.0,1528.0,1614.0,1010.0,61.0,293.85,1649167568.278492,1649167569.425629,fcdddef6-5f7b-4583-892f-e3e010ba1ca4
0.2108174883128726,0.5448469430891852,0.0387536528958671,-0.3381274574510426,-0.2531079752420181,-0.1048301144370719,-0.3773105791784757,-0.3935492230073417,-14.85888131814976,25.31712235081747,15.188780720724395,0.691866971164146,2.058573893688733,0.8927290371539671,3556.4451497395835,11.945555555555556,0.2255555555555556,178.787054481551,1.168500225469319,88.48592032021558,1745.0,1435.0,1200.0,1528.0,1614.0,1010.0,61.0,293.85,1649167569.535034,1649167570.6517382,fcdddef6-5f7b-4583-892f-e3e010ba1ca4
0.2304347943546993,0.5508109719994868,0.0395869515186852,-0.3396981790558356,-0.2536974752044947,-0.1069525332809401,-0.3798427994134409,-0.4105094014851591,-15.03183216929695,25.43158527617756,15.504990609440291,0.6914044036444738,2.079612328898488,0.8969873573818962,3566.14501953125,11.944333333333333,0.21,178.79472857853847,1.16810970703193,88.32153132727174,1745.0,1435.0,1200.0,1528.0,1614.0,1010.0,61.0,293.85,1649167570.7612638,1649167571.886071,fcdddef6-5f7b-4583-892f-e3e010ba1ca4
0.2650049064067989,0.6302920938533931,0.0442848711210819,-0.3925395116706895,-0.2734068255723754,-0.1516033173107339,-0.3969224113136171,-0.4313555674079233,-14.988129765823524,25.68696476921076,13.261643284068962,0.711856492926039,2.4040963290245734,0.9476617639450609,3583.3720703125,11.941333333333334,0.2088888888888888,178.6811652999384,1.1771097382079565,88.01765545218797,1849.0,1435.0,1200.0,1528.0,1686.0,1010.0,61.0,293.85,1649167573.8181255,1649167574.964325,1d01b035-49ca-40bd-94eb-f9c785be1cd6
0.2696184549399497,0.6403722121319336,0.0522573639681063,-0.3960080288546428,-0.2680843421754421,-0.1583716092318013,-0.3909326311164184,-0.4224106170942224,-14.9171732558736,25.6570949561992,13.303202695010455,0.7047126710662055,2.4419643041520867,0.9223265727405976,3580.048638237847,11.91888888888889,0.2055555555555555,178.68366059571517,1.174980414876238,87.92908687140057,1849.0,1435.0,1200.0,1528.0,1686.0,1010.0,61.0,293.85,1649167575.077211,1649167576.0716937,1d01b035-49ca-40bd-94eb-f9c785be1cd6
0.2614848910469485,0.6356063580693982,0.0483664455958461,-0.3934160916057902,-0.2715577898984952,-0.1564655959798515,-0.3952377342457908,-0.4181383857285208,-14.952621307309622,25.7784318132666,13.216844367624724,0.7037279671973872,2.4245420094367938,0.9377405018400768,3577.555853949653,11.92011111111111,0.2088888888888888,178.6845621806856,1.1775597717832698,87.83149561071961,1849.0,1435.0,1200.0,1528.0,1686.0,1010.0,61.0,293.85,1649167576.190328,1649167577.299363,1d01b035-49ca-40bd-94eb-f9c785be1cd6
0.3064479508921117,0.701369008075075,0.0670233498188204,-0.4291953450814412,-0.2723708177166031,-0.1852475466725083,-0.3919056348099257,-0.4145608433343042,-14.81529546005435,25.94207051600336,13.68333993694894,0.721917569265473,2.671676148633356,0.9170026587318688,3578.883544921875,11.909111111111107,0.2088888888888888,178.67660728703223,1.1741497642662386,87.5872708132972,1962.0,1435.0,1200.0,1528.0,1760.0,1010.0,61.0,293.85,1649167579.347374,1649167580.3803823,995b3dac-6e3a-40e4-880d-9653b0afae5c
0.3161385393779582,0.7152014351831333,0.0729139656886305,-0.4336527541324079,-0.2703985130492233,-0.1953720437707181,-0.390603913671415,-0.4149947504150353,-14.8131228129809,26.00635440795744,13.614232378002544,0.7099308317288098,2.725076607731716,0.9059456851756912,3573.9108072916665,11.859333333333332,0.1944444444444444,178.6571852646724,1.1816934354712698,87.44056214447488,1962.0,1435.0,1200.0,1528.0,1760.0,1010.0,61.0,293.85,1649167580.509002,1649167581.7109928,995b3dac-6e3a-40e4-880d-9653b0afae5c
0.3191495906531616,0.7115592466761043,0.0736502926858236,-0.4298001852091016,-0.2691756841102804,-0.1957139098654009,-0.3901305604771364,-0.4154418062538563,-14.807020340984584,26.075482675876582,13.566454475894178,0.7009625409248279,2.711369966823359,0.9021040831768524,3566.968994140625,11.866666666666667,0.2,178.65582378029785,1.1858142214067724,87.27977038449387,1962.0,1435.0,1200.0,1528.0,1760.0,1010.0,61.0,293.85,1649167581.8235772,1649167582.9428053,995b3dac-6e3a-40e4-880d-9653b0afae5c
-0.1612593919348768,-0.1358111840757992,0.0005106694348466,0.0280407525305263,-0.1282917729028301,0.215382277185093,-0.276296799793865,-0.3109080089434531,-15.60958915599891,27.062612914798454,14.059189332127168,0.5945500725692947,-0.5264609972959992,0.5490484895504316,3569.6098904079863,11.88577777777778,0.2044444444444444,179.1848811264881,1.1860916029780657,87.02277009768389,1459.0,1435.0,1200.0,1528.0,1394.0,1010.0,61.0,293.85,1649167584.8668523,1649167585.920339,a522f775-de57-4a31-9fe2-92fab28fe1ea
-0.1641356694576488,-0.1413035044608477,0.0016611803782568,0.0289310288645786,-0.1260592336989703,0.219696692955796,-0.272913749361136,-0.3068264338987348,-15.56733503141358,27.04177519509157,14.041524560321152,0.6021745013712185,-0.547240069129788,0.5389790960078061,3577.7242296006943,11.970222222222224,0.2255555555555556,179.16191195921928,1.1839387297232709,86.98848178914052,1459.0,1435.0,1200.0,1528.0,1394.0,1010.0,61.0,293.85,1649167586.0487506,1649167587.0189,a522f775-de57-4a31-9fe2-92fab28fe1ea
-0.1682035477219474,-0.1400434209806396,-0.0024751803956709,0.029122780691409,-0.1294148907874341,0.2181900715825973,-0.2768035725318462,-0.295855489149182,-15.57075464733805,26.94399473284661,13.998284037274887,0.5974936010502533,-0.5423940373522479,0.5548571207841783,3586.2041829427085,11.96977777777778,0.2188888888888889,179.16389119625876,1.1919745065716276,86.96790698263072,1459.0,1435.0,1200.0,1528.0,1394.0,1010.0,61.0,293.85,1649167587.1275666,1649167588.168435,a522f775-de57-4a31-9fe2-92fab28fe1ea
-0.288240200606552,-0.3706524068799497,-0.011514909242418,0.1537203727445908,-0.0867364117044349,0.3306935973328124,-0.2412062122603315,-0.2746943028191868,-15.794181916188784,27.91591999085199,14.27203494237373,0.5751664657351965,-1.4240600454989591,0.4313863082225952,3583.705132378472,11.96188888888889,0.22,179.25229357577632,1.1781625596934575,86.86336714283412,1364.0,1435.0,1200.0,1528.0,1312.0,1010.0,61.0,293.85,1649167588.7786973,1649167589.8971832,6ebdd74e-1f11-462d-96ac-c615dbd4a920
-0.2866513995616537,-0.3751859686077374,-0.0124736683792513,0.1573499606613085,-0.087092522263544,0.3324878463825471,-0.2418636471737918,-0.2586556306711474,-15.77798215849941,27.988772872350424,14.363511386907884,0.5714688690050145,-1.4424954943229047,0.43370799644784,3585.370849609375,11.947,0.2166666666666666,179.2531101628371,1.185834925417694,86.7761691533402,1364.0,1435.0,1200.0,1528.0,1312.0,1010.0,61.0,293.85,1649167590.0060446,1649167591.480785,6ebdd74e-1f11-462d-96ac-c615dbd4a920
-0.2879114831895018,-0.3732684500535841,-0.0118299301013294,0.1588565820554287,-0.0869281635433077,0.3297074451739055,-0.2417403781132657,-0.2632850682387802,-15.710351496543874,27.981393892423352,14.435207846952528,0.5618509776052182,-1.4365625639292583,0.4328278148124542,3586.037651909722,11.946555555555555,0.21,179.2442521663935,1.1759436138448172,86.71022443581364,1364.0,1435.0,1200.0,1528.0,1312.0,1010.0,61.0,293.85,1649167591.6127484,1649167592.6584876,6ebdd74e-1f11-462d-96ac-c615dbd4a920
-0.4260686940601422,-0.61790274594225,-0.0263619791188336,0.2952742991359122,-0.0473725006503818,0.4429094931622457,-0.2121421117224176,-0.240699440156149,-15.956422790177047,29.17272723713297,14.355435529645456,0.5155434586807406,-2.3693382487941324,0.327440537213869,3589.37451171875,11.951,0.21,179.35239379261242,1.185033125242158,86.64059445177492,1262.0,1435.0,1200.0,1528.0,1222.0,1010.0,61.0,293.85,1649167594.2868683,1649167595.3210392,47c2524e-a68d-4426-b7db-b9a0d8574844
-0.4235211336330345,-0.6090547661545355,-0.0239650813033877,0.2921240908529863,-0.0460302378650908,0.4368282216631671,-0.2103204692424713,-0.2272494181443844,-15.88603414506199,29.01084074757024,14.328822477832668,0.508061501705937,-2.3358782046651534,0.3208725759370244,3589.37451171875,11.917000000000002,0.2,179.36029859821184,1.1913073298989512,86.54559790406864,1262.0,1435.0,1200.0,1528.0,1222.0,1010.0,61.0,293.85,1649167595.429979,1649167596.6772454,47c2524e-a68d-4426-b7db-b9a0d8574844
-0.432916974822204,-0.6112736093828909,-0.0229104462706968,0.2915077457593191,-0.0450166925001657,0.4390196708519346,-0.2088138476456082,-0.2295093506026097,-15.892136303106406,29.053786525381053,14.260027585571356,0.5146994727249117,-2.3434038270049924,0.3155165920444828,3580.37841796875,11.918,0.2,179.34172503712884,1.1841378368523574,86.49038493154798,1262.0,1435.0,1200.0,1528.0,1222.0,1010.0,61.0,293.85,1649167596.8119943,1649167597.7780666,47c2524e-a68d-4426-b7db-b9a0d8574844
-0.4391489103674523,-0.6439399128495051,-0.0428603062539999,0.30116217534881,-0.0627937305029349,0.4583416783186776,-0.227507460714235,-0.2509778864604398,-15.98738603160768,29.74351350501322,13.56437224890886,0.539760651486996,-2.4615242804411843,0.3883403146995892,3574.406494140625,11.892,0.2033333333333333,179.35692448476186,1.2037284557914425,86.32776951105859,1153.0,1435.0,1200.0,1528.0,1121.0,1010.0,61.0,293.85,1649167599.929761,1649167601.0763142,f388fdfa-dca8-4868-8d2a-309472794fbc
-0.4442637543519939,-0.6384437558638552,-0.0397440651380343,0.2993608040723814,-0.0611238460098225,0.4557645340743976,-0.2257718325846848,-0.2467966005510314,-15.986268807362594,29.75638990550253,13.74617181116304,0.5383029860264302,-2.442109983675799,0.3802480771562157,3568.784152560764,11.84122222222222,0.1822222222222222,179.349739125755,1.2030152227737376,86.1812695424609,1153.0,1435.0,1200.0,1528.0,1121.0,1010.0,61.0,293.85,1649167601.1856606,1649167602.142497,f388fdfa-dca8-4868-8d2a-309472794fbc
-0.4454339885892704,-0.6433876673828861,-0.0432547671548548,0.3018853535330695,-0.0623992696009013,0.4569873627050402,-0.227454865895017,-0.2617466706606473,-15.985588866423846,29.6531498132412,13.543209787158606,0.5344648685465225,-2.459393759647834,0.3883475131063157,3558.0849609375,11.841,0.19,179.3539647361215,1.196818616655015,86.07341554309704,1153.0,1435.0,1200.0,1528.0,1121.0,1010.0,61.0,293.85,1649167602.276188,1649167603.2201226,f388fdfa-dca8-4868-8d2a-309472794fbc
-0.0082414317198107,0.1285050090468217,0.0133169519199136,-0.1166360008032605,-0.1752572759138605,0.0932774609640664,-0.3116202294543257,-0.3353015843564722,-15.193869794450784,25.88652413616843,14.50370966136216,0.6396409107477325,0.4766080072231091,0.677967982457989,3560.0575358072915,11.887666666666668,0.1966666666666666,179.09506413890247,1.207691779779048,85.92485209846011,1553.0,1435.0,1200.0,1528.0,1471.0,1010.0,61.0,293.85,1649167605.3514512,1649167606.4927063,6631e010-22f7-4c9c-bb42-65838fbc8129
-0.0067622033521897,0.1288474230004028,0.0158097256096319,-0.1150745930116434,-0.173599992184053,0.0919488948021485,-0.3113736913637783,-0.3356713906332438,-15.279804416207968,26.038214101306725,14.576070314332313,0.6342312637580966,0.4778275196234594,0.6719965879500513,3572.0908203125,11.974222222222222,0.21,179.07261710165014,1.2159342409976015,86.0868057495099,1553.0,1435.0,1200.0,1528.0,1471.0,1010.0,61.0,293.85,1649167606.625944,1649167607.71391,6631e010-22f7-4c9c-bb42-65838fbc8129
-0.0084896133704004,0.1334900083933778,0.0135081558775386,-0.1181365958431132,-0.1767403394077323,0.0896128097990584,-0.314078488166374,-0.3389295285965809,-15.2454019434943,25.976982686225057,14.471153509141848,0.6353689767576501,0.4961564726626582,0.683698320084319,3573.0820583767363,11.975111111111111,0.2188888888888889,179.06870871562512,1.2114074856933064,86.19792154365739,1553.0,1435.0,1200.0,1528.0,1471.0,1010.0,61.0,293.85,1649167607.8238468,1649167608.856332,6631e010-22f7-4c9c-bb42-65838fbc8129
-0.0149850694679924,0.1267841734634848,-0.0004820571472587,-0.3047823585222172,-0.2087311204148347,0.2771658061912662,-0.2757763304889851,-0.2980370768278876,-15.257891782778142,25.65415072099253,15.863134382934035,1.4752316056947974,0.4808445316290005,0.6914461031653096,3580.9395446777344,11.976125,0.21,179.06413761152305,1.275063049311286,86.47793861933295,1553.0,1537.0,1200.0,1528.0,1471.0,1010.0,61.0,293.85,1649167610.8803349,1649167611.9281008,1a6bcd4b-1798-4cef-97c2-e7f033ca81d1
-0.0134050344313164,0.1208075432804152,-0.0016944765355943,-0.3002520841374708,-0.2088823304341402,0.279934154446708,-0.2766255172356071,-0.3081960897689198,-15.27714881379165,25.740921845410384,16.00826052572133,1.471761551095902,0.4566454187860111,0.6939859359964128,3580.37841796875,11.974333333333334,0.2066666666666666,179.06020740683817,1.267373367990287,86.54061186597453,1553.0,1537.0,1200.0,1528.0,1471.0,1010.0,61.0,293.85,1649167612.0381784,1649167613.152173,1a6bcd4b-1798-4cef-97c2-e7f033ca81d1
-0.0181440438027369,0.1200816256919777,-0.0030778289781291,-0.3014436849306056,-0.2103889520363656,0.2805641960981243,-0.2757352408063347,-0.3001972984338907,-15.082969348626222,25.641527054589044,15.8390896556271,1.4752082946455465,0.4541051178330125,0.6964958098656376,3581.874755859375,11.975666666666667,0.2088888888888888,179.07188247685943,1.2756944238161647,86.61217251681867,1553.0,1537.0,1200.0,1528.0,1471.0,1010.0,61.0,293.85,1649167613.259589,1649167614.2650445,1a6bcd4b-1798-4cef-97c2-e7f033ca81d1
0.006756300197177,0.1231633513133439,-0.0079401073868211,-0.5184657005776169,-0.2412746950733354,0.4892997330456305,-0.2252223265770535,-0.2564367878659863,-15.015601436924792,25.526192404332303,17.708193389814713,2.4331385944961657,0.4750306865617459,0.674472175516749,3584.870849609375,11.969666666666669,0.21,179.06173736921224,1.3453448865644484,86.7438578051066,1553.0,1645.0,1200.0,1528.0,1471.0,1010.0,61.0,293.85,1649167616.3167665,1649167617.456483,e59654b6-4461-484a-aab5-b9a07d386ebb
-0.0067211136878169,0.1154247958602388,-0.0190343200791598,-0.5164249127894012,-0.2487256238198024,0.4955042735302181,-0.2338785525657734,-0.2486434450213021,-15.14404039413615,25.41922351541622,17.70539718073776,2.4411508821098487,0.4459838479994136,0.7110995299128531,3583.3720703125,11.964555555555556,0.2055555555555555,179.04960088196702,1.3335958584010668,86.75781339940075,1553.0,1645.0,1200.0,1528.0,1471.0,1010.0,61.0,293.85,1649167617.5815485,1649167618.5713935,e59654b6-4461-484a-aab5-b9a07d386ebb
0.0077210143449362,0.1188132052932467,-0.0132597317463345,-0.5183841167095897,-0.2444910047014202,0.4918931464067653,-0.2289412403960136,-0.2534521288948719,-15.081533658735314,25.43570166463928,17.448414143853952,2.4378429526390635,0.4611352478780625,0.6904980625372501,3583.3720703125,11.967888888888888,0.2177777777777777,179.06272698773196,1.339958013601391,86.78145192520826,1553.0,1645.0,1200.0,1528.0,1471.0,1010.0,61.0,293.85,1649167618.6994731,1649167619.707224,e59654b6-4461-484a-aab5-b9a07d386ebb
-0.0110536091645537,0.1115316861227366,-0.0123553301034061,-0.6362610715989033,-0.2597612163869469,0.6155343273353316,-0.1974100918343137,-0.2210514505472111,-14.978852264066465,25.74524856127754,18.6999389786186,2.9839309696743,0.436581897292235,0.6649655152663831,3584.537787543403,11.962666666666664,0.2,179.09536314940613,1.3882759457288252,86.79738979218152,1553.0,1761.0,1200.0,1528.0,1471.0,1010.0,61.0,293.85,1649167620.8223984,1649167622.0607388,730ff06d-48b4-4f82-8afd-76a3fff0140f
0.0027656708315136,0.1143718044581117,-0.0144065267585458,-0.634827863161724,-0.2635874874764026,0.6094727789549759,-0.2020252846562412,-0.2249303162295646,-14.903783737659731,25.86135123203652,18.39417564211677,2.967733463889421,0.4491081994486905,0.6794739082743191,3583.3720703125,11.95388888888889,0.2022222222222222,179.08682389512376,1.3667096234245095,86.75786045181503,1553.0,1761.0,1200.0,1528.0,1471.0,1010.0,61.0,293.85,1649167622.1914618,1649167623.1882553,730ff06d-48b4-4f82-8afd-76a3fff0140f
0.0021082359900748,0.1134250983443985,-0.0132231440808913,-0.6448997681799621,-0.2618124132702262,0.6220429313409697,-0.1956613150854457,-0.2193158222165025,-14.892769816688102,25.67226466263296,18.761848345056777,3.017569624910409,0.4435327286683646,0.6667831894283408,3583.3720703125,11.953555555555557,0.21,179.09423237364354,1.378809125669678,86.69366881617545,1553.0,1761.0,1200.0,1528.0,1471.0,1010.0,61.0,293.85,1649167623.2963908,1649167624.4151566,730ff06d-48b4-4f82-8afd-76a3fff0140f
0.008536852831803,0.1264642218558286,-0.0049679541202372,-0.682317684746853,-0.2658737173571384,0.6458787760035853,-0.1875704832407332,-0.2186753714987803,-14.865418085770877,26.22750522170785,19.124224144440344,3.159700945873969,0.4941717511231327,0.6510944764962455,3581.874755859375,11.947,0.2088888888888888,179.0920345705506,1.421098360495485,86.68452167505698,1553.0,1887.0,1200.0,1528.0,1471.0,1010.0,61.0,293.85,1649167625.3267126,1649167626.3270264,e7bd15af-c148-47fc-bc13-e4181ac2115c
-0.0001467654539776,0.1189174182331918,-0.0170483190418698,-0.6744147669378352,-0.2753654336845966,0.6453993965032023,-0.2005822151108135,-0.2159908455431817,-14.97233791854635,26.30263657808206,18.942581139335807,3.1406104274287183,0.4664957239071324,0.6978096693089132,3577.88818359375,11.921,0.1933333333333333,179.08405842741982,1.3992110311581465,86.61144548112702,1553.0,1887.0,1200.0,1528.0,1471.0,1010.0,61.0,293.85,1649167626.460697,1649167627.4070065,e7bd15af-c148-47fc-bc13-e4181ac2115c
0.0016885734384271,0.1088641444141212,-0.0176098779572541,-0.6753735271433738,-0.2741875294922948,0.6555211523171298,-0.1958705985399434,-0.2125393126193831,-14.834507109720771,26.228013211348017,18.871825414631623,3.1650535447956343,0.4285225868655637,0.6890648165871758,3575.8974609375,11.919666666666668,0.2,179.0797918359183,1.390783751661114,86.54880353951911,1553.0,1887.0,1200.0,1528.0,1471.0,1010.0,61.0,293.85,1649167627.5157363,1649167628.611861,e7bd15af-c148-47fc-bc13-e4181ac2115c
-0.0295532774140014,0.1289980851441563,0.0287118839358583,0.1198350876359053,-0.1416733115707281,-0.1345237074905943,-0.3688855505003752,-0.4030584714445901,-15.455848132031443,27.156126328636727,12.969685701448796,-0.3968730654047891,0.4657904121173237,0.6920392187022019,3569.6098904079863,11.93311111111111,0.2022222222222222,179.0915534216691,1.1717985665082002,86.49029006780952,1553.0,1335.0,1200.0,1528.0,1471.0,1010.0,61.0,293.85,1649167629.2758758,1649167630.3616946,c6620f5c-fea2-4e21-966b-7227dd8bd00f
-0.0291988104653259,0.1310837970361267,0.0313903829502467,0.1196181341524717,-0.1392797008239034,-0.1376887084717128,-0.3671203377160208,-0.3910115236881175,-15.47882152055328,27.14417831950553,12.799352290112614,-0.4034804010793846,0.4754816720799137,0.6826137251195463,3571.262993706597,11.974222222222222,0.2055555555555555,179.09344310733945,1.140461978761299,86.59838312379432,1553.0,1335.0,1200.0,1528.0,1471.0,1010.0,61.0,293.85,1649167630.4915626,1649167631.5813353,c6620f5c-fea2-4e21-966b-7227dd8bd00f
-0.0354575900678898,0.1281516378424845,0.0306672046510665,0.1224582524868598,-0.1392008086429986,-0.1366236639906461,-0.3672255273028467,-0.3888682860497724,-15.458662366858722,27.14709685758518,12.910722236889836,-0.4074824765444114,0.4629590662951472,0.6834818986096433,3578.883544921875,11.973,0.2,179.08026539570076,1.146733052914723,86.72390226908155,1553.0,1335.0,1200.0,1528.0,1471.0,1010.0,61.0,293.85,1649167631.6896074,1649167632.8103926,c6620f5c-fea2-4e21-966b-7227dd8bd00f
-0.0398624034566067,0.1342000379719037,0.0437896035715086,0.3205959471615788,-0.1099449575821762,-0.3352741898913195,-0.4143636125335758,-0.4359669259626312,-15.585290454609384,27.931847804048807,11.31186236954045,-1.295289819838409,0.4771613491538358,0.6926651527170478,3584.870849609375,11.967666666666666,0.2,179.0865522053768,1.0757473474735382,86.9686962489348,1553.0,1236.0,1200.0,1528.0,1471.0,1010.0,61.0,293.85,1649167634.8375783,1649167635.8816369,42950fbd-894c-479a-9ce0-e822b091a58a
-0.0250060198382875,0.137407771914271,0.0474076864979983,0.3204622687544487,-0.1075825750161756,-0.3358494454613389,-0.412892601840472,-0.42768488888153,-15.675217627240627,28.049191900699743,11.677831969920854,-1.2953098349875514,0.4868330207267499,0.6832133346280647,3584.0381944444443,11.961333333333336,0.21,179.07744983994291,1.0743984206863628,87.02060340989718,1553.0,1236.0,1200.0,1528.0,1471.0,1010.0,61.0,293.85,1649167635.9897025,1649167637.1135497,42950fbd-894c-479a-9ce0-e822b091a58a
-0.0339717873413727,0.1342920788454927,0.0456172723604437,0.3212402332302884,-0.1076176382023416,-0.3356686508630159,-0.4129698504306776,-0.4425018290380161,-15.664521991947185,27.92462269778886,11.365827485533906,-1.2976177490161185,0.4776254647895179,0.6850599815343671,3586.370849609375,11.960888888888888,0.21,179.06633484543354,1.0718766579265508,87.06741828537837,1553.0,1236.0,1200.0,1528.0,1471.0,1010.0,61.0,293.85,1649167637.22149,1649167638.3385956,42950fbd-894c-479a-9ce0-e822b091a58a
-0.0332880551227013,0.1407743859296387,0.0606462321266125,0.4578551765944538,-0.0861326674259538,-0.4736642460450654,-0.4427253565539614,-0.4708635732838001,-15.612102508079042,28.841708216156743,10.467656628017863,-1.909171092674912,0.4936755964444891,0.6780517396552209,3584.3712565104165,11.959,0.2,179.06369535677428,1.0413185457334888,87.17312153406357,1553.0,1133.0,1200.0,1528.0,1471.0,1010.0,61.0,293.85,1649167639.3474207,1649167640.505782,3d8bdf1a-9c58-4d30-a644-00a7f4ebd277
-0.0364837362648121,0.1372023235396297,0.0631861219764435,0.4536612906666502,-0.0826822301764983,-0.4663913719020769,-0.4386695306582655,-0.4648025710359162,-15.771199012582311,28.84472996451657,10.481200401676109,-1.88329901932025,0.4819616223534431,0.6635529478528074,3577.8877766927085,11.952333333333334,0.1966666666666666,179.04599605990506,1.018918015428982,87.30068214700272,1553.0,1133.0,1200.0,1528.0,1471.0,1010.0,61.0,293.85,1649167641.614425,1649167642.556472,3d8bdf1a-9c58-4d30-a644-00a7f4ebd277
-0.0398755521333358,0.138328728489101,0.0631970792141498,0.450820624608423,-0.0837396045540458,-0.4655909451228446,-0.4376499587009304,-0.4600684911936632,-15.64339921448679,28.825130535536022,10.38360751664328,-1.875173113904624,0.4864968625165159,0.6635977000059542,3573.247612847222,11.954555555555556,0.2,179.04043476810088,1.0234582176682057,87.32429790551299,1553.0,1133.0,1200.0,1528.0,1471.0,1010.0,61.0,293.85,1649167642.6645308,1649167643.6632345,3d8bdf1a-9c58-4d30-a644-00a7f4ebd277
-0.0310264793131725,0.1399197206944062,0.0672731750397615,0.4643769293476981,-0.0818856382912265,-0.4809880717116577,-0.4406478620477322,-0.4551114321212583,-15.586426024581224,29.177102922001414,10.190705705913764,-1.937818056363148,0.4923657929400983,0.6597194281269685,3572.91650390625,11.955,0.2,179.05790335635817,0.9815102432835856,87.42952911223557,1553.0,1026.0,1200.0,1528.0,1471.0,1010.0,61.0,293.85,1649167645.275945,1649167646.326558,f0c717d7-e364-4ef2-b9d1-70e962a82842
-0.0295669739689284,0.1448039133539622,0.0672266067326486,0.4916007546436055,-0.0806003531875275,-0.5113297919514749,-0.4509416499546301,-0.4740751440014117,-15.64058842409832,29.32640522755519,10.080185352458814,-2.066467690351744,0.5086951165265016,0.6732631178714147,3572.91650390625,11.94222222222222,0.1944444444444444,179.0455847307351,0.9869752602512096,87.43684196810692,1553.0,1026.0,1200.0,1528.0,1471.0,1010.0,61.0,293.85,1649167646.4348574,1649167647.5547209,f0c717d7-e364-4ef2-b9d1-70e962a82842
-0.0434004985832687,0.1396814005818266,0.0663911166680997,0.4808489570505374,-0.0805592635011518,-0.4960718219673059,-0.4464080880585491,-0.4711166861805557,-15.68139995671502,29.21767729684761,10.14397625400102,-2.00870032061918,0.4904750228587942,0.6672831485757159,3572.91650390625,11.936333333333332,0.1911111111111111,179.02624011718575,0.9969104344451624,87.45700544544671,1553.0,1026.0,1200.0,1528.0,1471.0,1010.0,61.0,293.85,1649167647.6628752,1649167648.7866852,f0c717d7-e364-4ef2-b9d1-70e962a82842
-0.0096861447491924,0.1267973221586142,0.0141261446096673,-0.1031865273297991,-0.1744919121551509,0.0819339712634002,-0.3163795103674155,-0.3340645102216427,-15.259374729858903,26.14614770754282,14.395961435369294,0.5855230769758588,0.4700215242565018,0.6822056756563536,3576.2291124131943,11.952666666666666,0.2022222222222222,179.05412702065703,1.1844124199433657,87.44301645911662,1553.0,1435.0,1200.0,1528.0,1471.0,1010.0,61.0,293.85,1649167649.7882607,1649167650.950217,5f6097d6-930d-434c-8936-8df6f9825906
-0.0148979593672856,0.1238344826680997,0.0145633387617307,-0.1012547645865308,-0.1732575781934332,0.0824708763575171,-0.3150169765061226,-0.3506554283226517,-15.224736417644154,26.12355682465844,14.319532116479076,0.5822492553734304,0.4591307957523631,0.6775726988231082,3584.3725857204863,11.975444444444443,0.21,179.04546178733003,1.1752458080425814,87.42041080969359,1553.0,1435.0,1200.0,1528.0,1471.0,1010.0,61.0,293.85,1649167651.058092,1649167652.058676,5f6097d6-930d-434c-8936-8df6f9825906
-0.0181670540264344,0.1258769134427365,0.0147309846464051,-0.1029235533873254,-0.1739265181659668,0.0832619895687074,-0.3149200048523879,-0.3396264099904942,-15.197760865458276,26.136885362072224,14.498639077090152,0.5879302046910007,0.4652291236631905,0.6786157436686279,3592.2160915798613,11.97588888888889,0.2088888888888888,179.03973049970648,1.170656039500006,87.40205657357396,1553.0,1435.0,1200.0,1528.0,1471.0,1010.0,61.0,293.85,1649167652.1668165,1649167653.2802718,5f6097d6-930d-434c-8936-8df6f9825906
0.0121143939993261,0.1331875883867056,0.0887975906424135,-0.1081304373913062,-0.1065131476511496,0.0776080502379129,-0.237986972754998,-0.2644684510832683,-14.704456902469085,26.145396436670907,14.610146593849946,0.5909810377340432,0.4935054781491287,0.3776368093371476,3590.87841796875,11.975444444444443,0.2,179.0280554296852,1.1767490425583498,87.35531910690338,1553.0,1435.0,1200.0,1435.0,1471.0,1010.0,61.0,293.85,1649167655.3279922,1649167656.3518438,a89f161f-2763-456b-8394-4def4d29f441
0.0135224002207289,0.1419139395749143,0.0944964546645484,-0.1133077368460416,-0.1031038000968348,0.0714862364520606,-0.2342209665786886,-0.2655723935931645,-14.691834940495555,26.11757787456003,14.314528788877034,0.588961807042276,0.529763560868747,0.360476780976084,3590.87841796875,11.973888888888888,0.2044444444444444,179.03501008008004,1.1831569695124873,87.33276734008382,1553.0,1435.0,1200.0,1435.0,1471.0,1010.0,61.0,293.85,1649167656.46014,1649167657.692876,a89f161f-2763-456b-8394-4def4d29f441
0.0155631875083586,0.1396403109085159,0.089524603963713,-0.1122667983341944,-0.1075414853323271,0.0733489684055094,-0.2376861962903604,-0.2601485555336629,-14.58940947516813,26.075415664258674,14.366346541425813,0.5903322672685937,0.5196078036399793,0.3781280321049775,3589.2082248263887,11.973444444444446,0.2044444444444444,179.0265057356535,1.1760546518506994,87.3087083781874,1553.0,1435.0,1200.0,1435.0,1471.0,1010.0,61.0,293.85,1649167657.8011675,1649167659.013497,a89f161f-2763-456b-8394-4def4d29f441
0.0474624726785775,0.1585278646677229,0.2048222309893267,-0.1164579455082999,-0.004159857131371,0.0540779105424297,-0.1226761835125005,-0.145343990341774,-13.863017337389062,26.18222630116759,14.590429999967016,0.563332308511144,0.591147428860114,-0.0805657487933166,3592.048882378472,11.96811111111111,0.1922222222222222,178.98300198409996,1.1818516919029765,87.23816390770978,1553.0,1435.0,1200.0,1330.0,1471.0,1010.0,61.0,293.85,1649167659.7748964,1649167660.9710095,9d08c311-1bff-4d2d-a3bd-f95e49702f6e
0.0424878825934987,0.1548829366073408,0.2027573379046826,-0.1150992468269289,-0.0048868704754424,0.0567147719906741,-0.1236458999238672,-0.1481287742655487,-13.896792895127284,26.154883266358787,14.62424442853233,0.565897107211446,0.5771174393833716,-0.0757740133908611,3593.2202962239585,11.967888888888886,0.2055555555555555,178.97394515326053,1.178818803320275,87.21437132319099,1553.0,1435.0,1200.0,1330.0,1471.0,1010.0,61.0,293.85,1649167661.079377,1649167662.212724,9d08c311-1bff-4d2d-a3bd-f95e49702f6e
0.0397513101693934,0.1530766345140193,0.2000284356861041,-0.1166086076787349,-0.0069539551368156,0.058392326482108,-0.1250045986234448,-0.146426018094197,-13.87524329957018,26.0912048207376,14.39858950003438,0.5724884080263789,0.5722019163423907,-0.0678131361672352,3592.38330078125,11.967333333333336,0.2,178.96787842745775,1.1750032177473733,87.21837609077436,1553.0,1435.0,1200.0,1330.0,1471.0,1010.0,61.0,293.85,1649167662.32055,1649167663.314433,9d08c311-1bff-4d2d-a3bd-f95e49702f6e
0.0783071225397627,0.175922493498229,0.3152164871659647,-0.1151978620512849,0.0941403441494898,0.0294514980954021,-0.0136789655521751,-0.0363878610500705,-13.001403137618714,26.346376358501217,14.515589796372575,0.5121578841954616,0.6577989239745023,-0.5175770914207312,3587.8720703125,11.966,0.2,178.9652632239155,1.176370417662172,87.18562533370414,1553.0,1435.0,1200.0,1210.0,1471.0,1010.0,61.0,293.85,1649167664.3395126,1649167665.4793746,4898ab5c-eedd-44b2-8c8f-6843bac9f7e3
0.0802377894182055,0.1773146116635861,0.315165535970851,-0.1148231241749648,0.0941885560349961,0.028878981952628,-0.0145643111198135,-0.0459633990434571,-13.071728517680135,26.35433785803625,14.673744602131755,0.5100660986397668,0.6620670039284229,-0.5159704144078666,3593.2202962239585,11.967999999999998,0.2,178.96559107299566,1.172750642703444,87.18102178620354,1553.0,1435.0,1200.0,1210.0,1471.0,1010.0,61.0,293.85,1649167665.588293,1649167666.649195,4898ab5c-eedd-44b2-8c8f-6843bac9f7e3
0.0803616063074925,0.1729229472725008,0.3153808458579069,-0.1119654740614531,0.0950717101173659,0.0296569464675633,-0.0136104827577167,-0.0354564948792863,-13.025606359876807,26.38255213836162,14.550693418915094,0.505569488769869,0.6460220406902629,-0.5194840555005332,3596.067626953125,11.966333333333331,0.1977777777777778,178.96098297203562,1.1677662765827252,87.19663939319572,1553.0,1435.0,1200.0,1210.0,1471.0,1010.0,61.0,293.85,1649167666.7576363,1649167667.8249428,4898ab5c-eedd-44b2-8c8f-6843bac9f7e3
0.0983314909742692,0.1853868151362359,0.3823570125433995,-0.0889415577606452,0.1559255185887301,-0.0087208112511227,0.0432302360839857,0.0094545219128924,-12.66244509485123,26.70095150351277,14.316103368729538,0.3729843135430163,0.6936945174580548,-0.7730916757299742,3594.3926595052085,11.966888888888889,0.1977777777777778,178.9598476428136,1.1586970660254177,87.15559602756322,1553.0,1435.0,1200.0,1071.0,1471.0,1010.0,61.0,293.85,1649167668.7773993,1649167669.867978,3cf7a7c8-14fa-4004-9968-b0151011ce59
0.0980438632464698,0.1881398233090594,0.3900544778769503,-0.0906399311198948,0.1615548039996389,-0.0097069634789177,0.0494621702770543,0.0246850954556162,-12.655077443037412,26.824482784095284,14.389114915968811,0.3758169453270956,0.7040199053702283,-0.7997487529873073,3584.3725857204863,11.958222222222222,0.1955555555555556,178.95832830517824,1.1473971583738662,87.14488932658426,1553.0,1435.0,1200.0,1071.0,1471.0,1010.0,61.0,293.85,1649167669.9760878,1649167671.102896,3cf7a7c8-14fa-4004-9968-b0151011ce59
0.1080078355463031,0.1819035064853348,0.3855636505796482,-0.0886177711131621,0.1592351548795373,-0.00593876620377,0.0483653497910386,0.0186887416593134,-12.551348728741225,26.69266143199954,14.30042107767381,0.3786636933940176,0.6801459492564311,-0.7896414938340112,3581.874755859375,11.947666666666668,0.1866666666666666,178.9586333869612,1.1413544568128475,87.14799782156653,1553.0,1435.0,1200.0,1071.0,1471.0,1010.0,61.0,293.85,1649167671.2114131,1649167672.4463315,3cf7a7c8-14fa-4004-9968-b0151011ce59
-0.0469068176996403,0.1083162820837847,-0.0932148842530343,-0.0874623293477818,-0.2734890049020815,0.0908805632465374,-0.4315884082736281,-0.4552149785670269,-16.038567266799763,26.59704403336798,14.29389251031467,0.5673930090990095,0.3983927678581047,1.124421595604587,3578.55162217882,11.965111111111112,0.1977777777777777,179.07433072022192,1.1607772617985752,87.30467401311765,1553.0,1435.0,1200.0,1613.0,1471.0,1010.0,61.0,293.85,1649167674.3777275,1649167675.4009962,aa117c7e-7459-4f32-b2e6-197a98f3b097
-0.0567847760957128,0.1060749772730189,-0.0930883280415423,-0.0858039499615206,-0.2719106132776286,0.091295842885509,-0.429537211211673,-0.4462623574825585,-15.978796320789618,26.468804324517173,14.267451095891936,0.5637673576947004,0.3895994837715051,1.1189792721868743,3576.7265896267363,11.97466666666667,0.2,179.08058565568186,1.168212420744761,87.29066984858939,1553.0,1435.0,1200.0,1613.0,1471.0,1010.0,61.0,293.85,1649167675.5099475,1649167676.5389426,aa117c7e-7459-4f32-b2e6-197a98f3b097
-0.0442222921015903,0.1101653174613452,-0.0883936953799525,-0.0871062188028593,-0.2676953598563059,0.0890315278597054,-0.4245620722032902,-0.4394365387401723,-15.923334008113995,26.37253247812872,14.382853495479845,0.5612586167319885,0.4039817083508575,1.100479681633677,3580.046223958333,11.97488888888889,0.2,179.07319387318006,1.1666436353857084,87.26695011942176,1553.0,1435.0,1200.0,1613.0,1471.0,1010.0,61.0,293.85,1649167676.6472752,1649167677.6552248,aa117c7e-7459-4f32-b2e6-197a98f3b097
-0.0840551733158169,0.0919795750974159,-0.1872724460650341,-0.0645293584658506,-0.3575086390507285,0.0913352889821735,-0.5323074464897148,-0.5493350130389809,-16.67156570623623,26.78708678485397,14.336186654492153,0.5129481592165819,0.3324424749942519,1.508235954192953,3586.037516276041,11.97466666666667,0.1977777777777778,179.08178625115593,1.1588877065658452,87.24726551423379,1553.0,1435.0,1200.0,1694.0,1471.0,1010.0,61.0,293.85,1649167679.2803066,1649167680.4343889,a05dd4fe-f136-436b-8126-fe2858041e23
-0.0708407329883407,0.0929788759983282,-0.1867333494596712,-0.0647791836960984,-0.3557072673278412,0.0898100402376336,-0.5320313237808896,-0.5590519027128483,-16.800435385183615,26.694081874362663,14.230859467541086,0.5094129092914848,0.3380994384315496,1.504572652453644,3583.3720703125,11.972,0.2,179.07647843526098,1.1565954666212674,87.21997663176984,1553.0,1435.0,1200.0,1694.0,1471.0,1010.0,61.0,293.85,1649167680.542495,1649167681.657952,a05dd4fe-f136-436b-8126-fe2858041e23
-0.0861984109125519,0.090230798515852,-0.1918876388773338,-0.0626359461274998,-0.3601383787609902,0.0906778541800899,-0.5356866623719932,-0.5581051961270392,-16.678401555457807,26.64407367840364,14.218046372603265,0.5059996108996718,0.3264508327557355,1.522612341748887,3581.874755859375,11.970000000000002,0.2,179.0766453954406,1.153666548695932,87.1909779252837,1553.0,1435.0,1200.0,1694.0,1471.0,1010.0,61.0,293.85,1649167681.766978,1649167682.774814,a05dd4fe-f136-436b-8126-fe2858041e23
-0.1161774400420191,0.0830253130507842,-0.275789479202642,-0.0355627795851399,-0.4380181221631851,0.0773319276201551,-0.6337365209285186,-0.6553135403560718,-17.360286985745937,27.14354377270752,14.158303411277709,0.4137196301573342,0.2961378542991275,1.881256321232825,3581.874755859375,11.969777777777775,0.1977777777777777,179.0678708790869,1.1597522828203155,87.1683145987077,1553.0,1435.0,1200.0,1774.0,1471.0,1010.0,61.0,293.85,1649167684.822343,1649167685.956645,0e11621c-9c82-4635-aefb-1d4e7c6e1189
-0.1180445550315838,0.0735056570429212,-0.2809437688502038,-0.0288174982207498,-0.4397800478722672,0.0804481685983262,-0.6373655623852063,-0.6570360197048865,-17.438890458882785,27.119293627731995,14.12521350816358,0.4050442895054135,0.2601253131460798,1.8946645506029347,3580.545328776041,11.954555555555556,0.19,179.06238547827348,1.1550158430800943,87.10401595677111,1553.0,1435.0,1200.0,1774.0,1471.0,1010.0,61.0,293.85,1649167686.0717018,1649167687.1884642,0e11621c-9c82-4635-aefb-1d4e7c6e1189
-0.1195040604082361,0.0790018120323754,-0.2794711146826811,-0.0311711149037507,-0.4407924977272157,0.0775028606721055,-0.6372866702043894,-0.6606782098714896,-17.33351005017765,27.182728900188867,14.16859549181332,0.4042887815126918,0.2799931007696089,1.8946770736087373,3581.874755859375,11.955444444444446,0.19,179.05522895784313,1.148278798243294,87.07944852523646,1553.0,1435.0,1200.0,1774.0,1471.0,1010.0,61.0,293.85,1649167687.297746,1649167688.3105383,0e11621c-9c82-4635-aefb-1d4e7c6e1189
-0.1319898440300697,0.0712396984015602,-0.3410267455105087,0.0005928487776035,-0.4964690217388079,0.0591182440862464,-0.7123953384738512,-0.7369532790512169,-17.89688333961703,27.637532855678188,14.103347672838558,0.2909802757117204,0.2476407533660599,2.160022978815254,3582.706597222222,11.941777777777778,0.1755555555555555,179.08004986528692,1.1476466381480814,86.98930217075083,1553.0,1435.0,1200.0,1856.0,1471.0,1010.0,61.0,293.85,1649167690.3510582,1649167691.5948086,28d01dd3-b248-4b0a-bf24-43176c408799
-0.1403721385058453,0.0690071593617365,-0.3319870153417067,-0.0038448362766128,-0.4874977735848842,0.0634737497069609,-0.7004519346189219,-0.7345837734675298,-17.827509289475344,27.561881414957032,13.912075727141854,0.3107310555872006,0.2415897622555734,2.1179775489422448,3583.3720703125,11.941666666666666,0.19,179.07682753381852,1.1431991652132143,86.93418178523892,1553.0,1435.0,1200.0,1856.0,1471.0,1010.0,61.0,293.85,1649167691.7270234,1649167692.8261745,28d01dd3-b248-4b0a-bf24-43176c408799
-0.1248687288376485,0.0705340517096074,-0.3168660123148152,-0.0097124420936936,-0.472612350110471,0.0648275175627829,-0.681255926521306,-0.7233449205551955,-17.64897090049086,27.32261016966278,13.683296447653788,0.3262292038119295,0.2497575120015371,2.0497941380293363,3555.3357747395835,11.941555555555556,0.19,179.07846829703917,1.1376632257431156,86.91163153623917,1553.0,1435.0,1200.0,1856.0,1471.0,1010.0,61.0,293.85,1649167692.958642,1649167694.0457442,28d01dd3-b248-4b0a-bf24-43176c408799
-0.0319994828388641,0.1138195592246018,-0.0670407595894201,-0.111483355147723,-0.2140694916996443,0.1023670449876621,-0.3542346131357562,-0.3787963826003385,-15.392020850593012,21.966377160569213,13.99992117353293,0.6182748570456803,0.4216010363256458,0.9000698501113901,7178.7490234375,11.638777777777776,8.09,178.93594046289874,0.814458502277586,74.54612121797459,1553.0,1435.0,1350.0,1528.0,1471.0,1010.0,61.0,293.85,1649167697.883001,1649167698.9295752,4866e7df-465a-400b-adea-6397a58f25ca
-0.0290673235325189,0.1104666417452151,-0.0611501434214764,-0.1111283403538517,-0.2106508303022836,0.1066535198843728,-0.350434639243006,-0.3744310145353259,-15.436129681355569,22.33048660864322,14.221752359462188,0.6298265088748639,0.4077075632700589,0.8817035974225044,7184.7666015625,11.640333333333334,8.09,178.93614385075404,0.7456338580176226,69.92329892354822,1553.0,1435.0,1350.0,1528.0,1471.0,1010.0,61.0,293.85,1649167699.038062,1649167700.211911,4866e7df-465a-400b-adea-6397a58f25ca
-0.0288963904505747,0.1140825331452396,-0.0626359461753393,-0.1074467051945929,-0.2123207149229767,0.1033663458832047,-0.3535508808161512,-0.3720773974089107,-15.44020475649724,22.337526050720854,14.721972399148454,0.614185292002427,0.4163173985754039,0.8916097988627578,7186.775553385417,11.638666666666666,8.100000000000001,178.95174400281834,0.691074235779757,65.417149920524,1553.0,1435.0,1350.0,1528.0,1471.0,1010.0,61.0,293.85,1649167700.323003,1649167701.4273994,4866e7df-465a-400b-adea-6397a58f25ca
0.0844322234804777,0.3165855950746413,-0.065344577714908,-0.2159234580559078,-0.2618650081058727,0.0049220570956927,-0.4000183820346777,-0.4269206211184757,-15.451662048330686,21.81087909082053,14.551024553916507,0.6340057126247837,1.1905983657012265,1.0524616845168762,7190.79345703125,11.628222222222222,8.091111111111111,178.7994611407234,0.6928243472459159,59.88178399658763,1647.0,1435.0,1350.0,1528.0,1543.0,1010.0,61.0,293.85,1649167702.3722484,1649167703.468998,d61b126c-2799-47bd-83ae-1b0caaa251c5
0.0716911369350161,0.3130617447124592,-0.0643321280613876,-0.2107165738198152,-0.2606027331075399,0.003922756159399,-0.40066266828034,-0.4235939997179614,-15.514905780288212,21.963706560245377,14.59962163482504,0.6210541312139204,1.1768243901112694,1.0498605253415816,7196.83154296875,11.619999999999996,8.074444444444445,178.80633382884824,0.714520194127148,57.66606911201567,1647.0,1435.0,1350.0,1528.0,1543.0,1010.0,61.0,293.85,1649167703.576856,1649167704.5832455,d61b126c-2799-47bd-83ae-1b0caaa251c5
0.0749783109602565,0.3162568776890417,-0.0621888904783178,-0.2096515293301401,-0.2608262609626705,0.002607886505687,-0.4019380920615927,-0.4248168287256798,-15.570375900869896,22.20660703432684,14.997645760237244,0.6174494247205032,1.1856818669882416,1.049878286634613,7196.83154296875,11.620555555555557,8.087777777777777,178.83269380558502,0.7483681511255145,55.41258024569392,1647.0,1435.0,1350.0,1528.0,1543.0,1010.0,61.0,293.85,1649167704.691713,1649167705.8208723,d61b126c-2799-47bd-83ae-1b0caaa251c5
0.1964985587159337,0.5459119873838976,-0.0619916600311073,-0.3373122382067265,-0.31514353278782,-0.1021477802605809,-0.4481163231766356,-0.4739929642298829,-15.37221716681141,21.57361561178932,15.212451134531916,0.665968369888262,2.0594413580082342,1.2167097730347791,7208.9375,11.60775,8.057500000000001,178.70409443470962,0.8883663265821002,51.52376294976249,1745.0,1435.0,1350.0,1528.0,1614.0,1010.0,61.0,293.85,1649167707.8636367,1649167708.9986713,880678ce-3759-4cc5-a819-8a435c13058b
0.2019596503275821,0.5454556180952806,-0.0599459419565196,-0.3366986322981964,-0.31379798266056,-0.1019258959961272,-0.4470381298284614,-0.4619125965999715,-15.395302365697454,21.67833453256547,15.271604716950932,0.6658766952638916,2.057424725920676,1.210527896315218,7215.00537109375,11.6035,8.07125,178.75063534371407,0.9412070045386328,50.41726419337079,1745.0,1435.0,1350.0,1528.0,1614.0,1010.0,61.0,293.85,1649167709.1130764,1649167710.3178685,880678ce-3759-4cc5-a819-8a435c13058b
0.2098576335196599,0.5470033290701654,-0.0573370213883428,-0.3357869892053087,-0.3111726259303284,-0.1037782186977021,-0.4448159996917233,-0.4729016223049797,-15.400175276480509,21.652251634626573,15.362086868341592,0.6596268059872412,2.062514837842544,1.2005621606022776,7215.00537109375,11.60811111111111,8.086666666666666,178.7679921824874,0.99060745050171,49.44604421111223,1745.0,1435.0,1350.0,1528.0,1614.0,1010.0,61.0,293.85,1649167710.4273412,1649167711.6585948,880678ce-3759-4cc5-a819-8a435c13058b
0.2973424793003597,0.7109511195382718,-0.0450851753259819,-0.4258769422891388,-0.3443002235886475,-0.1821192524283023,-0.4753352265478256,-0.5088644112326824,-15.496808643630606,22.03852627225893,15.194001758007216,0.6899001897893928,2.691467667009744,1.2910200084992776,7215.00537109375,11.606,8.08,178.6377237789973,1.06285950384573,48.39772666618612,1849.0,1435.0,1350.0,1528.0,1686.0,1010.0,61.0,293.85,1649167712.276571,1649167713.3000152,645d9417-4e66-4f9b-80ca-fa45461f48cc
0.2658951826763442,0.6489741979497202,-0.0445510095239493,-0.3969498045275205,-0.3296038137473869,-0.1562190579477575,-0.4621728305773473,-0.4814301972538916,-15.550799021806432,22.1809942242026,14.08183505839768,0.6836154214085024,2.4657304950359573,1.2426239735139073,7215.00537109375,11.587444444444444,8.084444444444445,178.65821586432713,1.1128579945320716,47.830089375923954,1849.0,1435.0,1350.0,1528.0,1686.0,1010.0,61.0,293.85,1649167713.4083183,1649167714.5286543,645d9417-4e66-4f9b-80ca-fa45461f48cc
0.2605946148048959,0.6437695061930674,-0.0494406811256853,-0.3950733756305403,-0.332014408483948,-0.1560410026436972,-0.466185923194551,-0.500112307864723,-15.646283901926878,22.104402919756115,13.595267804986008,0.6789059392845913,2.4506556817172034,1.2569513240024417,7215.00537109375,11.58477777777778,8.072222222222223,178.66818642269556,1.143646791621164,47.34375979590649,1849.0,1435.0,1350.0,1528.0,1686.0,1010.0,61.0,293.85,1649167714.6372902,1649167715.7574356,645d9417-4e66-4f9b-80ca-fa45461f48cc
0.2923788468276495,0.7427479511677891,-0.0309738844943319,-0.4688123760347049,-0.3474498847021353,-0.1782655884032101,-0.4692462829999709,-0.4930980238688551,-15.523517015462986,22.67632992357768,14.62094206415392,0.8002376388865083,2.822184835037589,1.2697876234298202,7215.00537109375,11.585,8.09,178.6145694377109,1.2411940355274704,46.47882258491146,1962.0,1435.0,1350.0,1528.0,1760.0,1010.0,61.0,293.85,1649167717.785226,1649167718.829821,ff5240dd-17b2-45b8-ba0a-a5d1e2285a0a
0.3264887540960869,0.757135910662162,-0.0298546017268069,-0.469062201303328,-0.3471491082585545,-0.1905974230171325,-0.4709660233486727,-0.4988522249117424,-15.523072289455072,22.457891793286105,14.839452064244918,0.7717326402072943,2.8743066454976707,1.2724376984984629,7215.00537109375,11.51211111111111,8.064444444444446,178.62908434860714,1.2632971442959318,46.21759251373048,1962.0,1435.0,1350.0,1528.0,1760.0,1010.0,61.0,293.85,1649167718.9383037,1649167720.0606997,ff5240dd-17b2-45b8-ba0a-a5d1e2285a0a
0.3265435403409651,0.7491919074354021,-0.0359221773469193,-0.4694867947462218,-0.3510389315610307,-0.1849133506435031,-0.4740066600562065,-0.505988133351665,-15.519526350833807,22.38825024517472,14.451372421641883,0.7846394243640464,2.847592689809037,1.2888545324606535,7215.00537109375,11.518,8.059999999999999,178.63015592939692,1.2888550955558191,45.98916973840784,1962.0,1435.0,1350.0,1528.0,1760.0,1010.0,61.0,293.85,1649167720.1732528,1649167721.2875493,ff5240dd-17b2-45b8-ba0a-a5d1e2285a0a
-0.1819548937303613,-0.1623003303989958,-0.0609320942155018,0.0314785887541813,-0.1485626810998715,0.2382829220636774,-0.2941297215886924,-0.3179069518337098,-15.591086577554242,23.23095084710805,13.815996420691624,0.6097665202699004,-0.6281703426201052,0.6838692067125614,7222.436197916667,11.546888888888889,8.074444444444444,179.13940269135458,1.290111518340017,45.67100738431012,1459.0,1435.0,1350.0,1528.0,1394.0,1010.0,61.0,293.85,1649167722.3002264,1649167723.4388876,b7f01ab8-0cbc-4027-bcc3-07029cc74b2d
-0.175380545011676,-0.1630125515073917,-0.063808371632958,0.0288762426128295,-0.1518772485275732,0.2428986620716065,-0.2960883297480343,-0.3286450551271843,-15.574577540942222,23.260945444556985,14.01311264936568,0.626104309780933,-0.6325669153193706,0.6952613442440354,7227.17236328125,11.632333333333332,8.093333333333334,179.17112057204025,1.2907218004855447,45.48917712386568,1459.0,1435.0,1350.0,1528.0,1394.0,1010.0,61.0,293.85,1649167723.5471222,1649167724.666366,b7f01ab8-0cbc-4027-bcc3-07029cc74b2d
-0.1849714240571693,-0.1595944380640231,-0.0625702026862656,0.0250921573514392,-0.1523100598176913,0.2407176221940204,-0.295709756812954,-0.3174182584345801,-15.534432041592874,23.29243712391699,13.689641035413956,0.6299782508729969,-0.6166192016560759,0.6935634157223325,7227.17236328125,11.63588888888889,8.09,179.1844500656605,1.310561484169989,45.31462480943682,1459.0,1435.0,1350.0,1528.0,1394.0,1010.0,61.0,293.85,1649167724.7751338,1649167725.985327,b7f01ab8-0cbc-4027-bcc3-07029cc74b2d
-0.3110038843344494,-0.3910465864838419,-0.0716291069337379,0.1482691425496658,-0.1085687273381551,0.3534024898639352,-0.2577516570889697,-0.2757626346478218,-15.674358236370196,24.0892761907046,13.696600390875927,0.610101037954568,-1.4995032930499723,0.5649493948298558,7221.0830078125,11.634,8.1,179.26692080533886,1.3152200526388915,45.10566769379376,1364.0,1435.0,1350.0,1528.0,1312.0,1010.0,61.0,293.85,1649167727.8301766,1649167728.7589476,7fe86edd-9327-4b33-abcd-e6396633e886
-0.3137568930063293,-0.3948679270816705,-0.0672599045432012,0.1551585113186269,-0.1035283934762291,0.3554569734980456,-0.2552862762263455,-0.2840490536456087,-15.839479533071534,24.28210493653926,14.38269940677911,0.6006991014198557,-1.5193158083414662,0.5489894894511841,7221.0830078125,11.612444444444444,8.094444444444443,179.26401114475246,1.30501250093585,45.035195699212345,1364.0,1435.0,1350.0,1528.0,1312.0,1010.0,61.0,293.85,1649167728.8676388,1649167730.1974232,7fe86edd-9327-4b33-abcd-e6396633e886
-0.3120585195227534,-0.3946898717830167,-0.0711908170329014,0.1500359985704712,-0.1069662298849337,0.3579634435411742,-0.256423090735682,-0.2871855661502515,-15.748589322982404,24.107558036039165,14.075543216137865,0.6165305716667411,-1.5161904418407517,0.5603274072939403,7217.03125,11.611,8.100000000000001,179.27170649121732,1.2993226094761774,44.988159980948,1364.0,1435.0,1350.0,1528.0,1312.0,1010.0,61.0,293.85,1649167730.305411,1649167731.4243443,7fe86edd-9327-4b33-abcd-e6396633e886
-0.4371503081207464,-0.6449392140348672,-0.0773098918187616,0.2903539477183849,-0.0600588015854194,0.4712536969162517,-0.2184085618886186,-0.2411163630657639,-15.860095242956188,25.48350788366044,13.798722352814424,0.5633023751985314,-2.469175682197517,0.4205711765988317,7216.35595703125,11.606444444444444,8.09,179.34726204381602,1.2848809689599952,44.96458710084752,1262.0,1435.0,1350.0,1528.0,1222.0,1010.0,61.0,293.85,1649167732.2757616,1649167733.3604877,9418b7b1-f107-49e2-a9d7-1e538232d5d4
-0.4388338894783731,-0.6412142966689304,-0.0702731475652573,0.2949866714067365,-0.0535770419525409,0.467083916982158,-0.2124297395124219,-0.2432880900173092,-15.790350275892962,25.47485365978152,14.380736397886698,0.5439029305447587,-2.4609814330246764,0.395002900739198,7221.0830078125,11.576666666666666,8.08,179.35723715564387,1.2834602896126324,44.97466580387778,1262.0,1435.0,1350.0,1528.0,1222.0,1010.0,61.0,293.85,1649167733.4684684,1649167734.4971054,9418b7b1-f107-49e2-a9d7-1e538232d5d4
-0.4486680207519438,-0.6428030980098703,-0.081791953876644,0.2878918544859697,-0.0644931995846098,0.4698643181283249,-0.2220447246762097,-0.2571353124766106,-15.788008598689691,25.36694024726152,13.546365036771542,0.564734276318046,-2.4594205027478853,0.4378768600756791,7221.0830078125,11.579625,8.09,179.3600299441045,1.2917218406763076,45.0108796091528,1262.0,1435.0,1350.0,1528.0,1222.0,1010.0,61.0,293.85,1649167734.6054063,1649167735.724475,9418b7b1-f107-49e2-a9d7-1e538232d5d4
-0.4851693581639633,-0.7076152375930591,-0.08564068700473,0.3056152001847647,-0.0644521098928409,0.5183501311590947,-0.2174974667118432,-0.2343716293827564,-15.79204602933975,26.566726533003788,13.719564197919476,0.6414963101167082,-2.7064176802628315,0.4286549833880317,7221.0830078125,11.560333333333334,8.08,179.3851149521962,1.2893882416240017,45.065662137460144,1153.0,1435.0,1350.0,1528.0,1121.0,1010.0,61.0,293.85,1649167736.841004,1649167737.976025,080c69dd-c600-4ee1-8272-8a361892ea17
-0.4775168149723685,-0.7029249862554184,-0.0874869832695175,0.299689521430578,-0.0662123917443295,0.5172478322006405,-0.2182507775885173,-0.2369350772711312,-15.786997812684351,26.375511364737942,13.432907448629376,0.6509835013652214,-2.6857121949320515,0.434835078640353,7221.0830078125,11.527333333333337,8.066666666666668,179.3825877822033,1.2985580196020572,45.13092231824989,1153.0,1435.0,1350.0,1528.0,1121.0,1010.0,61.0,293.85,1649167738.0887065,1649167739.0928776,080c69dd-c600-4ee1-8272-8a361892ea17
-0.4723219829837166,-0.7065606021677873,-0.0882430333166016,0.3014240535055643,-0.0666298628455128,0.5219112360468018,-0.2167852456376785,-0.2481366728425758,-15.65654487456044,26.368711448335898,13.81838518961048,0.6575945034322793,-2.703949361246906,0.4345606642700129,7221.0830078125,11.531333333333334,8.06111111111111,179.37558000811487,1.2742967489253816,45.18032242033191,1153.0,1435.0,1350.0,1528.0,1121.0,1010.0,61.0,293.85,1649167739.2025254,1649167740.2503195,080c69dd-c600-4ee1-8272-8a361892ea17
-0.0265690711508603,0.1152527670908909,-0.0605190059947343,-0.1055138467201963,-0.2100854363198575,0.0998687927315735,-0.3524595388259952,-0.373471160195827,-15.463220976066903,22.332179861967848,14.653370686244346,0.602013215572692,0.4213735415648872,0.884173695270741,7219.05712890625,11.567666666666668,8.083333333333334,179.0970130195456,1.254708738739104,45.23715680387054,1553.0,1435.0,1350.0,1528.0,1471.0,1010.0,61.0,293.85,1649167741.3474476,1649167742.486557,bcdb31d4-36e7-4723-b078-f79dc9fa5960
-0.0345371813038592,0.1126098791931868,-0.0660546073254138,-0.1044356535791974,-0.2131885289478125,0.0965684700173044,-0.3565356353699878,-0.390866888036346,-15.45696885392001,22.13443365842081,13.922997625287548,0.5904650122056365,0.4174031022086552,0.900494414692356,7221.0830078125,11.634333333333332,8.092222222222222,179.08628506908929,1.2486100438564522,45.28885792079296,1553.0,1435.0,1350.0,1528.0,1471.0,1010.0,61.0,293.85,1649167742.5947297,1649167743.7123787,bcdb31d4-36e7-4723-b078-f79dc9fa5960
-0.0290804721966146,0.1162126218926969,-0.0688947258541643,-0.110207931559402,-0.2169622051808944,0.0972390535118763,-0.3598359587250129,-0.3780863528459175,-15.514607343988096,22.123805449377627,13.741437321658132,0.6047229176295867,0.4334631555861105,0.9142979491758492,7221.0830078125,11.635666666666664,8.096666666666666,179.09635276792585,1.2368181609992157,45.32628280398517,1553.0,1435.0,1350.0,1528.0,1471.0,1010.0,61.0,293.85,1649167743.8207042,1649167744.9427328,bcdb31d4-36e7-4723-b078-f79dc9fa5960
-0.0182810094051488,0.1107405729079293,-0.081161912136808,-0.3787196814470357,-0.2582036435857934,0.3670168680956308,-0.2982249931919215,-0.312907706849549,-15.404948558000063,21.824532713426844,16.37222405744813,1.814526233272929,0.4211237044784406,0.9003644694020645,7221.0830078125,11.633444444444445,8.100000000000001,179.0787688253626,1.3148712505304958,45.43675200689123,1553.0,1537.0,1350.0,1528.0,1471.0,1010.0,61.0,293.85,1649167746.8763063,1649167748.0107622,74ff65e1-69a4-4dbc-8db4-01a5d37cc95d
-0.0224995495746221,0.1153289199551074,-0.0814084502197697,-0.376651500702079,-0.2574503327809693,0.3606068791517594,-0.2991015730892798,-0.3346989349534823,-15.417332436366294,21.651253952460603,16.36866840445329,1.794289060873747,0.4381787540954602,0.9015533204045808,7227.17236328125,11.629444444444443,8.100000000000001,179.08378370203323,1.3048651419761006,45.48808960596783,1553.0,1537.0,1350.0,1528.0,1471.0,1010.0,61.0,293.85,1649167748.1204216,1649167749.244398,74ff65e1-69a4-4dbc-8db4-01a5d37cc95d
-0.0226639082600171,0.111658242321004,-0.0833259685002155,-0.3726110151873892,-0.2578201398958989,0.3580045332145774,-0.301690223025275,-0.3181808826552824,-15.49475058630175,21.65784816418612,15.999562134899373,1.77917732290445,0.4276118885525792,0.907370321864292,7221.0830078125,11.628555555555556,8.11,179.08344219257472,1.2994215642133713,45.49224501716788,1553.0,1537.0,1350.0,1528.0,1471.0,1010.0,61.0,293.85,1649167749.3528583,1649167750.5630429,74ff65e1-69a4-4dbc-8db4-01a5d37cc95d
-0.0024406413041807,0.10889451504638,-0.0996409526337101,-0.6534584289609806,-0.3046320060520702,0.6376864482642854,-0.2424186556166453,-0.2580398813006749,-15.457402388698608,21.359643358769013,18.77643349923568,3.0388551237416506,0.4259095362634677,0.9102469441805852,7196.83154296875,11.619555555555555,8.137777777777778,179.06764017047493,1.3727211266735386,45.51621139205554,1553.0,1645.0,1350.0,1528.0,1471.0,1010.0,61.0,293.85,1649167752.4069643,1649167753.5334218,bf1d66c4-9bab-431c-a314-11482d67c510
-0.0027902013039412,0.1107405729113375,-0.1033914278926072,-0.6572392759635012,-0.3087576483221383,0.6366062067485966,-0.2445344764290969,-0.2757763312071816,-15.30576943377586,21.227562291583,18.36351812352575,3.043904518432348,0.4356453164790623,0.9237590974629852,7196.83154296875,11.620444444444445,8.137777777777778,179.08798502728268,1.3842028525378396,45.51261188236294,1553.0,1645.0,1350.0,1528.0,1471.0,1010.0,61.0,293.85,1649167753.6416664,1649167754.7616315,bf1d66c4-9bab-431c-a314-11482d67c510
-0.0080951524801813,0.1166991236497094,-0.1021083342283388,-0.6598366922892255,-0.3083325071048839,0.6299847431088313,-0.2442720503386919,-0.2575785328821621,-15.26566625226295,21.12860194836865,17.919372010279474,3.0342415972698524,0.4620455803907454,0.9211978452285646,7196.83154296875,11.619222222222223,8.145555555555555,179.0878787798956,1.376481513408617,45.53334378322366,1553.0,1645.0,1350.0,1528.0,1471.0,1010.0,61.0,293.85,1649167754.8699734,1649167756.1029778,bf1d66c4-9bab-431c-a314-11482d67c510
0.0043172169958135,0.1125572844100459,-0.1104183107184211,-0.9169332679869708,-0.3491592155172708,0.8929060486994227,-0.1872724460906573,-0.2016308243653384,-15.28957734125521,21.42909092640513,21.24559431832258,4.207104141742699,0.4483325566892795,0.9087733050079968,7201.535047743056,11.619333333333335,8.127777777777778,179.06774034658278,1.446202092317599,45.57381227460102,1553.0,1761.0,1350.0,1528.0,1471.0,1010.0,61.0,293.85,1649167757.7767365,1649167758.8660555,4fc317c9-f04d-4bab-9c83-6d8510e3794b
0.008783390907667,0.1117404216697629,-0.118813753795502,-0.93065010533584,-0.3571612943087047,0.8967586163916433,-0.1902276158509669,-0.2205791932441715,-15.103168391584704,21.113046192598457,19.84383977557093,4.244060450162813,0.4575244332272404,0.9333877794408424,7196.83154296875,11.60688888888889,8.09,179.0747936552657,1.4444873116650376,45.607041903823045,1553.0,1761.0,1350.0,1528.0,1471.0,1010.0,61.0,293.85,1649167758.9745052,1649167760.200266,4fc317c9-f04d-4bab-9c83-6d8510e3794b
