raw_voltage_G-,raw_voltage_G0,raw_voltage_G1,raw_voltage_G2,raw_voltage_G3,raw_voltage_G4,raw_voltage_G5,raw_voltage_G6,load_x,load_y,load_z,load_l,load_m,load_n,rpm,voltage,current,roll,pitch,yaw,aileron1_pwm,elevator_pwm,throttle_pwm,rudder_pwm,aileron2_pwm,pbaro,pdiff,Tt,sample_start_time,sample_end_time,uid
0.0117418475375007,0.1352300191368643,-0.030922933287607,0.0506948605231769,-0.1028298689746663,0.2307772083138172,-0.2095260687835064,-0.2460137056234803,-12.24255366844836,13.88359528501043,57.2171948972383,0.4976864528879856,0.078763506617523,0.5637773934015898,5763.810329861111,12.032777777777776,0.2588888888888889,178.7194538226057,-8.81019384687261,106.03674481399396,1525.0,1435.0,1200.0,1528.0,1475.0,1021.7000000000002,185.0,294.15,1637173817.0210044,1637173818.059489,adf4f400-e97a-49c7-a2ce-cae1c7433b5f
0.0137415450646639,0.1532409931906067,-0.0274440073220823,0.0406963726606712,-0.0960637686782154,0.2180531059622151,-0.2204422271909883,-0.2464793889018444,-13.875972267972378,13.940309912573838,56.58804626640154,0.4912745190833381,0.1649052087075248,0.5654005825285137,5768.11962890625,12.033,0.26,178.8759015822745,-8.83375069500129,105.73075765154674,1525.0,1435.0,1200.0,1528.0,1475.0,1021.7000000000002,185.0,294.15,1637173818.193243,1637173819.2333195,adf4f400-e97a-49c7-a2ce-cae1c7433b5f
0.0237126398440337,0.1544462903094779,-0.0317173337246143,0.0325606168935502,-0.1055143946308208,0.2263943097789031,-0.2160045417166421,-0.2476162035599596,-12.853555425628734,13.797407466313118,56.87341170011814,0.5277706363258877,0.1603885600421027,0.5790300117295549,5767.257649739583,12.030444444444443,0.26,178.95617603667978,-8.854742237914202,105.53088127240522,1525.0,1435.0,1200.0,1528.0,1475.0,1021.7000000000002,185.0,294.15,1637173819.341189,1637173820.402209,adf4f400-e97a-49c7-a2ce-cae1c7433b5f
0.2163684292842327,0.4927512654915922,0.0106872125919981,-0.1442893545386525,-0.1373588953722988,0.0466406791939529,-0.2602992173393356,-0.2862952899990003,-14.40725017560461,13.27795726189632,55.300210943801936,0.5204055318448432,1.4786312421435657,0.6639595834417479,5752.63525390625,12.019555555555556,0.2922222222222222,178.97786264620447,-8.878688881144265,105.23720286975224,1593.0,1435.0,1200.0,1528.0,1529.0,1021.7000000000002,185.0,294.15,1637173821.0387952,1637173822.153659,c66ae88a-7ef2-42e3-97a1-c80dc2fa9d37
0.2072328250774186,0.4935456658229795,0.0210965972748288,-0.1318665750159111,-0.1321678992966245,0.0477637969909809,-0.2382614518350856,-0.2634631241501651,-12.69783539039838,13.00187807830224,57.31462857644473,0.494776321772551,1.450783883402351,0.6156779874976805,5748.7763671875,12.019,0.2933333333333333,179.07201908064283,-8.897036287074734,104.99665271410328,1593.0,1435.0,1200.0,1528.0,1529.0,1021.7000000000002,185.0,294.15,1637173822.286103,1637173823.4921372,c66ae88a-7ef2-42e3-97a1-c80dc2fa9d37
0.2055344518916161,0.4693712420633725,0.0060029894993193,-0.117964567155018,-0.139810579532668,0.0475446520408768,-0.2584090920074376,-0.2736396678271897,-13.50504886164128,13.3703472283419,55.60128688687572,0.4639359684263865,1.3783514190783457,0.6694123283931107,5744.92333984375,12.020666666666664,0.29,179.11046849221054,-8.90380614290708,104.78398566737609,1593.0,1435.0,1200.0,1528.0,1529.0,1021.7000000000002,185.0,294.15,1637173823.6006289,1637173824.720265,c66ae88a-7ef2-42e3-97a1-c80dc2fa9d37
0.4447174387069832,0.8847193423942326,0.0620767006953569,-0.3258372597029274,-0.1927203898340802,-0.1628755860441617,-0.2890346011333033,-0.3236595071152544,-11.92536744799856,12.822949785687369,56.42630959722387,0.4600934804253254,2.9468056412038792,0.7595744703837334,5742.786946614583,12.008666666666665,0.31,179.06805149964495,-8.917985141305333,104.51722048678268,1661.0,1435.0,1200.0,1528.0,1583.0,1021.7000000000002,185.0,294.15,1637173825.6314428,1637173826.6566553,dc14e0c3-6cd1-4ed9-b70b-0cc9fd2a01de
0.4424027204881964,0.8976351960593384,0.0641722741449377,-0.3522442289933876,-0.1870774071236846,-0.1640808831917038,-0.3040323349772023,-0.3262755502682689,-14.30872087076161,13.165432720962292,54.55727535250392,0.5178297218233845,3.032071857806249,0.7672734791699835,5748.7763671875,12.010666666666667,0.3166666666666666,179.09156252858793,-8.920385857934855,104.36745568776172,1661.0,1435.0,1200.0,1528.0,1583.0,1021.7000000000002,185.0,294.15,1637173826.7646284,1637173827.8843927,dc14e0c3-6cd1-4ed9-b70b-0cc9fd2a01de
0.4298429773206085,0.8685711011901381,0.0500100326036905,-0.3337675682633732,-0.2170043905927716,-0.1503980200994846,-0.2843366808194918,-0.3088124349762076,-9.492829157705328,13.009821626069469,54.87002094570041,0.5076354232167072,2.883030955199479,0.7998154730259078,5744.92333984375,12.009,0.31,179.08884259547847,-8.928595081271043,104.2133901462934,1661.0,1435.0,1200.0,1528.0,1583.0,1021.7000000000002,185.0,294.15,1637173827.992905,1637173829.1143415,dc14e0c3-6cd1-4ed9-b70b-0cc9fd2a01de
0.6304838456451352,1.2066432374498062,0.1138907812589289,-0.5049608904683726,-0.2321390895982098,-0.3189615861457114,-0.312277664580859,-0.3480667787767439,-11.25241370482677,13.193713479360651,55.732441245990834,0.5186723964811639,4.180947689508503,0.8124510951279689,5744.92333984375,11.988,0.36,179.02112810004698,-8.920068728457144,103.98242426386976,1729.0,1435.0,1200.0,1528.0,1636.0,1021.7000000000002,185.0,294.15,1637173830.0256393,1637173831.274266,857d32b7-bde0-48d1-b0d6-3e17ec8f93b0
0.6216632627697789,1.2219833828033195,0.1195748530228493,-0.5248482987995859,-0.2286327700653333,-0.3240704031870876,-0.3190848551146332,-0.331891140367624,-12.502575423064426,13.544890607467238,54.53839952391516,0.5538447109152967,4.260728521495935,0.80859863075012,5744.92333984375,11.989333333333336,0.36,179.03916131727564,-8.925365635022226,103.7764758465561,1729.0,1435.0,1200.0,1528.0,1636.0,1021.7000000000002,185.0,294.15,1637173831.3832853,1637173832.5101385,857d32b7-bde0-48d1-b0d6-3e17ec8f93b0
0.6178693164098804,1.2020138007208458,0.1150138990573259,-0.5067825331381627,-0.2340155183004556,-0.3214680566731468,-0.3119078573552417,-0.3389037792695613,-11.02148327911525,13.4484568940422,54.49502631742828,0.5188128441362633,4.173216998773445,0.8106849434383756,5747.063910590277,11.990222222222222,0.36,179.07365225476437,-8.91746244210635,103.53007221878843,1729.0,1435.0,1200.0,1528.0,1636.0,1021.7000000000002,185.0,294.15,1637173832.642306,1637173833.7314558,857d32b7-bde0-48d1-b0d6-3e17ec8f93b0
0.7438639466843998,1.419898658092143,0.1512412956695772,-0.6188888986337105,-0.2636000884287799,-0.4510786155867466,-0.3416293942697455,-0.3712139675587687,-10.98121510301868,14.492180899660635,51.75769716866571,0.4887518856201684,5.0305105754878845,0.865035570326801,5744.92333984375,11.96,0.4366666666666666,178.9899429741165,-8.892518686121203,103.09526465295517,1796.0,1435.0,1200.0,1528.0,1690.0,1021.7000000000002,185.0,294.15,1637173835.555673,1637173836.607051,7eca2e94-1e78-44f9-bdac-257144c11bbe
0.735139239690834,1.406037740085009,0.1432698987712922,-0.6080686138256594,-0.2720371696784583,-0.447668171773819,-0.3398899310395379,-0.3731040928657216,-9.854022408159096,14.345624029202725,51.70004482206652,0.4711974411238422,4.969216645867668,0.8841012562469567,5744.92333984375,11.963444444444445,0.4255555555555556,178.98778766997842,-8.899783635804637,102.83054549347317,1796.0,1435.0,1200.0,1528.0,1690.0,1021.7000000000002,185.0,294.15,1637173836.7158806,1637173837.8306816,7eca2e94-1e78-44f9-bdac-257144c11bbe
0.7463978097694283,1.4158992627816696,0.157281477832785,-0.5878661833843984,-0.25560129719142,-0.4752804403088886,-0.3347400241202501,-0.3624892576981431,-10.145156695957434,14.272092882645538,51.86905969281554,0.363667882023376,5.005165614878581,0.8367186529625178,5729.5634765625,11.961,0.43,179.00774244709356,-8.887184308379423,102.55142450067125,1796.0,1435.0,1200.0,1528.0,1690.0,1021.7000000000002,185.0,294.15,1637173837.9429734,1637173839.0562522,7eca2e94-1e78-44f9-bdac-257144c11bbe
-0.1924601552961255,-0.2243868364848743,-0.0693965677549161,0.2457338494832442,-0.0478929699663838,0.3718791460167943,-0.1939530801522876,-0.2093617109829861,-14.5093155748415,15.12107639533169,52.62827994614455,0.379216324737722,-1.2397348367597287,0.4688536293222798,5729.5634765625,12.019777777777778,0.2899999999999999,179.43227968514486,-8.897118059617299,102.04862088383068,1457.0,1435.0,1200.0,1528.0,1421.0,1021.7000000000002,185.0,294.15,1637173841.0837853,1637173842.129161,d5fbf7a3-63b7-4e86-81f5-774ba8aee27f
-0.1930628038866806,-0.2340429113499774,-0.0791211248067982,0.2569376338063381,-0.0583434445634968,0.375823754580525,-0.1942681010244499,-0.2291121503688959,-13.382486623746471,14.93360184203856,53.26787154385962,0.3617495564942974,-1.291594181013365,0.4974886167691872,5738.940809461806,12.017111111111111,0.2899999999999999,179.37591848193375,-8.85914382051558,102.15094850124603,1457.0,1435.0,1200.0,1528.0,1421.0,1021.7000000000002,185.0,294.15,1637173842.2373917,1637173843.3477716,d5fbf7a3-63b7-4e86-81f5-774ba8aee27f
-0.1905152437739823,-0.2324952000898871,-0.0740123082303875,0.2450627181552682,-0.0547549461148388,0.3887670014402435,-0.1887483873893669,-0.2240170299129347,-13.663710693962305,15.066027730720046,53.80945620569105,0.4186986836027316,-1.2868107652733185,0.4783741701550359,5744.92333984375,12.021666666666668,0.28,179.34711936875334,-8.85837324236797,102.19878183382346,1457.0,1435.0,1200.0,1528.0,1421.0,1021.7000000000002,185.0,294.15,1637173843.456132,1637173844.5823886,d5fbf7a3-63b7-4e86-81f5-774ba8aee27f
-0.3661873282293957,-0.5336551883035177,-0.1161840143999243,0.3844936754683147,-0.0283616768314962,0.5478525155935885,-0.1656012013499141,-0.2010752931773072,-13.883766031087871,15.932238983523142,52.64654204579292,0.4650092005660711,-2.424305154515966,0.429586166961938,5756.49853515625,11.997,0.3400000000000001,179.38997349342583,-8.822333369757445,102.25438640385654,1389.0,1435.0,1200.0,1528.0,1367.0,1021.7000000000002,185.0,294.15,1637173845.5412931,1637173846.5185237,1779ed0a-a62d-4cbd-96f8-fdd0cb8f84e1
-0.36789939829004,-0.5311213242631888,-0.0955980856529572,0.4022581105746994,0.001442035365301,0.5436202794016314,-0.1508773997634984,-0.1672858785733699,-15.025462697981672,15.727214897954624,54.86645872620097,0.4148716663691508,-2.4272816621271787,0.3428470749314126,5752.63525390625,11.999666666666664,0.3400000000000001,179.38086202107303,-8.831889373588723,102.11295139998336,1389.0,1435.0,1200.0,1528.0,1367.0,1021.7000000000002,185.0,294.15,1637173846.626791,1637173847.863711,1779ed0a-a62d-4cbd-96f8-fdd0cb8f84e1
-0.3545452514013615,-0.5297105783093335,-0.108486547972011,0.4021759312498494,-0.0179659885589079,0.5306907293041997,-0.1647931043459862,-0.1970074135740159,-14.203262480373075,15.95850979251721,53.10485546792091,0.3870272046680283,-2.4129998120010985,0.4048283466995638,5742.360080295139,11.998555555555557,0.3411111111111111,179.39361626098315,-8.821559091924033,101.95090516192482,1389.0,1435.0,1200.0,1528.0,1367.0,1021.7000000000002,185.0,294.15,1637173847.9715917,1637173849.0925024,1779ed0a-a62d-4cbd-96f8-fdd0cb8f84e1
-0.602891313015712,-0.938443451580538,-0.1504801994746133,0.5839292474950251,0.0351492664086363,0.7494795351478997,-0.1300860222735017,-0.1567806180281959,-16.051882496356722,17.663620740429177,51.02995573930364,0.4766349966726959,-3.939533711787071,0.2875277825501132,5748.7763671875,11.979666666666668,0.38,179.4640855993799,-8.799833303675346,101.67302574573202,1321.0,1435.0,1200.0,1528.0,1314.0,1021.7000000000002,185.0,294.15,1637173851.118922,1637173852.2566044,d4327765-5705-46ed-981b-4be95620fb9f
-0.6033432996348297,-0.9512771345151986,-0.1506171650273295,0.5940920930014335,0.0463804445830172,0.7619707953866963,-0.1314693747839267,-0.1546850435091515,-17.27185220188169,17.537416480461804,52.34983282998144,0.4805324878437497,-3.991993304323627,0.2739832547099874,5748.7763671875,11.984,0.37,179.51207754412803,-8.815065194706904,101.42476885996956,1321.0,1435.0,1200.0,1528.0,1314.0,1021.7000000000002,185.0,294.15,1637173852.3655777,1637173853.4450214,d4327765-5705-46ed-981b-4be95620fb9f
-0.5904274407112634,-0.9261028451909082,-0.1457822794936936,0.5782314796771587,0.0450244852703799,0.7486988313751576,-0.1329349066753639,-0.1582324535399869,-17.36953289837611,17.516857810196694,51.90742215187623,0.4864710367121621,-3.890703040602633,0.2735494144829269,5743.21435546875,11.985555555555557,0.37,179.52080956152696,-8.806709217167302,101.21783310086587,1321.0,1435.0,1200.0,1528.0,1314.0,1021.7000000000002,185.0,294.15,1637173853.554278,1637173854.6216152,d4327765-5705-46ed-981b-4be95620fb9f
-0.728310746275293,-1.180407021631451,-0.1657244703779234,0.6976243693238185,0.0684592969538063,0.8604216495489636,-0.0994331222365969,-0.1296203398242592,-15.97893003228645,18.88574820431451,48.02743253042555,0.4763690721294058,-4.835893246285342,0.1863286495619001,5732.969292534723,11.937555555555557,0.48,179.5500215216972,-8.810072800742319,100.82685258220684,1254.0,1435.0,1200.0,1528.0,1260.0,1021.7000000000002,185.0,294.15,1637173856.5564983,1637173857.5824697,6f801763-7cab-462a-9dc9-0dee8a84d142
-0.7281836421684423,-1.2026151875063456,-0.1790676589058782,0.6960700840048338,0.0507058177768674,0.8690674644546941,-0.0974011006897834,-0.1296154090823831,-14.230855301514628,18.814201036747804,45.9089209630822,0.4987069962862481,-4.9134392340166775,0.2213676417458737,5727.43701171875,11.939555555555554,0.48,179.5962907409547,-8.824784459032095,100.39947702110042,1254.0,1435.0,1200.0,1528.0,1260.0,1021.7000000000002,185.0,294.15,1637173857.6905158,1637173858.810316,6f801763-7cab-462a-9dc9-0dee8a84d142
-0.743144125597366,-1.2011847177985917,-0.1770926150881893,0.7014457088009131,0.0546120761699436,0.8647497616973224,-0.0975703902083565,-0.1289766012519552,-14.453458602430644,18.769825168946664,46.20656593460618,0.4766180136815523,-4.909673991137276,0.2140985704637385,5726.58642578125,11.942333333333332,0.4722222222222222,179.6302792800845,-8.832648757815196,99.9766374645128,1254.0,1435.0,1200.0,1528.0,1260.0,1021.7000000000002,185.0,294.15,1637173858.9183626,1637173860.1511638,6f801763-7cab-462a-9dc9-0dee8a84d142
0.0149468422579207,0.144091692302328,-0.0350455975511076,0.0799370129784215,-0.0976114798911815,0.1814148132595617,-0.2342072700734749,-0.2524236959478549,-13.630686945983024,13.852887792973672,55.16034432677149,0.3193639590124088,0.1361926390716386,0.5948996786238486,5718.945041232639,12.033888888888889,0.26,179.2695754721963,-8.84820185746522,99.57224093650404,1525.0,1435.0,1200.0,1528.0,1475.0,1021.7000000000002,185.0,294.15,1637173861.0638568,1637173862.0873864,2179ab4d-f813-4147-a3f6-588d7e5a1a8c
0.0165904292457213,0.1456804930214305,-0.0320049614602857,0.0817038690199091,-0.096337699863613,0.1846608974788569,-0.2240992086999128,-0.2526291441565315,-12.860162406921091,13.590025271697952,56.12348670376675,0.3216229981871616,0.1281324822356851,0.5768411912457181,5731.692111545139,12.03188888888889,0.25,179.1634570997915,-8.803295355810896,100.02126895618932,1525.0,1435.0,1200.0,1528.0,1475.0,1021.7000000000002,185.0,294.15,1637173862.196225,1637173863.4293425,2179ab4d-f813-4147-a3f6-588d7e5a1a8c
0.0245070402434501,0.1580073954387561,-0.0330458999273588,0.0762800318383038,-0.0948036851990285,0.1776208666518039,-0.2384532037169429,-0.2612168877464019,-14.307250341978266,13.82065232006716,56.0754066296507,0.3187788880828388,0.1856398379298288,0.5968773020297224,5733.39501953125,12.032111111111112,0.2577777777777778,179.07562390270476,-8.802825211123029,100.4270626373383,1525.0,1435.0,1200.0,1528.0,1475.0,1021.7000000000002,185.0,294.15,1637173863.5373538,1637173864.658303,2179ab4d-f813-4147-a3f6-588d7e5a1a8c
0.0398608825111942,0.1487211289958732,-0.0649588825699955,-0.4349166729085383,-0.1682857270313344,0.6882011379276284,-0.127990448643834,-0.1408652152594586,-15.15990454895063,12.351520019932233,60.76868588380093,2.6082462758860294,0.1761403815530751,0.584208255582272,5733.821451822917,12.024,0.27,178.93689972502222,-8.64434433181122,101.08685967007143,1525.0,1535.0,1200.0,1528.0,1475.0,1021.7000000000002,185.0,294.15,1637173866.5940716,1637173867.537463,ae86a3d7-c88d-472f-b1aa-866bc34f25a7
0.0379097454609613,0.1327745997487918,-0.0803089900174903,-0.4382075831725128,-0.1938659202699482,0.6989604062277107,-0.1274500571073861,-0.1534635619240366,-12.867509964653152,12.47173152789747,59.57622601239779,2.640843687424246,0.1101090431339433,0.6371174306706141,5741.07568359375,12.02533333333333,0.26,178.93731712547145,-8.606040441218312,101.19056622678926,1525.0,1535.0,1200.0,1528.0,1475.0,1021.7000000000002,185.0,294.15,1637173867.6469128,1637173868.7535198,ae86a3d7-c88d-472f-b1aa-866bc34f25a7
0.0406141933081505,0.1472145075863616,-0.0727385281900711,-0.4462300328494461,-0.1880635594494044,0.6913102564283671,-0.1245800053232652,-0.145097452257476,-13.200133280945709,12.425681686381298,59.49243201266472,2.6416403574601377,0.1688312482886087,0.6161536833877119,5748.7763671875,12.02722222222222,0.26,178.92001701521374,-8.581614072062793,101.33069438780126,1525.0,1535.0,1200.0,1528.0,1475.0,1021.7000000000002,185.0,294.15,1637173868.8616009,1637173869.9838057,ae86a3d7-c88d-472f-b1aa-866bc34f25a7
0.0637476806712153,0.1441601750752141,-0.1007342953656915,-0.9653572051571448,-0.2754339165717619,1.202904077022933,-0.0188699614305119,-0.0522895665345977,-13.309368149387003,12.259677768120048,64.13686455167431,4.960474596332497,0.1791233620969151,0.6244289751438963,5747.492024739583,12.010333333333332,0.2966666666666666,178.9335165046533,-8.402245999950395,101.52760418811329,1525.0,1636.0,1200.0,1528.0,1475.0,1021.7000000000002,185.0,294.15,1637173872.1232097,1637173873.2552116,ad3f15cf-f744-4fa7-9e63-d344e099d76b
0.0594195683276156,0.14548874123552,-0.0915576006240438,-0.967206241964724,-0.2677775392997199,1.2087935971268873,-0.0087755975572611,-0.0260332626362365,-13.264014745689956,12.332931521465676,64.98967207199347,4.978981426721082,0.1770375330375889,0.5884686500767459,5790.666069878473,12.012555555555556,0.2988888888888888,178.9757483232014,-8.380037924455316,101.46750838924598,1525.0,1636.0,1200.0,1528.0,1475.0,1021.7000000000002,185.0,294.15,1637173873.3633442,1637173874.488243,ad3f15cf-f744-4fa7-9e63-d344e099d76b
0.0613877041654342,0.1453106859863981,-0.0908942107331697,-0.96689777142291,-0.2662721086738812,1.2085970813044629,-0.0107157448687169,-0.037084600049999,-13.57594297858648,12.428203458125289,64.97292825872987,4.97834891124028,0.1787315607475611,0.5879765861142461,5830.90234375,12.011888888888889,0.2955555555555555,179.0062944469895,-8.376008682027438,101.40020066952502,1525.0,1636.0,1200.0,1528.0,1475.0,1021.7000000000002,185.0,294.15,1637173874.5971506,1637173875.8312142,ad3f15cf-f744-4fa7-9e63-d344e099d76b
0.0782249430860935,0.1384076206237667,-0.1073771266474015,-1.327631458768865,-0.3302064624599771,1.5535907777885936,0.0560365183546563,0.03698460456973,-13.762594412101596,13.137398016827833,66.01859440373626,6.5712759568487344,0.188275365449299,0.59953952148784,5817.337510850694,11.987111111111112,0.3544444444444444,179.08454564758063,-8.257007149891953,101.27777635884172,1525.0,1737.0,1200.0,1528.0,1475.0,1021.7000000000002,185.0,294.15,1637173877.65203,1637173878.7901027,e57e6254-fae0-464a-af97-33e580b1feee
0.0784988743245697,0.1426398570974347,-0.1018711097727737,-1.3392872411789962,-0.3271521293785579,1.5572751523514272,0.0574746570202794,0.0345329205240403,-14.205054558019343,13.402383401220469,65.63221032771963,6.607594295856771,0.2124935842470684,0.5852732627500532,5773.302680121527,11.985888888888889,0.3588888888888888,179.1332615923808,-8.284211793356114,101.05785565121592,1525.0,1737.0,1200.0,1528.0,1475.0,1021.7000000000002,185.0,294.15,1637173878.8986824,1637173880.018073,e57e6254-fae0-464a-af97-33e580b1feee
0.0799879641541906,0.1358567736364254,-0.1124695074385856,-1.3344704306998627,-0.3479626839982006,1.5557712701145705,0.0661029410594862,0.039082369897939,-11.29429697789704,13.066018645717833,65.08539929990144,6.591969831693671,0.1700270040376912,0.61640379990035,5756.49853515625,11.990666666666666,0.35,179.13717908532473,-8.2874105986174,100.86036300809474,1525.0,1737.0,1200.0,1528.0,1475.0,1021.7000000000002,185.0,294.15,1637173880.1266873,1637173881.24377,e57e6254-fae0-464a-af97-33e580b1feee
0.0787591088657973,0.1417632773788329,-0.1004603641937997,-1.3987988498169734,-0.3343702169540425,1.6112806907227453,0.0556256215149837,0.0270272065404421,-15.673007047031083,14.432697762262428,65.39096912672525,6.869318499130881,0.2291678588863679,0.593396636410274,5748.7763671875,11.956,0.43,179.17073808144676,-8.255225324292224,100.6337259477851,1525.0,1837.0,1200.0,1528.0,1475.0,1021.7000000000002,185.0,294.15,1637173882.0456536,1637173883.0893862,41ce8700-0a5c-46ef-bb12-4ad5067c9915
0.0928868349681469,0.1507805434308841,-0.1061449842518157,-1.4461818700001516,-0.3554837396300459,1.6470626815713905,0.0679963531488249,0.0559521469471178,-13.995513428192616,14.35286854408363,65.54866331363225,7.056667186153841,0.2551896974950911,0.6143934146098633,5743.213270399306,11.957777777777778,0.4244444444444444,179.1954345276657,-8.284203065892173,100.32897277284792,1525.0,1837.0,1200.0,1528.0,1475.0,1021.7000000000002,185.0,294.15,1637173883.198243,1637173884.3221092,41ce8700-0a5c-46ef-bb12-4ad5067c9915
0.0733215751922917,0.1333946803143023,-0.0990770117875763,-1.402401047706375,-0.3416704841085092,1.628825984748843,0.0769922528602947,0.0506674666096274,-13.380096046761109,14.190520822946324,66.32566177596584,6.91663744332357,0.1737948117326333,0.5730096699513773,5733.39501953125,11.96,0.43,179.19299083776264,-8.2707307074818,100.01620171473506,1525.0,1837.0,1200.0,1528.0,1475.0,1021.7000000000002,185.0,294.15,1637173884.4582112,1637173885.5511856,41ce8700-0a5c-46ef-bb12-4ad5067c9915
-0.0085427561436204,0.1488717911217841,0.0079068111478333,0.6089528576339567,-0.0053651543786777,-0.325371576482891,-0.3321787672523276,-0.3548465760750636,-13.18581182539453,15.032144934236117,52.80619279180476,-2.0029780071947267,0.1094467644335589,0.5519221767283256,5741.07568359375,12.034,0.25,179.2060091783207,-8.907185663590159,99.70349516396438,1525.0,1334.0,1200.0,1528.0,1475.0,1021.7000000000002,185.0,294.15,1637173886.5509274,1637173887.596373,a1de3475-ebac-460c-92ae-23c785e9b771
0.008030080061393,0.1744432652018535,0.0094408257540273,0.5897913740187262,-0.0082140386027695,-0.336013804227872,-0.3423964016626137,-0.3562573221195649,-14.040089571163042,15.210600207689914,52.31611253462071,-1.9829176594965976,0.218204739987757,0.5698234315720386,5733.39501953125,12.03377777777778,0.2444444444444444,179.08331621353005,-8.91468729830108,100.1988113756548,1525.0,1334.0,1200.0,1528.0,1475.0,1021.7000000000002,185.0,294.15,1637173887.7044458,1637173888.8203309,a1de3475-ebac-460c-92ae-23c785e9b771
-0.0007631107244739,0.1691153040720969,0.0037293607327058,0.5782451762292906,-0.0145144556998533,-0.3238101685323926,-0.3404514899700401,-0.3595855862553765,-13.667929580794556,15.0233931099389,51.78345742555211,-1.930872050994636,0.2013648309925592,0.5822609517476044,5741.07568359375,12.033222222222223,0.2488888888888889,178.9913682069233,-8.901877468240198,100.62446648800028,1525.0,1334.0,1200.0,1528.0,1475.0,1021.7000000000002,185.0,294.15,1637173888.9293592,1637173890.0525086,a1de3475-ebac-460c-92ae-23c785e9b771
-0.0121878272626593,0.1790828253730265,0.0473529002403555,1.0577157976186833,0.065032179832122,-0.8000235763224836,-0.4448943202629284,-0.4809532016925719,-14.010459630106508,17.3575237078375,47.98119444802818,-4.06568854307964,0.2186447894512219,0.5620060561691524,5747.920138888889,12.024777777777778,0.2622222222222222,178.9240028100494,-9.048615070502766,101.3501816764132,1525.0,1234.0,1200.0,1528.0,1475.0,1021.7000000000002,185.0,294.15,1637173892.0470877,1637173893.1254108,3326d9c3-91e2-40e6-ac3b-4b6626cb58bb
-0.0096536191391263,0.1901719599853242,0.050882287115687,1.0604598732282746,0.0669894399446833,-0.8059630589129062,-0.4443391863468545,-0.4536124828706753,-14.011603025830714,17.33880713738216,49.05597649789534,-4.085002899371875,0.2506036853127334,0.5566274759973104,5734.67431640625,12.022666666666666,0.2666666666666666,178.91212890563227,-9.035319727828384,101.5339289432847,1525.0,1234.0,1200.0,1528.0,1475.0,1021.7000000000002,185.0,294.15,1637173893.2340896,1637173894.3536942,3326d9c3-91e2-40e6-ac3b-4b6626cb58bb
-0.0216914526411892,0.1673895377573343,0.0428878221204675,1.0651440959649012,0.0644735984274662,-0.7941090422370304,-0.4481886410235627,-0.466363979870558,-14.206625423634415,17.40074649956685,48.13619368544247,-4.069164055455173,0.1736055987310574,0.572257600919302,5736.380045572917,12.018444444444444,0.27,178.90945906057672,-9.045067641002593,101.7214707596951,1525.0,1234.0,1200.0,1528.0,1475.0,1021.7000000000002,185.0,294.15,1637173894.4621189,1637173895.6716168,3326d9c3-91e2-40e6-ac3b-4b6626cb58bb
-0.0287999667794877,0.1898929826968777,0.0768005010535331,1.4370604471402704,0.1162328926885366,-1.1621221018570105,-0.5279026322073217,-0.5499130091422239,-13.43623025368668,19.43652144590964,47.43582403208055,-5.719630529140951,0.2151554352836209,0.5737279380186032,5729.5634765625,12.013666666666666,0.2811111111111111,178.92416218113,-9.173263366670822,101.94282960159612,1525.0,1133.0,1200.0,1528.0,1475.0,1021.7000000000002,185.0,294.15,1637173896.586236,1637173897.630289,b2821237-9bf5-47b1-b15b-04fdfc5e5791
-0.0229104464475743,0.1915502662445252,0.0765402664742301,1.4024629383009684,0.1233687996244814,-1.157629627080179,-0.5515292024556198,-0.5868800320837158,-16.978639504809255,20.1421839065234,43.69704093448903,-5.629206013443013,0.28383546227293,0.5898595494828697,5727.01171875,12.009666666666666,0.3,178.95297799032838,-9.16102850572882,102.00484544253013,1525.0,1133.0,1200.0,1528.0,1475.0,1021.7000000000002,185.0,294.15,1637173897.7388046,1637173898.8601654,b2821237-9bf5-47b1-b15b-04fdfc5e5791
-0.0326760929524297,0.1837569247121888,0.0780468879453189,1.4240487156980537,0.128258470961446,-1.1576707165317044,-0.5471736954781008,-0.5679239884321713,-16.650396678650313,20.047430868285826,45.45224537844064,-5.678098663020738,0.2341623720789942,0.5769349041515898,5714.708170572917,12.001888888888889,0.3088888888888889,178.9663120374081,-9.181650269789166,102.06334145931184,1525.0,1133.0,1200.0,1528.0,1475.0,1021.7000000000002,185.0,294.15,1637173898.9688504,1637173900.022889,b2821237-9bf5-47b1-b15b-04fdfc5e5791
-0.0458658793345786,0.1779084944139184,0.0824571796901016,1.551645866809712,0.1239440549795878,-1.2731738925133045,-0.5584870562624528,-0.5721425307191869,-12.96601689364904,20.69949194593931,44.86725733577966,-6.219174065898486,0.1759155096415749,0.594802403167672,5721.91357421875,11.998222222222225,0.3155555555555555,178.99233961160527,-9.225192156565567,102.1620141666114,1525.0,1033.0,1200.0,1528.0,1475.0,1021.7000000000002,185.0,294.15,1637173901.091344,1637173902.3415265,166e6ea9-f5cf-411e-8242-ce168dfdacf4
-0.0520978136521045,0.1723066021134034,0.0815532068084041,1.539565500603624,0.1286282778974402,-1.2575187124190863,-0.5719370810264224,-0.5977961922410263,-15.117101630378627,21.295471579347165,44.68026230075228,-6.153951239636121,0.1732273408478954,0.606008108476235,5713.438639322917,11.990444444444446,0.3400000000000001,179.00422262294128,-9.245820561087609,102.1431772637904,1525.0,1033.0,1200.0,1528.0,1475.0,1021.7000000000002,185.0,294.15,1637173902.4502285,1637173903.4578106,166e6ea9-f5cf-411e-8242-ce168dfdacf4
-0.0295395809254399,0.1813052408013138,0.0904285766981785,1.547509507007975,0.1350793568657752,-1.2712289823318343,-0.5587609877611336,-0.5818260000935358,-14.175763221748571,20.90841423976857,45.1088410587948,-6.204261530901015,0.1960946721509836,0.5689435688817961,5713.015625,11.994666666666667,0.3299999999999999,179.05322240004696,-9.228466663090158,102.10460946227708,1525.0,1033.0,1200.0,1528.0,1475.0,1021.7000000000002,185.0,294.15,1637173903.566239,1637173904.6866648,166e6ea9-f5cf-411e-8242-ce168dfdacf4
0.0114679163791332,0.1448450030026012,-0.0430306914588007,0.0421756010545465,-0.1149239309319608,0.2142591594219743,-0.2245922848503783,-0.2610799221153541,-12.335488453108352,13.624765397577557,54.99341256961253,0.4770655887490724,0.1354695844950065,0.616198736179909,5715.557020399306,12.031222222222222,0.24,179.11234755314223,-8.835152306737221,102.0300503583873,1525.0,1435.0,1200.0,1528.0,1475.0,1021.7000000000002,185.0,294.15,1637173906.6211798,1637173907.662753,11a5f45e-95f9-4922-bf29-a216f420825e
0.0236167638977666,0.1418317601755113,-0.0436607331884097,0.0377242194676165,-0.1115408807543947,0.2196692998233517,-0.2337415870465553,-0.2570531333930154,-13.661442261699149,13.95833391640547,54.72566116538567,0.5007338845133841,0.1364397170640209,0.6236309259683304,5747.492024739583,12.033,0.24,179.11261317160995,-8.781624303939306,102.1392931628824,1525.0,1435.0,1200.0,1528.0,1475.0,1021.7000000000002,185.0,294.15,1637173907.771509,1637173908.872652,11a5f45e-95f9-4922-bf29-a216f420825e
0.0184257681379052,0.1535149243481678,-0.0372370470117078,0.0528726133175869,-0.1081989202947778,0.199617538908799,-0.228331445812264,-0.2659011113282249,-12.89009316391992,13.798271036340848,55.52837399260637,0.4212788503066358,0.1662242645569829,0.6059037333023624,5750.062662760417,12.033,0.24,179.0956242144144,-8.784446025840168,102.26268280696836,1525.0,1435.0,1200.0,1528.0,1475.0,1021.7000000000002,185.0,294.15,1637173908.9808023,1637173910.1289132,11a5f45e-95f9-4922-bf29-a216f420825e
0.0710479463963495,0.1758403141109662,0.1151782577624317,0.0350670870556128,0.030396560557523,0.1901943069722873,-0.0683693258625785,-0.1051582848571438,-11.88960189219106,13.592346151698957,56.16710072287561,0.4470980970356546,0.2490668663553865,-0.0141488303088698,5750.064615885417,12.033,0.2366666666666666,179.0887257233527,-8.784287223941966,102.3727763494701,1525.0,1435.0,1200.0,1454.0,1475.0,1021.7000000000002,185.0,294.15,1637173912.0587966,1637173913.1964877,99b65753-ceb9-4cd9-8083-d3a25a97df4d
0.0709285125033691,0.1735935307288955,0.1168043131656954,0.0359792779078321,0.0325080220421884,0.1923698682688167,-0.0648580759496128,-0.0887361095867703,-11.79150073100646,13.537221804473674,56.302666753820965,0.4497157270605009,0.238734046575741,-0.0242219117687449,5746.207682291667,12.031,0.2366666666666666,179.08478242747185,-8.780632218962362,102.42815096980112,1525.0,1435.0,1200.0,1454.0,1475.0,1021.7000000000002,185.0,294.15,1637173913.305085,1637173914.4253566,99b65753-ceb9-4cd9-8083-d3a25a97df4d
0.075937617864293,0.1807025922522912,0.1189859009616742,0.0363956532955623,0.0356971287798897,0.1832775451730568,-0.0706566512998683,-0.0943243067279606,-12.47252845069397,13.6704684276766,56.04311128710134,0.4289525719958978,0.2726072259842758,-0.0233165770132637,5748.7763671875,12.033222222222223,0.2377777777777777,179.08599212986485,-8.777282200901949,102.47390413032127,1525.0,1435.0,1200.0,1454.0,1475.0,1021.7000000000002,185.0,294.15,1637173914.5325868,1637173915.6578448,99b65753-ceb9-4cd9-8083-d3a25a97df4d
0.1385719792238421,0.2127114483697607,0.317859922770362,0.0144263730703611,0.2157246910989703,0.1599933963447645,0.1255054626846193,0.1075081841752401,-12.022291292932884,13.939917599559507,55.831129313199575,0.438068950745113,0.4066690314347685,-0.8153151226460768,5748.7763671875,12.029777777777776,0.24,179.12763351650472,-8.77490254402237,102.50062914272377,1525.0,1435.0,1200.0,1380.0,1475.0,1021.7000000000002,185.0,294.15,1637173916.564532,1637173917.69896,b4c179bb-6642-476f-aa76-108b64226744
0.141612615174322,0.2008228360065505,0.3118334373715705,0.0203706796156228,0.2083559428685643,0.1660472750691483,0.131710003613528,0.1057687217948945,-10.728665838646178,13.679669366326316,55.81083188969393,0.4368865722222708,0.3519851074094546,-0.8063013591844378,5748.7763671875,12.032,0.24,179.14061391156736,-8.785870879192025,102.50097141109217,1525.0,1435.0,1200.0,1380.0,1475.0,1021.7000000000002,185.0,294.15,1637173917.8066862,1637173918.9313018,b4c179bb-6642-476f-aa76-108b64226744
0.1209855984075101,0.1941937019396605,0.2980547003360887,0.0249042404742966,0.19694671007284,0.1734297198455135,0.1210677778221988,0.0925104532376435,-10.63202976138575,13.608984509387357,56.43633155358117,0.4422429936190928,0.3194611944385215,-0.7566109471924444,5747.920138888889,12.028444444444444,0.24,179.13694230543354,-8.784475243871618,102.53100906524206,1525.0,1435.0,1200.0,1380.0,1475.0,1021.7000000000002,185.0,294.15,1637173919.0403051,1637173920.166994,b4c179bb-6642-476f-aa76-108b64226744
0.1902216999889432,0.2334206439862757,0.5058588708614593,0.0089066598761791,0.3865755522318396,0.1409825735649055,0.3188049852112272,0.2877137988489521,-10.707693505159623,14.021064151122738,56.75010878377483,0.4185074626869696,0.4794909161079557,-1.5748611829366097,5748.348253038194,12.028555555555556,0.24,179.13600732842713,-8.824811210606345,102.51206212048444,1525.0,1435.0,1200.0,1306.0,1475.0,1021.7000000000002,185.0,294.15,1637173922.0940669,1637173923.1150477,66dd56ac-2172-4a91-8406-60e3f201b017
0.1950702816062889,0.2372967698633128,0.5132139221591422,0.0014557319316382,0.3891231119389497,0.1432835953218911,0.3337890193013272,0.3139290104052354,-9.770927682829637,13.80126747752047,56.7254265348552,0.4398624170756632,0.4889972168896684,-1.608576687187517,5742.785753038194,12.026555555555554,0.2455555555555555,179.15047822254868,-8.826104677680416,102.52897822232885,1525.0,1435.0,1200.0,1306.0,1475.0,1021.7000000000002,185.0,294.15,1637173923.2271936,1637173924.274778,66dd56ac-2172-4a91-8406-60e3f201b017
0.2030690714529448,0.2405702472299947,0.510817024631609,0.0130430206083175,0.3906434298422117,0.1308745135751646,0.3262011263800914,0.3115184163257817,-10.19036452187801,13.707553093469096,56.89899168494683,0.3849154091479849,0.5011249314561929,-1.5960890094889446,5744.495822482639,12.027111111111113,0.25,179.13193198222237,-8.812523415698276,102.53654151846978,1525.0,1435.0,1200.0,1306.0,1475.0,1021.7000000000002,185.0,294.15,1637173924.382575,1637173925.4844506,66dd56ac-2172-4a91-8406-60e3f201b017
0.2441176556146497,0.2586360070257429,0.6908993597095009,0.0255890684335151,0.5510027237816134,0.0967289936505692,0.5099267483895108,0.4969835016216301,-8.145003425008634,13.97012076601596,57.58985602372462,0.2917322578866606,0.5581588640775758,-2.3169693748625675,5743.213270399306,12.024333333333333,0.2555555555555555,179.14469988251082,-8.803730590643008,102.4616985822745,1525.0,1435.0,1200.0,1232.0,1475.0,1021.7000000000002,185.0,294.15,1637173927.6239357,1637173928.758494,ab0b1d43-6fb3-455d-8fa1-4e0a152775dd
0.2355710035289037,0.2417892408760026,0.6834621291158611,0.0263286826235476,0.5404289815564435,0.1067959640439743,0.5105567900352851,0.4967232670538142,-7.204201372904881,14.146931318950749,56.73834268544626,0.3138253098462424,0.495301879345873,-2.295974437553459,5737.23291015625,12.021888888888888,0.2588888888888889,179.13937385277805,-8.80111605114697,102.4488305058782,1525.0,1435.0,1200.0,1232.0,1475.0,1021.7000000000002,185.0,294.15,1637173928.8672867,1637173929.9905758,ab0b1d43-6fb3-455d-8fa1-4e0a152775dd
0.2562528059252173,0.2727708547180208,0.6925155534632816,0.0020857735579762,0.5531530832881094,0.0915243014242919,0.4921486169491873,0.4667141097947927,-10.324147951289698,14.544479897966944,55.68576409956936,0.3355418170342477,0.6464784622649832,-2.299729991744208,5741.07568359375,12.024333333333333,0.2533333333333333,179.1245887699547,-8.820742504863262,102.43211020279,1525.0,1435.0,1200.0,1232.0,1475.0,1021.7000000000002,185.0,294.15,1637173930.0998166,1637173931.219799,ab0b1d43-6fb3-455d-8fa1-4e0a152775dd
-0.0382642890979455,0.1311347481654757,-0.2410007638923507,0.0951264962643863,-0.2894865876078307,0.2007406566582265,-0.4496541731464925,-0.4843886549862093,-14.770966178333518,14.061020934582023,56.4716159605782,0.3192875409353342,0.0691219894610063,1.4432625363590434,5738.086859809027,12.03,0.24,179.13909760957162,-8.786613567400526,102.56963682063812,1525.0,1435.0,1200.0,1602.0,1475.0,1021.7000000000002,185.0,294.15,1637173932.1296256,1637173933.074229,c416d45e-01c7-41d1-96d5-4b7412bd9219
-0.0472629284083384,0.1240947172298458,-0.2460274015417367,0.0889493484372631,-0.2932942315005052,0.2053427001744087,-0.4539822867248446,-0.4894974738574524,-14.979426721501282,14.11314023754217,55.3017839113607,0.3433668797184097,0.0550039785647619,1.4587397335155678,5741.07568359375,12.028666666666666,0.24,179.15859855856192,-8.784027392162292,102.53909600921936,1525.0,1435.0,1200.0,1602.0,1475.0,1021.7000000000002,185.0,294.15,1637173933.1829994,1637173934.3352687,c416d45e-01c7-41d1-96d5-4b7412bd9219
-0.0444688302909966,0.1244097380897803,-0.2313035993001151,0.0925104536274211,-0.2786936979338517,0.1978643794959538,-0.435163210887253,-0.4574886076931261,-14.484607244790556,13.828196798183244,54.878912500667504,0.3175550077379159,0.0569213161745873,1.391924665663551,5729.995279947917,12.029444444444444,0.2322222222222222,179.14050311072083,-8.774515215378184,102.5168849929484,1525.0,1435.0,1200.0,1602.0,1475.0,1021.7000000000002,185.0,294.15,1637173934.4442112,1637173935.6120656,c416d45e-01c7-41d1-96d5-4b7412bd9219
-0.1072675543061901,0.0969755316703348,-0.4298626416095467,0.1221635024650093,-0.462994624422784,0.1950702815818818,-0.6541575492693699,-0.6828381550731196,-16.01699779999935,14.690141527717213,52.933479921021295,0.2391318250085281,-0.0341093257248487,2.2181794998022006,5634.168728298611,12.027333333333337,0.25,179.14641501890245,-8.80337769753589,102.489863246772,1525.0,1435.0,1200.0,1676.0,1475.0,1021.7000000000002,185.0,294.15,1637173936.522616,1637173937.6603506,ebe85c90-db05-4f61-a94e-85ba8ecd521b
-0.1148417516985578,0.0851964914757552,-0.4282601438734524,0.117958659087006,-0.4565298471798224,0.2160671050740898,-0.6537740454293572,-0.6748941479701654,-17.02254268619893,14.936114419316644,53.7367793174431,0.2971318499948406,-0.0776670432519753,2.2055105268031348,5614.471842447917,12.026,0.25,179.1485399666442,-8.82242927699704,102.43959609012032,1525.0,1435.0,1200.0,1676.0,1475.0,1021.7000000000002,185.0,294.15,1637173937.7694063,1637173938.8887928,ebe85c90-db05-4f61-a94e-85ba8ecd521b
-0.094968043973988,0.1010708026840516,-0.4206859453995501,0.1439273335924039,-0.4482982136533699,0.1913859075503008,-0.6438166438041245,-0.666169436041278,-16.040603116040934,14.30533813644856,55.90724467938494,0.1801268567757573,-0.0470432647723455,2.1759523751561454,5622.250271267361,12.025222222222222,0.25,179.16841278148934,-8.829851226167644,102.42603968243766,1525.0,1435.0,1200.0,1676.0,1475.0,1021.7000000000002,185.0,294.15,1637173938.996289,1637173940.1184318,ebe85c90-db05-4f61-a94e-85ba8ecd521b
-0.1640255492677961,0.0827360416903968,-0.6223234488555154,0.1643762948937663,-0.640008451454894,0.180720123786829,-0.8691114339608749,-0.8922005582567636,-17.476848853861682,15.27228249372262,52.8681648568792,0.1051939429291666,-0.0939931324865562,3.024967722550984,5654.389702690973,12.027666666666669,0.25,179.17451138150824,-8.846551038688325,102.36364514545969,1525.0,1435.0,1200.0,1750.0,1475.0,1021.7000000000002,185.0,294.15,1637173942.0565414,1637173943.098259,94cf7050-4f75-45f1-a4bf-70529d2e6713
-0.1619031303086369,0.0752390934708574,-0.6130678592998318,0.1993710008813099,-0.6214227628788022,0.1787576810106915,-0.8572228150378787,-0.8776306988350081,-17.50817343681315,14.896584302199544,56.20999295850081,0.0203318456155325,-0.1552362907733276,2.974355441933465,5659.782823350694,12.026,0.25,179.1846655960743,-8.835612965051244,102.3217851927664,1525.0,1435.0,1200.0,1750.0,1475.0,1021.7000000000002,185.0,294.15,1637173943.2067006,1637173944.3266037,94cf7050-4f75-45f1-a4bf-70529d2e6713
-0.1839271984692715,0.0641722741636239,-0.6278875407189908,0.1922213975715835,-0.641858035369112,0.1820996411553442,-0.8611537293153413,-0.8774663405902974,-16.06977631864825,14.83417050971618,54.12979828148068,0.0432102173379367,-0.188547778085492,3.0246824788739786,5661.44384765625,12.027,0.26,179.17740434607668,-8.825328407708495,102.2894935761904,1525.0,1435.0,1200.0,1750.0,1475.0,1021.7000000000002,185.0,294.15,1637173944.4360178,1637173945.554616,94cf7050-4f75-45f1-a4bf-70529d2e6713
-0.2122338193257844,0.0662184209095687,-0.7899619606207722,0.2672505463733192,-0.7852598703895622,0.1322906186139492,-1.0709297517552154,-1.1091896276229751,-19.11507201067051,16.020807491698207,55.72508408603358,-0.2394471750177197,-0.1929508308300606,3.7401413858025023,5734.263617621527,12.002,0.3044444444444444,179.21114699839634,-8.850164019031787,102.20763755353735,1525.0,1435.0,1200.0,1824.0,1475.0,1021.7000000000002,185.0,294.15,1637173946.6714067,1637173947.8079102,ab39a568-5218-4de8-b6e9-c49345c88be6
-0.2257290995008758,0.0701713667920379,-0.7927256893497634,0.2619916636374136,-0.7850282199642002,0.1357915780024496,-1.074272310007077,-1.1069523231320406,-19.602675784796386,15.829277219069688,56.06615914837155,-0.2213156713382301,-0.1772276532928015,3.7490030940939056,5783.68896484375,12.006,0.3,179.2133584618676,-8.86122190557056,102.01179174491602,1525.0,1435.0,1200.0,1824.0,1475.0,1021.7000000000002,185.0,294.15,1637173947.9166358,1637173949.0376332,ab39a568-5218-4de8-b6e9-c49345c88be6
-0.219031481571151,0.0515440471542711,-0.8017243328955447,0.2738665793024303,-0.7936570560860972,0.1433520781580895,-1.0779429906756548,-1.1151976577513738,-18.99281705901369,16.01316100737893,56.04659243087624,-0.2300383345836075,-0.2532638418229924,3.776421924869215,5795.419921875,12.000666666666667,0.3077777777777777,179.214762445197,-8.85133871670529,101.87268735336964,1525.0,1435.0,1200.0,1824.0,1475.0,1021.7000000000002,185.0,294.15,1637173949.1466467,1637173950.2154353,ab39a568-5218-4de8-b6e9-c49345c88be6
0.0014009455888481,0.1349149982745294,-0.087352756914608,0.1106720899610634,-0.1204573410073251,0.1797849228267116,-0.2586967197664445,-0.2708592660694524,-13.071844871746132,11.022601540766296,57.407836608884175,0.2256432873386874,0.0707515022566131,0.7360661522062865,7943.861328125,11.815888888888889,7.251111111111111,-178.88426476945827,-8.814030136456433,87.5752800367543,1525.0,1435.0,1350.0,1528.0,1475.0,1021.7000000000002,185.0,294.15,1637173955.22482,1637173956.2674425,6e907590-f5c5-48bb-ae51-f1b96d504e73
0.0118788131050824,0.1364216196967712,-0.0868733773346662,0.1107131795900389,-0.1178139050113876,0.1754842035884959,-0.2586419335006557,-0.282528735610817,-13.25061986928028,10.847838046109018,57.01704174623804,0.2145993646733119,0.0811535463224145,0.7313124301668049,7912.899631076389,11.813777777777778,7.29,-178.39510938839916,-8.677426353056179,81.72289998941066,1525.0,1435.0,1350.0,1528.0,1475.0,1021.7000000000002,185.0,294.15,1637173956.3763936,1637173957.524186,6e907590-f5c5-48bb-ae51-f1b96d504e73
-0.0027628082146826,0.1407497321066307,-0.0879827986532743,0.0927980812243532,-0.1230459907299155,0.1802095161488444,-0.2564504838877942,-0.2845832193494346,-12.95939604353965,10.791566920553572,55.95040452913661,0.2651781422708506,0.1069134137722777,0.7359198037091618,7899.9326171875,11.810666666666666,7.356666666666667,-178.1539414800853,-8.578772239049377,76.83045218294849,1525.0,1435.0,1350.0,1528.0,1475.0,1021.7000000000002,185.0,294.15,1637173957.632355,1637173958.7546804,6e907590-f5c5-48bb-ae51-f1b96d504e73
0.1990488338848102,0.4810883491491563,-0.0454597464384734,-0.0627960174299376,-0.164040984580426,-0.0078573325798133,-0.2890822412838405,-0.3031456329084039,-12.044841478459247,10.126337704708227,56.29395276540643,0.1917715941893502,1.3957137168756848,0.8214674170570612,7892.65771484375,11.795666666666667,7.3633333333333315,-178.12341053449532,-8.488496775015669,70.23274519735509,1593.0,1435.0,1350.0,1528.0,1529.0,1021.7000000000002,185.0,294.15,1637173959.5731523,1637173960.7104368,4465786d-98e6-46bd-8c9d-971c6c6b7239
0.1983300623860273,0.4823281853452205,-0.0444414370413493,-0.0590145760636306,-0.1616839852790117,-0.0067348102563663,-0.2873499241458879,-0.3099629467838603,-12.066650744705742,10.02186935087407,57.13269161459155,0.1852449397313396,1.392681703091971,0.8157963480466272,7892.65771484375,11.794666666666668,7.38,-178.245535834675,-8.44626704346982,66.68137999039797,1593.0,1435.0,1350.0,1528.0,1529.0,1021.7000000000002,185.0,294.15,1637173960.8186474,1637173961.939886,4465786d-98e6-46bd-8c9d-971c6c6b7239
0.2070273767055489,0.4764797553443832,-0.0549056081916879,-0.0471807489803193,-0.1667791055463375,-0.0113779436920657,-0.3004849257516826,-0.3259331363422803,-12.468925466741531,9.974433756083494,57.11897814842681,0.1470768013381105,1.3715941039357304,0.8548162526541082,7899.9326171875,11.795444444444446,7.384444444444445,-178.45008330429886,-8.410668761561883,63.41679014157265,1593.0,1435.0,1350.0,1528.0,1529.0,1021.7000000000002,185.0,294.15,1637173962.0485218,1637173963.373502,4465786d-98e6-46bd-8c9d-971c6c6b7239
0.4180889490062885,0.8786219923273523,-0.0042700251305121,-0.2557102743265902,-0.2205946758601561,-0.2072173052267803,-0.3365318915236892,-0.359827957427523,-11.53749833323643,9.590602552829052,58.05097901825639,0.1779853998157422,2.8938972449420866,0.9593705817228368,7908.842502170139,11.785111111111112,7.461111111111112,-178.8879272686732,-8.415871468434664,59.65119908693772,1661.0,1435.0,1350.0,1528.0,1583.0,1021.7000000000002,185.0,294.15,1637173964.0366852,1637173965.103696,695b8904-bb9f-480f-93ed-abb6dca5309f
0.43225357142908,0.8828018243468563,-0.009035832111854,-0.2616140873924925,-0.2275096521907555,-0.214402044241549,-0.3414924285764452,-0.3743778725316184,-11.313363693801133,9.528583863025046,56.80183845177678,0.1744231564434063,2.9194825949853302,0.981222485447272,7914.5205078125,11.785666666666666,7.427777777777777,-179.11056411485893,-8.412830990752886,57.838346214541,1661.0,1435.0,1350.0,1528.0,1583.0,1021.7000000000002,185.0,294.15,1637173965.212003,1637173966.3430054,695b8904-bb9f-480f-93ed-abb6dca5309f
0.425035485635043,0.8705707985670887,-0.0129119582709582,-0.2541768551153937,-0.2275644384229276,-0.207567460803361,-0.3410267455056819,-0.3671734812428546,-11.23156228775272,9.42829596496047,57.03084013047569,0.1722246592509235,2.869837096540144,0.9849242667811628,7921.83544921875,11.782222222222222,7.4655555555555555,-179.35235129365756,-8.409731412962039,56.014632961909,1661.0,1435.0,1350.0,1528.0,1583.0,1021.7000000000002,185.0,294.15,1637173966.4510314,1637173967.6816456,695b8904-bb9f-480f-93ed-abb6dca5309f
0.603570110623171,1.1988361991809802,0.0200282656596419,-0.4345879556661421,-0.2890756908301614,-0.3710906970388235,-0.3917314146509427,-0.4220145129403529,-10.830382025559931,10.217089928409033,55.81282146457456,0.2186063537532927,4.133301825933297,1.1323735075035617,7921.83544921875,11.766,7.503333333333334,-179.80409393408294,-8.390896692007033,53.6817970290893,1729.0,1435.0,1350.0,1528.0,1636.0,1021.7000000000002,185.0,294.15,1637173968.5846398,1637173969.6094463,e1b1edc4-5b6e-42fc-8a34-0075dc3cc11d
0.6055013251962743,1.2061090716607528,0.02347979844242,-0.4409705532926514,-0.2891304770901682,-0.3747202857252413,-0.392114918396854,-0.4269589718139814,-10.922730049419636,10.408123924987011,55.484576611043686,0.2261872008068692,4.165150245033957,1.1285074464667957,7921.83544921875,11.767,7.492222222222223,19.969947724202644,-8.411804470238874,52.4160999863636,1729.0,1435.0,1350.0,1528.0,1636.0,1021.7000000000002,185.0,294.15,1637173969.7178905,1637173970.8388832,e1b1edc4-5b6e-42fc-8a34-0075dc3cc11d
0.6061587599487698,1.1956585976774687,0.0197132448260602,-0.4317390707540657,-0.2856378541736066,-0.3695566821269905,-0.3909507106353529,-0.4087973310327812,-11.061787311248487,10.042385749925614,55.966257137246096,0.2143612576694721,4.121288129340097,1.12677567282148,7921.83544921875,11.764666666666669,7.486666666666668,179.74407782075596,-8.472431316314154,51.24136322899962,1729.0,1435.0,1350.0,1528.0,1636.0,1021.7000000000002,185.0,294.15,1637173970.9468882,1637173972.1798117,e1b1edc4-5b6e-42fc-8a34-0075dc3cc11d
0.7224562276525512,1.4119957433836623,0.0601317893726279,-0.5519264030396168,-0.3123187542502605,-0.4914423835103045,-0.4097560893874579,-0.4367246193193971,-10.58591328087563,10.882317879657926,53.11202171575928,0.2189461342689829,4.9719870527336,1.1558813725426618,7921.83544921875,11.735666666666669,7.583333333333333,179.4786293488526,-8.52687997169394,49.80039063070295,1796.0,1435.0,1350.0,1528.0,1690.0,1021.7000000000002,185.0,294.15,1637173973.0902498,1637173974.122303,2a46199e-a85e-4ab1-8965-2c63dd5b6c4c
0.7070202076064135,1.3935327815216096,0.0546668624733577,-0.544174148683816,-0.3140582174324409,-0.4768418485049923,-0.4111394421772577,-0.4361630612876238,-10.627186901678316,11.010003787371678,53.6027261789618,0.2349000728818598,4.89738399343359,1.1661142601019154,7921.83544921875,11.739666666666666,7.594444444444444,179.31911255751666,-8.523900206804786,49.076319620605226,1796.0,1435.0,1350.0,1528.0,1690.0,1021.7000000000002,185.0,294.15,1637173974.2344887,1637173975.3439949,2a46199e-a85e-4ab1-8965-2c63dd5b6c4c
0.7249079114064235,1.406229491937056,0.0527630408671629,-0.5533645420241765,-0.3185506893012244,-0.4806494927280309,-0.4141526856181148,-0.4541192549217096,-10.587547999782924,10.887023193786757,53.60923052841531,0.2461860028501506,4.945674931061196,1.1806615930388802,7922.649793836806,11.742777777777778,7.569999999999999,179.11183908350398,-8.550233906286032,48.38945454819133,1796.0,1435.0,1350.0,1528.0,1690.0,1021.7000000000002,185.0,294.15,1637173975.4520576,1637173976.480199,2a46199e-a85e-4ab1-8965-2c63dd5b6c4c
-0.2050494852958138,-0.2454554331465786,-0.1286687022379928,0.2870404763432891,-0.0734836210415964,0.367510491980074,-0.2211434910059295,-0.2354098287555223,-13.678812859739034,12.067304288304042,54.17832393403004,0.2536917048435042,-1.3472660357862452,0.6250500101421085,7923.464138454861,11.79388888888889,7.455555555555555,179.21862681444748,-8.637610144744544,47.0695827216988,1457.0,1435.0,1350.0,1528.0,1421.0,1021.7000000000002,185.0,294.15,1637173978.0384836,1637173979.1395895,218cdf58-0b9a-4c07-98d7-aba26425d5b3
-0.2055540665802443,-0.2378642516022703,-0.1254017988661722,0.2799341543440829,-0.072478293610897,0.3657293916735997,-0.2172920183259984,-0.2503555159817571,-13.53455061179274,11.966297923206293,54.080161365342654,0.265269512849638,-1.317865198359517,0.614604008632158,7929.16455078125,11.795,7.470000000000001,179.08566124514508,-8.688299729623623,46.670733825115896,1457.0,1435.0,1350.0,1528.0,1421.0,1021.7000000000002,185.0,294.15,1637173979.2492974,1637173980.3724103,218cdf58-0b9a-4c07-98d7-aba26425d5b3
-0.2031160788590875,-0.2346318634141804,-0.1253059229522685,0.2810435755662772,-0.0706840443279984,0.3649075982177992,-0.21679894217147,-0.2321527867358051,-13.633394177868675,11.786462539822168,54.56347278528275,0.2597601615570472,-1.309459329204764,0.6124146504915992,7936.505859375,11.793777777777777,7.413333333333333,178.9769595434142,-8.711211409466953,46.35442890301747,1457.0,1435.0,1350.0,1528.0,1421.0,1021.7000000000002,185.0,294.15,1637173980.480614,1637173981.454139,218cdf58-0b9a-4c07-98d7-aba26425d5b3
-0.3861980040443896,-0.5688553540707022,-0.1625331719818101,0.4305825914160004,-0.03212823056514,0.5449899351335382,-0.1858995029619999,-0.2053623154012012,-14.44988785071716,13.018538214665504,53.15101844818668,0.332783589636495,-2.5654537041570222,0.5244521515189257,7936.505859375,11.776777777777776,7.455555555555557,178.7911905405484,-8.745343762024277,45.65962980697269,1389.0,1435.0,1350.0,1528.0,1367.0,1021.7000000000002,185.0,294.15,1637173983.740018,1637173984.8783016,13550b7e-115f-42d9-bafa-0f48ec827253
-0.3842816765430387,-0.5611030995929892,-0.1561374740998612,0.4241487824028651,-0.0275375012736997,0.5470319131774507,-0.1765608311770356,-0.201657694780968,-14.205432030699308,12.812300569286132,53.7402969827931,0.3510535598180763,-2.542136900434079,0.4981534275889686,7934.0634765625,11.772333333333332,7.536666666666666,178.6791283857459,-8.731400500016129,45.36790028496293,1389.0,1435.0,1350.0,1528.0,1367.0,1021.7000000000002,185.0,294.15,1637173984.987586,1637173986.198737,13550b7e-115f-42d9-bafa-0f48ec827253
-0.3858109273214592,-0.5685063894757733,-0.1544510107748521,0.4384980105846041,-0.0218635528599764,0.5415580542732805,-0.1762035296094913,-0.1994281324647868,-14.356161784399646,12.803669674059035,53.818053794136176,0.3063480055150057,-2.5711859978831546,0.4868555672758668,7938.140407986111,11.774111111111113,7.5055555555555555,178.63295023567738,-8.740951001750574,45.18288222345085,1389.0,1435.0,1350.0,1528.0,1367.0,1021.7000000000002,185.0,294.15,1637173986.3072472,1637173987.5395648,13550b7e-115f-42d9-bafa-0f48ec827253
-0.6040281278542655,-0.9661653025436256,-0.1942954941706029,0.6212523660467686,0.0283831663972773,0.7553279651061491,-0.1354139839064457,-0.1639165253706738,-15.286254051240569,14.313720940013756,52.73174966345061,0.3818534624330625,-4.071439137085016,0.3653378266707789,7936.505859375,11.755000000000004,7.597777777777777,178.70383242106394,-8.601874215552082,44.913063948298486,1321.0,1435.0,1350.0,1528.0,1314.0,1021.7000000000002,185.0,294.15,1637173989.5667832,1637173990.544511,84a66d2c-c68f-470a-aa40-cf5219e0b04c
-0.6250112625061363,-0.9716713223632242,-0.2041022310668058,0.6143493011944418,0.016316498199592,0.7617242573596433,-0.1450974515299455,-0.1754901187271496,-15.230405601778289,14.575578013525814,51.89247287566033,0.4129403074864657,-4.084814190506777,0.406949025039963,7936.505859375,11.758222222222225,7.552222222222222,178.66117257732787,-8.614954217540133,44.7678139043189,1321.0,1435.0,1350.0,1528.0,1314.0,1021.7000000000002,185.0,294.15,1637173990.6772306,1637173991.6326914,84a66d2c-c68f-470a-aa40-cf5219e0b04c
-0.6172042215611402,-0.9684252360539344,-0.199459097258283,0.6223617871889257,0.022027963185397,0.7551909995306753,-0.1429060019856682,-0.1674365414939603,-15.328727393743453,14.547796389441295,52.491550389122686,0.3802780325328814,-4.077945734415418,0.3909711638766444,7936.505859375,11.759333333333334,7.553333333333334,178.69437792143285,-8.67017923775558,44.67796693979187,1321.0,1435.0,1350.0,1528.0,1314.0,1021.7000000000002,185.0,294.15,1637173991.7411053,1637173992.8610127,84a66d2c-c68f-470a-aa40-cf5219e0b04c
-0.749321275976544,-1.215757868133034,-0.2089782064089308,0.7259625463151408,0.0665006890791765,0.8728033374346656,-0.1083084926911852,-0.127031690260493,-16.263755950725738,15.700717109367195,48.41209047248777,0.4169186330009982,-4.976158808002952,0.2582141362333226,7929.16455078125,11.705333333333334,7.723333333333333,178.80254990404805,-8.58964134674859,44.55406047805867,1254.0,1435.0,1350.0,1528.0,1260.0,1021.7000000000002,185.0,294.15,1637173993.5364902,1637173994.7076955,36fa6eaa-5ce3-44da-9abc-72086ec5990e
-0.7572926764502208,-1.216661841744337,-0.21678524564505,0.7202921716207019,0.0559269458367891,0.8784600156987737,-0.116088138456403,-0.1422759605633558,-16.149586995274472,15.906835233153592,48.28501426589872,0.4434357769892394,-4.979024329780327,0.2939912859035542,7929.16455078125,11.714,7.705,178.8230336413689,-8.548321761625576,44.42614839496848,1254.0,1435.0,1350.0,1528.0,1260.0,1021.7000000000002,185.0,294.15,1637173994.8167894,1637173995.9373217,36fa6eaa-5ce3-44da-9abc-72086ec5990e
-0.7587582089416594,-1.2215378207394665,-0.2112792285131159,0.7269486984357137,0.0603646308239178,0.8750221797586833,-0.1112669495543142,-0.1363042614948237,-15.952036691790562,16.084950776022215,48.02521405554976,0.4222079474506627,-4.996875313435049,0.2727443409070348,7929.16455078125,11.712222222222222,7.6755555555555555,178.86727884790233,-8.570068396180794,44.34786465611507,1254.0,1435.0,1350.0,1528.0,1260.0,1021.7000000000002,185.0,294.15,1637173996.045673,1637173997.0536215,36fa6eaa-5ce3-44da-9abc-72086ec5990e
0.0030034430255357,0.1471460247844116,-0.0918863180386728,0.1118773870668416,-0.1221009281369418,0.1653350540227742,-0.2637096608326989,-0.2828985428101959,-13.119996319557629,10.494575259992864,57.18510301921504,0.1866678134644438,0.118495417914341,0.752981295958441,7931.611653645833,11.808333333333332,7.46,178.53963315559702,-8.507309108128393,44.30693398860386,1525.0,1435.0,1350.0,1528.0,1475.0,1021.7000000000002,185.0,294.15,1637173999.100032,1637174000.2426302,79cb407b-bbe9-407e-87e4-a4ffd7d255c5
0.0072904659266646,0.1499401226507654,-0.0957213546636206,0.1053030390923605,-0.1270453861106125,0.1651980884394121,-0.2683254017132639,-0.2832409568203944,-13.184207325556256,10.512495366213214,56.66211477426837,0.2010022976102901,0.1346313110397414,0.7710057888392395,7942.226779513889,11.809444444444445,7.396666666666666,178.55967293062182,-8.530084943098231,44.42902210219802,1525.0,1435.0,1350.0,1528.0,1475.0,1021.7000000000002,185.0,294.15,1637174000.3556411,1637174001.4668272,79cb407b-bbe9-407e-87e4-a4ffd7d255c5
0.0075917902132079,0.1473240800430716,-0.0937901397968054,0.1124252494311372,-0.1224707352181806,0.1642119362587462,-0.2681884361019645,-0.2947734610790995,-13.462760243886532,10.533012625074267,57.09880812582709,0.1828818884102082,0.1221665677902253,0.7621060854859588,7943.861328125,11.8106,7.4449999999999985,178.50320456933173,-8.497430833204778,44.60184425381911,1525.0,1435.0,1350.0,1528.0,1475.0,1021.7000000000002,185.0,294.15,1637174001.574126,1637174002.695645,79cb407b-bbe9-407e-87e4-a4ffd7d255c5
0.0371763570920307,0.1403936215983489,-0.135331804522009,-0.4677473314920946,-0.2228391252059085,0.7291949338153599,-0.1490831503574604,-0.1764625738455723,-13.120464905222091,9.317673868181744,60.812093073524096,2.7518404179901155,0.1296172331946189,0.7859066144710782,7943.861328125,11.801555555555556,7.462222222222222,178.5077331365334,-8.292773530344462,44.90200169802775,1525.0,1535.0,1350.0,1528.0,1475.0,1021.7000000000002,185.0,294.15,1637174004.6298544,1637174005.6513023,66c8a925-e427-46cd-8d28-16f02f9f6d9a
0.0339987554129651,0.1450367548177951,-0.1323459545256205,-0.4628576590180821,-0.2215927381997088,0.7206071924080434,-0.1481380877239098,-0.1620948833070094,-12.92522328390536,9.357594263596964,60.89166443446752,2.7220369895835343,0.1445326352569714,0.7796304544509427,7943.861328125,11.801444444444444,7.437777777777778,178.48853726932606,-8.261442314256753,44.97514998839895,1525.0,1535.0,1350.0,1528.0,1475.0,1021.7000000000002,185.0,294.15,1637174005.785359,1637174006.9373305,66c8a925-e427-46cd-8d28-16f02f9f6d9a
0.0362860807329704,0.1477075836729817,-0.1307845468141388,-0.4650080191514101,-0.2194697715541096,0.7240039386101723,-0.1462753556951539,-0.1722988200167729,-13.060926899816629,9.2911514017512,61.47941903230655,2.734183289118871,0.1506637034301441,0.773024053664575,7946.317708333333,11.802333333333332,7.473333333333333,178.52445647526125,-8.246524517063275,45.050735897393935,1525.0,1535.0,1350.0,1528.0,1475.0,1021.7000000000002,185.0,294.15,1637174007.048456,1637174008.11191,66c8a925-e427-46cd-8d28-16f02f9f6d9a
0.0458188854942413,0.1342301703712212,-0.1676419887210556,-1.027416351439198,-0.3190026757754998,1.2789884594011347,-0.0381547164574799,-0.0739164328870499,-13.290933914310898,9.21111816649463,65.15000220935752,5.248066544888087,0.1361174372426929,0.8033784796486044,7951.23046875,11.788666666666664,7.472222222222222,178.58907310044918,-8.063497360830521,45.12407429469704,1525.0,1636.0,1350.0,1528.0,1475.0,1021.7000000000002,185.0,294.15,1637174009.135752,1637174010.1615782,2b44f9fb-6254-44b3-b05f-a618aecfa6da
0.0482818840804507,0.1308185363712318,-0.1711298474201851,-1.0278391585055648,-0.3230544757370511,1.284273544484789,-0.0402145598129549,-0.0636249582661452,-13.18062321789084,9.288877810025673,65.34776153323078,5.261325443469849,0.1206205113061507,0.816491926787026,7958.61328125,11.788666666666664,7.48888888888889,178.5403495665499,-8.062856081958447,45.12062694644096,1525.0,1636.0,1350.0,1528.0,1475.0,1021.7000000000002,185.0,294.15,1637174010.2692935,1637174011.501749,2b44f9fb-6254-44b3-b05f-a618aecfa6da
