raw_voltage_G-,raw_voltage_G0,raw_voltage_G1,raw_voltage_G2,raw_voltage_G3,raw_voltage_G4,raw_voltage_G5,raw_voltage_G6,load_x,load_y,load_z,load_l,load_m,load_n,rpm,voltage,current,roll,pitch,yaw,aileron1_pwm,elevator_pwm,throttle_pwm,rudder_pwm,aileron2_pwm,pbaro,pdiff,Tt,sample_start_time,sample_end_time,uid
0.0067497256302114,0.0785547554012666,-0.0426499280261587,-0.1333627910281546,-0.0973353581957414,0.5030472411434229,-0.1277351454570916,-0.1636310891439479,-13.252534073161485,11.36405718812177,64.23544945251452,1.5080266417123689,-0.1669821328776577,0.4575808518276823,5593.304796006944,12.032777777777776,0.26,179.2333162746224,-12.538560844849664,109.78219667640616,1525.0,1435.0,1200.0,1528.0,1475.0,1021.7000000000002,187.0,294.71,1637176130.998639,1637176132.1352377,20f4e045-d4e4-4211-ae31-195ad61c7d22
-0.0326760933121106,0.0196721535914416,-0.0702868463265885,-0.1912822552262388,-0.1190602944164921,0.5971601215212415,-0.1320172391717626,-0.156629956025237,-14.127058860087653,11.729250047434752,61.7095571313591,1.850364889180323,-0.3538658126845739,0.5189833005032096,5527.84375,12.0336,0.263,179.25830520471982,-12.50124307230455,109.36259774101576,1525.0,1435.0,1200.0,1528.0,1475.0,1021.7000000000002,187.0,294.71,1637176132.2436302,1637176133.3639307,20f4e045-d4e4-4211-ae31-195ad61c7d22
-0.050473402138867,-0.0129733199491482,-0.0709196259758612,-0.1823022419503349,-0.116821727211802,0.6169806835412274,-0.1223441793659316,-0.1450519792627952,-13.59432360865634,11.905648101715643,61.185701248935786,1.8759701442013577,-0.4765765895240956,0.4987144001932329,5469.5810546875,12.031222222222222,0.27,179.3323054473535,-12.573354302800404,108.99002678300864,1525.0,1435.0,1200.0,1528.0,1475.0,1021.7000000000002,187.0,294.71,1637176133.472,1637176134.534547,20f4e045-d4e4-4211-ae31-195ad61c7d22
0.1085863778486558,0.2516178904502337,-0.0208099434249308,-0.3483308530653009,-0.1381357658992636,0.5033233634607877,-0.1260521129088338,-0.1567674696434551,-13.302918404868109,11.68308145663344,60.32966534127228,1.996116774993726,0.5449404376226257,0.4943667638490537,5466.858344184027,12.016777777777778,0.3,179.26259805450414,-12.567980177152204,108.19732413485583,1593.0,1435.0,1200.0,1528.0,1529.0,1021.7000000000002,187.0,294.71,1637176136.527468,1637176137.5693505,85f0841c-93fe-4dc3-bf04-5a8b882ecf6b
0.0924003329184772,0.2556808371852411,-0.0282258094833384,-0.3356818126316775,-0.1405945737735476,0.4986029806364089,-0.1336126140811128,-0.1557813170741223,-13.449828854606436,11.341422458757023,61.82670554581623,1.9545068348169163,0.5459172363214794,0.5213403868859536,5466.085774739583,12.01911111111111,0.3044444444444444,179.30892798655427,-12.517939270516798,107.90316989569072,1593.0,1435.0,1200.0,1528.0,1529.0,1021.7000000000002,187.0,294.71,1637176137.6778514,1637176138.8015697,85f0841c-93fe-4dc3-bf04-5a8b882ecf6b
0.0752390932068634,0.2092736119700894,-0.0576175281234671,-0.3554629241579459,-0.1657655616522979,0.5426067337409489,-0.1496584066531556,-0.1615881103225199,-13.531888960236204,11.68425313164486,58.85185207013663,2.0983041234992057,0.3993867931345931,0.6083515390009082,5478.900607638889,12.019,0.3088888888888889,179.31371974371197,-12.504753685187827,107.5491551197297,1593.0,1435.0,1200.0,1528.0,1529.0,1021.7000000000002,187.0,294.71,1637176138.9107387,1637176140.0264862,85f0841c-93fe-4dc3-bf04-5a8b882ecf6b
0.2364064934396384,0.470083462952006,8.607331752194756e-05,-0.5347372286518265,-0.1841600439112961,0.4553733584032057,-0.1414130794146789,-0.1666558382748846,-13.118171227707307,11.809416290190036,59.56103545011279,2.3107022687206857,1.3941013659510766,0.5742338582309989,5512.1708984375,12.002,0.36,179.22965073976783,-12.464328546538937,107.13529422626102,1661.0,1435.0,1200.0,1528.0,1583.0,1021.7000000000002,187.0,294.71,1637176141.1451445,1637176142.2834492,03b4aca0-2f3b-42fe-b56b-47cd1ca05d32
0.2810972657145873,0.5444261846174335,0.0329682245238024,-0.5177649902578164,-0.1675231048715706,0.3707187718940427,-0.1344541310845136,-0.162171584345958,-12.434084050859571,11.78782967776852,60.25323989068157,2.0841358027656964,1.661949521964508,0.5074515371542219,5515.71875,12.012,0.3400000000000001,179.1519960423642,-12.540296471808755,106.86335024445695,1661.0,1435.0,1200.0,1528.0,1583.0,1021.7000000000002,187.0,294.71,1637176142.3927536,1637176143.508052,03b4aca0-2f3b-42fe-b56b-47cd1ca05d32
0.2660458444959143,0.542935451428434,0.0224525537112864,-0.5389420793062595,-0.1765721498918497,0.3899449018510093,-0.1488914025622157,-0.1629577678456726,-13.584471023963197,12.071090692189136,59.91342731810988,2.175830726066413,1.6694577920016844,0.5529001927631504,5515.71875,12.012333333333334,0.3299999999999999,179.24346593572903,-12.472821507316894,106.60990469165502,1661.0,1435.0,1200.0,1528.0,1583.0,1021.7000000000002,187.0,294.71,1637176143.616562,1637176144.745196,03b4aca0-2f3b-42fe-b56b-47cd1ca05d32
0.4247752508711497,0.8124836989737192,0.0747186222433798,-0.6651832991268374,-0.2047185796941842,0.2315852995701403,-0.1612593942567638,-0.1880361678015963,-11.94093125013329,12.483771408352412,58.56182685588212,2.110694892596272,2.6996376196268628,0.5681837806056712,5554.639811197917,11.989333333333333,0.3988888888888888,179.03018644870625,-12.560125175015472,106.24024954140458,1729.0,1435.0,1200.0,1528.0,1636.0,1021.7000000000002,187.0,294.71,1637176146.5637348,1637176147.6074717,40c1e2b9-0542-48e1-bcc0-fa32e1af9b80
0.4234466848704699,0.8214960336660994,0.0643777199174906,-0.7073687151963409,-0.2221953910179142,0.2577183338333974,-0.1781335572185334,-0.1906522113393568,-13.011888113349682,13.16920604780798,57.90298555317031,2.2679640787131383,2.751408611534746,0.6288699394401993,5553.440592447917,11.990333333333334,0.3855555555555556,179.07526721504811,-12.518411407343176,106.01530788582892,1729.0,1435.0,1200.0,1528.0,1636.0,1021.7000000000002,187.0,294.71,1637176147.716582,1637176148.832464,40c1e2b9-0542-48e1-bcc0-fa32e1af9b80
0.5486332193051622,1.0264376240934971,0.1407086414545697,-0.6595403065196016,-0.1788183831053977,0.0427508536191202,-0.1602047581175354,-0.1758736222261777,-11.2999453259187,11.977712898918748,62.5162558104598,1.674513624398216,3.465990236613083,0.473624790583511,5547.84912109375,11.993444444444444,0.38,179.03778617252271,-12.523163416594471,105.84963026386164,1729.0,1435.0,1200.0,1528.0,1636.0,1021.7000000000002,187.0,294.71,1637176148.9407232,1637176149.979389,40c1e2b9-0542-48e1-bcc0-fa32e1af9b80
0.6285115413716008,1.150432563513647,0.1731694840070855,-0.8066961924109286,-0.1993769198964756,0.0268217557496507,-0.1610402485968615,-0.1758736227435616,-11.952122475216074,13.507600171980014,58.368983545481,1.9814351920419933,3.992621596201408,0.4653479045015156,5551.44189453125,11.963,0.47,178.88478538165498,-12.516595715388812,105.60591241825762,1796.0,1435.0,1200.0,1528.0,1690.0,1021.7000000000002,187.0,294.71,1637176151.9998505,1637176153.1382134,7ed4dcab-c166-4c05-9f89-fc276207c9bc
0.665657152536208,1.234193591692215,0.1821533293352937,-0.7601218515494168,-0.2013284087935682,-0.0757846485057269,-0.1696400456277958,-0.1870620686668275,-10.064268031845508,12.488112438885734,61.54829431714598,1.6409507257719582,4.26005439714367,0.4847704488525837,5547.84912109375,11.973,0.441111111111111,178.8748922320972,-12.42337909600751,105.28563725897662,1796.0,1435.0,1200.0,1528.0,1690.0,1021.7000000000002,187.0,294.71,1637176153.2468705,1637176154.5710533,7ed4dcab-c166-4c05-9f89-fc276207c9bc
0.6111169136299822,1.1221765647725153,0.1525287711858461,-0.8205297220225107,-0.2177440066462511,0.0712944822038836,-0.1563012393470016,-0.192309494226496,-10.725579526314243,13.010028158708296,58.88238701443206,2.1089494153241244,3.873799223917454,0.5099985665093283,5559.849012586806,11.972888888888887,0.4444444444444444,178.82747098759967,-12.408485773658558,105.14763328679652,1796.0,1435.0,1200.0,1528.0,1690.0,1021.7000000000002,187.0,294.71,1637176154.6795075,1637176155.8004253,7ed4dcab-c166-4c05-9f89-fc276207c9bc
-0.2387101514959069,-0.3140127461818815,-0.1581480833428338,-0.0209808801773106,-0.1251974483980261,0.7638253097384904,-0.1428955934858501,-0.1652615277960109,-13.835456754345053,12.072747621665682,60.83131994007168,1.8386346154521,-1.626199012324271,0.6225369038070566,5556.641764322917,12.018666666666668,0.3177777777777778,179.22355365756871,-12.46559023426062,104.94771364979026,1457.0,1435.0,1200.0,1528.0,1421.0,1021.7000000000002,187.0,294.71,1637176156.508839,1637176157.6403458,f6e70eb9-0500-455a-9576-f29952f1d8ca
-0.2173605013840062,-0.2860350558101729,-0.1378108833827265,0.0134676112505702,-0.1043364921650179,0.7213057170154681,-0.1311954445317392,-0.1542878440066401,-13.4687375471184,11.643737165027895,63.31835878241187,1.6641297966751736,-1.5488631263802908,0.5573707953770487,5568.674207899306,12.017,0.3022222222222221,179.13221581452788,-12.414761674004676,105.03753215519572,1457.0,1435.0,1200.0,1528.0,1421.0,1021.7000000000002,187.0,294.71,1637176157.7486556,1637176158.805472,f6e70eb9-0500-455a-9576-f29952f1d8ca
-0.2429182827949846,-0.3196190216512206,-0.1578763429173765,-0.0239650834043785,-0.1219091773925814,0.7735580833590899,-0.143357989191732,-0.1705319638316338,-14.406768379730478,12.151745337157346,61.0446036808778,1.8675207198649584,-1.6446866931612705,0.6175104388170133,5576.72509765625,12.019222222222222,0.3,179.07288423793773,-12.504679786335556,105.10772297365632,1457.0,1435.0,1200.0,1528.0,1421.0,1021.7000000000002,187.0,294.71,1637176158.9169197,1637176159.9874303,f6e70eb9-0500-455a-9576-f29952f1d8ca
-0.3592442676120679,-0.541879701927456,-0.1812634932604104,0.132503853750042,-0.0829638336045383,0.8524475143511735,-0.13487488870633,-0.1674573598688314,-15.597255638283578,12.81007421782941,61.72385287627957,1.6945488507031063,-2.496629700896703,0.5586002687508773,5576.322211371527,12.008,0.35,179.04404414362227,-12.445427326103266,105.35608762462569,1389.0,1435.0,1200.0,1528.0,1367.0,1021.7000000000002,187.0,294.71,1637176162.036049,1637176163.0613225,be63de6d-f695-4e25-848b-06a8c8466cac
-0.3889784061323342,-0.5924408362664956,-0.1929669288339643,0.1195885451639353,-0.0920095882235973,0.8983748115398665,-0.1301955952560262,-0.1613141788967312,-15.250186465880658,13.21352010561146,59.48704456053901,1.8287972758799151,-2.668041332499483,0.5709028337991339,5571.48974609375,12.005888888888888,0.3455555555555556,179.01641071606022,-12.51729704300734,105.3088720447132,1389.0,1435.0,1200.0,1528.0,1367.0,1021.7000000000002,187.0,294.71,1637176163.1694877,1637176164.2886722,be63de6d-f695-4e25-848b-06a8c8466cac
-0.3642972032862801,-0.5393940501422675,-0.1649711624080726,0.1414345536920157,-0.0675064455267541,0.8441090517006984,-0.1236486408275883,-0.1386874631252787,-15.763414880391494,13.027315044537174,62.15773273933917,1.6579026283431262,-2.4900394566028776,0.500140381866104,5577.531846788194,12.004666666666669,0.3400000000000001,179.05434255107082,-12.554974927790068,105.32247474590024,1389.0,1435.0,1200.0,1528.0,1367.0,1021.7000000000002,187.0,294.71,1637176164.396361,1637176165.629792,be63de6d-f695-4e25-848b-06a8c8466cac
-0.5640067717181142,-0.8756994840245861,-0.2269891838472771,0.2824954092113258,-0.0551521469723577,1.0330119726583236,-0.1190602925511049,-0.1327979421105679,-16.748512444237658,14.514915788682917,60.40065363278813,1.770191424567627,-3.750118073170198,0.5180841363251459,5588.441243489583,11.981777777777776,0.4077777777777778,179.09587465468394,-12.535447891271694,105.3661978224171,1321.0,1435.0,1200.0,1528.0,1314.0,1021.7000000000002,187.0,294.71,1637176167.5653255,1637176168.5903397,1b455079-a3f2-4477-bb81-d6bf3c266233
-0.5331621129442923,-0.8463888344678061,-0.2245238037728487,0.2885218951484916,-0.0588913085128043,0.9980583569331384,-0.1192931347745044,-0.1389750908032459,-15.74454595932236,14.069158126538554,60.31194824612346,1.6757107162493066,-3.647098208195121,0.5245073092111278,5583.192111545139,11.983,0.4044444444444444,179.15162721214907,-12.506351854589871,105.24213806088255,1321.0,1435.0,1200.0,1528.0,1314.0,1021.7000000000002,187.0,294.71,1637176168.6981857,1637176169.8186376,1b455079-a3f2-4477-bb81-d6bf3c266233
-0.5910985724641745,-0.9233224432240352,-0.24517821522026,0.3155041140355676,-0.0565765888108229,1.0498587381580966,-0.1219639626987992,-0.1345237080675229,-16.503296515813034,14.009988888112815,60.40670625173981,1.7294602916755686,-3.935748075863064,0.543866431031744,5580.35546875,11.983,0.4,179.15192774047253,-12.529550022923388,105.13982030929594,1321.0,1435.0,1200.0,1528.0,1314.0,1021.7000000000002,187.0,294.71,1637176169.9279022,1637176171.0507517,1b455079-a3f2-4477-bb81-d6bf3c266233
-0.6525413551750301,-1.0444548824789333,-0.2232774174508189,0.3769468708734136,-0.0089125651802197,1.0917702060494343,-0.0952419764801289,-0.1233336195759736,-18.100777688190345,15.380380982207702,57.71623514667226,1.6939831505602505,-4.361069498158098,0.391454129542089,5583.9912109375,11.955111111111112,0.49,179.29447834191012,-12.49922104223264,104.91957630604944,1254.0,1435.0,1200.0,1528.0,1260.0,1021.7000000000002,187.0,294.71,1637176172.070896,1637176173.0955982,86554c7a-260d-48e6-a218-0750c44cc81d
-0.6663064015366228,-1.0898863988364629,-0.2533961515921505,0.3972177752756266,-0.0332513490008278,1.1130135690850775,-0.1010767101017641,-0.1258537865571643,-16.22281002134427,14.948950153542851,56.9187717067935,1.692452111669802,-4.542101667902195,0.4690131427432642,5598.993435329861,11.958222222222222,0.48,179.3257697152277,-12.557116856141038,104.65660415717512,1254.0,1435.0,1200.0,1528.0,1260.0,1021.7000000000002,187.0,294.71,1637176173.204059,1637176174.437578,86554c7a-260d-48e6-a218-0750c44cc81d
-0.6785237364916128,-1.0991178862030515,-0.2423156351573222,0.4197760066566802,-0.0172811618156992,1.1032616177434686,-0.0983100053691043,-0.1215530664598895,-16.920419705663537,15.287513636677744,57.25234410931626,1.6221504601051897,-4.576813505806085,0.4271424570791515,5598.580078125,11.962666666666664,0.4788888888888888,179.33157689384203,-12.56864602573254,104.44597630137012,1254.0,1435.0,1200.0,1528.0,1260.0,1021.7000000000002,187.0,294.71,1637176174.54573,1637176175.549978,86554c7a-260d-48e6-a218-0750c44cc81d
-0.049906364292863,-0.0150349260583992,-0.0899140153109997,-0.1776678759753405,-0.1287437613242903,0.6225946284294656,-0.1379067592755749,-0.1677378658379732,-13.871638025560252,11.452960803464434,62.17655043702979,1.8742030752425751,-0.4929103838886643,0.5641824270270396,5575.114637586806,12.031222222222222,0.27,179.069869847784,-12.612871690335853,104.07599178421968,1525.0,1435.0,1200.0,1528.0,1475.0,1021.7000000000002,187.0,294.71,1637176177.6091385,1637176178.7373188,6ca59c2d-176f-436e-b474-17c8061a9a03
-0.0365659160888379,0.0244385560171194,-0.0665750777230842,-0.151178728308725,-0.1101301363828908,0.5673153230913037,-0.1340717221989198,-0.1613552692514012,-13.944054941079528,11.49280056532656,63.387774858638245,1.691812917092547,-0.3568644699956451,0.5082060664040372,5546.0591796875,12.0278,0.27,178.9265205695594,-12.582072726225586,104.53499886206431,1525.0,1435.0,1200.0,1528.0,1475.0,1021.7000000000002,187.0,294.71,1637176178.8455763,1637176179.9670112,6ca59c2d-176f-436e-b474-17c8061a9a03
-0.0334978873635261,0.0365600104388669,-0.0656437119208971,-0.1512472123218666,-0.1075414866612929,0.564041845617049,-0.1362357790110379,-0.1523703261611446,-14.352129615950991,11.30127903161713,64.60086233153868,1.683376174453592,-0.3192007301724074,0.5094621108340943,5542.269151475694,12.028444444444444,0.2644444444444444,178.87176855891676,-12.491697968316824,104.93190783314094,1525.0,1435.0,1200.0,1528.0,1475.0,1021.7000000000002,187.0,294.71,1637176180.0745842,1637176181.2892635,6ca59c2d-176f-436e-b474-17c8061a9a03
-0.0552891120037686,-0.037182261172765,-0.1265386145727675,-0.6319143459109852,-0.2049103295829758,1.0890582907992077,-0.0473725018645925,-0.0659587324322805,-14.471827128985462,10.66399924407342,66.1579728473637,3.940356712812792,-0.5534233329255059,0.5878027324100067,5535.112575954861,12.019555555555556,0.29,178.7883476640339,-12.385186290852351,105.55070855265586,1525.0,1535.0,1200.0,1528.0,1475.0,1021.7000000000002,187.0,294.71,1637176183.012509,1637176184.0466297,060e9101-c403-4abc-95a3-036245aaca74
-0.0266906971479931,0.0150975035195946,-0.1121435314032044,-0.6273122921854223,-0.2006507005707355,1.0317518894565472,-0.0445784043524875,-0.0625893791977699,-13.638342900458118,10.214391002014713,65.96314977472301,3.799325242111326,-0.3611765788590396,0.5652595117880975,5544.26025390625,12.021333333333336,0.2899999999999999,178.75423011021974,-12.360312449442455,105.70007568288514,1525.0,1535.0,1200.0,1528.0,1475.0,1021.7000000000002,187.0,294.71,1637176184.1545715,1637176185.2878635,060e9101-c403-4abc-95a3-036245aaca74
-9.197962425071954e-05,0.0504757141306629,-0.0887087177924088,-0.6107257533202842,-0.1786266319450212,0.9934015274785354,-0.0401818086667273,-0.0544262298086463,-14.45116550781644,10.27756099878755,67.72010333670379,3.6771882633292807,-0.2388611001986413,0.5033677631012053,5537.09716796875,12.022666666666668,0.29,178.69512165314245,-12.333523498880282,105.87615795968806,1525.0,1535.0,1200.0,1528.0,1475.0,1021.7000000000002,187.0,294.71,1637176185.3973172,1637176186.612353,060e9101-c403-4abc-95a3-036245aaca74
0.0530506679247398,0.1093024329176077,-0.1054048244558251,-1.1520414397284886,-0.2756941548994993,1.4665080529512071,0.0542422676203727,0.0224114657090503,-14.476767009544329,10.764911911800567,72.59968992150834,5.964561662339894,0.0043057782572282,0.5329321418642156,5632.946451822917,12.008333333333333,0.3166666666666666,178.7531129948355,-12.269972667794068,106.08316505632308,1525.0,1636.0,1200.0,1528.0,1475.0,1021.7000000000002,187.0,294.71,1637176188.6597147,1637176189.681716,5afdd372-280a-425c-a19c-922bc2dfb0dc
0.0400252407003069,0.0503113549382151,-0.1254565863807645,-1.154958833256918,-0.2924587431850947,1.5219243427523292,0.0808272882918294,0.0633778730290938,-11.368250528892515,9.83056295297647,71.89901068957737,6.089931089554626,-0.2336656707129101,0.5396530526986144,5685.230523003473,12.013444444444444,0.32,178.792477651752,-12.163383202064049,106.0651470172926,1525.0,1636.0,1200.0,1528.0,1475.0,1021.7000000000002,187.0,294.71,1637176189.7894516,1637176190.9097824,5afdd372-280a-425c-a19c-922bc2dfb0dc
-0.0060088934532806,0.004715510866617,-0.1443167485274246,-1.123182767362431,-0.2857474278484614,1.5272659929850612,0.0529273987819795,0.0292597452245401,-14.007464866135242,9.96085975874402,70.30042216909989,6.02859677695447,-0.37693558582343,0.5865516768605802,5689.839680989583,12.006888888888888,0.3188888888888889,178.79737262065717,-12.136290687538764,106.11250906681728,1525.0,1636.0,1200.0,1528.0,1475.0,1021.7000000000002,187.0,294.71,1637176191.018222,1637176192.2556293,5afdd372-280a-425c-a19c-922bc2dfb0dc
0.0121669883232626,0.0042646210865916,-0.1610539459209881,-1.5594843286287696,-0.3634255571919649,1.9424482203893376,0.1336872374272096,0.099960832581431,-14.170708674685534,11.01193435173618,72.37856013094513,7.952139499910271,-0.3432149441731009,0.5986873360809983,5570.697428385417,11.988666666666669,0.3866666666666666,178.8994611814516,-12.07174378719859,106.06716647655718,1525.0,1737.0,1200.0,1528.0,1475.0,1021.7000000000002,187.0,294.71,1637176193.053881,1637176194.300121,976a82a3-078c-46cc-b823-03867c475abf
0.0620630035903774,0.0900587683654952,-0.1338251845988705,-1.5250538677815408,-0.3469573585858123,1.8303571914929413,0.1265600965722469,0.0962633097409593,-13.983473717549405,10.67948043715718,72.98133972256097,7.621931576403296,-0.030620959388089,0.5610893260765835,5529.95263671875,11.985,0.3899999999999999,179.00337112602472,-12.032539355136365,105.8645921726935,1525.0,1737.0,1200.0,1528.0,1475.0,1021.7000000000002,187.0,294.71,1637176194.4081333,1637176195.5315945,976a82a3-078c-46cc-b823-03867c475abf
0.044504015650435,0.0615151405289803,-0.1434264727625358,-1.5080290355257695,-0.3452452889885571,1.8614620849496053,0.1417221870287271,0.120519914755792,-12.956661130079985,9.708647036593808,75.68191897941796,7.647458082027808,-0.1716008674672806,0.5518783969705877,5529.954833984375,11.989,0.39,178.99447138953624,-12.00302098509086,105.69698616065055,1525.0,1737.0,1200.0,1528.0,1475.0,1021.7000000000002,187.0,294.71,1637176195.639909,1637176196.759926,976a82a3-078c-46cc-b823-03867c475abf
0.0435178633824743,0.0272874405297132,-0.1519457350005721,-1.798437548512678,-0.3960047463199825,2.1542809270816914,0.1862770895191244,0.1658692186758425,-14.222811545230238,11.961289511415252,74.64401531682184,8.97425761394981,-0.2465615059925308,0.5592288858628113,5543.862033420139,11.967555555555556,0.4522222222222222,179.16075841615944,-11.875876349644903,105.36179993950157,1525.0,1825.888888888889,1200.0,1528.0,1475.0,1021.7000000000002,187.0,294.71,1637176198.4789822,1637176199.4173384,c320757c-c377-48e3-815a-12cbb2bf12f7
0.018504659790329,-0.0196791553731178,-0.1555840873546644,-1.816515388337585,-0.3920502732310876,2.2209903249714986,0.2072541911678644,0.1724232960762381,-14.100469835787369,11.809145523217405,75.28637965478498,9.163915949495502,-0.427281422925202,0.5241478285577104,5544.26025390625,11.969,0.4322222222222222,179.17772005259832,-11.924836853162848,105.08121804512714,1525.0,1837.0,1200.0,1528.0,1475.0,1021.7000000000002,187.0,294.71,1637176199.5246725,1637176200.6493351,c320757c-c377-48e3-815a-12cbb2bf12f7
0.0251644746043329,-0.0193020264429704,-0.1791334047241025,-1.92441496139284,-0.4277334524731685,2.339723722287085,0.2251890115465246,0.1915851293314611,-13.016481281123198,11.15337783911423,78.07203887339433,9.66959068849979,-0.4464476676484935,0.5833702419892703,5598.656412760417,11.978666666666664,0.4066666666666666,179.24284211178485,-11.994646603985991,104.83762769638764,1525.0,1837.0,1200.0,1528.0,1475.0,1021.7000000000002,187.0,294.71,1637176200.75727,1637176201.8806078,c320757c-c377-48e3-815a-12cbb2bf12f7
-0.0966390247562877,-0.0414966781338171,-0.0487969437110257,0.4167627631517052,-0.026279800896366,0.1011529793539894,-0.25280720012079,-0.2724480682725641,-14.467354346977803,13.483138797208554,61.87230513641987,-0.6232785358166966,-0.6557912919468415,0.5325006757021878,5745.779568142361,12.029444444444444,0.26,179.22265814387754,-12.61138688310128,104.6804809806937,1525.0,1334.0,1200.0,1528.0,1475.0,1021.7000000000002,187.0,294.71,1637176202.4757793,1637176203.724759,574c7ae7-533b-4a20-91ff-e92646a6ff33
-0.0830520377333881,-0.0172948577364701,-0.0436470379077818,0.3990394175447981,-0.0274440089406159,0.0816079904215765,-0.2516977786248603,-0.2865281319869646,-14.276375041140897,13.285055766969444,60.171319800685296,-0.6284509083854735,-0.5487904249341343,0.5260756871744431,5752.63525390625,12.029555555555554,0.25,179.13827646905142,-12.613035614875932,105.13062004448392,1525.0,1334.0,1200.0,1528.0,1475.0,1021.7000000000002,187.0,294.71,1637176203.8326938,1637176205.1590478,574c7ae7-533b-4a20-91ff-e92646a6ff33
-0.0918452287224477,-0.0268687524393723,-0.0505090139427116,0.3749882625634342,-0.0337855153184002,0.096893349407073,-0.2736670614759277,-0.2906097063877409,-16.344518961765207,14.31088152909246,57.751450142979394,-0.5348173026076009,-0.5460696963557151,0.568696596004075,5721.91357421875,12.028,0.26,179.00375361661827,-12.638062945814674,105.46489633265352,1525.0,1334.0,1200.0,1528.0,1475.0,1021.7000000000002,187.0,294.71,1637176205.2674854,1637176206.4034994,574c7ae7-533b-4a20-91ff-e92646a6ff33
-0.1490146678162739,-0.0883663027213042,-0.0453591075059527,0.8357541504592166,0.0184805534429876,-0.2829533320886436,-0.3533125614736043,-0.3780348542862213,-13.6988232091976,15.024807191921026,55.19570900017262,-2.421844962324222,-0.8291885736833436,0.598438024391761,5657.70654296875,12.021,0.28,178.97763193759252,-12.727368617849974,105.776576078319,1525.0,1234.0,1200.0,1528.0,1475.0,1021.7000000000002,187.0,294.71,1637176206.996975,1637176208.1325903,be12f5a1-0d79-45f9-8e7a-55a42d0eace9
-0.1151156831355485,-0.0345799154639059,-0.0125969398434358,0.8145929697958998,0.0413127155449265,-0.2969375228892795,-0.3353015863273316,-0.3710906991655306,-14.475605632678771,15.101068890287069,58.12649401348758,-2.403321810370276,-0.6432508838595464,0.506919269582327,5640.338812934027,12.020777777777775,0.2811111111111111,178.94897549947478,-12.753975335170544,105.91618135040451,1525.0,1234.0,1200.0,1528.0,1475.0,1021.7000000000002,187.0,294.71,1637176208.2410042,1637176209.2600527,be12f5a1-0d79-45f9-8e7a-55a42d0eace9
-0.0396339455426213,0.0800602801316098,0.0047018144463587,0.7996637224057018,0.0318620904155344,-0.4082631754571153,-0.337301283527841,-0.3518881202154178,-12.275699319937765,14.087186606930755,56.37500467855059,-2.624840298109135,-0.2104098761163958,0.5122832157617562,5627.98828125,12.024,0.27,178.98046267154854,-12.69664803964681,106.0957121138284,1525.0,1234.0,1200.0,1528.0,1475.0,1021.7000000000002,187.0,294.71,1637176209.3724651,1637176210.4854202,be12f5a1-0d79-45f9-8e7a-55a42d0eace9
-0.1046378159330976,0.0158645103356891,0.0321908090913219,1.1433377484056917,0.0927432945254945,-0.6821122455164031,-0.4394091462865139,-0.4639533857343587,-16.414604611798826,18.719566633023124,53.172929142434896,-3.985976599079759,-0.4340013854470475,0.5232039046588014,5614.47509765625,12.013444444444444,0.3077777777777777,178.98206093581433,-12.88193105558044,106.4387295263158,1525.0,1133.0,1200.0,1528.0,1475.0,1021.7000000000002,187.0,294.71,1637176212.5092838,1637176213.6468036,7ed0f1ae-97b9-47b8-80c5-030b8a1484ea
-0.1440395299135087,-0.0563903159320408,-0.0029540126882386,1.1380240326408666,0.0663922117471759,-0.6155124305909495,-0.4404506324677454,-0.4561370305005809,-15.10872433139138,18.515627099093148,51.73768282667869,-3.82700483848084,-0.7031002830647205,0.5986673602179667,5592.492513020833,12.014666666666663,0.31,179.00892179309025,-12.897875088696711,106.54118843514524,1525.0,1133.0,1200.0,1528.0,1475.0,1021.7000000000002,187.0,294.71,1637176213.7552788,1637176214.872111,7ed0f1ae-97b9-47b8-80c5-030b8a1484ea
-0.0847389059791661,0.0656164369845403,0.0388851386230912,1.1821247567775734,0.1004473341953482,-0.7514831481536431,-0.434744098162967,-0.4603577633444937,-14.917304560194184,17.203630341524747,55.371312569344376,-4.237968122048539,-0.2818599855450254,0.5080735502173672,5586.822428385417,12.014,0.3055555555555556,178.94931245547383,-12.896262310278942,106.632280391376,1525.0,1133.0,1200.0,1528.0,1475.0,1021.7000000000002,187.0,294.71,1637176214.980997,1637176216.100772,7ed0f1ae-97b9-47b8-80c5-030b8a1484ea
-0.0709853693582798,0.0918119284124492,0.073444843067162,1.308778482012368,0.1272723174010911,-0.9076672796120802,-0.4587897837660852,-0.5035090582448913,-14.752683369350532,19.017585213028024,53.415798838608616,-4.861117578798017,-0.1808165654300597,0.4595569367500545,5570.686360677083,12.006333333333332,0.33,178.93895788869207,-12.964609167391108,106.76831954580484,1525.0,1033.0,1200.0,1528.0,1475.0,1021.7000000000002,187.0,294.71,1637176217.1276443,1637176218.2657857,2a6fdb17-dbe8-450a-b74e-c688396f6e01
-0.1651766084145024,-0.0644795033996815,0.0189736292317164,1.325666341222856,0.0997970213783758,-0.791301267181359,-0.474732580035795,-0.4991124601194144,-15.024970708859726,19.82865081195106,50.1216007281457,-4.635720311930093,-0.7413995678187172,0.5699960140856225,5548.248318142361,12.004333333333337,0.3411111111111111,178.98934647092898,-12.823507324967444,106.7967232669233,1525.0,1033.0,1200.0,1528.0,1475.0,1021.7000000000002,187.0,294.71,1637176218.3741038,1637176219.4944046,2a6fdb17-dbe8-450a-b74e-c688396f6e01
-0.194425338063599,-0.1158487232481097,-0.003716637789739,1.3102325050454835,0.0860495120189538,-0.7293933311631675,-0.4781216573796344,-0.5109408111520687,-15.276642759780223,19.91832646255543,49.64686685727927,-4.462527674223867,-0.9276132327642852,0.6172418931045819,5526.38671875,12.005666666666665,0.3400000000000001,178.9693780334355,-12.91287655570752,106.79245819324156,1525.0,1033.0,1200.0,1528.0,1475.0,1021.7000000000002,187.0,294.71,1637176219.602563,1637176220.7234848,2a6fdb17-dbe8-450a-b74e-c688396f6e01
-0.051673220785673,0.0016474828134009,-0.0826274458450569,-0.1764625777043242,-0.1268536364337299,0.6091583055158318,-0.1423170515292743,-0.1567258335151778,-14.223250536575913,11.911778724459545,62.75502279128437,1.844610607009675,-0.4326582538788324,0.560365755930507,5519.27001953125,12.03077777777778,0.27,179.03715324165964,-12.401253931419852,106.75207280249911,1525.0,1435.0,1200.0,1528.0,1475.0,1021.7000000000002,187.0,294.71,1637176221.521191,1637176222.5108645,0f61c911-82e1-4be0-9160-4f9a59086fb8
-0.0422423184403493,0.0263544304207218,-0.0645030620403853,-0.1379911334596416,-0.1093927132593031,0.5512766543037378,-0.1384644826397106,-0.162894762210909,-13.903084039452263,11.74753115306992,63.08889310488741,1.627788696427206,-0.3488077770504676,0.5104816493629272,5541.084364149306,12.02822222222222,0.26,179.0186646784863,-12.475385579304064,106.81373347359626,1525.0,1435.0,1200.0,1528.0,1475.0,1021.7000000000002,187.0,294.71,1637176222.6189811,1637176223.5692444,0f61c911-82e1-4be0-9160-4f9a59086fb8
0.005868762766289,0.0972522008775929,-0.0346292232633956,-0.1270119683792649,-0.0903928465260443,0.4775913676691845,-0.1331261119196312,-0.1514948415436885,-13.886458759571443,11.52151852659881,64.06413326835849,1.4375947926109205,-0.0911209921258134,0.4464358912787749,5555.03955078125,12.030888888888889,0.26,179.0479677078455,-12.468719504401609,106.93209458063332,1525.0,1435.0,1200.0,1528.0,1475.0,1021.7000000000002,187.0,294.71,1637176223.6777165,1637176224.8147397,0f61c911-82e1-4be0-9160-4f9a59086fb8
-0.0115532602659621,-0.0090813063410255,0.0451570666379041,-0.1415544297144069,-0.0025464037116315,0.5764958514123546,-0.0083712761826736,-0.0376271259533096,-12.815458159326704,11.788204854190514,62.189030254990286,1.6986315359831798,-0.4740445462795643,0.0254050414390257,5568.273600260417,12.029,0.2633333333333333,179.03416617226264,-12.544833709556151,106.9852509073039,1525.0,1435.0,1200.0,1454.0,1475.0,1021.7000000000002,187.0,294.71,1637176225.529131,1637176226.5812628,3e178e15-4616-4f6b-a8cc-862d09cef352
0.0374502879677343,0.0900039820948645,0.0811560053635435,-0.1225118292189156,0.0219731752194841,0.4729871322931909,-0.0031052241033572,-0.0293067407351476,-12.721428179766582,11.086623758864668,63.93456333007908,1.4205454034860807,-0.1186249172866493,-0.049587846461775,5569.47802734375,12.027333333333337,0.26,179.05561144843665,-12.556401868144173,107.0246459206167,1525.0,1435.0,1200.0,1454.0,1475.0,1021.7000000000002,187.0,294.71,1637176226.6908,1637176227.6854274,3e178e15-4616-4f6b-a8cc-862d09cef352
-0.0104619181861464,0.0239219228070221,0.0540587341823709,-0.1679175707513981,-0.0011789395530869,0.5665948839490585,-0.0075429085261581,-0.0300534762775471,-13.22526620870318,11.782829112855476,61.96733526711769,1.7360175080455718,-0.3415868794407008,0.0133943101475994,5577.531846788194,12.02988888888889,0.26,179.06941450183933,-12.441405483046989,107.09291138464124,1525.0,1435.0,1200.0,1454.0,1475.0,1021.7000000000002,187.0,294.71,1637176227.7934186,1637176228.840271,3e178e15-4616-4f6b-a8cc-862d09cef352
0.0870455262076558,0.0942499145321565,0.2375570038357684,-0.1533427844110814,0.1601440576879843,0.4843141853912453,0.1696905591113453,0.1462420514865351,-11.07832860566244,11.17558285520433,63.35823858658284,1.52465855662514,-0.095509143848961,-0.6964546147249098,5568.274034288194,12.025555555555556,0.26,179.03395823094786,-12.489285393719994,107.12080891285125,1525.0,1435.0,1200.0,1388.2222222222222,1475.0,1021.7000000000002,187.0,294.71,1637176230.475682,1637176231.476462,c74b75a2-dffc-47b4-83c1-2b548bfffebd
0.035614948908152,0.0352725346132069,0.2288322951931931,-0.1759147207307708,0.1576101926999286,0.556755276914851,0.1745665326102166,0.1579389113731461,-11.954892995393676,11.959062113572037,62.46755261379989,1.7425362456912803,-0.3003726661418059,-0.6975779809791108,5575.113552517361,12.028555555555556,0.2655555555555555,179.08839028517343,-12.484869202102889,107.1348350857668,1525.0,1435.0,1200.0,1380.0,1475.0,1021.7000000000002,187.0,294.71,1637176231.5848866,1637176232.6196015,c74b75a2-dffc-47b4-83c1-2b548bfffebd
0.0503113564685227,0.0464061932168529,0.2346560731209203,-0.1699950590626188,0.1595244257000689,0.5367473466723682,0.1768281095577546,0.1620489754064628,-11.499846261957437,11.949560624042704,61.97809514166887,1.6846004838580535,-0.257857138587466,-0.7103128235117527,5568.273600260417,12.027333333333331,0.26,179.10598333465558,-12.56084651888282,107.12838662828042,1525.0,1435.0,1200.0,1380.0,1475.0,1021.7000000000002,187.0,294.71,1637176232.728835,1637176233.8293903,c74b75a2-dffc-47b4-83c1-2b548bfffebd
0.1310936578837542,0.0958798051586131,0.4310345773845537,-0.1687240188596512,0.3371446752849376,0.4846155097834088,0.3681125920845522,0.3388019585927918,-10.37177846927179,11.7799343575026,63.11258507249716,1.5739886805955858,-0.078050175253536,-1.4838158307289442,5562.650770399306,12.025666666666666,0.27,179.1119149744948,-12.535073179504728,107.15566868055517,1525.0,1435.0,1200.0,1306.0,1475.0,1021.7000000000002,187.0,294.71,1637176234.4776974,1637176235.7816236,140e1d1e-a5b1-4520-baf8-efbe0cf54c2d
0.0836898693481162,0.0489006099861772,0.399409226266956,-0.1797771473119571,0.3185036604801289,0.5304715835596031,0.3328850462384938,0.3038346472727922,-12.6973727750578,12.61644153906577,61.38675224869081,1.7044913740828689,-0.2231245380066247,-1.3753459400737558,5565.86083984375,12.029,0.27,179.03398403388476,-12.620469232286366,107.10742705444736,1525.0,1435.0,1200.0,1306.0,1475.0,1021.7000000000002,187.0,294.71,1637176235.8893163,1637176237.0973034,140e1d1e-a5b1-4520-baf8-efbe0cf54c2d
0.1437081880925853,0.1327509401635405,0.4338423712380887,-0.185447521393796,0.3316523549729006,0.4547159246510228,0.354443427310166,0.320763592182365,-10.927603149081063,12.000003058519132,61.768028158249614,1.545628998242916,0.0783305154212334,-1.4587610688081771,5563.854546440973,12.027111111111113,0.27,179.10680599299562,-12.603997472192974,107.15541141009643,1525.0,1435.0,1200.0,1306.0,1475.0,1021.7000000000002,187.0,294.71,1637176237.2056248,1637176238.3305328,140e1d1e-a5b1-4520-baf8-efbe0cf54c2d
0.1438040638501176,0.0659939148680756,0.544661217274506,-0.164971166168191,0.4459775212594196,0.491545967218404,0.4755894783461109,0.4474019634031678,-11.089648253460004,13.064385626615788,61.26702873780793,1.59461390860233,-0.1619393591903288,-1.947175375977888,5556.641764322917,12.026555555555555,0.2722222222222222,179.11640772114885,-12.5569451527744,107.13034461584247,1525.0,1435.0,1200.0,1232.0,1475.0,1021.7000000000002,187.0,294.71,1637176239.9984865,1637176241.1075566,6587b9f7-f566-4d5e-bd54-e01cc7800a1f
0.206726052054483,0.1695946827816219,0.6133905420528699,-0.1713948486468193,0.4887244772197992,0.4083119884711586,0.5368678763700592,0.5273213759541117,-8.47299627936054,11.966009930464775,63.52274617380095,1.4198840253223146,0.1932434608539383,-2.1683897404144363,5563.854546440973,12.024333333333333,0.28,179.07984344179204,-12.565412405479233,107.12919410842228,1525.0,1435.0,1200.0,1232.0,1475.0,1021.7000000000002,187.0,294.71,1637176241.2212791,1637176242.2128727,6587b9f7-f566-4d5e-bd54-e01cc7800a1f
0.1249028138836848,0.0284242552566227,0.538593642379542,-0.1648068081276139,0.4401564840084149,0.5151040459914628,0.5125838800782673,0.476342789311469,-7.520379671947094,11.731261109530156,59.52154458063317,1.6395601760750005,-0.3130681452415497,-1.987611414600332,5569.88037109375,12.024888888888889,0.27,179.11101035388472,-12.527703879708977,107.14501737999947,1525.0,1435.0,1200.0,1232.0,1475.0,1021.7000000000002,187.0,294.71,1637176242.3217068,1637176243.4509144,6587b9f7-f566-4d5e-bd54-e01cc7800a1f
-0.1139788689298343,-0.0310735964378584,-0.2586830247261096,-0.1200738423126214,-0.2817754258165491,0.5841209988860973,-0.3347537219365109,-0.3532303826112093,-15.302918134988182,12.144631483054946,60.60513099780905,1.6530402985310275,-0.5467858328982809,1.2779991132189474,5564.256673177083,12.02588888888889,0.2677777777777778,179.18224922692795,-12.498192719307598,107.26829318759933,1525.0,1435.0,1200.0,1602.0,1475.0,1021.7000000000002,187.0,294.71,1637176245.5910385,1637176246.71371,e327518c-b4b2-4149-be00-e74b3d95877e
-0.1019532899654162,-0.0034613344553121,-0.2465478726043013,-0.0660683072617385,-0.2692430732995354,0.5348955719324723,-0.3314528505475707,-0.3491351109335244,-14.426629421749588,11.747180619063505,64.58017669807141,1.4196451822875245,-0.4905426220629891,1.2498853049431264,5563.855848524306,12.028222222222222,0.2577777777777778,179.19563487988137,-12.610168073789389,107.21209666783818,1525.0,1435.0,1200.0,1602.0,1475.0,1021.7000000000002,187.0,294.71,1637176246.8213005,1637176247.9613185,e327518c-b4b2-4149-be00-e74b3d95877e
-0.1200464450608366,-0.0373603184156891,-0.2611894951279734,-0.0988030819252419,-0.2796798516164047,0.5926813471376414,-0.3422868300831985,-0.3735697760956937,-15.93843310788798,12.473236721667597,63.689743355650826,1.6265202813129944,-0.5959778951743113,1.2924840885426805,5571.896538628473,12.027555555555557,0.2555555555555555,179.19006903461772,-12.579253309513572,107.17830696310423,1525.0,1435.0,1200.0,1602.0,1475.0,1021.7000000000002,187.0,294.71,1637176248.0688615,1637176249.2986946,e327518c-b4b2-4149-be00-e74b3d95877e
-0.174768035266918,-0.0854357871675058,-0.4511010826960039,-0.0822538044903291,-0.4488263577563481,0.6224242433271638,-0.5290991675589736,-0.5628387305739797,-16.77418011777942,12.43256003206867,61.94345620587099,1.6456003832089965,-0.7689752638977835,2.039016328711784,5568.272298177083,12.027,0.2633333333333333,179.21418719148693,-12.549581544802958,107.17818553751896,1525.0,1435.0,1200.0,1676.0,1475.0,1021.7000000000002,187.0,294.71,1637176251.5291889,1637176252.6704228,8fb3c89d-5c85-4b16-af3c-30a7a45d7e78
-0.1649300703982773,-0.0513445035487395,-0.4465313585360622,-0.0850791313295989,-0.4553656407543555,0.5856961030264332,-0.5334223479858543,-0.5618290183893181,-16.00725237087035,12.437643810940491,61.098287758986224,1.569953162968147,-0.6384120018692186,2.051291804345834,5553.843587239583,12.029444444444444,0.2622222222222222,179.17449772112988,-12.541700265410672,107.11062434188884,1525.0,1435.0,1200.0,1676.0,1475.0,1021.7000000000002,187.0,294.71,1637176252.7802966,1637176253.8906286,8fb3c89d-5c85-4b16-af3c-30a7a45d7e78
-0.1788967260673174,-0.0730102691854086,-0.4634871541107332,-0.0947713646450046,-0.4643944144370568,0.6179142408375387,-0.5458243113624742,-0.5649819669563392,-16.961866238935695,12.493312382317614,61.28305309868448,1.663288596837664,-0.7144334854897019,2.101223310726888,5560.245388454861,12.028444444444444,0.26,179.21208197540275,-12.557107085175977,107.12081953758997,1525.0,1435.0,1200.0,1676.0,1475.0,1021.7000000000002,187.0,294.71,1637176253.9989605,1637176255.033975,8fb3c89d-5c85-4b16-af3c-30a7a45d7e78
-0.2073894062915179,-0.0546590714393187,-0.6082603673745756,-0.0258415127617253,-0.5994945668738821,0.5589467267164229,-0.7182711665921859,-0.7410348553188708,-17.39245564354934,12.670727625458303,63.25737794446631,1.3693571998597402,-0.6777177028802851,2.7333395615779423,5562.24951171875,12.021222222222224,0.28,179.139703219678,-12.60674064691838,107.12196093809123,1525.0,1435.0,1200.0,1750.0,1475.0,1021.7000000000002,187.0,294.71,1637176257.0003147,1637176257.9896753,9eca7c36-77cc-4375-b796-29755baf4944
-0.2108409399605642,-0.0403324718574386,-0.6231896226544286,-0.0386614913707306,-0.6143005533885247,0.5518245166448378,-0.7409526776403746,-0.7634698301499844,-18.15931219462892,12.663409979556738,62.42213563026559,1.380960328374045,-0.6105220357525002,2.8060595073803696,5558.64208984375,12.02211111111111,0.2777777777777778,179.16583248780287,-12.545936310788417,107.06459114361267,1525.0,1435.0,1200.0,1750.0,1475.0,1021.7000000000002,187.0,294.71,1637176258.097093,1637176259.2207158,9eca7c36-77cc-4375-b796-29755baf4944
-0.2214146834529342,-0.0450714806236317,-0.640529471854253,-0.0400996301611731,-0.6327635204232166,0.5517834270213199,-0.7478694428052796,-0.7741394524084374,-17.030782270898563,12.245421387995847,61.47412431347144,1.380894732403771,-0.6288107340332606,2.863728500651128,5555.840657552083,12.021555555555556,0.27,179.125400803556,-12.577878828806844,106.99633023304756,1525.0,1435.0,1200.0,1750.0,1475.0,1021.7000000000002,187.0,294.71,1637176259.328735,1637176260.5539467,9eca7c36-77cc-4375-b796-29755baf4944
-0.262745971335322,-0.0739175298919607,-0.7665252605324174,0.0192804269985634,-0.7442382110683434,0.5344594724794461,-0.9059935496237768,-0.9292010105404592,-19.25144544611981,13.729185674460672,61.66654564822957,1.2104937840774048,-0.7382623279086351,3.407581965284087,5551.44189453125,12.008666666666668,0.3211111111111111,179.18421480358907,-12.527191236066272,106.93216288252503,1525.0,1435.0,1200.0,1824.0,1475.0,1021.7000000000002,187.0,294.71,1637176262.5004756,1637176263.5318425,e4baea3a-cd17-4da0-a6a3-87a15af0970a
-0.2638329303859942,-0.0917493538112896,-0.7774266310196808,0.0103584927312531,-0.7530467460221256,0.5557965185598044,-0.9077494505329078,-0.9373340336535144,-19.0653244881405,13.666629402260844,60.99948723775724,1.277596520435056,-0.8001413743879174,3.4339184302050376,5550.244303385417,12.011333333333331,0.3133333333333333,179.24423091691608,-12.564494978264468,106.78997352220352,1525.0,1435.0,1200.0,1824.0,1475.0,1021.7000000000002,187.0,294.71,1637176263.6397622,1637176264.593098,e4baea3a-cd17-4da0-a6a3-87a15af0970a
-0.2748586616817056,-0.0765324764724247,-0.7729341552000127,-0.010282221856162,-0.7575666095649719,0.552933937847483,-0.8955595056353038,-0.9153784359044927,-17.868884619082905,13.341066916168666,60.07245662504662,1.3162443000272366,-0.7405000994807286,3.417918109624484,5549.445909288194,12.006444444444444,0.32,179.20476760171155,-12.523477605296293,106.71197503861168,1525.0,1435.0,1200.0,1824.0,1475.0,1021.7000000000002,187.0,294.71,1637176264.70953,1637176265.7809684,e4baea3a-cd17-4da0-a6a3-87a15af0970a
-0.003160008964307,0.0684045093775881,-0.0926259332300688,-0.0766831391330992,-0.1028435664172284,0.4814516051533449,-0.1425088026736884,-0.1671763065388686,-12.674497836391948,7.215709266247742,66.9671664239004,1.3023810052816165,-0.2435711075677114,0.5594689980560129,7865.300455729167,11.81688888888889,7.33888888888889,-178.38262228477657,-12.556449300013409,94.1815543562966,1525.0,1435.0,1350.0,1528.0,1475.0,1021.7000000000002,187.0,294.71,1637176269.9828389,1637176271.1029031,ef9cab14-f8a3-4d69-8c6b-6b7b52ac3199
0.0567350421260227,0.206383637123801,-0.0954063368623404,-0.276789879193986,-0.1745998448007693,0.5064204286541781,-0.165738170610812,-0.1881183485581254,-12.105474067694084,8.905729224610063,63.41948248160384,1.820666876420376,0.3258399566542195,0.7037088650328629,7878.1494140625,11.815666666666663,7.34,-177.57219150117805,-12.347789297599242,88.38589675328019,1525.0,1435.0,1350.0,1528.0,1475.0,1021.7000000000002,187.0,294.71,1637176271.2108753,1637176272.3335326,ef9cab14-f8a3-4d69-8c6b-6b7b52ac3199
0.0119609921704105,0.0821969442125507,-0.0921328579958098,-0.1141021396824083,-0.1089385360064538,0.4946003002862282,-0.1365918897869431,-0.1698745293593425,-12.47221445818734,7.015609190997696,65.88583885693009,1.4149634951333017,-0.1790540796290644,0.5587132899059327,7854.087890625,11.813333333333333,7.373333333333333,-177.18728302069115,-12.167305248467454,83.17767260547038,1525.0,1435.0,1350.0,1528.0,1475.0,1021.7000000000002,187.0,294.71,1637176272.440799,1637176273.6685483,ef9cab14-f8a3-4d69-8c6b-6b7b52ac3199
0.253335438754627,0.5298278458475579,-0.0633426897971954,-0.3790757973982173,-0.2135254659022218,0.2870563625705271,-0.2126625827207354,-0.2476846867607115,-11.168041330473171,7.942823946351474,63.84706913785721,1.554211880921675,1.5431377034499558,0.8197248191505101,7878.1494140625,11.803333333333333,7.436666666666667,-177.20545284170325,-11.865924384569242,73.52524092239938,1593.0,1435.0,1350.0,1528.0,1529.0,1021.7000000000002,187.0,294.71,1637176275.498824,1637176276.6356783,713c9c4d-6b86-49fd-859c-0a61898d036a
0.2547187910702989,0.5209387800666403,-0.0421952032375557,-0.4343688237715703,-0.2043898607091001,0.33854172276807,-0.186625423828006,-0.2154292889297899,-11.546239528450158,8.86982657497553,62.862964521768646,1.8014848491165527,1.5293613047969234,0.737790748876558,7861.2958984375,11.807666666666668,7.443333333333332,-177.3934682178961,-11.869910843451066,70.383341761635,1593.0,1435.0,1350.0,1528.0,1529.0,1021.7000000000002,187.0,294.71,1637176276.743437,1637176277.8701255,713c9c4d-6b86-49fd-859c-0a61898d036a
0.1592263887597407,0.3492113426514838,-0.0430443888347641,-0.2989920052804878,-0.1401529948505648,0.3827268183530528,-0.1460973010715374,-0.16824463902749,-12.127786620803748,7.426658334627301,63.11887845298052,1.585536561341217,0.8703808007419497,0.574706453576471,7842.907769097223,11.80577777777778,7.426666666666666,-177.6619963462052,-11.798258649099308,67.79796945008286,1593.0,1435.0,1350.0,1528.0,1529.0,1021.7000000000002,187.0,294.71,1637176277.9792893,1637176279.017143,713c9c4d-6b86-49fd-859c-0a61898d036a
0.3020951843214992,0.601008854293175,0.0065508501243108,-0.4257262852447787,-0.1582187573634924,0.2569787209994374,-0.1529318854476301,-0.177517209923487,-11.495449665213238,7.411730045174821,63.88650702945733,1.5916564990616984,1.8222430857684568,0.5723272117094959,7870.9150390625,11.78377777777778,7.564444444444444,-178.25553219598024,-11.870742324118778,62.2956282496934,1661.0,1435.0,1350.0,1528.0,1583.0,1021.7000000000002,187.0,294.71,1637176281.02658,1637176282.1645167,04e3ccaf-25b1-421c-b2c5-19c6ff57830a
0.3642775562724134,0.7096088570173681,0.0110159291952251,-0.4068387248552456,-0.1735589035305381,0.1436670972309016,-0.1872554632887625,-0.2124708303540151,-11.006318431741718,7.294935113543585,65.26073086077822,1.294337800924208,2.211873080945654,0.6516385495119854,7874.937174479167,11.782333333333334,7.522222222222222,-178.55027003686445,-11.90703330104504,60.25166150744105,1661.0,1435.0,1350.0,1528.0,1583.0,1021.7000000000002,187.0,294.71,1637176282.2725668,1637176283.3938649,04e3ccaf-25b1-421c-b2c5-19c6ff57830a
0.4486620471027018,0.8825278937445931,0.0065097611390698,-0.5806891904815953,-0.2495474190764731,0.1114116993418021,-0.2317144986064656,-0.2467533207644215,-10.55386022076483,8.956264660074297,61.794558824439,1.6244836771796958,2.9090900313257886,0.8387249796573019,7869.310438368056,11.788000000000002,7.612222222222221,-178.86083418496548,-11.97313748451598,58.53107766054202,1661.0,1435.0,1350.0,1528.0,1583.0,1021.7000000000002,187.0,294.71,1637176283.5020883,1637176284.6223452,04e3ccaf-25b1-421c-b2c5-19c6ff57830a
0.6066244428462798,1.134777397553352,0.0573650835271569,-0.6470764308008032,-0.2546699325490507,-0.0656574114511212,-0.2459726170202985,-0.2687910865048573,-9.87613337994988,8.424534895510162,63.21102900634626,1.3759133904172154,3.849216742269424,0.8293112635900798,7871.718858506944,11.774666666666668,7.622222222222222,-179.49683407972037,-12.057545531461423,55.42935632866033,1729.0,1435.0,1350.0,1528.0,1636.0,1021.7000000000002,187.0,294.71,1637176286.5563495,1637176287.5776565,c5b60123-2c94-4822-b397-9597a25e24f0
0.5245683681182163,0.9777189684739342,0.0796219915432005,-0.6319554238920907,-0.1960760479474068,0.0702398477101424,-0.1713674536469561,-0.1906796028479691,-10.574789468880237,8.242295898985935,63.01162415130207,1.646700079264088,3.2664105377751302,0.5933772632140359,7900.747992621527,11.778666666666664,7.565555555555556,-179.75951253046037,-12.14554085067721,54.4695060500489,1729.0,1435.0,1350.0,1528.0,1636.0,1021.7000000000002,187.0,294.71,1637176287.6861064,1637176288.7746103,c5b60123-2c94-4822-b397-9597a25e24f0
0.5741088158925273,1.10564481882465,0.0564063248679178,-0.6171768336856011,-0.2458082577256354,-0.0535907407938669,-0.2417540758496472,-0.2755434900914933,-9.970260809013237,8.429920194415933,64.79455910542187,1.3357756474240223,3.722841313834864,0.8114444431545547,7912.096733940973,11.779333333333334,7.545555555555556,179.87171280686607,-12.201679503557882,53.624168066877225,1729.0,1435.0,1350.0,1528.0,1636.0,1021.7000000000002,187.0,294.71,1637176288.8829143,1637176290.038721,c5b60123-2c94-4822-b397-9597a25e24f0
0.5961268535162465,1.126453177669572,0.0948722872381752,-0.7174674553075812,-0.2278098823221302,-0.0130127665628476,-0.1958979926822956,-0.2290327107243893,-10.074279943220851,8.806306769557896,60.65608519719711,1.6568892475626844,3.8530935648840265,0.6647816568891912,7914.5205078125,11.731111111111112,7.712222222222222,179.4319229974882,-12.208237054343524,52.40855338624064,1796.0,1435.0,1350.0,1528.0,1690.0,1021.7000000000002,187.0,294.71,1637176291.062083,1637176292.0826824,3e7b328c-5399-486b-ac37-3e489ab97a51
0.5865151574654393,1.104508004218684,0.094267445740921,-0.7351787568266588,-0.2263240821042007,0.0172818289265748,-0.1849319810728341,-0.2080605387898181,-10.030146391910012,8.759924798740133,59.62829970033512,1.764438397558611,3.7817242023658286,0.6437587811007991,7907.22021484375,11.730666666666666,7.742222222222223,179.25287945422514,-12.29595167175717,51.597320055414656,1796.0,1435.0,1350.0,1528.0,1690.0,1021.7000000000002,187.0,294.71,1637176292.1909697,1637176293.4288025,3e7b328c-5399-486b-ac37-3e489ab97a51
0.7101019330289233,1.3424994033364377,0.1148906296094196,-0.6824546528892421,-0.2445481739816336,-0.234316844436014,-0.248876286947702,-0.2754065241373152,-9.155290203474555,8.24599638564623,63.74544499081865,1.0788466039247464,4.62646169304459,0.7674009279403678,7909.653645833333,11.750999999999998,7.673333333333334,179.09975875559198,-12.291260944480925,50.88206340444082,1796.0,1435.0,1350.0,1528.0,1690.0,1021.7000000000002,187.0,294.71,1637176293.5370429,1637176294.6570275,3e7b328c-5399-486b-ac37-3e489ab97a51
-0.1387931995554549,-0.1618034214166052,-0.1449073448777133,0.0276955964197907,-0.1102079332341662,0.5765090004112907,-0.1547688682799913,-0.188219154294394,-12.49942688470735,8.491889952533214,61.81667069400312,1.2856586083797532,-1.078725184737905,0.6236149341743477,7887.830837673611,11.79866666666667,7.5344444444444445,179.13953625949833,-12.38342647363995,50.038742983258985,1457.0,1435.0,1350.0,1528.0,1421.0,1021.7000000000002,187.0,294.71,1637176295.5674667,1637176296.8539495,27d52665-0779-46ee-a430-83f93095ac96
-0.1887072979925337,-0.2418773446932348,-0.1378793669843421,0.0768826780331391,-0.0758887393011258,0.6085419606806425,-0.1310995691148193,-0.1444537141884076,-13.203532738399998,8.20213597096472,61.78119657208512,1.2447559904915382,-1.379368547432918,0.5239098182390078,7862.893446180556,11.797,7.559999999999999,179.07406661957398,-12.4811412469084,49.65613589706742,1457.0,1435.0,1350.0,1528.0,1421.0,1021.7000000000002,187.0,294.71,1637176296.9874296,1637176298.0258236,27d52665-0779-46ee-a430-83f93095ac96
-0.185009227087525,-0.2232637197232841,-0.1484120200682192,0.0888123813044412,-0.0816823824517293,0.5857645860785717,-0.1485489854431325,-0.1643137258659287,-13.6537445602576,7.745372036199309,62.59723356397092,1.1630127574261488,-1.3157464257517162,0.5743828060284489,7849.291015625,11.79511111111111,7.594444444444444,178.91693584098817,-12.421008071728131,49.33246803104372,1457.0,1435.0,1350.0,1528.0,1421.0,1021.7000000000002,187.0,294.71,1637176298.134787,1637176299.2553215,27d52665-0779-46ee-a430-83f93095ac96
-0.2856515516801857,-0.3940050473033109,-0.1846531175690083,0.0974686019319867,-0.1039940780056229,0.7223877454385677,-0.1495625330553855,-0.1732301867288235,-13.534649029346356,9.92834229944505,59.20159046764555,1.4626821992117331,-1.9302038804561263,0.6294301029664052,7849.291015625,11.776222222222222,7.682222222222222,178.4522993212296,-12.190889891671508,48.69907575073194,1389.0,1435.0,1350.0,1528.0,1367.0,1021.7000000000002,187.0,294.71,1637176301.0976489,1637176302.2392588,2eaca5d3-887a-482a-bdc5-8424aad1bd3a
-0.3270562537968549,-0.4713769211360104,-0.1816535706697637,0.1932486386075451,-0.0591378461410701,0.7266747673830519,-0.1270590837467712,-0.1449878799514103,-14.04913054739418,8.517421602471797,61.68838096598569,1.247193038969946,-2.2504207823685816,0.5274099450950765,7848.493109809027,11.77777777777778,7.634444444444444,178.3407926884796,-12.098259530193964,48.440199818084885,1389.0,1435.0,1350.0,1528.0,1367.0,1021.7000000000002,187.0,294.71,1637176302.347434,1637176303.5559585,2eaca5d3-887a-482a-bdc5-8424aad1bd3a
-0.3196053248627457,-0.4834983790604443,-0.1838313233859563,0.2083833341913105,-0.0587269489114404,0.7294003822713663,-0.1307297616136409,-0.1544111129939836,-14.17670489467274,8.781475859555192,62.34324634009829,1.2208598760158726,-2.3027817194812155,0.5344371141070933,7870.9150390625,11.776333333333334,7.63,178.4244943800284,-12.2061408503145,48.16046524662252,1389.0,1435.0,1350.0,1528.0,1367.0,1021.7000000000002,187.0,294.71,1637176303.664016,1637176304.8973238,2eaca5d3-887a-482a-bdc5-8424aad1bd3a
-0.5034816621420096,-0.7901781299647196,-0.2260715145392886,0.3478690798457665,-0.027252256475414,0.896032699072241,-0.1084043696049236,-0.1465355918339131,-15.081858996207908,9.596673768207522,61.49215097129788,1.2833687378515162,-3.458905208596073,0.4793056532824891,7892.65771484375,11.747,7.720000000000001,178.4510395307827,-12.279613479807542,47.80533639091688,1321.0,1435.0,1350.0,1528.0,1314.0,1021.7000000000002,187.0,294.71,1637176306.472562,1637176307.5591707,6ba5b2ea-037f-43a1-a660-06f38c3f84b1
-0.5278204529641178,-0.8452383215517534,-0.2184699233904785,0.3666333620340955,-0.0122408280130801,0.9275758717468972,-0.0929957398452687,-0.113636455244981,-15.248851305797205,10.260886094984356,60.84514510935293,1.3165172913246488,-3.6603151960342495,0.4187594405206251,7892.65771484375,11.750666666666667,7.699999999999999,178.43614971839204,-12.270767910513683,47.67306636254499,1321.0,1435.0,1350.0,1528.0,1314.0,1021.7000000000002,187.0,294.71,1637176307.6677165,1637176308.7886398,6ba5b2ea-037f-43a1-a660-06f38c3f84b1
-0.5179726247763836,-0.8179547628616096,-0.2216201327806735,0.3335150870090466,-0.0249512348856887,0.9305617207709632,-0.0970088322940656,-0.1247991511348431,-15.077345410188723,10.206278249509394,60.706837793241824,1.3974790305045437,-3.554096389068945,0.4490375541870639,7892.65771484375,11.750999999999998,7.73,178.36772640110672,-12.22718096346151,47.577738550664,1321.0,1435.0,1350.0,1528.0,1314.0,1021.7000000000002,187.0,294.71,1637176308.8978074,1637176310.016998,6ba5b2ea-037f-43a1-a660-06f38c3f84b1
-0.6467751019330304,-1.0436056950071666,-0.2409596750488636,0.4580030990077963,0.0120568677638083,1.0156995227304002,-0.0794909325952005,-0.102610724468324,-15.943662079515718,10.921308809650109,57.66585827182973,1.3108367963737502,-4.383881914256519,0.3686507539289481,7892.65771484375,11.735,7.743333333333333,178.40671767434858,-12.308459076219798,47.34885891157686,1254.0,1435.0,1350.0,1528.0,1260.0,1021.7000000000002,187.0,294.71,1637176311.023658,1637176312.1632164,761482ca-95af-44c1-b7bc-8f94b6fb1368
-0.6471996955807042,-1.021252897349899,-0.2364672031721958,0.4616052937346684,0.0093723422782053,0.9894158282971384,-0.0855174186077095,-0.1129927167139733,-15.747635776328329,11.168284846053592,57.50465985661358,1.2455820645453282,-4.300158581111121,0.3773085144137855,7887.010091145833,11.736555555555556,7.75,178.45971690666823,-12.280961114076282,47.29252654694224,1254.0,1435.0,1350.0,1528.0,1260.0,1021.7000000000002,187.0,294.71,1637176312.2720375,1637176313.310274,761482ca-95af-44c1-b7bc-8f94b6fb1368
-0.6558011370049474,-1.0314157487754525,-0.2830218111289997,0.4980518331033211,-0.0182673130609651,0.9729799591543288,-0.1282506833956919,-0.1555753201106125,-16.020764314069414,10.071720480831443,58.19408526321983,1.116819054782736,-4.349909936265286,0.5395781225199398,7892.65771484375,11.735555555555557,7.757777777777777,178.34260648315922,-12.143399776099884,47.251959017821896,1254.0,1435.0,1350.0,1528.0,1260.0,1021.7000000000002,187.0,294.71,1637176313.4188032,1637176314.523947,761482ca-95af-44c1-b7bc-8f94b6fb1368
0.0661308819317498,0.2147111457336857,-0.1336471281334834,-0.0793539677969643,-0.1591638188063734,0.3571005601448662,-0.2175111637768781,-0.2396037154094998,-12.1959142885921,5.647232943573524,68.88756112242278,1.0170791667390429,0.2824617368210386,0.8202496674066747,7958.61328125,11.812555555555557,7.463333333333334,178.0685975074961,-12.218960166749229,47.17618034571032,1525.0,1435.0,1350.0,1528.0,1475.0,1021.7000000000002,187.0,294.71,1637176316.5495293,1637176317.5964668,8261979f-74ea-4d2a-a68a-cfb0b341c2b6
0.0754034519129256,0.2495825815561815,-0.1301271127211858,-0.1302229921536071,-0.17038130175493,0.3633872793249589,-0.2169769991425047,-0.2408227099756585,-12.142518413189949,5.809218328031743,67.99342439554128,1.147087761631157,0.4272865742524498,0.8324527607737687,7966.009765625,11.812,7.483333333333334,178.055167837768,-12.12944693285415,47.3875337193872,1525.0,1435.0,1350.0,1528.0,1475.0,1021.7000000000002,187.0,294.71,1637176317.705017,1637176318.8302517,8261979f-74ea-4d2a-a68a-cfb0b341c2b6
0.0527767370853536,0.2239700187362531,-0.1325103136299429,-0.1057883278270919,-0.1636152005513731,0.3639899280093921,-0.2164565290459764,-0.2403159369272124,-12.280700344390604,5.747388629854032,67.7046216930179,1.092679239378433,0.3316009991779096,0.8223811470229904,7958.61328125,11.812444444444443,7.491111111111111,178.05409929261788,-12.098236668032992,47.59098570255923,1525.0,1435.0,1350.0,1528.0,1475.0,1021.7000000000002,187.0,294.71,1637176318.9457676,1637176320.008628,8261979f-74ea-4d2a-a68a-cfb0b341c2b6
0.0940702174637291,0.236930797624828,-0.1915983681618161,-0.6717494176534295,-0.2855852598755274,0.8969558471124313,-0.1356901074092832,-0.1567806179002768,-12.562778172395646,5.175859863587621,71.27793284350037,3.5606910715660325,0.4164644746801144,0.9557411228555606,7943.861328125,11.801666666666668,7.494444444444446,178.1407425189692,-11.800987878855162,47.9679309413838,1525.0,1535.0,1350.0,1528.0,1475.0,1021.7000000000002,187.0,294.71,1637176322.0796432,1637176323.2213235,44cf8e97-3480-4493-91b9-c9a17d6e04b0
0.1293952849849683,0.3213114545608633,-0.1862556175849702,-0.7555121325275896,-0.3252346143656017,0.8739812431990748,-0.1502199712600152,-0.1692581867693867,-11.297613147285569,6.485276314610775,68.74399213998748,3.7071914719450447,0.7571208584890466,1.0293987305412988,7936.505859375,11.805666666666667,7.513333333333334,178.07027166275262,-11.873478763518753,48.06727869904632,1525.0,1535.0,1350.0,1528.0,1475.0,1021.7000000000002,187.0,294.71,1637176323.330108,1637176324.3499453,44cf8e97-3480-4493-91b9-c9a17d6e04b0
0.0924830600938795,0.2496099749486301,-0.189748237650507,-0.7043828533665698,-0.2957322208010849,0.9082089389739302,-0.1348250337668344,-0.1569038878958166,-12.305348395998232,5.636195834090825,70.37594148936898,3.662720855116978,0.4743343702871545,0.965775004255423,7922.649793836806,11.800111111111114,7.550000000000001,178.19888716046364,-11.834490051597813,48.193274819210586,1525.0,1535.0,1350.0,1528.0,1475.0,1021.7000000000002,187.0,294.71,1637176324.45893,1637176325.5850763,44cf8e97-3480-4493-91b9-c9a17d6e04b0
0.0918530187581698,0.1847567734423217,-0.2120051462040112,-1.1856391119553764,-0.3490392338132081,1.4557151611804937,0.0004695796755834,-0.0111177098539198,-12.854797810775535,4.390531436800453,76.62550318414185,5.969990383753815,0.2374154457307407,0.8729635099383796,7925.095540364583,11.790444444444445,7.5344444444444445,178.47824645097657,-11.778571956909088,48.39668582124759,1525.0,1636.0,1350.0,1528.0,1475.0,1021.7000000000002,187.0,294.71,1637176327.493818,1637176328.537356,561f471a-c36a-4cd0-802f-c67d13afad62
0.0877714443621225,0.1961249165922028,-0.2109779044196079,-1.1911314362071554,-0.3511348078888061,1.4436484922777264,-0.0013383663026514,-0.0250197174736295,-12.726868130191852,4.334687923407346,75.77212544798137,5.95487362502881,0.2874513020857113,0.8772278025501259,7943.861328125,11.786555555555555,7.5744444444444445,178.46332476436982,-11.717455329352074,48.43799632316765,1525.0,1636.0,1350.0,1528.0,1475.0,1021.7000000000002,187.0,294.71,1637176328.6454554,1637176329.766675,561f471a-c36a-4cd0-802f-c67d13afad62
