raw_voltage_G-,raw_voltage_G0,raw_voltage_G1,raw_voltage_G2,raw_voltage_G3,raw_voltage_G4,raw_voltage_G5,raw_voltage_G6,load_x,load_y,load_z,load_l,load_m,load_n,rpm,voltage,current,roll,pitch,yaw,aileron1_pwm,elevator_pwm,throttle_pwm,rudder_pwm,aileron2_pwm,pbaro,pdiff,Tt,sample_start_time,sample_end_time,uid
-0.0966116311695781,0.0255479787447004,-0.0026943254057807,0.3164354807311287,-0.1104588526221228,-0.4282327507598469,-0.4143033477199107,-0.4365602615224207,-13.913197615758842,23.830520612872363,-17.70249811226841,-1.5280812758827689,0.3124648034295715,0.7053890125786587,5725.73583984375,12.032,0.2533333333333333,179.32205864577864,8.163455187195147,70.75861056847326,1525.0,1435.0,1200.0,1528.0,1475.0,1021.7000000000002,185.0,294.15,1637173094.6370752,1637173095.6881917,a2123312-61f4-4ba3-a3cc-8799884af8cd
-0.0884758749031154,0.0408470348941744,0.0089066599355263,0.3068752834564938,-0.0835451134413618,-0.4257810663799142,-0.4182479574267521,-0.4404637819973056,-17.102563327218146,23.520105612184366,-16.42496825705398,-1.5038884776828858,0.3830036384140672,0.660000596415125,5726.58642578125,12.033,0.2522222222222222,179.362107839432,8.194507598755488,69.88404279074854,1525.0,1435.0,1200.0,1528.0,1475.0,1021.7000000000002,185.0,294.15,1637173095.8240273,1637173096.944421,a2123312-61f4-4ba3-a3cc-8799884af8cd
-0.0928587738425135,0.0304787399465108,0.0004558831621782,0.3088201946420643,-0.0962966101627487,-0.420453103887736,-0.414138988978,-0.4388201945074097,-15.542760023630017,23.349319703051567,-16.879873283946925,-1.4971433796165516,0.3363300451312277,0.6823194259752784,5723.612358940973,12.030444444444443,0.25,179.42921217129762,8.228612725419872,69.07780726112021,1525.0,1435.0,1200.0,1528.0,1475.0,1021.7000000000002,185.0,294.15,1637173097.056904,1637173098.280896,a2123312-61f4-4ba3-a3cc-8799884af8cd
0.0641037912715187,0.3218456210631435,0.0058797204559504,0.1649515503937208,-0.1585200799868513,-0.5628151700126164,-0.4742668947701057,-0.5015915374545613,-15.58461647781123,22.79361721232556,-15.570874718641296,-1.4957436928804857,1.4358753548115215,0.8813250756851719,5725.73583984375,12.01688888888889,0.2955555555555555,179.47137872359366,8.26969308791039,68.29475718808447,1585.4444444444443,1435.0,1200.0,1528.0,1523.0,1021.7000000000002,185.0,294.15,1637173099.0310328,1637173100.030823,66fb755a-3774-4d2a-a0e7-41f86e03fb20
0.0699522217932732,0.3260641608230759,0.0224114668403183,0.1687318004022565,-0.1510828481130363,-0.5710194111256133,-0.4509416500757798,-0.4638027231224648,-13.976590716427252,22.77819000913213,-15.509703497386033,-1.5211669438973945,1.4403564069766788,0.8172112570917586,5725.73583984375,12.011666666666663,0.3,179.50557823967782,8.302114667808102,67.82103120436045,1593.0,1435.0,1200.0,1528.0,1529.0,1021.7000000000002,185.0,294.15,1637173100.1627443,1637173101.1495826,66fb755a-3774-4d2a-a0e7-41f86e03fb20
0.0702398494706448,0.3214073312298429,0.0223840737691228,0.176894948954671,-0.1520005175745875,-0.5725123366074806,-0.4553793359733788,-0.4724041632155464,-14.109927184156952,23.16923185439144,-15.323286912224722,-1.540382312599771,1.4211818188513348,0.8243341013293545,5727.43701171875,12.014444444444443,0.2899999999999999,179.55939405905823,8.332773205126305,67.44197771381207,1593.0,1435.0,1200.0,1528.0,1529.0,1021.7000000000002,185.0,294.15,1637173101.257723,1637173102.380479,66fb755a-3774-4d2a-a0e7-41f86e03fb20
0.2883986270736905,0.7344955014757474,0.0206720039085026,-0.0311557748679408,-0.2381107897130493,-0.782549141568741,-0.5550903086957106,-0.571978172220438,-15.625746812690364,21.90082588424795,-15.244658170680893,-1.5522957548803078,3.0060307767003205,1.1336512542685504,5729.5634765625,11.999000000000002,0.33,179.55653448652572,8.395424348516846,66.68316418759117,1661.0,1435.0,1200.0,1528.0,1583.0,1021.7000000000002,185.0,294.15,1637173104.035122,1637173105.0400772,2d8540f9-6494-4f8e-aea8-795ac8b454f7
0.2884397167405956,0.7359199434360676,0.0322182028962942,-0.0353195288076671,-0.231961034233356,-0.7827682866333469,-0.5420648776881195,-0.5590897060555874,-15.106577379789124,22.07422166882377,-15.53253808846254,-1.5414559621629191,3.0114977742914384,1.0910126094265005,5730.414930555556,12.000888888888888,0.3277777777777778,179.58314035007268,8.394054326405827,66.44576274914958,1661.0,1435.0,1200.0,1528.0,1583.0,1021.7000000000002,185.0,294.15,1637173105.1480668,1637173106.154123,2d8540f9-6494-4f8e-aea8-795ac8b454f7
0.2722092957740532,0.7194018953667474,0.0165904293957542,-0.0275809729491727,-0.2488899826519941,-0.7707427027722286,-0.5493514490011445,-0.5778266038202439,-14.179905657934398,22.18137350718141,-15.2054486856856,-1.5314383890223653,2.9381456292299792,1.1448819140209878,5737.23291015625,12.001888888888889,0.3255555555555556,179.60118722767965,8.405646200928462,66.20653006110054,1661.0,1435.0,1200.0,1528.0,1583.0,1021.7000000000002,185.0,294.15,1637173106.264417,1637173107.2958272,2d8540f9-6494-4f8e-aea8-795ac8b454f7
0.4812169776245514,1.0891726224884746,0.0293734872248583,-0.1977130836828758,-0.3210392947747858,-0.9695989723102288,-0.6273897003345967,-0.6451547405437169,-14.510779304553807,21.67765319720036,-14.484043718731686,-1.5972728882827143,4.342707462235284,1.381080400786301,5729.989203559027,11.987333333333332,0.3688888888888889,179.50720382470024,8.43750163403497,65.88314337119768,1729.0,1435.0,1200.0,1528.0,1636.0,1021.7000000000002,185.0,294.15,1637173108.0584571,1637173109.0203657,77af8a59-952d-408b-830f-62973e5694b0
0.4893819123500957,1.0910031972337098,0.0371763571536879,-0.1990892901914048,-0.314701955671025,-0.9689183125715418,-0.6222034669758835,-0.6355165286994793,-14.68773515299199,21.867791091208705,-14.26392054628618,-1.591043978516191,4.349542059818028,1.3547465656943265,5733.39501953125,11.988,0.36,179.51172692775066,8.450857879229453,65.70082057822307,1729.0,1435.0,1200.0,1528.0,1636.0,1021.7000000000002,185.0,294.15,1637173109.1332748,1637173110.158714,77af8a59-952d-408b-830f-62973e5694b0
0.4793286392499056,1.0801281302681949,0.0229045429456365,-0.1978155102287087,-0.3245360863271155,-0.960111420264372,-0.6324347997702314,-0.6458163449949641,-14.78426796903837,21.716438264937576,-14.451884367175325,-1.575919583022543,4.310038947514993,1.4005870870910635,5733.39501953125,11.984,0.36,179.55777302749524,8.453989236372687,65.51731919816169,1729.0,1435.0,1200.0,1528.0,1636.0,1021.7000000000002,185.0,294.15,1637173110.2667696,1637173111.4796045,77af8a59-952d-408b-830f-62973e5694b0
0.6690259577726385,1.4302532570349662,0.0484760179700845,-0.3614894079077708,-0.3816370490642598,-1.1440837202804428,-0.6943843569080768,-0.730981577871861,-15.2111869058181,21.487878253095044,-13.397448725799723,-1.62041037288608,5.638666216989999,1.5739194044413694,5737.23291015625,11.963333333333336,0.4122222222222222,179.452917481177,8.474185536565987,65.2925604398738,1796.0,1435.0,1200.0,1528.0,1690.0,1021.7000000000002,185.0,294.15,1637173112.0572212,1637173113.123783,d65d2b58-b848-4fc3-af7c-be7663fef7e7
0.662917293236014,1.4141324066613317,0.042408442559779,-0.3564216801745885,-0.3885675090125276,-1.1327018712476098,-0.6903164773735618,-0.7211885339718932,-14.254240693742725,21.45094154581588,-13.37389042215869,-1.6063269155078022,5.570212175897455,1.5846493325806048,5739.794759114583,11.962666666666664,0.4099999999999999,179.44898632785473,8.477372673587443,65.14969337300465,1796.0,1435.0,1200.0,1528.0,1690.0,1021.7000000000002,185.0,294.15,1637173113.2603302,1637173114.352594,d65d2b58-b848-4fc3-af7c-be7663fef7e7
0.6694505510475102,1.4194740647747166,0.0523384475404497,-0.3557779416966924,-0.378048549980946,-1.137714815422621,-0.6870156055001827,-0.7085876950016234,-14.876712849313456,21.619413652564315,-13.206076783909344,-1.6177191029590892,5.593718126933621,1.5524709200953868,5737.23291015625,11.964888888888888,0.4,179.44661852894245,8.493229716655536,65.00824774439276,1796.0,1435.0,1200.0,1528.0,1690.0,1021.7000000000002,185.0,294.15,1637173114.4847505,1637173115.5782974,d65d2b58-b848-4fc3-af7c-be7663fef7e7
-0.3384243991632481,-0.4175083430983366,-0.004515967704221,0.519089745248825,0.0050579269311261,-0.1814892107227789,-0.3197148968880537,-0.3379313238703163,-16.386091252900524,24.33768802177453,-17.44672699103169,-1.4286866177361837,-1.3590880979580808,0.3624505505936874,5733.39501953125,12.029777777777776,0.26,179.96183184059504,8.484122038852277,64.82881260361725,1457.0,1435.0,1200.0,1528.0,1421.0,1021.7000000000002,185.0,294.15,1637173116.599727,1637173117.8137145,ed27ef6f-7824-4e4a-a599-d71023071d62
-0.3408486904960804,-0.4325060780140954,-0.0038722294630804,0.5328821784510068,-0.001927318116079,-0.1784759676298027,-0.3109217049767709,-0.3407117262211015,-14.692201553632406,24.701331439231808,-17.279098792854423,-1.44970573645794,-1.4304645088268078,0.3581455515475044,5733.39501953125,12.028,0.25,179.96861345953096,8.49946008240719,64.89902315373544,1457.0,1435.0,1200.0,1528.0,1421.0,1021.7000000000002,185.0,294.15,1637173117.9225905,1637173119.0543258,ed27ef6f-7824-4e4a-a599-d71023071d62
-0.3346167552638337,-0.4243292307055994,-0.0026943253964991,0.5208702977003369,-0.0015164213297412,-0.178174643247587,-0.3120996091906891,-0.3395064285921807,-15.073341224926098,24.66571212935165,-17.66702500100637,-1.422363926925566,-1.3921075784660248,0.3577423880410975,5733.39501953125,12.028333333333332,0.2566666666666666,-179.99867995225733,8.497779002097719,64.94691416346586,1457.0,1435.0,1200.0,1528.0,1421.0,1021.7000000000002,185.0,294.15,1637173119.1635678,1637173120.4042552,ed27ef6f-7824-4e4a-a599-d71023071d62
-0.4916865397462102,-0.705452967009896,0.008807211002312,0.6571665256944279,0.067218865178978,-0.0298099391197753,-0.2393744463183982,-0.2649572402808087,-14.762462986357855,25.87485099328104,-17.583674634205334,-1.3876615223030808,-2.465462904019535,0.1119172135377327,5737.23291015625,12.005777777777778,0.31,-179.9372249457452,8.512339827043323,65.03433982593212,1389.0,1435.0,1200.0,1528.0,1367.0,1021.7000000000002,185.0,294.15,1637173121.052992,1637173122.1385677,ac91f816-56f4-4f49-bffa-baf6bf1073f6
-0.4935927439057181,-0.7097519015436301,-0.0024751804701879,0.6547678416648831,0.0551873317070075,-0.0234035225452348,-0.2446029592998999,-0.2739683857086243,-14.22636824337166,25.734374314848964,-17.65045010166897,-1.3690884179726546,-2.4852113362755985,0.1509252008773869,5729.5634765625,12.003666666666666,0.3166666666666666,-179.95894646512568,8.515788218800532,65.01739488551122,1389.0,1435.0,1200.0,1528.0,1367.0,1021.7000000000002,185.0,294.15,1637173122.2654774,1637173123.3572297,ac91f816-56f4-4f49-bffa-baf6bf1073f6
-0.4837973200782327,-0.7015941089688968,0.0017040565000929,0.648419785130151,0.0581862825570982,-0.0270515711550736,-0.2413610430376414,-0.2575253677413579,-14.284923649215076,25.62629319122436,-17.83344525172643,-1.3635334405470432,-2.451533642071419,0.1372047075458956,5726.58642578125,12.003222222222222,0.3122222222222222,-179.98907367064467,8.499318450845648,64.97883998546632,1389.0,1435.0,1200.0,1528.0,1367.0,1021.7000000000002,185.0,294.15,1637173123.4659257,1637173124.4948742,ac91f816-56f4-4f49-bffa-baf6bf1073f6
-0.7014380875205255,-1.113362315919817,0.0068110863866061,0.8457389400486353,0.1508988816825891,0.2024253332496282,-0.1454535621804993,-0.1638069529829565,-14.276997995469303,27.25828569855956,-16.368294105264948,-1.281661351487258,-4.032899239980659,-0.1792781391147462,5725.73583984375,11.992555555555557,0.3455555555555555,-139.8917909321047,8.498903327126094,64.99533033885245,1328.5555555555557,1435.0,1200.0,1528.0,1319.888888888889,1021.7000000000002,185.0,294.15,1637173125.0332935,1637173126.022272,8b4708bf-a65b-4123-a306-a84f96b89502
-0.7003697555080217,-1.1175123762981989,0.0101941364067772,0.8603531667712034,0.1553776562072566,0.1944128468308814,-0.1461383901539547,-0.159451446969006,-14.362328975117752,27.465959745860506,-16.164100547258546,-1.3310978474474728,-4.05125163503529,-0.1892457414940149,5724.037055121527,11.995555555555557,0.3355555555555556,-179.88589227958303,8.478755976621848,64.97762497070397,1321.0,1435.0,1200.0,1528.0,1314.0,1021.7000000000002,185.0,294.15,1637173126.1314385,1637173127.2458184,8b4708bf-a65b-4123-a306-a84f96b89502
-0.7080398313734874,-1.1217720091073795,0.0042224367846635,0.8516421562923776,0.1504468952544525,0.204014133963843,-0.1437140991257826,-0.157698286852668,-13.984885767089317,27.11176389090293,-16.544020013224202,-1.2923884917955342,-4.065844150505449,-0.1785597709779487,5729.13818359375,11.993333333333332,0.3311111111111111,-179.89225042679038,8.474620961125574,65.01044782421542,1321.0,1435.0,1200.0,1528.0,1314.0,1021.7000000000002,185.0,294.15,1637173127.3545415,1637173128.4744036,8b4708bf-a65b-4123-a306-a84f96b89502
-0.8325689973108962,-1.360215602678868,0.0160151739415736,0.980828086600574,0.2051098586728685,0.328461058367243,-0.0818878297907767,-0.1175810649760353,-13.08418377743096,28.59637072833097,-14.894878379005858,-1.2930063334528663,-4.996276625348608,-0.3824873800439044,5740.221733940973,11.966333333333331,0.4077777777777778,-179.8852168497651,8.466001357256756,64.99862780240176,1254.0,1435.0,1200.0,1528.0,1260.0,1021.7000000000002,185.0,294.15,1637173130.0327835,1637173131.1473744,820b9c5b-f379-46dc-ba71-51a05556d31b
-0.8418141790274069,-1.3735012777213982,0.0134128277274435,0.9973461351477132,0.2045209066212107,0.329186975930161,-0.0851202178373156,-0.1034325187515701,-13.014946528254264,28.85050171816676,-14.506080320637656,-1.3269838558457965,-5.052236326297972,-0.3745059415450973,5728.28759765625,11.965666666666667,0.4,-179.90347166868682,8.472102613460347,64.94782713208491,1254.0,1435.0,1200.0,1528.0,1260.0,1021.7000000000002,185.0,294.15,1637173131.2604496,1637173132.37797,820b9c5b-f379-46dc-ba71-51a05556d31b
-0.8431016561778873,-1.3691320711690838,0.016864360513467,0.988306407082317,0.2059042589800084,0.3308990456178866,-0.0842436380379039,-0.1163620702052857,-13.26702455523955,29.00018640811955,-14.82105468970062,-1.3017581520988142,-5.029939057739482,-0.382575547359222,5732.969292534723,11.970222222222224,0.4,-179.918982269382,8.469669263704795,64.91970344872246,1254.0,1435.0,1200.0,1528.0,1260.0,1021.7000000000002,185.0,294.15,1637173132.5122015,1637173133.6871135,820b9c5b-f379-46dc-ba71-51a05556d31b
-0.10671969195123,0.0017844493552936,0.0004832762759378,0.3163806945288359,-0.0960774651965614,-0.3917451111686108,-0.4015792422456265,-0.4224664995241525,-14.734237353990162,23.578294695644967,-15.76520976981494,-1.4475833818208022,0.2121820106142161,0.6627390569850652,5728.713487413194,12.03,0.25,179.665743140075,8.470553109156139,64.93801898043678,1525.0,1435.0,1200.0,1528.0,1475.0,1021.7000000000002,185.0,294.15,1637173134.6218443,1637173135.7184696,e256a138-651f-4c73-bb85-65e5a70b54b0
-0.1077469339113491,-0.0028860771908823,0.0046881198453084,0.3158465287874043,-0.0934066361302839,-0.3887455642596101,-0.3962512798623527,-0.4135089480543749,-14.561090366033872,23.72430447188049,-16.02510538413699,-1.4384150338642894,0.1960774609930123,0.6449085264855019,5727.437879774306,12.02988888888889,0.25,179.682719954712,8.480221526517507,65.08903446298577,1525.0,1435.0,1200.0,1528.0,1475.0,1021.7000000000002,185.0,294.15,1637173135.8374646,1637173136.9888694,e256a138-651f-4c73-bb85-65e5a70b54b0
-0.106377277884684,-0.0060499823097268,0.0049894441286401,0.316161549613912,-0.0952145819574165,-0.3841983059800252,-0.3888551367665726,-0.402222981559938,-13.782310553145363,23.57576480031874,-15.751039285238091,-1.4294413250023947,0.1762476375815748,0.6370418022826344,5729.5634765625,12.029555555555556,0.25,179.68169997979595,8.47728653731291,65.21349113440209,1525.0,1435.0,1200.0,1528.0,1475.0,1021.7000000000002,185.0,294.15,1637173137.097407,1637173138.3163776,e256a138-651f-4c73-bb85-65e5a70b54b0
-0.0939271055385583,-0.0110218332285931,-0.0324158582136375,-0.1468917008826651,-0.1753668484480087,0.0690756421043745,-0.3011012709710631,-0.3180028278004816,-14.210320334289236,22.553373851767123,-12.416546664850143,0.6253364436325191,0.1856991283400052,0.672418434363379,5726.163519965277,12.031444444444444,0.25,179.63684536860657,8.613903127317858,65.35366407109865,1525.0,1535.0,1200.0,1528.0,1475.0,1021.7000000000002,185.0,294.15,1637173139.127704,1637173140.3536084,00c6a12f-8d9d-4342-a6c3-3a9e9cde5988
-0.0906947174678856,-0.0063376100316806,-0.0079675005328626,-0.1418102772921265,-0.1654094495363751,0.0567076497443846,-0.2758037236893363,-0.2963759588896233,-12.569027040241266,23.10293102070881,-12.680798300597502,0.5917259745957035,0.1949267820689536,0.5906728669086129,5729.5634765625,12.035,0.24,179.61493260392933,8.605075297543095,65.34144182703386,1525.0,1535.0,1200.0,1528.0,1475.0,1021.7000000000002,185.0,294.15,1637173140.461663,1637173141.584359,00c6a12f-8d9d-4342-a6c3-3a9e9cde5988
-0.0880375849798541,-0.0102548258670358,-0.024321191859955,-0.1428512158256556,-0.1688472859788904,0.0658706474172581,-0.2963896541575898,-0.3218515614007795,-14.281747310273415,22.789365358811736,-12.189696778280489,0.6109877314867348,0.18709054079,0.6460976760811914,5717.259006076389,12.031555555555554,0.2455555555555555,179.59971190681892,8.609506098175924,65.35882769411118,1525.0,1535.0,1200.0,1528.0,1475.0,1021.7000000000002,185.0,294.15,1637173141.692872,1637173142.7544029,00c6a12f-8d9d-4342-a6c3-3a9e9cde5988
-0.074546474134717,-0.0134872137669984,-0.0555493464772878,-0.6390228468531006,-0.2507116251422941,0.5523312898430784,-0.1997741181233046,-0.2234006850627717,-14.905399030463563,22.266706667006343,-8.177994530908768,2.8186772220806,0.2029263440324179,0.6633022686056212,5683.132703993056,12.023777777777775,0.27,179.56118508644062,8.762826200387357,65.41742085136109,1525.0,1636.0,1200.0,1528.0,1475.0,1021.7000000000002,185.0,294.15,1637173144.54452,1637173145.682922,b611db4e-7936-411d-a1ff-7c94bbe4ab7b
-0.0770803375945328,-0.0183768852889949,-0.0584530169849088,-0.6398583371428895,-0.2529441644274812,0.5533722281925259,-0.1955966673835736,-0.2271124526112327,-14.33863268074966,21.95095250241009,-8.814406900342988,2.8208471029588424,0.1861296113348073,0.6633826553502774,5676.44140625,12.022333333333334,0.2633333333333333,179.53707300085065,8.754068474915321,65.3297098387695,1525.0,1636.0,1200.0,1528.0,1475.0,1021.7000000000002,185.0,294.15,1637173145.7916954,1637173147.0309713,b611db4e-7936-411d-a1ff-7c94bbe4ab7b
-0.0601650869516782,-0.0040502846854093,-0.0539879387035254,-0.6496239867208334,-0.242890889208291,0.5515642826402494,-0.2050062040243956,-0.2373163900299907,-16.328170138659832,22.051672017859943,-8.364135783638305,2.83877362701355,0.2514409203684922,0.6578508063233676,5672.6845703125,12.019777777777778,0.27,179.51995351115096,8.748272300494657,65.25105489810747,1525.0,1636.0,1200.0,1528.0,1475.0,1021.7000000000002,185.0,294.15,1637173147.148528,1637173148.2492993,b611db4e-7936-411d-a1ff-7c94bbe4ab7b
-0.0548371254814754,-0.0284027664709014,-0.0903249102812527,-1.115211352924398,-0.3407802074163017,1.0201919933243135,-0.1034051245026939,-0.1342908667055047,-14.065241715626096,21.91407771228725,-5.845338922894023,4.940912837171861,0.1767816898221889,0.6942151659203329,5743.663248697917,12.000999999999998,0.3155555555555555,179.49125912753783,8.9011532784607,65.12167669593917,1525.0,1737.0,1200.0,1528.0,1475.0,1021.7000000000002,185.0,294.15,1637173149.1652534,1637173150.3092377,cf170355-66ac-484e-99f8-dcd3f462b369
-0.0660683040487065,-0.0370452951930182,-0.0903933930552054,-1.1134718888187118,-0.3423553119118354,1.026725251385735,-0.1005836332352663,-0.1300860226006774,-13.72436903867782,22.08912067630669,-5.886000887936169,4.952992211362948,0.1420991873687257,0.6915153567406568,5766.830240885417,12.000444444444446,0.3177777777777778,179.46499021999,8.91097556480587,64.92736692097118,1525.0,1737.0,1200.0,1528.0,1475.0,1021.7000000000002,185.0,294.15,1637173150.4220464,1637173151.6288748,cf170355-66ac-484e-99f8-dcd3f462b369
-0.0606992528783285,-0.0402639865645954,-0.0932011878037012,-1.1072947366409531,-0.346861480562846,1.0233285051410397,-0.101871109835843,-0.1213339218809269,-13.232598248962928,22.14895578993028,-6.027615884877026,4.931906942513474,0.1268641110653968,0.703097661101649,5781.522081163194,12.00388888888889,0.31,179.44998808893305,8.916637981355288,64.78919219406184,1525.0,1737.0,1200.0,1528.0,1475.0,1021.7000000000002,185.0,294.15,1637173151.761892,1637173152.7698429,cf170355-66ac-484e-99f8-dcd3f462b369
-0.0416062494959175,-0.0257319374850193,-0.0671640286249941,-1.2982797071566994,-0.3556957623331248,1.1956175083149594,-0.0393463171592192,-0.0538783674240933,-13.113571235483017,23.01365188690833,-4.1832288891437415,5.757261211665209,0.1893585506115919,0.5930302775101913,5720.649739583333,11.982666666666669,0.3566666666666667,179.3945087390347,8.966053071907991,64.4242020630145,1525.0,1837.0,1200.0,1528.0,1475.0,1021.7000000000002,185.0,294.15,1637173154.695851,1637173155.71391,0059b09f-5049-4890-b7f6-63a63ac7f697
-0.0508651233794559,-0.0423869532164376,-0.084969555710778,-1.3001287444152263,-0.3673378393136929,1.2157240559104974,-0.0465096175343092,-0.0610964535035829,-12.999518717933924,22.64057725971375,-3.979223289633772,5.803344461472521,0.1233693367808274,0.6418462512275874,5702.87841796875,11.985555555555557,0.3522222222222222,179.3874250739555,8.984432826373283,64.28411640095737,1525.0,1837.0,1200.0,1528.0,1475.0,1021.7000000000002,185.0,294.15,1637173155.8224304,1637173156.9547946,0059b09f-5049-4890-b7f6-63a63ac7f697
-0.0445920993086099,-0.0254032200501178,-0.0810797328215652,-1.3178384107791714,-0.3691457852830129,1.214861172705841,-0.0509746958704427,-0.0762722410706542,-13.558870039800624,22.992942086555207,-4.057926591633805,5.843589563371764,0.1941581676011408,0.6466167668803801,5703.300347222223,11.981333333333332,0.3577777777777778,179.36145062345184,9.00080792031717,64.11997936610288,1525.0,1837.0,1200.0,1528.0,1475.0,1021.7000000000002,185.0,294.15,1637173157.087148,1637173158.132575,0059b09f-5049-4890-b7f6-63a63ac7f697
-0.133827565093918,0.0067062779857539,0.0501684362821168,0.892328077805881,0.0073351286927018,-0.9523484442250852,-0.5108093223734866,-0.5347771175423902,-14.619132931586137,25.054167711531424,-19.624886946896144,-3.994829697376443,0.1962987546722104,0.6093579209791653,5707.944715711806,12.027444444444445,0.2522222222222222,179.35274744462944,8.278315158236406,63.9856067778315,1525.0,1334.0,1200.0,1528.0,1475.0,1021.7000000000002,185.0,294.15,1637173158.882685,1637173160.1318014,0b19c788-0940-4e94-a2df-3bcd6becc294
-0.1412898080474637,0.0026199394699961,0.0401211172970141,0.8945397740981335,0.0003737038183118,-0.9485241246598872,-0.5238347531079853,-0.5561038551689528,-15.152076979752088,25.171732446895067,-19.44840221827568,-3.9911860619944575,0.1822731082479697,0.6504335828646074,5718.09619140625,12.017333333333331,0.27,179.39957218593938,8.270291108917718,64.30162293471001,1525.0,1334.0,1200.0,1528.0,1475.0,1021.7000000000002,185.0,294.15,1637173160.2404811,1637173161.3606763,0b19c788-0940-4e94-a2df-3bcd6becc294
-0.1408241250235065,-0.0069128654724252,0.0394088962333027,0.8851987219205752,-0.0085427560126104,-0.9343755714371754,-0.5119187439104212,-0.5294777387640796,-13.606935560178178,25.25124313026659,-19.953453113573847,-3.93713234973965,0.1411656969235268,0.6456833196105539,5721.489420572917,12.021,0.2688888888888889,179.4542820011912,8.2535167334986,64.54597219335731,1525.0,1334.0,1200.0,1528.0,1475.0,1021.7000000000002,185.0,294.15,1637173161.4696472,1637173162.584668,0b19c788-0940-4e94-a2df-3bcd6becc294
-0.1603143294247789,0.006646727739248,0.0800328889264813,1.43233513407991,0.0832104904817345,-1.4726781625211487,-0.6375710108501607,-0.6737847258743783,-14.77401393781677,27.22989027514893,-23.30886554224437,-6.366958698964951,0.1652663430384905,0.6443164646176843,5718.09619140625,12.012222222222222,0.2911111111111111,179.49566839410207,8.084208676259983,64.93276504714522,1525.0,1234.0,1200.0,1528.0,1475.0,1021.7000000000002,185.0,294.15,1637173163.5899315,1637173164.636735,9fe01949-5d92-4e60-a8a6-fa54c757a9da
-0.1580270039648932,0.007304162524425,0.0873605476652605,1.4241582881648631,0.08493625682542,-1.463720603535356,-0.6250523520247523,-0.6472270896377535,-14.103020537320882,27.31905307841352,-22.942758226751337,-6.327032846754868,0.161210988342984,0.6151104643888661,5718.09619140625,12.004333333333332,0.3066666666666666,179.51995654679058,8.105555104418519,65.20559619463148,1525.0,1234.0,1200.0,1528.0,1475.0,1021.7000000000002,185.0,294.15,1637173164.7455587,1637173165.8648689,9fe01949-5d92-4e60-a8a6-fa54c757a9da
-0.1502199649377667,0.0050168372481634,0.0838268356217878,1.4277878763583705,0.0806903237404523,-1.4649669916310823,-0.6270520502369786,-0.6584582711770824,-13.78553451357258,27.319932444463443,-22.986397047936663,-6.338038376683163,0.1501009260361727,0.6284727353784749,5714.28466796875,12.00711111111111,0.2977777777777777,179.53141456857827,8.096548266769258,65.37831953618257,1525.0,1234.0,1200.0,1528.0,1475.0,1021.7000000000002,185.0,294.15,1637173165.9732516,1637173167.2088082,9fe01949-5d92-4e60-a8a6-fa54c757a9da
-0.1658066499130471,0.0209459350802723,0.1034266106980435,1.650000867150457,0.1229989925652224,-1.690001726167134,-0.7007532590575805,-0.7393775709103041,-16.706927458227995,29.12273301736732,-23.88321218033012,-7.333666128612704,0.21238399884644,0.6488929905894559,5721.91357421875,11.991333333333332,0.3400000000000001,179.54418550450634,7.956636205353517,65.69745177714243,1525.0,1133.0,1200.0,1528.0,1475.0,1021.7000000000002,185.0,294.15,1637173168.0654557,1637173169.1447875,b31faec0-f808-46b4-a353-e6e332e45011
-0.1689705552368652,0.0096188810023842,0.0995093949763042,1.6519046892646922,0.1126854841242181,-1.681386579648328,-0.692740769338665,-0.7122857675640528,-15.08132292305131,29.15859269685969,-23.980312791728,-7.317755823844524,0.1587735065702179,0.6565031532220946,5718.09619140625,11.989666666666666,0.3344444444444444,179.5337762962113,7.959741569832411,65.82109034367821,1525.0,1133.0,1200.0,1528.0,1475.0,1021.7000000000002,185.0,294.15,1637173169.25327,1637173170.3709595,b31faec0-f808-46b4-a353-e6e332e45011
-0.177887015525891,-0.0007220209011591,0.1053441288139688,1.6786540730618136,0.114507126340135,-1.6985483914276938,-0.6886181036381892,-0.718476613674746,-14.087830016413736,29.58589164794347,-24.330661097844224,-7.41309336396221,0.1131459828856427,0.6392073862107038,5710.055121527777,11.99177777777778,0.3311111111111111,179.53352282030204,7.954006867114277,65.96135207283395,1525.0,1133.0,1200.0,1528.0,1475.0,1021.7000000000002,185.0,294.15,1637173170.4789305,1637173171.6010723,b31faec0-f808-46b4-a353-e6e332e45011
-0.1590131562374013,0.0348479421845475,0.1175751554589203,1.7236883654314763,0.1263272562115794,-1.777385893555855,-0.7178328746053769,-0.7422264578514967,-15.76496768909823,30.436918974053366,-24.754713053309462,-7.686499326208214,0.2574288301857069,0.6506099214135957,5710.055121527777,11.976111111111113,0.3688888888888889,179.53102297106585,7.915703261112583,66.13939081937912,1525.0,1033.0,1200.0,1528.0,1475.0,1021.7000000000002,185.0,294.15,1637173172.603152,1637173173.648468,6f861123-debb-44e3-ac22-8f83390af1c7
-0.1555068370092489,0.0361080255658182,0.1181367142682694,1.7521498203202217,0.1319017553495394,-1.8025328130965128,-0.7257083992215813,-0.7450753421500687,-16.074554691555473,30.421629996042824,-24.454792628187523,-7.807391300985489,0.2582190287850431,0.6540796620602845,5713.438639322917,11.977444444444444,0.3644444444444444,179.52619175059291,7.917244037952853,66.27190331946655,1525.0,1033.0,1200.0,1528.0,1475.0,1021.7000000000002,185.0,294.15,1637173173.7570565,1637173174.9699326,6f861123-debb-44e3-ac22-8f83390af1c7
-0.1605745640753637,0.0367791569070551,0.1131922568036311,1.7434935935274645,0.1195337632983484,-1.7982594802565022,-0.7250646603807578,-0.7542520406846726,-15.054546432385862,30.52879291903663,-24.90998429404436,-7.777357143664884,0.2583052958700854,0.6767812424905527,5719.36865234375,11.978666666666667,0.3666666666666666,179.4981227087438,7.913630773018178,66.3684518379342,1525.0,1033.0,1200.0,1528.0,1475.0,1021.7000000000002,185.0,294.15,1637173175.0793135,1637173176.133312,6f861123-debb-44e3-ac22-8f83390af1c7
-0.1087467826729894,-0.0104191845951803,0.0049620510203282,0.3039853097671953,-0.0961048583287232,-0.3652559620204905,-0.3905261172592584,-0.4213844719686603,-14.384739674170037,23.9600197777193,-15.26898659730655,-1.357089231816735,0.1613558328516101,0.6401363088247088,5729.5634765625,12.029666666666666,0.24,179.49986364807222,8.305953613576602,66.49735723922996,1525.0,1435.0,1200.0,1528.0,1475.0,1021.7000000000002,185.0,294.15,1637173177.108586,1637173178.153906,30eda7e8-5da6-4191-b08a-277c0cf104d7
-0.1042954008907762,-0.0150897111556493,0.0113172543102332,0.3081627599182309,-0.1006110263273913,-0.3659818796374905,-0.3728027670348171,-0.3980044400829336,-12.243362153462137,24.05063135218212,-15.395634563025178,-1.3661689214322943,0.1296949418266173,0.613129952944507,5743.21435546875,12.031444444444446,0.24,179.47415633385611,8.333741289577413,66.47570781629074,1525.0,1435.0,1200.0,1528.0,1475.0,1021.7000000000002,185.0,294.15,1637173178.263333,1637173179.4745867,30eda7e8-5da6-4191-b08a-277c0cf104d7
-0.1034325176583727,-0.0003248207002049,0.0188777547349292,0.3076422907018934,-0.0856132938943738,-0.3782539984303966,-0.3815137799403048,-0.3996754212285062,-14.300564922415584,24.08929889457595,-15.145804613614198,-1.3929348848072185,0.1979624290400571,0.595479162798033,5752.63525390625,12.029888888888888,0.24,179.45060128813847,8.314114171814953,66.49285918020655,1525.0,1435.0,1200.0,1528.0,1475.0,1021.7000000000002,185.0,294.15,1637173179.5840952,1637173180.6118703,30eda7e8-5da6-4191-b08a-277c0cf104d7
-0.0666405820338933,0.0169536859866606,0.159331197548096,0.2871308022519621,0.0444373197571323,-0.3817662731183718,-0.2309850054715367,-0.2550385483277948,-13.478987960741003,23.70844435405295,-14.803126752316963,-1.3496214436628065,0.2653382128928382,0.0156961507391,5758.217936197917,12.028333333333332,0.24,179.4103198680534,8.324663683579253,66.45164581875468,1525.0,1435.0,1200.0,1454.0,1475.0,1021.7000000000002,185.0,294.15,1637173181.7275898,1637173182.8672936,bca487d6-5ae2-4dfc-bd71-285caab17a69
-0.047783397595581,0.0247809715244548,0.1654035368287713,0.281002485866157,0.0406826761522406,-0.3816644423000655,-0.2223049592980921,-0.2446029598454047,-12.449433113628446,23.93867650946857,-14.452296254716378,-1.333165861068606,0.2854423400821365,0.002187993032256,5707.951334635417,12.03011111111111,0.24,179.39544826950052,8.31862266584959,66.44855781433994,1525.0,1435.0,1200.0,1454.0,1475.0,1021.7000000000002,185.0,294.15,1637173182.9758794,1637173184.0962555,bca487d6-5ae2-4dfc-bd71-285caab17a69
-0.0474606352034648,0.0387062032141806,0.1767103432772182,0.2726672372530093,0.0590723903178684,-0.3852821207790438,-0.2201087457832524,-0.2429331710332359,-14.131113746926973,23.69763334237439,-14.054427559837327,-1.3243109823593096,0.347785598113869,-0.0403029065284039,5663.940266927083,12.029333333333334,0.24,179.3677571647855,8.31966474401671,66.4215702191094,1525.0,1435.0,1200.0,1454.0,1475.0,1021.7000000000002,185.0,294.15,1637173184.2050335,1637173185.4140975,bca487d6-5ae2-4dfc-bd71-285caab17a69
0.0100297776415889,0.0692947870457471,0.3435135752576964,0.2521301419617673,0.2114787581348238,-0.4037706921789256,-0.0568094299171353,-0.0852023979811358,-14.062454900613435,23.84420447656547,-13.841771614710549,-1.310184830778337,0.4732461476830754,-0.703951544260125,5666.852376302083,12.02822222222222,0.2477777777777777,179.33876377066866,8.32907731387542,66.28869040662661,1525.0,1435.0,1200.0,1380.0,1475.0,1021.7000000000002,185.0,294.15,1637173187.032012,1637173188.0790484,d4c3fcfc-8f9b-418c-988f-198945c94f85
0.0062358308783468,0.0584608092404453,0.3515945442420263,0.2693330186658372,0.2042195823957175,-0.4142211683487802,-0.0313475266203971,-0.0451262655536484,-10.541603500734643,23.92109192801558,-14.474715794410622,-1.3698904347502303,0.4116977434986786,-0.7409539877463333,5676.026150173611,12.028444444444444,0.25,179.31057482105413,8.328031441158762,66.25000497407757,1525.0,1435.0,1200.0,1380.0,1475.0,1021.7000000000002,185.0,294.15,1637173188.1871176,1637173189.306092,d4c3fcfc-8f9b-418c-988f-198945c94f85
0.0082492250140846,0.0562419667281853,0.3423904575360792,0.262786063974627,0.2010419809455779,-0.4055238519614705,-0.0466602796639055,-0.0648493110433068,-11.892096125944766,24.02680740069429,-14.49285603805538,-1.336018274451959,0.4133193394653086,-0.7036169880116406,5686.903483072917,12.026444444444444,0.24,179.30856826325797,8.309635464994194,66.22346437678272,1525.0,1435.0,1200.0,1380.0,1475.0,1021.7000000000002,185.0,294.15,1637173189.414357,1637173190.6469886,d4c3fcfc-8f9b-418c-988f-198945c94f85
0.0823202140929724,0.0973453387572459,0.570314869569377,0.2659225757110622,0.4103390795180003,-0.4660489578053706,0.1751280930288241,0.156240539029896,-10.854556235879016,23.98190588979269,-15.234213953463048,-1.4676459198420335,0.580771418552183,-1.610453252456694,5753.938151041667,12.026222222222223,0.24,179.27292833616883,8.305113120853738,66.1512222248414,1525.0,1435.0,1200.0,1306.0,1475.0,1021.7000000000002,185.0,294.15,1637173192.5318654,1637173193.60666,2675f968-b554-454e-a4b6-ec09d38430a7
0.0735133270268282,0.0934692127442066,0.5635213771571953,0.2683194733611926,0.406750581459343,-0.4646656049309839,0.1638558257186471,0.1462831410653258,-11.508314939556476,24.14227266817785,-15.33163495922859,-1.4695639498502562,0.5710011117640241,-1.5813644094200765,5801.964246961806,12.027444444444445,0.24,179.27586835315162,8.30441359564624,66.13663142295445,1525.0,1435.0,1200.0,1306.0,1475.0,1021.7000000000002,185.0,294.15,1637173193.7147496,1637173194.9451911,2675f968-b554-454e-a4b6-ec09d38430a7
0.0646927433390153,0.0857443537777922,0.5557691257356189,0.2646761890162079,0.3938758174183212,-0.4553930325648773,0.1635408049037413,0.1391472340827441,-10.509727117051945,24.26186476589258,-15.60405134120784,-1.4396428657471922,0.537333997445131,-1.553514439832621,5812.0126953125,12.025,0.24,179.27957486914116,8.301757410969014,66.10749838941462,1525.0,1435.0,1200.0,1306.0,1475.0,1021.7000000000002,185.0,294.15,1637173195.053923,1637173196.1731784,2675f968-b554-454e-a4b6-ec09d38430a7
0.147365169663116,0.1310525688382009,0.7558210411717164,0.2591701727391404,0.5766426790322493,-0.5010847632923279,0.360990382707666,0.3382540964832903,-9.545027039485246,24.00223442500944,-14.98125269592795,-1.521073049765117,0.708275322393591,-2.349174802921569,5795.419921875,12.020333333333332,0.25,179.23744170888108,8.310227414722261,66.02033075631701,1525.0,1435.0,1200.0,1232.0,1475.0,1021.7000000000002,185.0,294.15,1637173198.112119,1637173199.2047217,43b0be1d-f006-4b32-bf23-dbb1f15084e8
0.1356683089056325,0.1178490866620177,0.7455212300883973,0.2664156518319435,0.5640555428937057,-0.4948117377636593,0.3512795233912977,0.3275159955584603,-9.171050364129526,24.447287952337177,-15.064483633375252,-1.5207083148783134,0.6553075164656627,-2.3057373085542974,5781.09716796875,12.023,0.2533333333333333,179.22629028669618,8.305014272838248,66.00298207582517,1525.0,1435.0,1200.0,1232.0,1475.0,1021.7000000000002,185.0,294.15,1637173199.3128016,1637173200.3614056,43b0be1d-f006-4b32-bf23-dbb1f15084e8
0.1396266141948548,0.1321345968994422,0.7409739730721778,0.2615122841506814,0.568178206636027,-0.5020161294079643,0.3371994621749443,0.3093132705296556,-10.835821570182029,24.10337681673365,-14.7995393742908,-1.5291387699792125,0.7186311175942501,-2.284070938130666,5755.21240234375,12.023666666666664,0.25,179.22257162814807,8.308659127397837,65.96074646272753,1525.0,1435.0,1200.0,1232.0,1475.0,1021.7000000000002,185.0,294.15,1637173200.4706028,1637173201.5940723,43b0be1d-f006-4b32-bf23-dbb1f15084e8
-0.1879265939502503,-0.0313338300436573,-0.2241402983784552,0.3344601506541777,-0.2969923027436312,-0.357846122375939,-0.6437207678790305,-0.6656352706703073,-17.599140178948826,24.24119701215908,-14.982808151249356,-1.4202983458609566,0.0848563367416439,1.582316078585895,5748.7763671875,12.027,0.24,179.30981985747786,8.31372230868407,66.14091137127036,1525.0,1435.0,1200.0,1602.0,1475.0,1021.7000000000002,185.0,294.15,1637173202.6167653,1637173203.7539666,1213f47d-92bd-41fe-a37f-0cdcb8e0212b
-0.1955418812678304,-0.0566039815319778,-0.2267015550935546,0.3511562543779293,-0.3061553017990026,-0.3527099120301284,-0.6330374484307941,-0.6472681790028395,-15.494275405993548,24.505862832811776,-15.569734013546968,-1.4438259706907324,-0.0218314309686731,1.5807011724779432,5748.7763671875,12.028888888888888,0.24,179.30857585235702,8.308008931334346,66.0927573233659,1525.0,1435.0,1200.0,1602.0,1475.0,1021.7000000000002,185.0,294.15,1637173203.8624637,1637173204.982732,1213f47d-92bd-41fe-a37f-0cdcb8e0212b
-0.1967608750854574,-0.0463726518766676,-0.2319884273366839,0.3384047592399712,-0.3065525020768078,-0.3484228884997588,-0.6438988231939885,-0.6624850617321164,-16.76287703003064,24.33374731884608,-15.257924873519103,-1.4074213105530495,0.0239894732377659,1.6046624865708914,5748.7763671875,12.02811111111111,0.24,179.2995949125084,8.307756593790009,66.04241124008385,1525.0,1435.0,1200.0,1602.0,1475.0,1021.7000000000002,185.0,294.15,1637173205.0918396,1637173206.095435,1213f47d-92bd-41fe-a37f-0cdcb8e0212b
-0.2380833967335983,-0.062794826296855,-0.4095369443755201,0.3748376023966213,-0.4655832745541632,-0.3495870961637892,-0.8403897359220095,-0.8664543006849632,-18.6039032293408,24.73127496967275,-14.377216638465365,-1.4992128163616385,-0.048113579663565,2.341171409807305,5743.21435546875,12.026555555555554,0.2422222222222222,179.33145698607663,8.314318792898838,65.98963436836715,1525.0,1435.0,1200.0,1676.0,1475.0,1021.7000000000002,185.0,294.15,1637173208.0340433,1637173209.0794754,23aba890-8fea-4e39-ba79-ee1b899daeb9
-0.2360289127427075,-0.0739575219714358,-0.4091671371771256,0.3690576551639796,-0.4711577751849004,-0.332781415875665,-0.8213241169958782,-0.8546752548033485,-16.71055572146788,24.44062832387696,-14.231502026142024,-1.4493420910981538,-0.1039424386121141,2.3213621156656257,5680.65185546875,12.022444444444444,0.25,179.33017291051263,8.300395831730718,65.94412557683728,1525.0,1435.0,1200.0,1676.0,1475.0,1021.7000000000002,185.0,294.15,1637173209.1892538,1637173210.3077655,23aba890-8fea-4e39-ba79-ee1b899daeb9
-0.2411651228120776,-0.0662737522542998,-0.4001137100987295,0.3728652981498956,-0.4617208440406679,-0.3401912553121091,-0.8278436820376287,-0.8624822975980542,-18.02445710569744,25.03988481138849,-13.706915532463457,-1.470736517876609,-0.0703582566884852,2.305988544973912,5618.564507378473,12.025333333333334,0.25,179.31693296826154,8.315336016766476,65.89179190850672,1525.0,1435.0,1200.0,1676.0,1475.0,1021.7000000000002,185.0,294.15,1637173210.4169767,1637173211.5381024,23aba890-8fea-4e39-ba79-ee1b899daeb9
-0.325262004163231,-0.1136775439944787,-0.6264767946233567,0.4450735492074585,-0.6641971303333324,-0.3562710179432254,-1.0730807082479366,-1.0875716789701662,-19.16744320037258,25.690861078165984,-14.959938163840029,-1.677485073947991,-0.2521855680389788,3.2315551367616906,5673.519422743056,12.018999999999998,0.26,179.3680501040099,8.295082324011403,65.89469473890398,1525.0,1435.0,1200.0,1750.0,1475.0,1021.7000000000002,185.0,294.15,1637173213.563614,1637173214.6061237,77493879-25bb-4136-b5b0-3a702c84ea07
-0.3251250385741885,-0.1160607453370807,-0.6392556882341413,0.4435121416674716,-0.6736477592440311,-0.3566682181839324,-1.0824902507992211,-1.1014326065277382,-19.133021057982813,25.356954795442714,-15.63394162516263,-1.677795404557539,-0.2560175116938999,3.274151890248143,5691.51806640625,12.020666666666669,0.2633333333333333,179.36205168009877,8.292137943296698,65.84652748596713,1525.0,1435.0,1200.0,1750.0,1475.0,1021.7000000000002,185.0,294.15,1637173214.7141545,1637173216.0432446,77493879-25bb-4136-b5b0-3a702c84ea07
-0.3224679058527122,-0.1053637324732931,-0.638105176961727,0.4389785811126407,-0.671428916022155,-0.3606402209950894,-1.0876949467129835,-1.114321077958338,-19.84875562890328,25.37026123203337,-15.314211647699327,-1.676658241331731,-0.2130338348160226,3.278171398377648,5702.459743923611,12.019333333333334,0.26,179.36268157532226,8.293554448639567,65.8076485313916,1525.0,1435.0,1200.0,1750.0,1475.0,1021.7000000000002,185.0,294.15,1637173216.152167,1637173217.2709937,77493879-25bb-4136-b5b0-3a702c84ea07
-0.3925532085026805,-0.1454672586479783,-0.789931589978471,0.5294717356908456,-0.8166398917746768,-0.3983605503346243,-1.2493966446939762,-1.2808576689686146,-18.21915026707008,26.20564448895283,-15.642164707795407,-1.966805304614014,-0.3928262088396877,3.9094140122187073,5709.632703993056,11.991444444444443,0.33,179.40273684025487,8.266145943001428,65.82365470025657,1525.0,1435.0,1200.0,1824.0,1475.0,1021.7000000000002,185.0,294.15,1637173218.1822736,1637173219.3194978,cf9994a4-c7c8-458a-8988-377b9d262d9d
-0.4039076577657723,-0.1662723328011939,-0.8181739070890925,0.540661822993985,-0.8416087302984078,-0.3914026973884688,-1.278296408851058,-1.292472361232219,-18.32811650514248,26.574134285498623,-16.30960677243618,-1.975536935795956,-0.4673330300883762,4.019478860050737,5702.87841796875,11.989,0.33,179.39509613530333,8.267943136526789,65.75354129060658,1525.0,1435.0,1200.0,1824.0,1475.0,1021.7000000000002,185.0,294.15,1637173219.4274616,1637173220.548888,cf9994a4-c7c8-458a-8988-377b9d262d9d
-0.3815685663066846,-0.1398516692009973,-0.782466962176844,0.5301565635649373,-0.8027515748229139,-0.4046883616074406,-1.2567106134626416,-1.2686951142426497,-20.10880779401332,26.46696887827437,-15.662332862471928,-1.9814199261594607,-0.3578177203560023,3.889964357009716,5706.67578125,11.992333333333333,0.32,179.4144847656273,8.266729924175467,65.70837552635501,1525.0,1435.0,1200.0,1824.0,1475.0,1021.7000000000002,185.0,294.15,1637173220.657149,1637173221.8766606,cf9994a4-c7c8-458a-8988-377b9d262d9d
-0.1232788322840574,-0.022061259661644,-0.0273344348975431,0.3064506901619388,-0.0937216570134828,-0.3611196006563352,-0.3964430317381014,-0.4247127356653533,-15.179172325045746,20.91149390268765,-16.085565718182547,-1.3757028300082483,0.1281484250952926,0.6874952106457547,7827.7861328125,11.81,7.35,178.31002344517862,8.07696564010014,56.59086566578666,1525.0,1435.0,1350.0,1528.0,1475.0,1021.7000000000002,185.0,294.15,1637173225.0621536,1637173226.077342,f58dd7c1-5e3a-4a18-8039-cfa20be61112
-0.1253881024919144,-0.0357030324141419,-0.0347579698052593,0.2985751694811331,-0.0998577155571127,-0.3429168710509291,-0.3981277087138022,-0.4215351333951743,-15.176462434091093,20.96560504126041,-16.464513668456195,-1.3171035965805948,0.0808228596498495,0.7060959654921489,7827.7861328125,11.809444444444445,7.358888888888888,178.05476257987726,7.962452775477952,52.718710379176144,1525.0,1435.0,1350.0,1528.0,1475.0,1021.7000000000002,185.0,294.15,1637173226.185456,1637173227.3070133,f58dd7c1-5e3a-4a18-8039-cfa20be61112
-0.1103119258746709,-0.0228432086383812,-0.0222007155077617,0.2991205415296199,-0.0890200017115129,-0.3537122512576982,-0.3884815941589404,-0.4149881770708404,-15.166783819091265,20.8542791993738,-16.05000266460539,-1.342634260660738,0.1260397420666744,0.662681587550314,7827.7861328125,11.810666666666666,7.353333333333333,177.938411066276,7.9225426520652285,49.02485528357405,1525.0,1435.0,1350.0,1528.0,1475.0,1021.7000000000002,185.0,294.15,1637173227.414888,1637173228.739714,f58dd7c1-5e3a-4a18-8039-cfa20be61112
0.0412305384543949,0.2879329441785102,-0.0331691690032909,0.1506660401562423,-0.1697649555333035,-0.5163701267208969,-0.4720206586471094,-0.5047143528435452,-15.316933783973328,20.16306537273951,-15.673484030588648,-1.378415099864437,1.3069357774705728,0.9435641845297792,7834.94189453125,11.793,7.42,178.00127764521662,7.961875529629348,43.21608599408094,1593.0,1435.0,1350.0,1528.0,1529.0,1021.7000000000002,185.0,294.15,1637173230.5425603,1637173231.6090877,ec766655-7296-4b27-aa4f-410c6c3ed07d
0.0498730668917105,0.2994791423556071,-0.0333746173932087,0.1447765201871236,-0.1736958681661198,-0.5225883659114404,-0.4763761653015081,-0.5013860890319058,-15.34980197400325,20.27366772053454,-15.738829150996198,-1.3784069945200648,1.351766803165211,0.9565845008552042,7837.331217447917,11.792333333333334,7.440000000000001,178.08536638081836,8.003210980712618,41.58243755384775,1593.0,1435.0,1350.0,1528.0,1529.0,1021.7000000000002,185.0,294.15,1637173231.7169564,1637173232.7240143,ec766655-7296-4b27-aa4f-410c6c3ed07d
0.0482842661062555,0.2927404359447361,-0.0322104098258097,0.141735884174786,-0.1717920463293532,-0.5176576036009195,-0.4725685211093851,-0.489141361895212,-15.317746976061292,20.26257332272387,-16.355073837177265,-1.3605656569945976,1.3321754245086164,0.9452989762282964,7849.291015625,11.79188888888889,7.391111111111111,178.2131577023695,8.05728995210358,40.04682813114111,1593.0,1435.0,1350.0,1528.0,1529.0,1021.7000000000002,185.0,294.15,1637173232.832075,1637173234.0661576,ec766655-7296-4b27-aa4f-410c6c3ed07d
0.2676620385673335,0.7055683725293725,-0.0301833191570887,-0.0638494614168796,-0.2641068611340683,-0.7242976528173753,-0.5645272403455173,-0.6013162095135957,-15.540755183665912,19.38410543421623,-15.474924382654402,-1.3668577575774823,2.8997344037286497,1.2487971549613932,7863.6943359375,11.77888888888889,7.456666666666667,178.520335594462,8.238459107154613,37.11418092251896,1661.0,1435.0,1350.0,1528.0,1583.0,1021.7000000000002,185.0,294.15,1637173236.204888,1637173237.3447907,f912cb66-a05a-4325-a643-2e8d47ba2c6f
0.2595673729274835,0.6931182019812215,-0.0274987935852314,-0.049851578043445,-0.2571764016021713,-0.7222568647675529,-0.5596649605673713,-0.5883592609132541,-15.530624878787078,19.355459881792616,-15.057509253923286,-1.3938322153831255,2.847713714713761,1.2279992953893095,7834.94189453125,11.776666666666666,7.487777777777778,178.6676976847149,8.324981666830613,36.26140903734563,1661.0,1435.0,1350.0,1528.0,1583.0,1021.7000000000002,185.0,294.15,1637173237.4578657,1637173238.516208,f912cb66-a05a-4325-a643-2e8d47ba2c6f
0.2814544722562647,0.705267048270989,-0.0208422658985045,-0.0618908535003589,-0.2540398892390585,-0.7209009049014751,-0.5513374504784331,-0.5785525216900572,-15.33372864480878,19.19583261839176,-14.690196821093975,-1.3641966102235894,2.8905317844544034,1.2048827924218868,7830.175944010417,11.779,7.513333333333334,178.76581714669172,8.339291861779174,35.58219150007241,1661.0,1435.0,1350.0,1528.0,1583.0,1021.7000000000002,185.0,294.15,1637173238.62443,1637173239.6867282,f912cb66-a05a-4325-a643-2e8d47ba2c6f
0.4678646206865455,1.0595559003319737,-0.0078031418241883,-0.2383710244680284,-0.3244128172266262,-0.8991753961711297,-0.6210666521671401,-0.6358726377908338,-15.525983974865657,18.68146085023168,-13.998008085687246,-1.369454176706843,4.237102644116789,1.424613551931536,7815.099338107639,11.760444444444444,7.563333333333333,178.99196926357027,8.44258329477746,34.3366981569116,1729.0,1435.0,1350.0,1528.0,1636.0,1021.7000000000002,185.0,294.15,1637173241.621982,1637173242.6679907,b7d2b67d-a96b-4fe7-bf71-78ff03bd2880
0.4633584533403687,1.052118669440539,-0.0232117706046097,-0.2352071189883584,-0.3389722613942347,-0.8934091417893848,-0.6360643889258174,-0.6556367790118501,-15.517336307211528,18.82945447924251,-13.918993639306038,-1.3634028596078511,4.207083137854764,1.485985866732716,7825.405436197917,11.759666666666666,7.583333333333333,179.09092959772488,8.498539714416527,33.967480138768046,1729.0,1435.0,1350.0,1528.0,1636.0,1021.7000000000002,185.0,294.15,1637173242.7761004,1637173243.9026492,b7d2b67d-a96b-4fe7-bf71-78ff03bd2880
0.4406906508253425,1.0409696713912806,-0.0370863848419527,-0.2258523685185873,-0.3481763503011519,-0.8921764508694489,-0.6483775994428754,-0.6615399979091368,-15.58736149029404,18.75054782019709,-14.171469052507549,-1.38302430352155,4.165968236109797,1.533326496768595,7827.7861328125,11.764333333333331,7.550000000000001,179.1722437587038,8.520425917246973,33.628252722360095,1729.0,1435.0,1350.0,1528.0,1636.0,1021.7000000000002,185.0,294.15,1637173244.016853,1637173245.1260536,b7d2b67d-a96b-4fe7-bf71-78ff03bd2880
0.643618844059327,1.3969021350575126,-0.0123914891136631,-0.3971004667585654,-0.413221319418098,-1.0781484386321214,-0.7114365791380436,-0.7391721235420613,-15.459631427806276,18.75658991865082,-13.597042180640692,-1.4132088800354417,5.51758614058694,1.7205041547371518,7837.331217447917,11.738333333333332,7.63,179.2499864896567,8.555575778263151,33.30957810407463,1796.0,1435.0,1350.0,1528.0,1690.0,1021.7000000000002,185.0,294.15,1637173246.1327362,1637173247.2614934,3332d597-fd01-4aa8-8f7a-98144b7a0aa5
0.6523846407044935,1.4018055032696,-0.0086249354222532,-0.3912657317101167,-0.4103039518026996,-1.0895439835447256,-0.7102175848792588,-0.7400076128396598,-15.33621952075859,18.74126763027016,-13.751410941379747,-1.4518544326990863,5.535991578689729,1.710180116698084,7855.686848958333,11.738111111111111,7.613333333333333,179.33476127981507,8.536660138539231,33.088927704572505,1796.0,1435.0,1350.0,1528.0,1690.0,1021.7000000000002,185.0,294.15,1637173247.3707588,1637173248.4945383,3332d597-fd01-4aa8-8f7a-98144b7a0aa5
0.652439426932909,1.3969432247349776,-0.0137474484628442,-0.3978537775966804,-0.4138650578505694,-1.076847264659348,-0.7126418768517594,-0.7391584267941672,-15.543300293225943,18.720034920605567,-13.51398312724602,-1.4089244055983488,5.517602457373125,1.7250173641618538,7870.9150390625,11.738111111111111,7.633333333333332,179.39566531773414,8.562352369420925,32.922622843566444,1796.0,1435.0,1350.0,1528.0,1690.0,1021.7000000000002,185.0,294.15,1637173248.603258,1637173249.8382032,3332d597-fd01-4aa8-8f7a-98144b7a0aa5
-0.347693993330065,-0.4517688031417015,-0.034726408155142,0.5090293261302491,-0.0058850280582253,-0.1345707522714708,-0.299486863290371,-0.3217110242167998,-14.442199866050164,21.72260130332892,-16.883672258268778,-1.3183324806849426,-1.507055256630407,0.3887280961546571,7870.9150390625,11.802222222222222,7.478888888888889,-179.96042482162602,8.592619973272882,32.7551963137167,1457.0,1435.0,1350.0,1528.0,1421.0,1021.7000000000002,185.0,294.15,1637173251.5653267,1637173252.586774,305ee833-4a17-44f4-8de1-646d89dde6de
-0.3466077965465725,-0.4391917865074426,-0.0237215207774892,0.4993536016096886,0.0009751613997289,-0.1403733295742203,-0.2936842856565675,-0.3183809727529198,-14.668132383237246,21.884268968322708,-17.159163310063754,-1.30808354184206,-1.4539513506898312,0.356945838418115,7863.6943359375,11.806666666666668,7.423333333333334,-179.9398674700441,8.590501381401578,32.650199610155624,1457.0,1435.0,1350.0,1528.0,1421.0,1021.7000000000002,185.0,294.15,1637173252.6947875,1637173253.9318314,305ee833-4a17-44f4-8de1-646d89dde6de
-0.3459164178779688,-0.4569270474411152,-0.0460576310196417,0.5045166082199012,-0.0144048832037038,-0.1320994166101581,-0.3123872369166905,-0.3250565562354564,-14.912242873703486,21.75352197338704,-17.93210432561017,-1.3033624496956366,-1.5139449356691432,0.4316616944475779,7866.101236979167,11.803666666666668,7.483333333333332,-179.90504716565536,8.578555949725658,32.63651304942378,1457.0,1435.0,1350.0,1528.0,1421.0,1021.7000000000002,185.0,294.15,1637173254.0405033,1637173255.253229,305ee833-4a17-44f4-8de1-646d89dde6de
-0.485018696060863,-0.7338989442032577,-0.0294984912203975,0.6306892940112201,0.0578170709622357,0.018165533603918,-0.2311529371951609,-0.2607375082374251,-14.386275731700849,22.765136249561607,-18.271811984375063,-1.2425704545582377,-2.5679374324905884,0.1621266919853228,7863.6943359375,11.776777777777776,7.532222222222221,-179.79405659164266,8.559381426859447,32.61284568503978,1389.0,1435.0,1350.0,1528.0,1367.0,1021.7000000000002,185.0,294.15,1637173256.050125,1637173257.111024,e7a0761f-91e4-4985-9b8a-cf20593bdd2d
-0.4927161640401601,-0.7256810056682669,-0.0316899405936388,0.609240485334294,0.053379386030137,0.0334645896176099,-0.2301393916769045,-0.2561765539448227,-14.527921302678434,22.645557501641928,-17.762652060931917,-1.1607001347970527,-2.538125452288772,0.171189545770571,7863.6943359375,11.77822222222222,7.522222222222222,-179.7857283143147,8.567101153305117,32.60860641429493,1389.0,1435.0,1350.0,1528.0,1367.0,1021.7000000000002,185.0,294.15,1637173257.2216218,1637173258.3271563,e7a0761f-91e4-4985-9b8a-cf20593bdd2d
-0.4710071132243525,-0.6859746665747677,-0.0254306131331057,0.5729993947820886,0.0495443496316016,0.034094631354415,-0.2256469199710721,-0.2495063287679603,-14.471427493354929,22.39690198198582,-16.842992469353238,-1.0786949838832465,-2.3928986635889378,0.1674098941124329,7858.910970052083,11.77422222222222,7.604444444444444,-179.79810461709076,8.568357718384922,32.506371763343225,1389.0,1435.0,1350.0,1528.0,1367.0,1021.7000000000002,185.0,294.15,1637173258.440447,1637173259.6660025,e7a0761f-91e4-4985-9b8a-cf20593bdd2d
-0.6853857146625767,-1.081284952641086,-0.0330322033961821,0.7525064743161369,0.1253000143638651,0.2645666165235689,-0.1405638902980693,-0.1694225420904348,-14.177110325185303,23.7811020372546,-15.364805365185177,-0.9565363477354224,-3.91329641136824,-0.0910864372722378,7778.854058159723,11.76477777777778,7.705555555555555,-179.79361035261687,8.55556392029584,31.96576950018084,1321.0,1435.0,1350.0,1528.0,1314.0,1021.7000000000002,185.0,294.15,1637173260.5761344,1637173261.8021128,40ddb8c7-f983-4b09-838d-d19394260ff9
-0.6844954379411456,-1.0902699013807566,-0.0185138508990186,0.7686547153585995,0.1407497320832499,0.2537326392969602,-0.1271686550768712,-0.1498912483734012,-13.957490347687065,23.90839974673575,-15.93746095756912,-1.0157221611777885,-3.944540065180886,-0.1526435151818364,7771.01171875,11.765555555555556,7.706666666666667,-179.76316895839605,8.532807342664913,32.07762636985327,1321.0,1435.0,1350.0,1528.0,1314.0,1021.7000000000002,185.0,294.15,1637173261.9100697,1637173262.9596856,40ddb8c7-f983-4b09-838d-d19394260ff9
-0.6938364945372983,-1.098542628703969,-0.029512187721123,0.7762836977758365,0.1325591902571955,0.2550885985263422,-0.1390024825044964,-0.1644096017779145,-14.117839458471307,24.000568821742657,-15.986468138991432,-1.0299094264592086,-3.9756335252253,-0.1108001020046418,7793.780815972223,11.767444444444443,7.655555555555555,-179.76011814056676,8.52983972033428,32.047774269175825,1321.0,1435.0,1350.0,1528.0,1314.0,1021.7000000000002,185.0,294.15,1637173263.068442,1637173264.1678994,40ddb8c7-f983-4b09-838d-d19394260ff9
-0.8529357903564976,-1.4005109184998863,-0.0201163483024979,0.9495999352823472,0.2035484510579854,0.3953139559252928,-0.0740397013768917,-0.1083084943749511,-13.888846643685564,25.73347835492646,-15.161838082494674,-1.0935610575970225,-5.137841540740951,-0.3471973147797471,7825.418891059027,11.737333333333332,7.712222222222222,-179.7285990942769,8.496784355799836,32.1531667442538,1254.0,1435.0,1350.0,1528.0,1260.0,1021.7000000000002,185.0,294.15,1637173266.106346,1637173267.450257,894f1154-279e-4ed9-8c0a-8a63dd8e51f3
-0.8694127586830289,-1.409441083804896,-0.0116518749038703,0.963008865202109,0.2156562083105429,0.3916021888039702,-0.0646575583407655,-0.0895031176690102,-13.884123415055075,25.67091077610528,-15.108677262944507,-1.132131596694638,-5.172955067887887,-0.3894437190142456,7862.092556423611,11.739333333333333,7.638888888888889,-179.6916933054616,8.484085421449226,32.31821636827239,1254.0,1435.0,1350.0,1528.0,1260.0,1021.7000000000002,185.0,294.15,1637173267.5637314,1637173268.6770298,894f1154-279e-4ed9-8c0a-8a63dd8e51f3
-0.8553737788437213,-1.4126871715765088,-0.0153636423624737,0.9654605490370816,0.2119992273267351,0.3886437323466562,-0.0689034917089377,-0.0954611207370053,-13.818632623233968,25.73250181824312,-15.691832766715322,-1.1441465601814238,-5.180961022320694,-0.374531175267782,7868.508138020833,11.741,7.62,-179.6950234021369,8.499813829287952,32.46538835159342,1254.0,1435.0,1350.0,1528.0,1260.0,1021.7000000000002,185.0,294.15,1637173268.784917,1637173269.9058506,894f1154-279e-4ed9-8c0a-8a63dd8e51f3
-0.1071990715224958,-0.0149801386762794,-0.0388258478645033,0.2889327928301943,-0.1055965739613863,-0.3557368521450492,-0.4037843886307214,-0.4210283603972666,-15.123775244623737,20.55892587337113,-16.695405831893584,-1.3270697291866829,0.1611421991857677,0.7298123986720784,7878.1494140625,11.794888888888888,7.5166666666666675,139.95514776684573,8.461453305043174,32.658277826668986,1494.888888888889,1435.0,1350.0,1528.0,1451.111111111111,1021.7000000000002,185.0,294.15,1637173270.5319946,1637173271.544432,b3b97040-a2aa-47e3-a1ab-aa44104bc76c
-0.1122667984976913,-0.0102548258552843,-0.0318816924248765,0.2852484187207179,-0.098981135772879,-0.3558327281972696,-0.3972237357209005,-0.4145635840231368,-15.236288189775534,20.49325944780446,-16.479892751400694,-1.319085950371998,0.1786439812820315,0.7027870009169775,7882.175564236111,11.802222222222222,7.4944444444444445,179.89210775172776,8.45742007833828,32.802476780426296,1525.0,1435.0,1350.0,1528.0,1475.0,1021.7000000000002,185.0,294.15,1637173271.6529896,1637173272.7694817,b3b97040-a2aa-47e3-a1ab-aa44104bc76c
-0.1184576433349727,-0.0152677664132707,-0.0341416246595723,0.2906037728559651,-0.1019395926052626,-0.3568599701056892,-0.3988673230819654,-0.4296161046129638,-14.9788149729788,20.604195022241854,-16.640776116838154,-1.3327478314501555,0.1586452344440607,0.7115851859850304,7878.1494140625,11.804333333333334,7.462222222222222,179.86181206820916,8.44434387089977,32.86839948956553,1525.0,1435.0,1350.0,1528.0,1475.0,1021.7000000000002,185.0,294.15,1637173272.8780582,1637173274.003094,b3b97040-a2aa-47e3-a1ab-aa44104bc76c
-0.0835314169662088,-0.0254853993628302,-0.0683419327078102,-0.2001302290011578,-0.18081807926056,0.130860816941008,-0.2934585901588494,-0.3152361222504089,-15.007966409748828,19.2949381737532,-12.682361111013616,0.8604357275736864,0.1436754309680327,0.7161205611000687,7861.291666666667,11.797666666666666,7.550000000000001,179.8268779273343,8.613283761969374,33.01211881226113,1525.0,1535.0,1350.0,1528.0,1475.0,1021.7000000000002,185.0,294.15,1637173275.117755,1637173276.2547677,64aba51a-c39c-4fdb-b851-a236c88d5045
-0.0999261984562936,-0.0237459363826253,-0.0604801077515481,-0.1960212607104726,-0.1751887931511973,0.1288885126394829,-0.2867883651744377,-0.3038268873816034,-14.836736593726624,19.446595151616588,-12.129689420736348,0.8483059813172048,0.1440843047753282,0.689323257958959,7849.291015625,11.796666666666663,7.506666666666667,179.79043659138256,8.598776060717311,32.97529991863027,1525.0,1535.0,1350.0,1528.0,1475.0,1021.7000000000002,185.0,294.15,1637173276.3628109,1637173277.4837322,64aba51a-c39c-4fdb-b851-a236c88d5045
-0.0994742120330088,-0.0304435537269442,-0.0655889243101879,-0.1982127104091127,-0.1790512230343829,0.1356957020651079,-0.2905549193078109,-0.3168660134741661,-14.954062585191217,19.50026380089012,-12.41579364340522,0.8685427438992702,0.1222771594703504,0.705573449455343,7842.10986328125,11.801333333333332,7.504444444444443,179.7835547963388,8.587745779526434,33.03878500914571,1525.0,1535.0,1350.0,1528.0,1475.0,1021.7000000000002,185.0,294.15,1637173277.5925703,1637173278.811298,64aba51a-c39c-4fdb-b851-a236c88d5045
-0.0847778038763317,-0.0387710615784152,-0.1059115948144906,-0.7278450631416941,-0.2763104963974576,0.656384035423038,-0.1867760828097539,-0.2093069252302991,-14.627954546929596,18.799473369923422,-8.638443529644482,3.227432641209709,0.1178982222679624,0.745441180206535,7842.10986328125,11.793,7.550000000000001,179.78038710638373,8.723197442822944,33.43725255349995,1525.0,1636.0,1350.0,1528.0,1475.0,1021.7000000000002,185.0,294.15,1637173280.534312,1637173281.579008,ea65832a-0e02-4dfe-8399-c0f94fd73fc2
