raw_voltage_G-,raw_voltage_G0,raw_voltage_G1,raw_voltage_G2,raw_voltage_G3,raw_voltage_G4,raw_voltage_G5,raw_voltage_G6,load_x,load_y,load_z,load_l,load_m,load_n,rpm,voltage,current,roll,pitch,yaw,aileron1_pwm,elevator_pwm,throttle_pwm,rudder_pwm,aileron2_pwm,pbaro,pdiff,Tt,sample_start_time,sample_end_time,uid
-0.1083993881182621,0.0235358298385564,-0.0079911582086347,0.2679222731768385,-0.112000338023453,-0.3022829106765344,-0.3990154949449669,-0.4204120151904249,-15.394690774167042,23.81914604928604,-6.388925870852474,-1.1349027050311546,0.2207687910633074,0.7071986747883695,5756.49853515625,12.033222222222223,0.24,179.1708003120592,5.962609387286969,74.91306174748492,1525.0,1435.0,1200.0,1528.0,1475.0,1021.7000000000002,185.0,294.15,1637171609.083155,1637171610.1722329,c8512497-fc1a-4b00-8601-107b29821f15
-0.0976972323317808,0.0118228359570228,0.0037906974594165,0.2793987976471094,-0.1049147235231003,-0.3008589013993544,-0.3834670286887445,-0.3971159518997497,-14.461831470484338,24.16806297016804,-6.219720132233264,-1.154194773323729,0.168075545969014,0.6587813150170875,5756.49853515625,12.034,0.2444444444444444,179.16502045420154,5.965994694658095,74.24173763216251,1525.0,1435.0,1200.0,1528.0,1475.0,1021.7000000000002,185.0,294.15,1637171610.2812717,1637171611.405711,c8512497-fc1a-4b00-8601-107b29821f15
-0.1058020224055004,0.0089614461745985,-0.0039544087951083,0.2807696444147785,-0.1122941915102767,-0.3000740289540322,-0.3897317166896611,-0.4093588902668423,-14.305439824265116,24.13560427760552,-6.381542947218965,-1.156071253688521,0.1570105949810108,0.6878696749788217,5759.937337239583,12.033444444444443,0.2488888888888889,179.1663364039816,5.974332648087388,73.62422250603137,1525.0,1435.0,1200.0,1528.0,1475.0,1021.7000000000002,185.0,294.15,1637171611.5137775,1637171612.630657,c8512497-fc1a-4b00-8601-107b29821f15
0.0970988006054528,0.3631681354049973,0.0187681822821425,0.1046593009408815,-0.1546302569957731,-0.4759515718917939,-0.4486543241495604,-0.4783073810083082,-16.256055987474493,22.58552024396324,-5.211186153094542,-1.1639693784822438,1.5120313298440011,0.8406904215458066,5760.3671875,12.01988888888889,0.2844444444444445,179.12757735717153,6.000621144997251,72.48761831534864,1593.0,1435.0,1200.0,1528.0,1529.0,1021.7000000000002,185.0,294.15,1637171614.6576512,1637171615.9079883,c32f4de8-64bf-4030-8462-c2a73b3667a0
0.0729106784607322,0.3454447898863524,0.0161384429995621,0.1228483303975798,-0.1710935218040765,-0.4731985629991531,-0.4449425559499806,-0.469459402057105,-14.0203890961856,23.45400960527518,-4.925874354096028,-1.1920157584599191,1.424814355225316,0.8610382155223042,5760.797580295139,12.020888888888887,0.2711111111111111,179.15584067995704,6.010686519672258,72.10871129441244,1593.0,1435.0,1200.0,1528.0,1529.0,1021.7000000000002,185.0,294.15,1637171616.0170631,1637171617.1383836,c32f4de8-64bf-4030-8462-c2a73b3667a0
0.0688701936700942,0.3344327575370029,0.0014968216562079,0.1290939609665931,-0.1759968901931307,-0.4667474822547863,-0.4600361669698491,-0.4931407582027067,-14.903982714665888,23.248071355841603,-4.832428435028066,-1.1941320582721584,1.3872375241496977,0.9074857132450264,5758.647786458333,12.023444444444443,0.28,179.18513915585677,6.017087450425683,71.82171661131733,1593.0,1435.0,1200.0,1528.0,1529.0,1021.7000000000002,185.0,294.15,1637171617.2555192,1637171618.3645563,c32f4de8-64bf-4030-8462-c2a73b3667a0
0.3136961691762492,0.7653675415953831,0.0224525565449736,-0.0913110626870944,-0.2594363340525785,-0.6855637697866923,-0.536586252718557,-0.5499267053498741,-14.665460231336173,22.567383960035524,-4.973118710838244,-1.1920330033510829,3.0315172151753704,1.1520176516803105,5768.553873697917,12.005000000000004,0.32,179.14017526164065,6.027557513809012,71.4202889388678,1661.0,1435.0,1200.0,1528.0,1583.0,1021.7000000000002,185.0,294.15,1637171619.163313,1637171620.4133184,cdde8a05-6ec2-4f58-bde9-0ce20c849cf3
0.3206403238923774,0.7712707577918048,0.0337522174739025,-0.093872319214199,-0.2502322455158596,-0.6875360748894899,-0.5233142838061303,-0.5464614756633266,-14.366401178580029,22.435486150654143,-4.672107010019436,-1.1908006661731962,3.0499027863177943,1.1065618682364802,5764.24072265625,12.006333333333334,0.3111111111111111,179.14731205041343,6.04409302233466,71.19511809249998,1661.0,1435.0,1200.0,1528.0,1583.0,1021.7000000000002,185.0,294.15,1637171620.521083,1637171621.5293224,cdde8a05-6ec2-4f58-bde9-0ce20c849cf3
0.3183803918864885,0.7639157065224333,0.0290679943864952,-0.0833807547726636,-0.2561491595945271,-0.6913574161949484,-0.5280532943159021,-0.557500905075074,-13.96089931774427,22.6452329009263,-4.907258152977134,-1.2217303008834235,3.019945834642471,1.1268212343599158,5768.553873697917,12.006111111111112,0.3155555555555555,179.1916187286494,6.054687878965949,71.00211212475358,1661.0,1435.0,1200.0,1528.0,1583.0,1021.7000000000002,185.0,294.15,1637171621.6367638,1637171622.8716342,cdde8a05-6ec2-4f58-bde9-0ce20c849cf3
0.5295402184666705,1.1365579491319966,0.0411620557252131,-0.2647916891650068,-0.3360411973643484,-0.8825203720203562,-0.6025488988437289,-0.6226828479292567,-13.562254221836024,22.289051394398133,-4.163364338838838,-1.243520083021868,4.431262412248265,1.3701906929742442,5771.14111328125,11.994777777777776,0.3477777777777777,179.1674383411677,6.069172765488907,70.76080078246711,1729.0,1435.0,1200.0,1528.0,1636.0,1021.7000000000002,185.0,294.15,1637171624.601189,1637171625.6481285,e5c9e16f-a4d7-4457-96a6-92d61284da34
0.5238972368539629,1.131503919194832,0.0420934217010554,-0.26706531815744,-0.3370821360230655,-0.8770280490296135,-0.5970976667893603,-0.6142183715393724,-13.094366578146513,22.30543446221232,-4.362193659728361,-1.2256905406271323,4.411096606568874,1.3619861181778958,5768.11962890625,11.995333333333331,0.3400000000000001,179.19203612909868,6.056037742532542,70.67619219357854,1729.0,1435.0,1200.0,1528.0,1636.0,1021.7000000000002,185.0,294.15,1637171625.7608986,1637171626.9024055,e5c9e16f-a4d7-4457-96a6-92d61284da34
0.5239383265264709,1.146529043423559,0.0427508564930933,-0.27280417699227,-0.3312200079976805,-0.88206838522468,-0.6059456465205728,-0.6272027142785053,-14.502704785801214,22.160060697880795,-3.759740400247785,-1.2256152409860832,4.472824089982334,1.367395379025958,5761.227973090277,11.996,0.3400000000000001,179.20049190329115,6.064197826452199,70.58348755379376,1729.0,1435.0,1200.0,1528.0,1636.0,1021.7000000000002,185.0,294.15,1637171627.0111368,1637171628.1962366,e5c9e16f-a4d7-4457-96a6-92d61284da34
0.6975011003108813,1.4904222431954874,0.053269813539266,-0.4424908714728088,-0.4064278249137907,-1.0595211059613836,-0.6783867703417062,-0.7006299913676474,-14.350983066265549,22.017671306484544,-3.5356173740785883,-1.2419116323702306,5.78112892369506,1.5992373047667272,5767.688639322917,11.970444444444446,0.4,179.1221299018535,6.049010426513984,70.5647500681707,1796.0,1435.0,1200.0,1528.0,1690.0,1021.7000000000002,185.0,294.15,1637171629.1072342,1637171630.1322556,c048c08c-f37f-49ff-b934-1b547342290f
0.7040617512432236,1.4892854287325792,0.0468050378845113,-0.4436961688521079,-0.4134130712094521,-1.0563571987348317,-0.6855500731790295,-0.7084370326211324,-14.403070483145251,22.13462814020305,-3.455616348371746,-1.2316431033307775,5.776265342254141,1.627642964846632,5758.217936197917,11.972111111111111,0.3944444444444445,179.12915285414007,6.051662057731765,70.49220055771674,1796.0,1435.0,1200.0,1528.0,1690.0,1021.7000000000002,185.0,294.15,1637171630.2414944,1637171631.360366,c048c08c-f37f-49ff-b934-1b547342290f
0.701925088304642,1.4824371489272714,0.049297811497972,-0.4410253394612114,-0.414467706545105,-1.050892268413726,-0.680304289290183,-0.6970277964602704,-13.858530897854564,22.38810979615451,-3.259288172865328,-1.2232775247478158,5.744819451451337,1.6179610680938106,5760.3671875,11.973,0.4099999999999999,179.12459332341416,6.038881445702332,70.41845804088774,1796.0,1435.0,1200.0,1528.0,1690.0,1021.7000000000002,185.0,294.15,1637171631.4691226,1637171632.5861228,c048c08c-f37f-49ff-b934-1b547342290f
-0.3129487960501859,-0.4020723183661802,0.0109611437782497,0.4970108948149229,-0.0112546746667498,-0.1007890816638317,-0.2880210555986897,-0.3099492501859288,-13.715365147395277,25.78349392063268,-6.571318877644887,-1.1841051180039288,-1.412760765420824,0.3367339130032937,5763.379937065973,12.031444444444446,0.25,179.67172335014826,6.055199668835008,70.36961384031315,1457.0,1435.0,1200.0,1528.0,1421.0,1021.7000000000002,185.0,294.15,1637171633.612291,1637171634.7494924,b7665a7a-755d-4eea-b07e-ef4f39ae6ef7
-0.3229061956911281,-0.4023736427426478,0.0024281876332376,0.4916829339917901,-0.012816082380235,-0.0972553693835692,-0.2966224956715283,-0.3178795588383085,-14.5059440037364,25.42397387948721,-6.865643986515379,-1.1673988808446971,-1.4055778513511676,0.361834970131427,5760.3671875,12.031,0.25,179.6917995528487,6.065958734597594,70.50936558201089,1457.0,1435.0,1200.0,1528.0,1421.0,1021.7000000000002,185.0,294.15,1637171634.857828,1637171635.8059056,b7665a7a-755d-4eea-b07e-ef4f39ae6ef7
-0.311401084653565,-0.3985659987508374,4.498636997905467e-05,0.4824514543259733,-0.0161169531310789,-0.0919274077834573,-0.2937599144938773,-0.3135788381827236,-14.192284959244214,25.143163803002096,-6.78280994142768,-1.1364113825638686,-1.393270280885618,0.3663349473567605,5760.797580295139,12.029,0.25,179.70561171317024,6.054506926384813,70.61922765699073,1457.0,1435.0,1200.0,1528.0,1421.0,1021.7000000000002,185.0,294.15,1637171635.914626,1637171637.0031269,b7665a7a-755d-4eea-b07e-ef4f39ae6ef7
-0.4673227380130913,-0.6840982373327987,0.0001134692001257,0.6150889152884326,0.0468187344521585,0.0609261897674088,-0.2312488130886304,-0.2616414813987194,-14.390382594734414,26.092523229624387,-7.231516524297228,-1.0860009704928473,-2.47512088467746,0.1569709441461493,5760.3671875,12.006111111111112,0.3,179.77863250667693,6.057652845111905,70.87357100021356,1389.0,1435.0,1200.0,1528.0,1367.0,1021.7000000000002,185.0,294.15,1637171638.5634449,1637171639.6653128,2926b144-d4d2-4a55-8286-6c11aba14bac
-0.4735135841654374,-0.6832216572712216,-0.0064334859774299,0.5980503980444077,0.0375187710900657,0.0754993279897622,-0.2343305391513845,-0.2526839303946167,-14.33327878665493,26.13460747117846,-7.3059921542468595,-1.0148486030081325,-2.4698937897388533,0.1828240638741433,5757.7880859375,12.008333333333333,0.3,179.77644836396237,6.03759921998127,70.9050657613864,1389.0,1435.0,1200.0,1528.0,1367.0,1021.7000000000002,185.0,294.15,1637171639.7743332,1637171640.9004147,2926b144-d4d2-4a55-8286-6c11aba14bac
-0.458734993854817,-0.6736751523677498,0.0118788131711284,0.5955439280706604,0.0504620189978822,0.0694728422709102,-0.2166071903882782,-0.2297558884072506,-13.923295477885196,26.206109176324933,-7.02555902275022,-1.021100037415109,-2.438005110124436,0.1167849834211434,5756.49853515625,12.008666666666668,0.3066666666666666,179.7724504265682,6.024053105014235,70.88583422541336,1389.0,1435.0,1200.0,1528.0,1367.0,1021.7000000000002,185.0,294.15,1637171641.0333073,1637171642.2211492,2926b144-d4d2-4a55-8286-6c11aba14bac
-0.7028762268614611,-1.1168686374951198,0.0014694284693021,0.810744235982281,0.1373666821761637,0.3066150489015655,-0.1311680504943256,-0.1543700228878171,-14.073391299112863,27.789242426630903,-6.605203944097707,-0.9636810893047985,-4.130042208489843,-0.1609417029120287,5748.7763671875,12.000777777777778,0.3299999999999999,179.85669094415147,6.032297001046832,70.94365633019697,1321.0,1435.0,1200.0,1528.0,1314.0,1021.7000000000002,185.0,294.15,1637171644.1313362,1637171645.0874588,402e43f3-3cc2-40b4-82ff-8fee637b34f1
-0.7029857991457101,-1.123306024899603,0.0108926609278391,0.8145792720515773,0.1449271823038322,0.3098885261753372,-0.1186220020146298,-0.1384546208714341,-13.637871494582743,27.9042116495192,-6.453708596255697,-0.9635013128268192,-4.158484369246431,-0.2022214241244336,5744.92333984375,12.002,0.3233333333333333,179.84472293490586,6.024979449420417,70.9132278374446,1321.0,1435.0,1200.0,1528.0,1314.0,1021.7000000000002,185.0,294.15,1637171645.20041,1637171646.423061,402e43f3-3cc2-40b4-82ff-8fee637b34f1
-0.711998138157332,-1.157930951281829,0.0087833909177081,0.8409314484027764,0.1437492783358201,0.3196541717895712,-0.117745422161923,-0.1326609761356051,-13.083707062198558,28.57531500759136,-6.454505163413285,-0.996378033767772,-4.295630926574064,-0.2028375496363892,5766.835503472223,11.999000000000002,0.33,179.83962306032552,6.021606332039685,70.9185781522944,1321.0,1435.0,1200.0,1528.0,1314.0,1021.7000000000002,185.0,294.15,1637171646.5315692,1637171647.6530845,402e43f3-3cc2-40b4-82ff-8fee637b34f1
-0.8675226325816351,-1.4309994896759823,0.0091805910634393,0.9728156005003712,0.2057125071941183,0.4701245526631022,-0.0576860097238784,-0.0926396293396564,-13.400089498423588,29.47989362172102,-5.6123302387851695,-0.94975800461326,-5.3412261083691455,-0.4045765861452815,5864.593424479167,11.993000000000002,0.3355555555555556,179.85300871327894,5.992878651254348,70.91984856748003,1306.111111111111,1435.0,1200.0,1528.0,1302.0,1021.7000000000002,185.0,294.15,1637171649.6833832,1637171650.73077,c2cacf0c-def5-41c8-a5a3-c1f8edb39f65
-0.8493746833285692,-1.3863349659587587,0.007742452450304,0.9487507487254212,0.1968508341880851,0.4470732465904608,-0.0688076157347433,-0.1051171947782449,-13.66182199186025,29.188912423419907,-5.861446711033563,-0.9494449768352144,-5.166779804204558,-0.3699330881224908,5834.893337673611,11.970444444444446,0.39,179.88908121901554,5.993524863040823,70.79228491890126,1254.0,1435.0,1200.0,1528.0,1260.0,1021.7000000000002,185.0,294.15,1637171650.8424485,1637171651.9945543,c2cacf0c-def5-41c8-a5a3-c1f8edb39f65
-0.8401842876753371,-1.3900878267984895,0.0056879685927184,0.953078860912658,0.1948785298135953,0.4498399511995985,-0.0701087889317286,-0.0970499217037752,-13.553145742757044,29.26587952506437,-5.438984220213187,-0.9524610104070323,-5.186030593505323,-0.3623695472019189,5767.700141059027,11.972,0.39,179.87621162479937,6.009314410558992,70.72818890591003,1254.0,1435.0,1200.0,1528.0,1260.0,1021.7000000000002,185.0,294.15,1637171652.1048326,1637171653.188748,c2cacf0c-def5-41c8-a5a3-c1f8edb39f65
-0.0751628192818441,0.0372037502511058,0.0130704138402541,0.2641968094997007,-0.1032270691642561,-0.3048404320133821,-0.3768569491264918,-0.4092082287534411,-14.264292702393888,24.140185019794085,-5.180601308423437,-1.128307504328783,0.2551210931478989,0.6389750205107819,5742.786946614583,12.031555555555554,0.2422222222222222,179.46645036265252,6.006670605599636,70.67798853333026,1525.0,1435.0,1200.0,1528.0,1475.0,1021.7000000000002,185.0,294.15,1637171654.0927093,1637171655.230325,82bfefb0-6500-4480-9b09-d870498add97
-0.0927628979947131,0.0265067379179768,0.0020035942846468,0.2664704380772966,-0.1048021735578348,-0.296389654144388,-0.384198305992336,-0.4164947982661612,-14.871250939836605,23.725490960712108,-5.234223135651098,-1.118060412816856,0.218783400637922,0.6650538954042139,5748.7763671875,12.031666666666668,0.24,179.48917060747166,6.014076759957784,70.89563099341291,1525.0,1435.0,1200.0,1528.0,1475.0,1021.7000000000002,185.0,294.15,1637171655.3387003,1637171656.4597948,82bfefb0-6500-4480-9b09-d870498add97
-0.0834492376143319,0.0272189590010608,0.0100023846770433,0.2672922315597056,-0.1020491650483627,-0.2958143985714308,-0.378774467698971,-0.3935530581142033,-14.63667717283523,24.15113627693661,-4.900562037464924,-1.115230294935252,0.2172502963305924,0.6432319107333045,5747.920138888889,12.036111111111111,0.24,179.49826538380643,6.022114279927336,71.07431253664997,1525.0,1435.0,1200.0,1528.0,1475.0,1021.7000000000002,185.0,294.15,1637171656.5676787,1637171657.6888092,82bfefb0-6500-4480-9b09-d870498add97
-0.0690678504271736,0.0145085525135154,-0.0287451804207482,-0.184420274506239,-0.179215581738364,0.1526657377252821,-0.2862678958989233,-0.3106888651733073,-14.624560017572046,22.70480784095059,-1.8248545084707268,0.9004963258967754,0.1953674238007253,0.6688843789440714,5752.63525390625,12.029777777777776,0.2477777777777777,179.50597439064967,6.150681966314116,71.33126121758622,1525.0,1535.0,1200.0,1528.0,1475.0,1021.7000000000002,185.0,294.15,1637171658.5983765,1637171659.7360966,ba9f6ec2-3308-4432-8cce-f604a5c0db5e
-0.0764946727726461,0.0002279724300607,-0.0191926523246875,-0.1712310353060485,-0.1875354200435435,0.1510829634291292,-0.269333468507237,-0.3004432887979628,-11.992488977559717,23.60572475326319,-2.235137847199057,0.874895383635714,0.1258107257245879,0.6423640777261709,5756.49853515625,12.03011111111111,0.2488888888888889,179.5078413090228,6.145643990323194,71.43073609265828,1525.0,1535.0,1200.0,1528.0,1475.0,1021.7000000000002,185.0,294.15,1637171659.844942,1637171661.0651186,ba9f6ec2-3308-4432-8cce-f604a5c0db5e
-0.063465957841786,0.0183435889210421,-0.0120079853816751,-0.1851324956712766,-0.1738328337336067,0.148817004847828,-0.2709277481753018,-0.3034981698596685,-13.697235006676964,23.28902206895704,-1.819518174914025,0.8986281753907859,0.204299114236046,0.6177711902893858,5768.11962890625,12.030333333333331,0.24,179.5017518159228,6.159673293742139,71.49208029832388,1525.0,1535.0,1200.0,1528.0,1475.0,1021.7000000000002,185.0,294.15,1637171661.199095,1637171662.398332,ba9f6ec2-3308-4432-8cce-f604a5c0db5e
-0.0603431422247999,0.0005517590608572,-0.0624798053666756,-0.6880702409914562,-0.2709003550295215,0.652727054636583,-0.1845572400884982,-0.197733331644073,-14.190471493939262,22.5047845696635,1.6482996459682877,3.158078216154588,0.1690342165676607,0.694111475898055,5778.923014322917,12.025,0.2577777777777778,179.47252771319404,6.297843419760181,71.56274847111646,1525.0,1636.0,1200.0,1528.0,1475.0,1021.7000000000002,185.0,294.15,1637171664.0638344,1637171665.1531477,dbb69e21-5265-4a98-86df-678415cd1f15
-0.0582612652713048,-0.0021053733899547,-0.0602061765656866,-0.6866321019802397,-0.2680103808091691,0.6532612203676696,-0.1803797893355709,-0.2032941347600416,-14.068915491692223,22.43246912902769,1.5674903115536456,3.1557165990742413,0.15889006576992,0.6808200290633232,5772.00439453125,12.022111111111112,0.26,179.44994710779798,6.309301156956615,71.49517209728818,1525.0,1636.0,1200.0,1528.0,1475.0,1021.7000000000002,185.0,294.15,1637171665.261542,1637171666.3820698,dbb69e21-5265-4a98-86df-678415cd1f15
-0.0503508798949612,0.0046644621232466,-0.0523829510254949,-0.6809206346623696,-0.2700088334668951,0.6427945603437325,-0.1765933131301593,-0.2124832810380746,-13.2556597390293,22.96697755690143,1.8039805957618,3.1236928810186866,0.1762308450737375,0.6690390762337881,5775.8935546875,12.025222222222222,0.26,179.43184710649746,6.302073820745488,71.48304016350244,1525.0,1636.0,1200.0,1528.0,1475.0,1021.7000000000002,185.0,294.15,1637171666.4912004,1637171667.5181644,dbb69e21-5265-4a98-86df-678415cd1f15
-0.0248005715366562,0.0086327287747206,-0.0844079966657553,-1.1610400727151873,-0.3446563341236916,1.101097560471235,-0.0898044410557941,-0.1068292646848555,-14.708822265006532,22.09245467382248,4.88546244734961,5.22896050794578,0.231156219745534,0.6907557476455759,5775.8935546875,12.001555555555557,0.3122222222222222,179.40323772079398,6.451531877868099,71.377980470419,1525.0,1737.0,1200.0,1528.0,1475.0,1021.7000000000002,185.0,294.15,1637171669.6587589,1637171670.6802225,12a0071c-027b-4daf-8609-bde176194367
-0.0348675423450761,0.0019488080604791,-0.0801209736631567,-1.1442343822770853,-0.3439304164288934,1.0916058458111146,-0.085462631784075,-0.1121435306397925,-13.906554080600152,22.3766140963964,4.830633332213689,5.172214131100341,0.1991025987084893,0.6774472142319806,5772.00439453125,12.002666666666666,0.3,179.39489122962823,6.4547047853287856,71.22692931910437,1525.0,1737.0,1200.0,1528.0,1475.0,1021.7000000000002,185.0,294.15,1637171670.7998192,1637171671.912412,12a0071c-027b-4daf-8609-bde176194367
-0.0434415883390021,-0.0020094974146986,-0.0864350874312603,-1.1450835695109427,-0.338465488639982,1.0953039164346243,-0.0926670219464702,-0.1097055424020275,-15.1645443620682,21.88775791606756,4.654488018094135,5.178223341670425,0.1944174452828452,0.6874541878947703,5775.8935546875,12.006777777777778,0.3,179.38468844482804,6.451403811821161,71.08744016023473,1525.0,1737.0,1200.0,1528.0,1475.0,1021.7000000000002,185.0,294.15,1637171672.0208528,1637171673.1408918,12a0071c-027b-4daf-8609-bde176194367
-0.0389628136105571,-0.018048167890925,-0.0713003896385329,-1.3163728773914125,-0.3647354928274146,1.275358871595934,-0.0366617917419482,-0.0709579767621253,-13.688557860698856,23.62762935909272,5.838471255590291,5.982436712409251,0.1354007426749344,0.6214105694572108,5779.78857421875,11.98688888888889,0.3477777777777777,179.31088293847668,6.516626379138605,70.79795928828172,1525.0,1837.0,1200.0,1528.0,1475.0,1021.7000000000002,185.0,294.15,1637171674.1588345,1637171675.105719,93d1b649-eef6-4f0e-a5c6-f9bf1864ad7b
-0.0291971669396674,-0.0049679541435419,-0.0811345190976502,-1.3004574626142398,-0.3705017449131432,1.2502941696021823,-0.0543166561984447,-0.0671640292170711,-14.040809788358892,23.351129753772813,6.0798990829970725,5.88775025095795,0.1822252319050969,0.6697360894751232,5773.73291015625,11.982666666666669,0.36,179.2977522792523,6.506645765213924,70.56594307454571,1525.0,1837.0,1200.0,1528.0,1475.0,1021.7000000000002,185.0,294.15,1637171675.2137878,1637171676.2976391,93d1b649-eef6-4f0e-a5c6-f9bf1864ad7b
-0.0319501752838954,-0.016925050080124,-0.068273450043675,-1.3008272695838392,-0.3603662897471988,1.259498256814937,-0.0347031838117278,-0.0502898686462877,-13.38098571556143,23.474853380278223,5.794610399463431,5.911014494005354,0.1361002387341017,0.609033000215322,5775.8935546875,11.983444444444444,0.3499999999999999,179.29031951561552,6.52347886128716,70.37445340879509,1525.0,1837.0,1200.0,1528.0,1475.0,1021.7000000000002,185.0,294.15,1637171676.405532,1637171677.5542774,93d1b649-eef6-4f0e-a5c6-f9bf1864ad7b
-0.1273604069204884,0.020247410560757,0.0363545636460721,0.8551895646520918,-0.0122819165725203,-0.8592225137064243,-0.5134527588620431,-0.5412293889413636,-15.24218957362759,25.4437627680708,-9.43263772884394,-3.698582003748693,0.1648658561362573,0.6737630629439079,5769.41455078125,12.031666666666668,0.24,179.22271582103056,5.813765810030312,69.98804228669077,1525.0,1334.0,1200.0,1528.0,1475.0,1021.7000000000002,185.0,294.15,1637171679.6934783,1637171680.7185562,9db70bee-1867-490d-b8c9-e1f76335f5d5
-0.1276206416627921,0.0120568684690231,0.036875032848219,0.8583945590551361,-0.0170483191040762,-0.8535247422306155,-0.5080426168630576,-0.5266973358539592,-14.317438272149824,25.70860881237385,-9.329320018631174,-3.690744454598439,0.1263283620218054,0.6715634980964573,5776.326334635417,12.029333333333334,0.24,179.27663788779807,5.827942104812021,70.35566052274875,1525.0,1334.0,1200.0,1528.0,1475.0,1021.7000000000002,185.0,294.15,1637171680.8281753,1637171682.066747,9db70bee-1867-490d-b8c9-e1f76335f5d5
-0.1113765222268551,0.0272600485945003,0.0464626239188608,0.8403424964357326,-0.0106931157831797,-0.854771129760859,-0.4992357273005821,-0.527930026543357,-14.456335277873956,25.550000445047043,-9.678272786935551,-3.653523801618298,0.1902530769409132,0.638456504080508,5785.858289930556,12.023888888888887,0.2355555555555555,179.30902664484225,5.828585328390733,70.64457676573036,1525.0,1334.0,1200.0,1528.0,1475.0,1021.7000000000002,185.0,294.15,1637171682.1792307,1637171683.2248814,9db70bee-1867-490d-b8c9-e1f76335f5d5
-0.1389012472806165,0.0301595505579897,0.0872420426790946,1.385632844452933,0.076608749297084,-1.3794098599561564,-0.6181999019043418,-0.6444973053860449,-14.8370900444328,27.7851432080266,-12.79884082099091,-6.046340032126254,0.1669665676225253,0.6328881033762567,5782.388834635417,12.010666666666664,0.2866666666666667,179.33231303645255,5.666166560431198,71.10632639219973,1525.0,1234.0,1200.0,1528.0,1475.0,1021.7000000000002,185.0,294.15,1637171685.1142006,1637171686.1750202,8568e156-4f8b-4ed1-a3d0-32aad369f4db
-0.1385367995770129,0.0314374990665049,0.0911818874995402,1.400833047641891,0.0808409858722434,-1.3959773530386312,-0.6195189404914284,-0.6554450294287463,-14.807594044086116,27.90136887742152,-12.977614472981656,-6.116904333578975,0.1715156183505102,0.6236399222017025,5779.78857421875,12.013333333333334,0.28,179.34840951559656,5.641656853481432,71.32180975359474,1525.0,1234.0,1200.0,1528.0,1475.0,1021.7000000000002,185.0,294.15,1637171686.2876012,1637171687.3851311,8568e156-4f8b-4ed1-a3d0-32aad369f4db
-0.1345647974229706,0.035916273763532,0.095838717324461,1.4245007022295864,0.0894835142415341,-1.4245484040423593,-0.6265041877619081,-0.6600333757406255,-15.36456298109624,27.992806730526706,-13.324039978916112,-6.233993284790262,0.1927089703160656,0.6153000384265123,5801.108344184027,12.014555555555557,0.28,179.37341256141826,5.6448749635135,71.4701311059711,1525.0,1234.0,1200.0,1528.0,1475.0,1021.7000000000002,185.0,294.15,1637171687.493075,1637171688.500922,8568e156-4f8b-4ed1-a3d0-32aad369f4db
-0.1614374473830866,0.0346698868535324,0.1224100404846842,1.7118682334509645,0.1352300190624847,-1.6987812330873344,-0.6926175004289797,-0.7247222477432919,-15.881623483569475,29.99836999080767,-15.03681691912526,-7.484376918787394,0.1732115868869841,0.6096716953342693,5877.553385416667,12.001555555555557,0.3022222222222221,179.39285431543573,5.494510198778569,71.69272393538219,1525.0,1133.0,1200.0,1528.0,1475.0,1021.7000000000002,185.0,294.15,1637171689.0823028,1637171690.1394622,e1e3799e-213a-4ef6-bdb0-696796ac8cb8
-0.1567532239140782,0.030040450064044,0.1215060676547977,1.6879814308127017,0.128751547015157,-1.6704978009822005,-0.6839475754292451,-0.718805332447174,-15.377885610963508,30.10435593329605,-14.762065358693926,-7.365982548320647,0.1527334023475299,0.6073103832799287,5891.0146484375,12.002444444444444,0.3122222222222222,179.39352519179425,5.497375463135389,71.896325803261,1525.0,1133.0,1200.0,1528.0,1475.0,1021.7000000000002,185.0,294.15,1637171690.2477932,1637171691.3978555,e1e3799e-213a-4ef6-bdb0-696796ac8cb8
-0.1527538284328848,0.0392993237092442,0.1253821937106986,1.662697579392714,0.1282310778298554,-1.6556781057226662,-0.6772773487376352,-0.7106147862889595,-15.445021567092311,30.0844181203223,-14.634311186293354,-7.275599134837596,0.1901610685268637,0.5942787656281436,5878.915364583333,12.002333333333334,0.31,179.40672111727068,5.511067051645372,72.04240381794997,1525.0,1133.0,1200.0,1528.0,1475.0,1021.7000000000002,185.0,294.15,1637171691.5065372,1637171692.710536,e1e3799e-213a-4ef6-bdb0-696796ac8cb8
-0.1562327546450918,0.0432850222856555,0.1283543467870257,1.7513417234509294,0.1353258949491244,-1.7437744907427994,-0.7116283311132833,-0.7368163143269832,-16.141602929148934,31.14333099653,-15.128338149004795,-7.666784683152701,0.2037110272758154,0.629113471069089,5818.149739583333,11.979777777777777,0.3611111111111111,179.4026138968498,5.472522064861137,72.2253329799409,1525.0,1033.0,1200.0,1528.0,1475.0,1021.7000000000002,185.0,294.15,1637171693.620162,1637171694.6454055,523db703-058e-4d96-b043-362d9c9be032
-0.1607389229056125,0.0322455960220439,0.131436072447894,1.754313877066716,0.1349834810238846,-1.73483062499166,-0.7029994955481172,-0.7196682159960991,-15.406510339099192,31.36174768575665,-14.967073315286228,-7.651393979561074,0.1555075095269944,0.6124356605304896,5803.267578125,11.978333333333332,0.3644444444444444,179.38601350152703,5.476537409751326,72.23277409158666,1525.0,1033.0,1200.0,1528.0,1475.0,1021.7000000000002,185.0,294.15,1637171694.7543938,1637171695.8726015,523db703-058e-4d96-b043-362d9c9be032
-0.1590679424428794,0.0276435523113746,0.1262039872146517,1.7574914793486385,0.1326139764729239,-1.733871864149674,-0.706697567892216,-0.7438837404542555,-15.467862260184177,31.23259321569098,-15.08826004091344,-7.657574312524055,0.1390302487660125,0.6273703796276857,5804.141384548611,11.981111111111112,0.3544444444444444,179.37878564356532,5.461067410736201,72.29465636437688,1525.0,1033.0,1200.0,1528.0,1475.0,1021.7000000000002,185.0,294.15,1637171695.9894116,1637171697.0118268,523db703-058e-4d96-b043-362d9c9be032
-0.1003644884856022,0.0173711332443233,0.0065371553045867,0.2502674101615786,-0.1085550307579152,-0.2685171535945076,-0.373227360407302,-0.3884990267361004,-14.266056164932758,24.264106070877272,-4.615871387583103,-1.0146776270784048,0.1770469506253453,0.6481922124400668,5807.637152777777,12.026666666666667,0.2433333333333333,179.4065921025864,5.840208555378933,72.40080129862844,1525.0,1390.3333333333333,1200.0,1528.0,1475.0,1021.7000000000002,185.0,294.15,1637171698.562642,1637171699.501464,7504cb77-0b44-4e06-9712-1d562e136c09
-0.0995700879442141,0.0009078695946746,0.0024144910780084,0.2624984363038465,-0.1128420538739803,-0.2673529459405202,-0.3750626996340804,-0.4110983528299174,-13.794871374597976,24.52720719257962,-5.170724427261111,-1.0379641117823954,0.1151196267194634,0.6598182142103175,5817.71240234375,12.032666666666668,0.2266666666666666,179.39521907870838,5.919702328648426,72.42425465041842,1525.0,1435.0,1200.0,1528.0,1475.0,1021.7000000000002,185.0,294.15,1637171699.6101658,1637171700.6933477,7504cb77-0b44-4e06-9712-1d562e136c09
-0.1009260473949025,0.0089888393164739,0.0087559977830314,0.2596906419518132,-0.1081852236949998,-0.2719823833594851,-0.3723507805539,-0.4039761408125238,-13.97923782225891,24.597172063104825,-5.035873500088353,-1.0413251187308583,0.1462868002441842,0.6419558042716238,5826.9384765625,12.033666666666669,0.23,179.38425890182026,5.932203140081234,72.43563829903512,1525.0,1435.0,1200.0,1528.0,1475.0,1021.7000000000002,185.0,294.15,1637171700.8062313,1637171701.8438947,7504cb77-0b44-4e06-9712-1d562e136c09
-0.0368124537889657,0.0479418521836872,0.1807847715745267,0.2364201901194982,0.0466954653775256,-0.2981291173945801,-0.1964321575336301,-0.2202778693860126,-12.93377352082149,24.243106268839465,-5.034972775979315,-1.0408427400551206,0.298741552231861,-0.0485750991062376,5820.34619140625,12.032333333333334,0.2266666666666666,179.37031165553506,5.95967572617471,72.44623192243779,1525.0,1435.0,1200.0,1454.0,1475.0,1021.7000000000002,185.0,294.15,1637171702.631493,1637171703.7694004,81209275-3f56-4fff-853f-e2050b54d376
-0.0486736740032415,0.0292734427954419,0.163088818503926,0.2432273793830034,0.0323277753983449,-0.2818849965805156,-0.2102793796294396,-0.2375218384544058,-12.936387758246171,24.42026758923642,-4.558821202200468,-1.0193275139921851,0.2225651150499234,0.0132290777262308,5808.950575086806,12.03211111111111,0.2322222222222222,179.35720072796826,5.959627772554912,72.45789636772037,1525.0,1435.0,1200.0,1454.0,1475.0,1021.7000000000002,185.0,294.15,1637171703.8781693,1637171704.9977324,81209275-3f56-4fff-853f-e2050b54d376
-0.0269372346940997,0.0574609604769989,0.1809080406113931,0.2271887100556295,0.0509824882717358,-0.2976771308584352,-0.2010889879355462,-0.236357630948376,-13.959330891980253,24.0544198707931,-4.863059109273711,-1.0207366310416943,0.3413201797591272,-0.0472782911387329,5782.397298177083,12.029666666666666,0.23,179.34054569113218,5.958267426545217,72.46992812539831,1525.0,1435.0,1200.0,1454.0,1475.0,1021.7000000000002,185.0,294.15,1637171705.105382,1637171706.2274368,81209275-3f56-4fff-853f-e2050b54d376
0.0119746889792931,0.072472388626402,0.3582784643505763,0.2173408849084612,0.2079998324026716,-0.3128529200427656,-0.0147472972065628,-0.0391956554276963,-12.080748097680331,24.244994519312524,-4.830614862550828,-1.0215783670076393,0.396498511587072,-0.7652165451334979,5765.53369140625,12.029333333333334,0.2333333333333333,179.33041879732275,5.943918337463883,72.45299153298639,1525.0,1435.0,1200.0,1380.0,1475.0,1021.7000000000002,185.0,294.15,1637171707.139144,1637171708.2748747,e63f373a-8a60-4863-91b6-4a1836ebdb26
0.0178397935912215,0.0674618302187027,0.3493870164528427,0.2158277129242496,0.2024932205865187,-0.3045319618570364,-0.0226639082628913,-0.0375848215425569,-12.433150251753652,24.18866718803579,-4.606015488918979,-1.000424440922828,0.3778311465980228,-0.7348508448359717,5764.24072265625,12.027333333333331,0.24,179.3128242300208,5.940446466931401,72.45104265234323,1525.0,1435.0,1200.0,1380.0,1475.0,1021.7000000000002,185.0,294.15,1637171708.38328,1637171709.390722,e63f373a-8a60-4863-91b6-4a1836ebdb26
0.0129376165954425,0.0650464719008945,0.3428555449853856,0.2224020608392748,0.1993918434531217,-0.3072045774918338,-0.028495069374053,-0.0402574369604877,-12.497435194163746,24.00417403850033,-4.506864252795077,-1.022825088453971,0.3671216702044029,-0.7134852181555964,5764.671712239583,12.02811111111111,0.2311111111111111,179.30737677470273,5.927413707085108,72.4396377542491,1525.0,1435.0,1200.0,1380.0,1475.0,1021.7000000000002,185.0,294.15,1637171709.4985669,1637171710.6197011,e63f373a-8a60-4863-91b6-4a1836ebdb26
0.1000161675548114,0.1199720531753179,0.5762591754316388,0.2153685805809884,0.3946428246220789,-0.3649135479463113,0.1974534827235489,0.180661502215232,-9.973507039568052,24.833888211920044,-4.235853236127499,-1.1182031423340613,0.5685368765851564,-1.6108904668312596,5771.57275390625,12.026111111111112,0.2311111111111111,179.284884202856,5.905511235123516,72.34541833028841,1525.0,1435.0,1200.0,1306.0,1475.0,1021.7000000000002,185.0,294.15,1637171712.6657217,1637171713.692292,2ce5b7b9-de01-4d60-a9e8-f928fbb82ce2
0.0841555529716332,0.1071246814763754,0.5586043130930071,0.2149987734622949,0.38752061473465,-0.3544082856687999,0.1871536710787439,0.1575417120751587,-10.396375945569211,24.21862772117801,-4.678065521150804,-1.0990033040918372,0.526179572692078,-1.5646841868736463,5757.358778211806,12.03077777777778,0.23,179.2687862058922,5.904974733250586,72.33613686211628,1525.0,1435.0,1200.0,1306.0,1475.0,1021.7000000000002,185.0,294.15,1637171713.8005607,1637171715.0340774,2ce5b7b9-de01-4d60-a9e8-f928fbb82ce2
0.0998107191723324,0.1205610052001843,0.5631652666647221,0.2073971838342587,0.3941771416769862,-0.359476013186783,0.1802643023393328,0.1511865088748952,-11.733087621035702,24.37038341740111,-4.525767490607769,-1.0926593182199569,0.5859126911065131,-1.569381835748881,5756.49853515625,12.028333333333332,0.2333333333333332,179.26546369831593,5.908279975626441,72.35122854454238,1525.0,1435.0,1200.0,1306.0,1475.0,1021.7000000000002,185.0,294.15,1637171715.1427605,1637171716.2616663,2ce5b7b9-de01-4d60-a9e8-f928fbb82ce2
0.1566299980242815,0.147240114180373,0.7514083677103703,0.2149844814714988,0.5529774100529573,-0.4023182609845062,0.3689671387571681,0.3433271823435498,-9.035893686377882,25.05442954706554,-4.478165353488619,-1.1907734930838274,0.6774746494497764,-2.3059749345464504,5760.3671875,12.022222222222222,0.2455555555555555,179.2371411805576,5.889631282462584,72.27193915519743,1525.0,1435.0,1200.0,1232.0,1475.0,1021.7000000000002,185.0,294.15,1637171718.084647,1637171719.3307965,727febf3-a61d-4360-9938-914a9638b5b8
0.1604042930316843,0.1515700130763391,0.7401795727490782,0.2030964646165378,0.5536187662332281,-0.3975524532153275,0.3545940903500899,0.3335013911174775,-10.711141212678678,24.48676427501326,-4.836331093344653,-1.1584702445647317,0.7094880033172627,-2.2721022816001817,5759.507486979167,12.022444444444444,0.2422222222222222,179.2280661358804,5.879709057168932,72.2627775947907,1525.0,1435.0,1200.0,1232.0,1475.0,1021.7000000000002,185.0,294.15,1637171719.4382813,1637171720.6561384,727febf3-a61d-4360-9938-914a9638b5b8
0.1582813264689158,0.1491183291575069,0.7498767353051156,0.2100817091618703,0.5565635260557226,-0.4004150346458044,0.3681262892215114,0.3385554211569321,-9.583853152362948,24.70044792121027,-4.5896672474486975,-1.1781536911529262,0.6898861940139502,-2.3077852879927234,5756.49853515625,12.023333333333332,0.25,179.2203404330192,5.895856525572357,72.22597122317332,1525.0,1435.0,1200.0,1232.0,1475.0,1021.7000000000002,185.0,294.15,1637171720.7646074,1637171721.9929397,727febf3-a61d-4360-9938-914a9638b5b8
-0.1682035479261451,-0.0193219478609628,-0.2018696917947648,0.2937265880601445,-0.3028544307303053,-0.2639151092423775,-0.594618588836365,-0.6234087653674582,-14.915659811755171,25.05623057671437,-5.044196396731365,-1.1078909286929437,0.029270352051776,1.5066881163029897,5760.3671875,12.027,0.24,179.30766971392717,5.893763831501655,72.41479939187741,1525.0,1435.0,1200.0,1602.0,1475.0,1021.7000000000002,185.0,294.15,1637171723.5795605,1637171724.5236628,e8817686-f3be-4e58-ba13-867a1d5357b8
-0.1677997969842202,-0.020420054619839,-0.2145777175082732,0.299607770862913,-0.3031599236261972,-0.2667580388301601,-0.6132977233636115,-0.6484705011428505,-16.43046952040754,24.70246271498441,-4.939982039875265,-1.131269727566803,0.0334138653584808,1.550173285062758,5761.658365885417,12.028,0.23,179.31269217969688,5.872693551685813,72.3794531629226,1525.0,1435.0,1200.0,1602.0,1475.0,1021.7000000000002,185.0,294.15,1637171724.6331737,1637171725.6794567,e8817686-f3be-4e58-ba13-867a1d5357b8
-0.1583420248867975,-0.0190617132317477,-0.2067182740539905,0.3013555707291913,-0.3054156875733126,-0.273475308473261,-0.6066167780443258,-0.6201078945068152,-15.458331667219662,25.22802992340492,-5.432133761565834,-1.1460206437032705,0.0362818154843068,1.5329698724786631,5794.996256510417,12.030555555555557,0.23,179.31169800771764,5.903926441508596,72.35350072080627,1525.0,1435.0,1200.0,1602.0,1475.0,1021.7000000000002,185.0,294.15,1637171725.787679,1637171727.0007312,e8817686-f3be-4e58-ba13-867a1d5357b8
-0.2508211977474303,-0.0698622508167428,-0.4355193215635406,0.3587167541618362,-0.4995507482539262,-0.2642027370350235,-0.8517030990816687,-0.8753022823707678,-18.0907509072174,25.440837241946515,-5.494104045604284,-1.265893724268419,-0.1566337763380285,2.4505609768027803,5842.826171875,12.026,0.23,179.3543199059583,5.903222362841654,72.36741153941585,1525.0,1435.0,1200.0,1676.0,1475.0,1021.7000000000002,185.0,294.15,1637171727.5817518,1637171728.5519,80992bc0-b597-4c31-b3dd-22be07bad5fd
-0.2442194557106537,-0.055741098350483,-0.4232608989518959,0.343362913048925,-0.4914423835255702,-0.2660791658407351,-0.8357055105703273,-0.869481242243222,-17.68409677244141,25.117317416574465,-5.693178542894198,-1.2368371051974802,-0.1021226563352247,2.401740775662393,5850.802734375,12.025666666666666,0.2333333333333332,179.33074209294347,5.911085333532416,72.30039144654997,1525.0,1435.0,1200.0,1676.0,1475.0,1021.7000000000002,185.0,294.15,1637171728.660285,1637171729.7868109,80992bc0-b597-4c31-b3dd-22be07bad5fd
-0.2487643317465738,-0.0672265564158338,-0.4255142810296662,0.356475878251356,-0.4919009205167941,-0.2650429912497241,-0.8378118040981902,-0.8565201263932324,-17.594934141677847,25.296620057538654,-5.448704129297978,-1.2629280510217082,-0.1497522471600278,2.407494648765732,5862.80859375,12.024666666666668,0.23,179.34072782951003,5.9070239322971965,72.25313109095292,1525.0,1435.0,1200.0,1676.0,1475.0,1021.7000000000002,185.0,294.15,1637171729.900851,1637171731.0087435,80992bc0-b597-4c31-b3dd-22be07bad5fd
-0.3120585197250316,-0.0907084139727363,-0.6348180016898769,0.4049563324090892,-0.6817972147311163,-0.2759954755815588,-1.0687388962428006,-1.1064181589397428,-19.198374603323867,25.850684560068327,-5.623090540777953,-1.4044836692024605,-0.2441574748865667,3.276224346554012,5861.028862847223,12.023444444444443,0.24,179.37711755958804,5.91620835486488,72.18162204598252,1525.0,1435.0,1200.0,1750.0,1475.0,1021.7000000000002,185.0,294.15,1637171732.560531,1637171733.6713972,72f32abf-4bfa-4d95-9230-d520200b9699
-0.3211804290072778,-0.0992824600906423,-0.6411184208329832,0.4111197832545792,-0.685276141848361,-0.2723384939429898,-1.0739846818752945,-1.1087191834590635,-19.27931337665322,25.868622684870903,-5.534966101359679,-1.4103906780112132,-0.2776815022279228,3.296096725312262,5826.959635416667,12.027,0.24,179.37854431021464,5.904739660906651,72.14486348568933,1525.0,1435.0,1200.0,1750.0,1475.0,1021.7000000000002,185.0,294.15,1637171733.7791646,1637171734.9062328,72f32abf-4bfa-4d95-9230-d520200b9699
-0.3144965073930354,-0.0893798476834083,-0.6286408516046682,0.4062848984797713,-0.6812630486684018,-0.2779814768449859,-1.0627397994916723,-1.0851336907428315,-18.64638691813077,26.13038760560818,-5.505949330377118,-1.4094851031267543,-0.2438868292359892,3.2591440679482573,5810.699273003473,12.02588888888889,0.24,179.38813086016975,5.913074626128182,72.10350972590453,1525.0,1435.0,1200.0,1750.0,1475.0,1021.7000000000002,185.0,294.15,1637171735.0196164,1637171736.125075,72f32abf-4bfa-4d95-9230-d520200b9699
-0.374569623486151,-0.1091439828186684,-0.804641700764367,0.4685768417143742,-0.8312678234705624,-0.3098533732584818,-1.268270519016099,-1.3008546628076538,-21.182902195691263,26.501314907256823,-6.094928707799504,-1.6292963215666196,-0.3136621077007988,3.991394410771151,5803.267578125,11.999333333333333,0.31,179.4043578718179,5.892228461894479,72.07196259994807,1525.0,1435.0,1200.0,1824.0,1475.0,1021.7000000000002,185.0,294.15,1637171738.267557,1637171739.4053552,7b5e07f2-bfad-4af8-ae8c-cc52c3794475
-0.3705976208687556,-0.1220735349458088,-0.8076960348061301,0.4810407089267854,-0.8347741442241352,-0.305566349734479,-1.2662708198115042,-1.2855555937025034,-20.49209196052708,26.6043267351187,-5.664120457552257,-1.6468310360489145,-0.3725898672633087,3.997079640822915,5799.34130859375,11.996444444444444,0.3088888888888889,179.39098284360315,5.868001306589752,71.93062170090346,1525.0,1435.0,1200.0,1824.0,1475.0,1021.7000000000002,185.0,294.15,1637171739.5140457,1637171740.6178465,7b5e07f2-bfad-4af8-ae8c-cc52c3794475
-0.3794592959652618,-0.1258674819498839,-0.8015599737581951,0.4857660212246218,-0.8305829953020986,-0.3082782687758614,-1.2596142864971815,-1.2851720897544725,-20.15287172107549,26.7460418777792,-5.913647446992274,-1.6622082666114355,-0.3871992314190601,3.972939023245706,5796.72705078125,11.996,0.3166666666666666,179.39785097826856,5.879515345414971,71.81834401568715,1525.0,1435.0,1200.0,1824.0,1475.0,1021.7000000000002,185.0,294.15,1637171740.7261631,1637171741.9548523,7b5e07f2-bfad-4af8-ae8c-cc52c3794475
-0.110719087348597,-0.0099671981001257,-0.0273618279685271,0.2711409642772421,-0.1057883257793929,-0.2683938845636638,-0.3808289518963375,-0.4169604824196216,-14.826400308369864,21.440401052156087,-5.79594880730491,-1.0823630480547235,0.084169676759017,0.6974326765303059,7863.6943359375,11.81,7.309999999999999,178.5192882987893,5.6412316742055975,61.51516985399272,1525.0,1435.0,1350.0,1528.0,1475.0,1021.7000000000002,185.0,294.15,1637171745.0862114,1637171746.0513546,d1771491-607b-45dc-ade7-260f3c31b540
-0.0928861669940178,0.0047155129471706,-0.0192123754275685,0.2608137596648512,-0.101569785508539,-0.2719412937627014,-0.3717618284261874,-0.3971963434535218,-14.555353217167283,21.24679083806797,-5.539953193430016,-1.0677393385455696,0.1368363311165242,0.6699847493067715,7860.490776909723,11.81388888888889,7.338888888888889,178.32879735847726,5.54564440999987,56.92094176707165,1525.0,1435.0,1350.0,1528.0,1475.0,1021.7000000000002,185.0,294.15,1637171746.1599224,1637171747.3926733,d1771491-607b-45dc-ade7-260f3c31b540
-0.0923246080296275,0.0110159300105615,-0.018349492163208,0.2525547353091562,-0.1013780336325757,-0.2705716376448376,-0.3728986429755305,-0.3922107951660122,-14.85884356653322,21.25143164230677,-5.548291518442032,-1.0461115711067843,0.163760301752594,0.6706299851162347,7826.992567274306,11.815333333333337,7.371111111111111,178.22996755682678,5.476334543646603,52.495628052874544,1525.0,1435.0,1350.0,1528.0,1475.0,1021.7000000000002,185.0,294.15,1637171747.5003932,1637171748.6208718,d1771491-607b-45dc-ade7-260f3c31b540
0.075376058964009,0.3240096771837061,-0.0214860041762876,0.1003859746572009,-0.17438069614295,-0.4287669167625366,-0.44677789520354,-0.4689663266668781,-15.023184710551972,20.463930811036537,-4.646442230549829,-1.0636576240561963,1.3493702888043428,0.9175442771520302,7813.51513671875,11.797555555555554,7.428888888888888,178.16428997558776,5.460832385824137,47.1258972519506,1593.0,1435.0,1350.0,1528.0,1529.0,1021.7000000000002,185.0,294.15,1637171749.7363603,1637171750.8741806,d3a14e58-8f24-407a-9b0f-ea8bc3fc3839
0.0784440880759295,0.3265846300225357,-0.018746692412663,0.1023993687781805,-0.1732164886055918,-0.4350810316637863,-0.4456273841117972,-0.4674460078419369,-14.889697127490564,20.52303467006328,-4.908105644331038,-1.0818343175181833,1.3603290196557805,0.9106157820467292,7820.64404296875,11.798,7.41,178.29038133894545,5.546715516470961,45.04435308561456,1593.0,1435.0,1350.0,1528.0,1529.0,1021.7000000000002,185.0,294.15,1637171750.981619,1637171752.0985873,d3a14e58-8f24-407a-9b0f-ea8bc3fc3839
0.0791858936771425,0.3256713435587909,-0.0309870331931811,0.1013808926736821,-0.1849845727591215,-0.4336264567588557,-0.4589902975377133,-0.4851825072650569,-15.0129232720846,20.58287380132116,-5.060407083032064,-1.0765673739781505,1.3584760870153758,0.9619102317000556,7823.821343315973,11.797888888888888,7.445555555555554,178.40748569117522,5.560434852624447,43.334101417655006,1593.0,1435.0,1350.0,1528.0,1529.0,1021.7000000000002,185.0,294.15,1637171752.206608,1637171753.218795,d3a14e58-8f24-407a-9b0f-ea8bc3fc3839
0.2971096377906698,0.7435763189540774,-0.0133228550846866,-0.1180878362203322,-0.2694622162078179,-0.638242142646342,-0.5302447442924475,-0.5493103607710467,-14.40136317343387,19.73372413459165,-4.867175576965292,-1.0457093702536409,2.947959462548319,1.20403571092739,7842.10986328125,11.779999999999998,7.470000000000001,178.55584347122718,5.710019789997266,39.9686311926084,1661.0,1435.0,1350.0,1528.0,1583.0,1021.7000000000002,185.0,294.15,1637171755.083542,1637171756.1955805,364d0417-8df1-4b4e-97c4-b47f2e9c0e08
0.305697379524064,0.743521532721474,-0.009405639239563,-0.109774024655858,-0.262956350057379,-0.6467066188493402,-0.5308473931143722,-0.5445987425658982,-14.787696735174752,19.77303455831017,-4.975364724387176,-1.0832401721771137,2.9506726216516737,1.1903203029672331,7846.897298177083,11.784333333333333,7.476666666666666,178.68459253708193,5.799105378159311,38.86633542158158,1661.0,1435.0,1350.0,1528.0,1583.0,1021.7000000000002,185.0,294.15,1637171756.303008,1637171757.427644,364d0417-8df1-4b4e-97c4-b47f2e9c0e08
0.3006687860975329,0.7401795727470308,-0.0105796300010449,-0.1073164705784133,-0.2643807923042376,-0.6468514110278771,-0.5327864349680149,-0.549551033018373,-14.77475293116794,19.89933145519681,-5.153211334008289,-1.0883522331399842,2.939248016454301,1.1959450568047167,7849.291015625,11.783333333333337,7.512222222222222,178.82490435429156,5.84757557844496,37.993062723614464,1661.0,1435.0,1350.0,1528.0,1583.0,1021.7000000000002,185.0,294.15,1637171757.5357444,1637171758.6558046,364d0417-8df1-4b4e-97c4-b47f2e9c0e08
0.5227467260120441,1.1390781158119945,0.0020446839784381,-0.293828397530414,-0.3445878513550143,-0.8579624299601303,-0.613218521574815,-0.6403377185034929,-14.67443932414403,19.186033345481068,-4.270605075704437,-1.145930414099222,4.450579396603285,1.4507389463061606,7858.088107638889,11.767222222222223,7.586666666666667,178.95569336997843,5.957452072713048,36.49705549662546,1729.0,1435.0,1350.0,1528.0,1636.0,1021.7000000000002,185.0,294.15,1637171760.5944602,1637171761.727784,05819813-9713-442a-9102-b14b4b2d565f
0.5196786971939934,1.15458261958262,-0.0114875162384374,-0.3001014221284435,-0.3632836571665147,-0.8691388271164673,-0.6349823605116692,-0.6597594443705331,-14.79477394955227,19.45560921599404,-4.659226733876296,-1.1559041483486092,4.512945801341357,1.5267143932010931,7890.241861979167,11.769444444444446,7.517777777777777,179.05759523893556,6.00984683329117,36.02790232455077,1729.0,1435.0,1350.0,1528.0,1636.0,1021.7000000000002,185.0,294.15,1637171761.8364754,1637171762.973404,05819813-9713-442a-9102-b14b4b2d565f
0.5270474450284331,1.1539525779163176,-0.0097617497433762,-0.299238538864879,-0.3618318216156579,-0.8718644438505723,-0.6322430477882763,-0.6602799144226799,-14.622985768234136,19.40083234658529,-5.004356446644589,-1.164221159027961,4.512427999465263,1.5180715061047636,7914.5205078125,11.770444444444443,7.466666666666665,179.13446674131436,6.035829015189504,35.707027626442645,1729.0,1435.0,1350.0,1528.0,1636.0,1021.7000000000002,185.0,294.15,1637171763.0813992,1637171764.1865485,05819813-9713-442a-9102-b14b4b2d565f
0.7217440066806627,1.5123093457703871,0.0106187297826761,-0.4760885375509349,-0.4348618865595782,-1.0495089149166488,-0.7001916999295851,-0.7132582239751474,-14.415667442713763,19.66522184585666,-3.681164304947307,-1.161398971454216,5.86635950902474,1.730217947049984,7926.721516927083,11.747666666666667,7.58,179.2103896063084,6.095643590504114,35.152457626427584,1796.0,1435.0,1350.0,1528.0,1690.0,1021.7000000000002,185.0,294.15,1637171766.1210792,1637171767.258725,e6a53e30-2297-4403-b414-d490aefdf92f
0.7237217895434518,1.5057799217358037,0.0124562601040984,-0.4783188857979426,-0.4315884083721921,-1.041675026182609,-0.6958246875497633,-0.7241601399178015,-14.499528424791706,19.65587940757448,-3.74447482741523,-1.1387867992199323,5.84341580080729,1.7160831777005572,7914.5205078125,11.75,7.559999999999999,179.27194782456797,6.118848019844371,34.93905405763485,1796.0,1435.0,1350.0,1528.0,1690.0,1021.7000000000002,185.0,294.15,1637171767.3673306,1637171768.5759346,e6a53e30-2297-4403-b414-d490aefdf92f
0.7219494550277533,1.5057623901611947,0.0056468789278868,-0.4753489232967219,-0.4356562871541343,-1.0451534063503836,-0.7020681292957235,-0.7255303452640285,-14.563281372103868,19.44570757729652,-3.899904986368712,-1.155091875908954,5.844377939223452,1.7396414159967966,7914.5205078125,11.747,7.59,179.32216641098557,6.138458536452601,34.79706391116412,1796.0,1435.0,1350.0,1528.0,1690.0,1021.7000000000002,185.0,294.15,1637171768.6845253,1637171769.9182985,e6a53e30-2297-4403-b414-d490aefdf92f
-0.3372054051906264,-0.4310131527199556,-0.0247046955499486,0.474507451042101,-0.0109533504055466,-0.0587680379942251,-0.2830355076129534,-0.3201257944327715,-14.395209086511713,22.55693871425107,-7.649680497118029,-1.0625952245415544,-1.5064823187281895,0.3734703220983317,7928.350206163194,11.80788888888889,7.437777777777778,179.92459061360051,6.120757579467952,34.481116435632266,1457.0,1435.0,1350.0,1528.0,1421.0,1021.7000000000002,185.0,294.15,1637171771.5786006,1637171772.5834265,873e48bb-bf28-426c-9aa3-7fbb0528f4a0
-0.3376436951793293,-0.4365191704546558,-0.0308681470656531,0.4746170234973969,-0.0155964838392224,-0.0553712912868716,-0.2870759929460152,-0.3118941612604874,-14.364389811728556,22.50160506281163,-7.957994442578477,-1.0559167953481758,-1.5250239444922002,0.3928928357624879,7918.584364149306,11.807444444444446,7.396666666666666,179.9513239740119,6.115746449915016,34.424682377069985,1457.0,1435.0,1350.0,1528.0,1421.0,1021.7000000000002,185.0,294.15,1637171772.691314,1637171773.8124137,873e48bb-bf28-426c-9aa3-7fbb0528f4a0
-0.3366027565340221,-0.4346701346562806,-0.0332924380276205,0.4825062405566268,-0.0180070782491878,-0.0651095448541643,-0.2941982044490172,-0.3282889446714528,-14.472398182929249,22.637684733614226,-8.089812504007742,-1.0948900983534555,-1.5172788899697054,0.4095968462515632,7914.5205078125,11.807666666666668,7.453333333333333,179.94952080407106,6.134729869780075,34.34817515144695,1457.0,1435.0,1350.0,1528.0,1421.0,1021.7000000000002,185.0,294.15,1637171773.921502,1637171775.040592,873e48bb-bf28-426c-9aa3-7fbb0528f4a0
-0.4921956945371757,-0.7097519015447119,-0.0467835486768547,0.576464623777342,0.0276846419770392,0.1187256663169835,-0.2344264150237331,-0.2688321751618519,-14.50374488381222,23.200938673696346,-7.801308923030369,-0.890642604198125,-2.563751899945469,0.2483433791808857,7900.747992621527,11.78288888888889,7.57888888888889,-179.9725005960786,6.123648741625376,34.249664850867674,1389.0,1435.0,1350.0,1528.0,1367.0,1021.7000000000002,185.0,294.15,1637171777.1798832,1637171778.3175075,7cc9acec-2ef5-4bd8-9963-f28207c9195a
-0.4646519084760047,-0.6927270725658085,-0.0289369322630111,0.5607135829006303,0.0401485103768817,0.1167944516207239,-0.2163606522835515,-0.2429730693207522,-14.337634273825728,23.077991865472256,-7.627590492778736,-0.8592668916141767,-2.499545206906867,0.1836519791414093,7870.9150390625,11.783888888888889,7.573333333333333,-179.95964618006064,6.103702075359869,34.21718578354445,1389.0,1435.0,1350.0,1528.0,1367.0,1021.7000000000002,185.0,294.15,1637171778.4263809,1637171779.542633,7cc9acec-2ef5-4bd8-9963-f28207c9195a
-0.4639533837532667,-0.6980413393319104,-0.0302654984978123,0.5655895572972475,0.0392171443802754,0.1169451137336486,-0.2159086658139144,-0.2418773447988179,-14.113805074331902,23.08405626555032,-7.712700142747256,-0.869854186488007,-2.5209912796767084,0.185521709607235,7861.291666666667,11.782,7.576666666666666,-179.96929647844797,6.095680160475296,34.183352820945736,1389.0,1435.0,1350.0,1528.0,1367.0,1021.7000000000002,185.0,294.15,1637171779.6509717,1637171780.7777765,7cc9acec-2ef5-4bd8-9963-f28207c9195a
-0.7079713485792473,-1.1285244175458888,-0.0205957279113513,0.777927284645056,0.1388048207905948,0.3452256449095052,-0.1129927161170216,-0.131935058626117,-13.812892130762478,24.86410537578317,-7.016745527259069,-0.823315180547378,-4.169362689283641,-0.1595968981115481,7857.287217881944,11.772666666666666,7.573333333333333,-179.8552672291645,6.074445956119373,34.16640484488522,1321.0,1435.0,1350.0,1528.0,1314.0,1021.7000000000002,185.0,294.15,1637171782.597337,1637171783.6473134,1554943b-c0e8-4365-a880-2d0e5588ec5c
-0.7142854645483986,-1.143755002154393,-0.0331554724272692,0.7871998539747252,0.1321482934953305,0.3496222398629524,-0.124716970960088,-0.1600814891228557,-14.124606764322827,24.86973018944886,-7.391052163395368,-0.8351567689645553,-4.222900709053736,-0.1192271363372277,7870.9150390625,11.770666666666664,7.596666666666668,-179.86785906235437,6.0721110274924825,34.19772923078376,1321.0,1435.0,1350.0,1528.0,1314.0,1021.7000000000002,185.0,294.15,1637171783.7805452,1637171784.8732624,1554943b-c0e8-4365-a880-2d0e5588ec5c
-0.7127651459868029,-1.1379202637792096,-0.0250060198477424,0.7784888434978875,0.1385034965232645,0.3533203104809021,-0.1155402760980487,-0.1342223843739086,-14.13144183663909,24.81076727636597,-7.12564092319647,-0.8071430215443773,-4.201732705114395,-0.1510340280295141,7870.9150390625,11.768,7.639999999999999,-179.89731994497436,6.059592713699926,34.233399893724155,1321.0,1435.0,1350.0,1528.0,1314.0,1021.7000000000002,185.0,294.15,1637171784.986592,1637171786.100168,1554943b-c0e8-4365-a880-2d0e5588ec5c
-0.8570584564775224,-1.4199052654826323,-0.0136378759187207,0.9319998588965296,0.2093147019802722,0.4947783559304768,-0.046947907396886,-0.0834355416109752,-13.963970643831924,26.124674569181508,-5.908199106976689,-0.8259966701024127,-5.289480912008121,-0.3921176554977916,7878.1494140625,11.743666666666668,7.680000000000001,-179.80731171209194,6.052550219483212,34.36096619848762,1254.0,1435.0,1350.0,1528.0,1260.0,1021.7000000000002,185.0,294.15,1637171788.0650065,1637171789.2118428,d7cba05e-ce8f-409c-9b68-9ef6ce8c6114
-0.863098641943335,-1.4216310336122189,-0.0165826360769236,0.9218370131533616,0.2058357762535192,0.5042289805525645,-0.0479751492982243,-0.0677118917805882,-14.0655691126293,26.148100286819105,-6.150351243918099,-0.7819160446391077,-5.292023335456423,-0.3826227527980868,7882.980794270833,11.748333333333331,7.63,-179.8283851224111,6.012600016140984,34.36686862029537,1254.0,1435.0,1350.0,1528.0,1260.0,1021.7000000000002,185.0,294.15,1637171789.3207166,1637171790.4020176,d7cba05e-ce8f-409c-9b68-9ef6ce8c6114
-0.8645778710011892,-1.4177275103777784,-0.012583240898825,0.9252885456654484,0.2087257499788496,0.4971889500577494,-0.0449482097470341,-0.0728070117850233,-13.89126342708836,26.12213881448267,-6.129182500992968,-0.805403587973427,-5.278975918322383,-0.3956553363721082,7885.396484375,11.743000000000002,7.688888888888889,-179.8483201678687,6.006139937846623,34.38874799293664,1254.0,1435.0,1350.0,1528.0,1260.0,1021.7000000000002,185.0,294.15,1637171790.5109563,1637171791.630677,d7cba05e-ce8f-409c-9b68-9ef6ce8c6114
-0.0768201029824699,0.0328208515256558,-0.0258141167853454,0.2326262435626209,-0.1122531017996896,-0.2757215443709488,-0.3803906619335129,-0.3944296383670346,-14.79697424023138,20.87932579879584,-5.905141195501057,-1.0155944677987236,0.2502409643319166,0.7084407085165365,7885.396484375,11.807,7.413333333333333,179.71864674974626,5.995540764915232,34.56220292363884,1525.0,1435.0,1350.0,1528.0,1475.0,1021.7000000000002,185.0,294.15,1637171793.6568167,1637171794.699056,62f97d1d-a865-4ca7-9739-70908cd7c533
-0.088421088704207,0.0272052624578626,-0.0292382565435518,0.2411181094767703,-0.1127324813800135,-0.2747490886268967,-0.381678138700019,-0.4094821592161738,-14.723291984067645,20.75717450803951,-5.454803585540667,-1.0334361776548555,0.2234015810457235,0.7157260058720545,7885.396484375,11.809333333333331,7.453333333333333,179.6997498930426,6.00267361684284,34.61234106560618,1525.0,1435.0,1350.0,1528.0,1475.0,1021.7000000000002,185.0,294.15,1637171794.8076973,1637171795.9339218,62f97d1d-a865-4ca7-9739-70908cd7c533
-0.0993920326887483,0.0158919049467543,-0.0377438196605385,0.2510070242859647,-0.1162661937000193,-0.2762831034001844,-0.3911835521361846,-0.414056811108854,-15.02700137994755,20.77306939023356,-6.021778594865634,-1.0597516925202843,0.186387802706451,0.7433659583840541,7885.396484375,11.807333333333332,7.506666666666667,179.69650782991656,5.990296744884346,34.6817688001545,1525.0,1435.0,1350.0,1528.0,1475.0,1021.7000000000002,185.0,294.15,1637171796.046817,1637171797.2581203,62f97d1d-a865-4ca7-9739-70908cd7c533
-0.0773953584623829,0.0063317069032266,-0.0643425374167106,-0.2571900982505271,-0.1979250825180756,0.2260929854531063,-0.2761872273583248,-0.3093055114562833,-14.48114335644391,20.01208190424269,-2.1178841455418875,1.2100506147520649,0.1729385010713653,0.727702482488055,7885.396484375,11.805666666666667,7.524444444444445,179.64434643413506,6.13629256014393,34.792143898232,1525.0,1535.0,1350.0,1528.0,1475.0,1021.7000000000002,185.0,294.15,1637171799.0947924,1637171800.2322254,ced8c206-6dd5-4636-bc5d-17fe5e827bd8
-0.0662737523807482,0.0151796838876142,-0.0567409470936316,-0.2589158647991316,-0.1918848995903685,0.2162999465178144,-0.2720234729950494,-0.2951021785360537,-14.560745066091648,19.995360054273583,-2.457389762722539,1.1921107238473645,0.2103903208404963,0.703713258857821,7885.396484375,11.805333333333332,7.483333333333332,179.61842055386555,6.13140475345101,34.7792970713131,1525.0,1535.0,1350.0,1528.0,1475.0,1021.7000000000002,185.0,294.15,1637171800.3414853,1637171801.460385,ced8c206-6dd5-4636-bc5d-17fe5e827bd8
-0.0758202541500726,0.0110433231267267,-0.0603979283788254,-0.2646273305418593,-0.1949529289974481,0.2248876883363351,-0.273228770309663,-0.3041008193263977,-14.619548705270054,19.983407763203783,-2.5785753486903644,1.223981949394075,0.1968378834589491,0.7138352627381982,7883.786024305556,11.80777777777778,7.453333333333333,179.62514297782863,6.133791145656021,34.818686013346664,1525.0,1535.0,1350.0,1528.0,1475.0,1021.7000000000002,185.0,294.15,1637171801.5682344,1637171802.6900957,ced8c206-6dd5-4636-bc5d-17fe5e827bd8
-0.0629675221470605,-0.0045987425613264,-0.1079589327066345,-0.7995090619722596,-0.2980147807883605,0.75748249312782,-0.1749601202031373,-0.1951690979866329,-14.523826645388812,19.36218106100881,1.1365876088552649,3.6215097234763975,0.167395474128127,0.778105724520169,7899.124294704861,11.796,7.48888888888889,179.5994948585853,6.325975024244824,34.8454736358165,1525.0,1636.0,1350.0,1528.0,1475.0,1021.7000000000002,185.0,294.15,1637171803.5998802,1637171804.6293364,ab41f2cb-a44e-4b70-a83a-7c7f0af223ce
-0.0493311087583151,0.0045374577186742,-0.0885032678857985,-0.7972729488873443,-0.2817069412093323,0.7480277000788459,-0.1545480776890176,-0.1839271991127458,-14.04947320319716,19.218198177087874,1.510282460188493,3.595532046647087,0.1959480050159213,0.7023542166930076,7892.65771484375,11.798666666666668,7.468888888888888,179.5837990838726,6.319877135703949,34.86514002716669,1525.0,1636.0,1350.0,1528.0,1475.0,1021.7000000000002,185.0,294.15,1637171804.737368,1637171805.8538315,ab41f2cb-a44e-4b70-a83a-7c7f0af223ce
