raw_voltage_G-,raw_voltage_G0,raw_voltage_G1,raw_voltage_G2,raw_voltage_G3,raw_voltage_G4,raw_voltage_G5,raw_voltage_G6,load_x,load_y,load_z,load_l,load_m,load_n,rpm,voltage,current,roll,pitch,yaw,aileron1_pwm,elevator_pwm,throttle_pwm,rudder_pwm,aileron2_pwm,pbaro,pdiff,Tt,sample_start_time,sample_end_time,uid
0.0498319772093422,0.2163684292798347,-0.0559465468309475,-0.0341964111101372,-0.1170058081434526,0.2842759631433474,-0.2125940984100338,-0.2370835483579991,-13.727600431857,10.830667244322877,64.94341400589282,0.7883990401464701,0.333929180511082,0.6417487169266562,5732.543565538194,12.038777777777776,0.2899999999999999,178.59798118494672,-11.229892615598208,109.90202627411476,1525.0,1435.0,1200.0,1528.0,1475.0,1021.7000000000002,187.0,294.71,1637175307.5170586,1637175308.7339096,c7486bab-600a-49fa-aede-a906d3cf4ee9
0.0615288382771152,0.2158205670307747,-0.0570559680156047,-0.0384286479685095,-0.1179645671849847,0.2815640446271649,-0.2246196781522781,-0.2573955469824753,-14.756839251638068,11.364129892832102,63.8767096755453,0.7946449017233067,0.349073031629521,0.65914210095878,5722.338270399306,12.03788888888889,0.29,178.770315964625,-11.269616711219786,109.66142603041187,1525.0,1435.0,1200.0,1528.0,1475.0,1021.7000000000002,187.0,294.71,1637175308.8683567,1637175309.964137,c7486bab-600a-49fa-aede-a906d3cf4ee9
0.0486546210882673,0.1944473621614188,-0.0681978450263627,-0.0193109909327548,-0.1289053790280362,0.2856204171405292,-0.2090203919904742,-0.2450741222390723,-11.98178582787495,10.45662008716065,63.99207026858678,0.755479859079915,0.2451714154644145,0.6670787191252967,5718.09619140625,12.038666666666668,0.29,178.88723058937785,-11.32507604486926,109.4639151734529,1525.0,1435.0,1200.0,1528.0,1475.0,1021.7000000000002,187.0,294.71,1637175310.0717237,1637175311.188537,c7486bab-600a-49fa-aede-a906d3cf4ee9
0.2433643449436187,0.5165558821408908,-0.0119668958348992,-0.2005274291704778,-0.1525346835527674,0.1223141644941074,-0.2329882764084051,-0.2525195728640873,-12.814637484609728,10.379770695606254,62.05193855277224,0.7988507681940783,1.5022393247790562,0.6908378371454859,5706.67578125,12.029222222222224,0.32,179.03194863751207,-11.378030786095582,109.00559202521718,1593.0,1435.0,1200.0,1528.0,1529.0,1021.7000000000002,187.0,294.71,1637175313.122029,1637175314.1557448,52a2971b-1e3e-4386-8b04-42eded324298
0.2233262807282763,0.4931621622003967,-0.0179248988824285,-0.1828725634066797,-0.1557259818576178,0.1408593044679896,-0.2235376498153322,-0.2408364059672131,-11.612672487952064,10.138777621389314,63.749777524017,0.7996805651417116,1.3883880504385673,0.6905085164078993,5691.51806640625,12.029444444444444,0.3255555555555556,179.08230230989324,-11.358626123799835,108.84380305761736,1593.0,1435.0,1200.0,1528.0,1529.0,1021.7000000000002,187.0,294.71,1637175314.2912228,1637175315.2898655,52a2971b-1e3e-4386-8b04-42eded324298
0.2382692253670092,0.5265543689945938,-0.0121449510000592,-0.1942954945067121,-0.1551644229250611,0.1191228663960564,-0.2346592566327605,-0.2460274028330815,-12.557750974146872,10.39768622177872,63.79698989018457,0.7781391571197548,1.5216769355050423,0.7009394610526849,5686.486111111111,12.033,0.32,179.12580606144675,-11.378324199638676,108.65960120371112,1593.0,1435.0,1200.0,1528.0,1529.0,1021.7000000000002,187.0,294.71,1637175315.4218457,1637175316.5102408,52a2971b-1e3e-4386-8b04-42eded324298
0.4329252505658351,0.848765879263433,0.0415937710618482,-0.388329189726011,-0.1992246124134943,-0.0322887551915851,-0.2462049094247515,-0.2755528035573823,-10.725689582765954,10.590751086988268,61.90500306355559,0.8801658037997093,2.7612674769771424,0.739957594907174,5678.11328125,12.021555555555556,0.3555555555555555,179.15203398785965,-11.367983482962757,108.3703563527394,1661.0,1435.0,1200.0,1528.0,1583.0,1021.7000000000002,187.0,294.71,1637175317.6279762,1637175318.7680771,c694bf8a-d615-4a16-8dfc-c1267e740c98
0.4292403287777795,0.8377401505323135,0.0387788544500331,-0.3723507808705258,-0.1915287891979682,-0.0329911140799734,-0.2544233931365233,-0.2852543508584534,-11.898352255132744,10.570500271008008,62.32480649149047,0.8417463553631407,2.72234732330312,0.7436003380423076,5677.27734375,12.024333333333333,0.3577777777777777,179.15731903645738,-11.322690980756583,108.21296375023536,1661.0,1435.0,1200.0,1528.0,1583.0,1021.7000000000002,187.0,294.71,1637175318.8993623,1637175319.9938698,c694bf8a-d615-4a16-8dfc-c1267e740c98
0.4449639767217663,0.8600518424902585,0.053721799877813,-0.3636808579453565,-0.1775446016311268,-0.0465917973114604,-0.2284684116673136,-0.2595322107790734,-10.529238953559338,9.501434549583951,64.79561715080838,0.7863667135330535,2.774302472947035,0.674886940802859,5676.44140625,12.024,0.35,179.18360615784306,-11.356281471639754,108.09123384211767,1661.0,1435.0,1200.0,1528.0,1583.0,1021.7000000000002,187.0,294.71,1637175320.102482,1637175321.093922,c694bf8a-d615-4a16-8dfc-c1267e740c98
0.6025017791573161,1.1578150073353697,0.10728904009069,-0.53339495384542,-0.2124571328090122,-0.204252893434428,-0.2611073145917251,-0.2767898770535193,-10.912365024419492,10.793168035485904,61.71081510986365,0.8254603565447088,3.9454607965131534,0.7252842514347866,5677.6953125,12.007666666666664,0.4166666666666667,179.17476333959763,-11.300859893758194,107.64671602401434,1729.0,1435.0,1200.0,1528.0,1636.0,1021.7000000000002,187.0,294.71,1637175323.157664,1637175324.384074,f3583f38-60fc-4b9e-a983-5e9d1e4a66ae
0.6128837695636541,1.1747302566760371,0.1008105679738251,-0.5520770651137451,-0.2286464668300297,-0.2091425652980566,-0.2690513196608842,-0.2822958950531027,-10.352348319601486,10.945149814953334,60.86641798429015,0.8574470941460315,4.014315520471115,0.7684974005496423,5667.68408203125,12.009,0.42,179.19018590674352,-11.30025712956394,107.43459311569096,1729.0,1435.0,1200.0,1528.0,1636.0,1021.7000000000002,187.0,294.71,1637175324.4926505,1637175325.7349718,f3583f38-60fc-4b9e-a983-5e9d1e4a66ae
0.6135959905402917,1.1733332077738208,0.1080697437484765,-0.5557888346992266,-0.2230993601892155,-0.2010478989351579,-0.2616962670489973,-0.2929792119214441,-10.420280859477668,11.140774772591092,61.39061417447649,0.8857173774397252,4.005831118887653,0.7409849067004673,5669.349934895833,12.009222222222222,0.4099999999999999,179.1793942078549,-11.290908877319916,107.21968121345654,1729.0,1435.0,1200.0,1528.0,1636.0,1021.7000000000002,187.0,294.71,1637175325.8674018,1637175327.045926,f3583f38-60fc-4b9e-a983-5e9d1e4a66ae
0.7491919074693696,1.3986963845514,0.1488307012320088,-0.6657859327714905,-0.2497802594852918,-0.3405199736948043,-0.3028818245489491,-0.3373423719201401,-11.502571072202286,12.883287769529886,58.54013006412748,0.833013278411161,4.900160580665263,0.8012151576160779,5668.93310546875,11.987555555555556,0.49,179.11539988879133,-11.267801967902807,106.78517569376652,1796.0,1435.0,1200.0,1528.0,1690.0,1021.7000000000002,187.0,294.71,1637175329.0972917,1637175330.439448,c279ea2d-6ac3-4f89-9537-4ecebaa06624
0.7599710980620076,1.414803538159365,0.1478171558943092,-0.6652654643669861,-0.2549575592290331,-0.3464779788739765,-0.2841312332317707,-0.3134692664863208,-9.21326592721323,11.687683829387575,60.07437758033698,0.8118714711082143,4.930622452867666,0.7891606698860882,5661.44384765625,11.988666666666669,0.48,179.09265991231462,-11.273189943656824,106.48419505998092,1796.0,1435.0,1200.0,1528.0,1690.0,1021.7000000000002,187.0,294.71,1637175330.548329,1637175331.668908,c279ea2d-6ac3-4f89-9537-4ecebaa06624
0.740762498253688,1.3955938398825487,0.1495577145557166,-0.6467274385360917,-0.2433647905626957,-0.343597317310774,-0.2919229324001026,-0.3213497190898511,-10.72435203595905,12.132382731121403,60.21421962467456,0.7788237381593426,4.865865540601103,0.7788881972518388,5658.537055121527,11.991555555555555,0.48,179.0756284561642,-11.235041439867535,106.25244218798296,1796.0,1435.0,1200.0,1528.0,1690.0,1021.7000000000002,187.0,294.71,1637175331.777465,1637175332.9037857,c279ea2d-6ac3-4f89-9537-4ecebaa06624
-0.1368384262761373,-0.1305380087254604,-0.0980908594386237,0.156761008486511,-0.0731220319075984,0.4376637115909747,-0.1860912549341873,-0.2051020806897436,-14.236063144913327,11.581351823756124,63.35976580660296,0.7046981213080171,-0.9757162104033488,0.5584917088356302,5653.97509765625,12.021222222222224,0.3555555555555555,179.45719621523708,-11.194700919673362,105.89477022517634,1494.6666666666667,1435.0,1200.0,1528.0,1450.888888888889,1021.7000000000002,187.0,294.71,1637175334.492892,1637175335.4466867,a8631007-7b8a-41e6-94bc-729d8ec34459
-0.1452070241453597,-0.1449467893898129,-0.1119928672690651,0.1445573750736412,-0.0876677779009434,0.4445119903365227,-0.1995275802102802,-0.2246607689246872,-14.375681869706346,11.882952839836287,60.62230203800026,0.7484159994525407,-1.0038813087640304,0.6104511327449753,5671.435872395833,12.029333333333334,0.33,179.45315274324847,-11.224442883550443,105.89075179721466,1457.0,1435.0,1200.0,1528.0,1421.0,1021.7000000000002,187.0,294.71,1637175335.5540707,1637175336.6834164,a8631007-7b8a-41e6-94bc-729d8ec34459
-0.1521648764378248,-0.1588898871216044,-0.1118969913169695,0.1507345228525277,-0.0845449623508331,0.4601808519627733,-0.1909398371145143,-0.2147033698085126,-14.032385890316531,11.736029231993284,61.74892761565584,0.7690750884068226,-1.069348374021751,0.5940963661385218,5681.040147569444,12.031,0.32,179.43154202471453,-11.218320283005696,105.9002776343771,1457.0,1435.0,1200.0,1528.0,1421.0,1021.7000000000002,187.0,294.71,1637175336.7985618,1637175337.9059744,a8631007-7b8a-41e6-94bc-729d8ec34459
-0.3374519433187488,-0.4730068110850109,-0.1526442559223784,0.3075190216594849,-0.0515499512854139,0.6245258432407611,-0.1639987039049423,-0.1960349581566048,-14.300693831928946,12.574128068033948,61.82052277135779,0.7881160806216435,-2.268085822083136,0.5292764360506137,5683.9697265625,12.015,0.3899999999999999,179.42973885477363,-11.182045907233666,105.9007648545379,1389.0,1435.0,1200.0,1528.0,1367.0,1021.7000000000002,187.0,294.71,1637175339.5127275,1637175340.4707973,9e71a643-6d43-418e-8e2d-5da281f74ef0
-0.3230568578686096,-0.4591048007556944,-0.1488229158240427,0.2876453163358698,-0.0528511244507056,0.618759592633779,-0.164519173208578,-0.1853379455059225,-14.503677842743429,12.67105244933527,60.349165967697296,0.8204848366049523,-2.19877678697802,0.5258317511094762,5686.484375,12.015333333333334,0.38,179.419671155937,-11.199984545315058,105.74423968605844,1389.0,1435.0,1200.0,1528.0,1367.0,1021.7000000000002,187.0,294.71,1637175340.578759,1637175341.6999114,9e71a643-6d43-418e-8e2d-5da281f74ef0
-0.3284806958659793,-0.4625700309386636,-0.1484941983335262,0.2943429331162735,-0.0482216874011559,0.6206223244211211,-0.1662997259742893,-0.1927477832949951,-15.017159706875496,12.66411288454144,61.004886433061095,0.8093788777805702,-2.214754741277603,0.5218213660510335,5685.647135416667,12.015444444444444,0.38,179.40951694137095,-11.197800876919164,105.59135045494712,1389.0,1435.0,1200.0,1528.0,1367.0,1021.7000000000002,187.0,294.71,1637175341.8081608,1637175342.9289331,9e71a643-6d43-418e-8e2d-5da281f74ef0
-0.5518853132816665,-0.8539904254903204,-0.2201819925404342,0.4643856951221519,-0.0358947842645129,0.8367950880991194,-0.1422622637062666,-0.1775035129013759,-14.09982722870153,13.547247006050824,59.27609117240343,0.9140441423385598,-3.6994551375516473,0.5204955959075072,5683.132703993056,11.998888888888889,0.43,179.5088703908578,-11.177799142253471,105.41115412753416,1321.0,1435.0,1200.0,1528.0,1314.0,1021.7000000000002,187.0,294.71,1637175343.5108478,1637175344.5648,48316196-8bb9-486a-bed4-5fc6af6f8bc4
-0.5285463707732153,-0.8165851054306636,-0.1867486897044659,0.4733021539927014,-0.00136575920208,0.8016360253703051,-0.1427279467926718,-0.1707921982591346,-16.75356302791356,14.23360351970203,60.78727256517293,0.8200434507723386,-3.552740191676977,0.4331536783569509,5677.696940104167,11.998666666666669,0.44,179.51897299955013,-11.190248679835635,105.20165401185209,1321.0,1435.0,1200.0,1528.0,1314.0,1021.7000000000002,187.0,294.71,1637175344.6734884,1637175345.6151552,48316196-8bb9-486a-bed4-5fc6af6f8bc4
-0.5362027490706999,-0.8470873564428277,-0.2120873256226315,0.4680837656308772,-0.0264304620632651,0.8240162000760392,-0.142399229286878,-0.1605882610974003,-14.74810696476095,13.651209038999276,58.93814697470621,0.8776983731309045,-3.665921265875325,0.496660965730838,5672.6845703125,11.999333333333333,0.4333333333333333,179.51536210620893,-11.161482484372485,104.98148514068642,1321.0,1435.0,1200.0,1528.0,1314.0,1021.7000000000002,187.0,294.71,1637175345.7251298,1637175346.8242426,48316196-8bb9-486a-bed4-5fc6af6f8bc4
-0.6703194945409973,-1.090516439675575,-0.2082248957033643,0.5889010977850834,0.0337933070840688,0.9325066314783091,-0.1008986540945642,-0.1140062619417371,-16.10884838404907,14.921218642230576,56.43740237407391,0.8564843320454348,-4.561742105649508,0.3168856004308678,5665.18603515625,11.973333333333334,0.5455555555555556,179.5712042150431,-11.16426901182637,104.55795725281249,1261.4444444444443,1435.0,1200.0,1528.0,1266.0,1021.7000000000002,187.0,294.71,1637175348.4905937,1637175349.4826355,5bde8671-44df-41d9-89a6-746196d92e65
-0.6807425795750199,-1.0877908225787654,-0.21001914494696,0.585983731094589,0.0351355699327242,0.9367662608507432,-0.109869900466596,-0.121347617933907,-17.18225103108174,15.116915868996813,57.00228370410176,0.8733948332191263,-4.548679869944711,0.3305462539003911,5663.107042100694,11.970555555555556,0.5544444444444445,179.63711857617338,-11.158349135090738,104.10817487667887,1254.0,1435.0,1200.0,1528.0,1260.0,1021.7000000000002,187.0,294.71,1637175349.5908196,1637175350.8148053,5bde8671-44df-41d9-89a6-746196d92e65
-0.6779621769805836,-1.0921052415948287,-0.2189082125032107,0.5791354524578988,0.0172615607065511,0.935752715577594,-0.1045556354492277,-0.1237445160623885,-15.079446692099635,14.888500183751374,55.33953252212088,0.8854019350262602,-4.564731998387842,0.3580787293660066,5661.859646267361,11.973666666666666,0.548888888888889,179.67485613024758,-11.160319549802548,103.7234356331014,1254.0,1435.0,1200.0,1528.0,1260.0,1021.7000000000002,187.0,294.71,1637175350.9503915,1637175352.0359523,5bde8671-44df-41d9-89a6-746196d92e65
0.0431584660658176,0.1991020004240501,-0.0506574835450599,-0.038626426342149,-0.1107075821957747,0.283424585075354,-0.2084812954376919,-0.2196971344604193,-14.003752584307588,11.13307606668979,61.87331921827856,0.7981185747917613,0.2992201408540839,0.6133295604299271,5658.121799045139,12.03588888888889,0.2788888888888889,179.30232547035655,-11.177262972403629,103.09678474950044,1525.0,1435.0,1200.0,1528.0,1475.0,1021.7000000000002,187.0,294.71,1637175354.0833328,1637175355.1096032,c8527bc6-0552-4d19-8e88-c891203d4f6e
0.0458873683406803,0.1886055062609374,-0.0464959209294207,0.0106461228386346,-0.0945708437037582,0.2700589362364322,-0.1993084351158206,-0.2317008004960321,-13.58995605267536,10.470286568656244,65.01645218399193,0.6534602127101353,0.2232517225968915,0.5767743330260554,5668.93310546875,12.041,0.27,179.16372120043945,-11.170696124971611,103.58169251180568,1525.0,1435.0,1200.0,1528.0,1475.0,1021.7000000000002,187.0,294.71,1637175355.2175713,1637175356.3366508,c8527bc6-0552-4d19-8e88-c891203d4f6e
0.0403539586836115,0.1669101581967658,-0.0588365207409172,0.0299993600803641,-0.0982552182806293,0.2764141388552515,-0.1998289044909273,-0.2178124885336723,-13.01322520953041,9.92772568132873,65.38509269158855,0.6202229337977494,0.1313574386054614,0.5980457032137346,5668.93310546875,12.045,0.28,179.0680256967081,-11.1395937202211,103.93771384556288,1525.0,1435.0,1200.0,1528.0,1475.0,1021.7000000000002,187.0,294.71,1637175356.4453182,1637175357.5665882,c8527bc6-0552-4d19-8e88-c891203d4f6e
0.0574883534979568,0.1778126184758983,-0.1000905572529286,-0.5116037232687897,-0.1986510003768865,0.7762563046670166,-0.1070758025862636,-0.1352633228413888,-13.275857477589517,9.227975559677082,67.26874842389923,2.9586340424485087,0.2214681254635157,0.6582921548847435,5668.93310546875,12.03411111111111,0.2911111111111111,178.95028234233598,-10.978061074442635,104.3916945113063,1525.0,1535.0,1200.0,1528.0,1475.0,1021.7000000000002,187.0,294.71,1637175358.5897243,1637175359.6103508,127a8ee3-004b-4cb0-a67b-2996e0ad8c2c
0.0579507493072744,0.1754606455427519,-0.1031602300088908,-0.5059180067947477,-0.2000924263092111,0.7810238023711255,-0.1008855054598386,-0.1271434536709138,-12.550563961345516,8.768790964813236,68.37616713759637,2.953866446861939,0.1967959018988385,0.6576489203093235,5676.44140625,12.032666666666666,0.3033333333333333,178.9209398496616,-10.984506591153144,104.52590241612768,1525.0,1535.0,1200.0,1528.0,1475.0,1021.7000000000002,187.0,294.71,1637175359.7181847,1637175360.8389342,127a8ee3-004b-4cb0-a67b-2996e0ad8c2c
0.053982034514065,0.1636092877158166,-0.119690333580393,-0.5221500759926592,-0.2272357209545717,0.7935002703026083,-0.1041858283239379,-0.1164853392256828,-10.7267704168644,8.936721715073814,66.28731601321746,3.019393528125235,0.1589046196535448,0.7185343967928621,5676.44140625,12.033666666666669,0.3,178.89122852677204,-10.96619286184983,104.6885383271846,1525.0,1535.0,1200.0,1528.0,1475.0,1021.7000000000002,187.0,294.71,1637175360.946839,1637175362.1838014,127a8ee3-004b-4cb0-a67b-2996e0ad8c2c
0.0859771951964794,0.1777989219166723,-0.1330992654142409,-1.0532206853807662,-0.2978825793780026,1.3013001536354558,-0.0038448364180208,-0.0170483202537087,-13.108255706332525,9.301253547642796,71.271901711189,5.359797493288408,0.2493439717623069,0.69244737808881,5691.10107421875,12.02111111111111,0.3555555555555555,178.88600570878668,-10.7667871965786,104.93738868049492,1525.0,1636.0,1200.0,1528.0,1475.0,1021.7000000000002,187.0,294.71,1637175364.118579,1637175365.2564728,0ac834d7-aaf8-45f7-bdbf-19c6f7f19432
0.0841418563872304,0.1738132235315455,-0.1281958970822851,-1.042523665503268,-0.2889387252993194,1.2987799866991836,-0.0001056758264426,-0.0252662552376941,-13.387761302718454,9.235969689332704,71.794001270288,5.329758395738383,0.2307388043431892,0.6684371534240414,5698.666178385417,12.024888888888889,0.3477777777777777,178.88300042555187,-10.793978559119376,104.90684407452662,1525.0,1636.0,1200.0,1528.0,1475.0,1021.7000000000002,187.0,294.71,1637175365.3651187,1637175366.4850695,0ac834d7-aaf8-45f7-bdbf-19c6f7f19432
0.0867305058986866,0.1738543131799695,-0.1279082693324172,-1.0357849546331372,-0.2861035372378119,1.2925891423199027,-0.0065567550478736,-0.0275398841452844,-14.019082034363665,9.412656068205798,71.77930022333364,5.30151132415926,0.2346830944642569,0.6728977285987803,5695.30029296875,12.022333333333332,0.35,178.88802289132158,-10.779942994693693,104.9052625062788,1525.0,1636.0,1200.0,1528.0,1475.0,1021.7000000000002,187.0,294.71,1637175366.5933883,1637175367.7032857,0ac834d7-aaf8-45f7-bdbf-19c6f7f19432
0.0817723517525162,0.1499264260903642,-0.1631495172440188,-1.452215481847707,-0.379842799582417,1.7059239254413694,0.0816764758658329,0.0584608089143088,-11.536939662637296,9.44499832123472,72.88216616655181,7.169579886830991,0.1666342557577481,0.7197178367091173,5691.51806640625,12.000999999999998,0.42,178.91146410055308,-10.65293164280029,104.871216289996,1525.0,1737.0,1200.0,1528.0,1475.0,1021.7000000000002,187.0,294.71,1637175368.5115426,1637175369.4852588,05c478e4-e77f-41cf-bfb5-4692042ed37f
0.1070365469678249,0.180512031442049,-0.1474050242617772,-1.4610604914624994,-0.3668024825560839,1.688681741626792,0.0748651176351418,0.059172432444054,-13.317057608373364,9.98732927227773,73.57042404776632,7.154379366523358,0.2899444211759408,0.6933194718921757,5685.228841145833,11.999333333333333,0.43,178.9443218639203,-10.63621987744856,104.66456436319784,1525.0,1737.0,1200.0,1528.0,1475.0,1021.7000000000002,187.0,294.71,1637175369.5978,1637175370.7816608,05c478e4-e77f-41cf-bfb5-4692042ed37f
0.0971672834329167,0.1676908620308129,-0.1536988909971135,-1.4547493483156126,-0.3700360618245111,1.69580216698066,0.0708972843086579,0.0367517629166024,-13.356032699317462,10.045130326883775,73.58294367983261,7.156195674591775,0.2408470814807037,0.710422959005364,5683.9697265625,12.004333333333332,0.42,178.9611787707919,-10.674227034267526,104.4993102129591,1525.0,1737.0,1200.0,1528.0,1475.0,1021.7000000000002,187.0,294.71,1637175370.8906696,1637175372.010846,05c478e4-e77f-41cf-bfb5-4692042ed37f
0.1112336488960518,0.1785385360678531,-0.1284561317182687,-1.5483106471110997,-0.3652970516335388,1.7649561055733882,0.0791289160203723,0.0610083686960724,-15.94565581683311,12.27434123310506,72.79343039134015,7.537250401639966,0.3200160673822012,0.654492288007163,5684.807942708333,11.977666666666668,0.5177777777777778,179.05872601469815,-10.62842701106053,104.0175982202755,1525.0,1837.0,1200.0,1528.0,1475.0,1021.7000000000002,187.0,294.71,1637175374.0400722,1637175375.2917824,dc997792-77c2-41db-89d4-a26650cf5703
0.1077547229963525,0.1695262007905528,-0.1364138333381046,-1.5519950293739333,-0.3742682999147055,1.7932532032303197,0.0964961517099737,0.0772250934190268,-14.041759768232527,11.459913459788064,75.11291909977315,7.604681754242435,0.2521167908436674,0.6566457649788295,5683.132703993056,11.98,0.5022222222222221,179.1240909250552,-10.66514990258806,103.61875311824215,1525.0,1837.0,1200.0,1528.0,1475.0,1021.7000000000002,187.0,294.71,1637175375.400081,1637175376.537526,dc997792-77c2-41db-89d4-a26650cf5703
0.1020843478453333,0.1632942668618815,-0.1377834887779731,-1.5368740071206393,-0.3774869910684921,1.784268257609675,0.1109734143004007,0.0959208962582132,-11.981989415023705,10.79499100403754,74.99454682559161,7.546923975928902,0.2132540049093253,0.643209100280598,5678.11328125,11.980555555555556,0.5033333333333334,179.16347076016984,-10.678194235810444,103.32632236347762,1525.0,1837.0,1200.0,1528.0,1475.0,1021.7000000000002,187.0,294.71,1637175376.647124,1637175377.7491252,dc997792-77c2-41db-89d4-a26650cf5703
0.019370830715744,0.1864962362911053,-0.0246225161669988,0.4937511141283421,-0.0252525578702913,-0.216757852752841,-0.3317267807646573,-0.3525318577709838,-15.231260610551994,12.614544735367872,58.31993255845425,-1.516838570827641,0.2282509701065907,0.6335879630039231,5673.938639322917,12.041,0.27,179.17878404428905,-11.273047932640331,103.10543252789958,1525.0,1334.0,1200.0,1528.0,1475.0,1021.7000000000002,187.0,294.71,1637175378.549238,1637175379.683957,0b553336-f461-4910-9fd1-874b992dec70
0.0099612949022794,0.1743473892801059,-0.0240335641170866,0.5301839566632929,-0.020171134500219,-0.209046689377506,-0.305799191259891,-0.3259742262999025,-12.819949894850176,11.49748047435306,62.59323749201445,-1.5871749699269897,0.1232772781107466,0.595970017330805,5667.685546875,12.041,0.27,179.09465432755223,-11.267233449518145,103.53265630702442,1525.0,1334.0,1200.0,1528.0,1475.0,1021.7000000000002,187.0,294.71,1637175379.7924263,1637175380.9139583,0b553336-f461-4910-9fd1-874b992dec70
0.0146318214244252,0.181346330488022,-0.0243074953644718,0.4853414279287752,-0.0265537310356436,-0.2072113502667635,-0.3350687416504152,-0.3715974704088785,-15.716543026859986,13.069284335161418,57.84459638383265,-1.4737059538521309,0.2176463894939659,0.6377957410405295,5668.516764322917,12.042,0.27,179.0103895248519,-11.298094615781723,103.89603527233754,1525.0,1334.0,1200.0,1528.0,1475.0,1021.7000000000002,187.0,294.71,1637175381.0223572,1637175382.0495293,0b553336-f461-4910-9fd1-874b992dec70
0.0061262584236328,0.1943306675203187,0.0131936828281755,0.955215523930694,0.0434904706434585,-0.657773442361943,-0.4030584708373852,-0.4278629451314533,-12.450968940048757,13.515733409164543,56.97131317898489,-3.5397685020109173,0.1955058920053473,0.5946374404917074,5664.354437934027,12.033444444444443,0.2977777777777777,178.84244428008017,-11.375518699437094,104.72244869859388,1525.0,1234.0,1200.0,1528.0,1475.0,1021.7000000000002,187.0,294.71,1637175383.9947643,1637175385.1216924,3efd624d-9f88-4b32-9a23-1fdf08fb107f
0.0108241780577951,0.1955222680359008,0.0191790789081993,0.963351279082816,0.0537354964194381,-0.6554587230316028,-0.3993330061988586,-0.4140020240993992,-12.992389435755262,13.445326812737576,58.571517045811454,-3.553105445568709,0.1890011556472695,0.5693430565722862,5661.44384765625,12.033666666666669,0.29,178.81087362791655,-11.378976767295631,104.91602005422158,1525.0,1234.0,1200.0,1528.0,1475.0,1021.7000000000002,187.0,294.71,1637175385.2304294,1637175386.3509195,3efd624d-9f88-4b32-9a23-1fdf08fb107f
-0.0172537675638446,0.1777989219195508,0.0115227026592103,0.9573384903863528,0.0463667479803099,-0.6375984043822557,-0.4106189728122748,-0.4325608646131211,-13.69622008822047,14.135388967022031,57.77771786354588,-3.495695104288776,0.1348114270279718,0.6017926025045628,5657.291937934027,12.033444444444443,0.29,178.794411354197,-11.404345607692871,105.10462965687222,1525.0,1234.0,1200.0,1528.0,1475.0,1021.7000000000002,187.0,294.71,1637175386.459689,1637175387.580053,3efd624d-9f88-4b32-9a23-1fdf08fb107f
-0.0127749928055029,0.2229153840497664,0.0479966384002464,1.264785128718161,0.0925652398465719,-1.0069262877867684,-0.5196436053891836,-0.5481324568002747,-16.229758362770472,17.58997992729346,51.50175129015215,-4.996707147640364,0.3420986639638037,0.6404919711484379,5653.97509765625,12.026888888888887,0.3255555555555556,178.80687417270255,-11.506412444691218,105.38826464580562,1525.0,1133.0,1200.0,1528.0,1475.0,1021.7000000000002,187.0,294.71,1637175388.6950366,1637175389.8332653,ab5fea4c-1a58-405f-b6ff-f53c24c80ab3
-0.0149390491177425,0.202945802507904,0.0452710232686872,1.2794404461666014,0.0970029247647698,-0.9966675581502104,-0.5134938487401738,-0.5480913658901687,-15.98191611901338,17.28188432799838,52.1121993191335,-5.00866927193935,0.2580536419994905,0.6282799852709013,5646.52587890625,12.028,0.32,178.80942107435305,-11.489838231760276,105.49067953786042,1525.0,1133.0,1200.0,1528.0,1475.0,1021.7000000000002,187.0,294.71,1637175389.9412155,1637175391.156494,ab5fea4c-1a58-405f-b6ff-f53c24c80ab3
-0.0186645131265488,0.1987546557451243,0.0375324676574119,1.2943423018660904,0.0875249063458268,-0.9995712300136476,-0.5046047797638015,-0.5308063051162129,-13.93712563604708,16.59943364020582,53.067506404657614,-5.052536945348814,0.2170580120050043,0.6417627215882363,5643.634657118056,12.028111111111109,0.3177777777777778,178.8246812347787,-11.481049485845762,105.5835329239871,1525.0,1133.0,1200.0,1528.0,1475.0,1021.7000000000002,187.0,294.71,1637175391.2698338,1637175392.379018,ab5fea4c-1a58-405f-b6ff-f53c24c80ab3
-0.0161027088476916,0.1938556708622138,0.0519417951480528,1.4347638088105794,0.1117552138449337,-1.1181084530876324,-0.5226563012729586,-0.5511889816895027,-13.333504206730408,17.13195950936625,53.891816429421226,-5.63097951507439,0.1707393298317985,0.6168248239622638,5639.095703125,12.014666666666663,0.3677777777777777,178.84949758876306,-11.517384953865369,105.68352006324692,1525.0,1033.0,1200.0,1528.0,1475.0,1021.7000000000002,187.0,294.71,1637175393.0125084,1637175394.133762,f757985d-4b45-4e2e-b3fe-c32e9581beec
-0.0238341423424657,0.1912785264962875,0.0575299910119388,1.4520543448945942,0.1166596774299001,-1.1333609508664193,-0.5364887333337373,-0.5655342122895728,-14.481963395881875,18.15549871008908,53.59025156153159,-5.697819883747952,0.170117530496321,0.6204130921424766,5639.095703125,12.017888888888889,0.36,178.8950670930856,-11.537170114616124,105.66586781879197,1525.0,1033.0,1200.0,1528.0,1475.0,1021.7000000000002,187.0,294.71,1637175394.2429018,1637175395.4552352,f757985d-4b45-4e2e-b3fe-c32e9581beec
-0.0273618281652695,0.1914133005931043,0.0441752983061202,1.4370330552194317,0.0964413656374311,-1.1304145472793563,-0.5317376704100979,-0.5681568316683602,-12.42823165345574,17.52684022133046,52.02593825786435,-5.661362564155911,0.1709438405718572,0.6587630893479378,5639.095703125,12.021333333333336,0.3400000000000001,178.88748254746724,-11.528716237698418,105.68371434418331,1525.0,1033.0,1200.0,1528.0,1475.0,1021.7000000000002,187.0,294.71,1637175395.5628498,1637175396.7961416,f757985d-4b45-4e2e-b3fe-c32e9581beec
0.0482431764525922,0.1879206783344453,-0.0596583142887421,-0.0292656499376413,-0.1142801927386489,0.3031087300460417,-0.2106902765356912,-0.2416034134366644,-14.011112490663004,10.951750157091269,64.2971008051743,0.819968306015118,0.2341273696106555,0.6358267644569405,5639.920789930556,12.042777777777776,0.2677777777777778,178.95344092537212,-11.13534477337492,105.67589529540344,1525.0,1435.0,1200.0,1528.0,1475.0,1021.7000000000002,187.0,294.71,1637175397.5941784,1637175398.6349983,5ff81197-d494-4a8d-bb19-310f5a3d5a2f
0.0375050744225093,0.1790863983494784,-0.0779432207685652,-0.0258962966838611,-0.1370027848826755,0.2948770985508585,-0.2174974669620859,-0.2542316418019159,-12.229585667899018,10.661972831003135,62.23605748074318,0.7916070933259917,0.2050722950490985,0.698810554074227,5663.526312934027,12.041111111111112,0.26,178.9517212355211,-11.126624329352106,105.7366574171698,1525.0,1435.0,1200.0,1528.0,1475.0,1021.7000000000002,187.0,294.71,1637175398.7433193,1637175399.9587486,5ff81197-d494-4a8d-bb19-310f5a3d5a2f
0.0497224047797893,0.190125824106809,-0.0600007282335116,-0.0188562649799746,-0.1174030082348847,0.2975205344371254,-0.2031982582676523,-0.2293312955693811,-12.748352429353597,10.626576517046695,65.19664199005452,0.7825362302269241,0.224179050817468,0.6325232149082642,5668.93310546875,12.04,0.2655555555555555,178.96879519062634,-11.137698342726422,105.81578971216383,1525.0,1435.0,1200.0,1528.0,1475.0,1021.7000000000002,187.0,294.71,1637175400.0672436,1637175401.3014882,5ff81197-d494-4a8d-bb19-310f5a3d5a2f
0.0987834773210479,0.2080820117738681,0.0976603595748121,-0.0454549825287069,0.0280955386692232,0.2828789143329063,-0.041318621725064,-0.0962966114443053,-12.30459891291202,10.489659469916312,63.36508919274704,0.8165089889890785,0.3178853214579581,-0.0113198360820585,5668.93310546875,12.041,0.27,178.98754937226738,-11.147809773746454,105.84634418396097,1525.0,1435.0,1200.0,1454.0,1475.0,1021.7000000000002,187.0,294.71,1637175402.0836346,1637175403.2369945,09e9adae-0dab-409c-8281-a53ad1c21437
0.0940170749985908,0.2129032001841613,0.0869907406062216,-0.0461535071213353,0.0130156275284252,0.278632981331827,-0.0543851390487361,-0.0710127626914379,-11.985296783289618,10.713814013316366,63.24588140657992,0.8096399088590799,0.3341777107706009,0.0429077556911312,5668.93310546875,12.038666666666664,0.2666666666666667,179.02372964321083,-11.141958957812433,105.8869519353064,1525.0,1435.0,1200.0,1454.0,1475.0,1021.7000000000002,187.0,294.71,1637175403.3449829,1637175404.3748252,09e9adae-0dab-409c-8281-a53ad1c21437
0.0984136702320245,0.2239700189830288,0.0969755315831278,-0.0479203633603805,0.0219046940385907,0.2740857241330506,-0.0494132882630778,-0.0842847283141315,-12.35816714479512,10.776023212006216,63.96805112544371,0.8042442023767822,0.3727750979474347,0.0121671623615034,5668.93310546875,12.04377777777778,0.2611111111111111,179.04286935108505,-11.156732372395954,105.92835957769466,1525.0,1435.0,1200.0,1454.0,1475.0,1021.7000000000002,187.0,294.71,1637175404.483796,1637175405.6025765,09e9adae-0dab-409c-8281-a53ad1c21437
0.1440642991217806,0.2326947264097106,0.2672785350205009,-0.0514403789784285,0.1835377797350607,0.2540750532055225,0.1222045921402968,0.1065083358805158,-12.059412189488189,10.819959950506425,63.19263178989674,0.7760158396015823,0.4214864999570127,-0.6843499180772782,5668.93310546875,12.038555555555556,0.2777777777777778,179.04636337230045,-11.160102501568923,105.95074666106424,1525.0,1435.0,1200.0,1380.0,1475.0,1021.7000000000002,187.0,294.71,1637175406.5153828,1637175407.650972,1a4e85d2-102e-4ce2-82bf-84d3e2a79e73
0.1455572239367701,0.2318592363958892,0.2808655203609948,-0.0213216455708014,0.2077259012594397,0.2521575351413374,0.1438314576811875,0.1260807178093063,-11.845299857359116,9.940657759115952,66.88913852733401,0.6993110009839242,0.3812135933162419,-0.7607204169183605,5666.43505859375,12.037,0.27,179.0556357335537,-11.145645552416946,105.94586914708692,1525.0,1435.0,1200.0,1380.0,1475.0,1021.7000000000002,187.0,294.71,1637175407.758825,1637175408.7901735,1a4e85d2-102e-4ce2-82bf-84d3e2a79e73
0.1322408822108659,0.2232035596141768,0.2639513671647009,-0.0428340090647577,0.1788135628752481,0.2576268445441843,0.1273890133463087,0.1034189404890101,-11.02472984470254,10.69984455104015,63.5050203594694,0.7641920260720688,0.3745243444755514,-0.680621077378339,5665.18603515625,12.038,0.28,179.08015611267405,-11.15956007071234,105.93918466861922,1525.0,1435.0,1200.0,1380.0,1475.0,1021.7000000000002,187.0,294.71,1637175408.8991902,1637175409.9957688,1a4e85d2-102e-4ce2-82bf-84d3e2a79e73
0.2076437218524093,0.248514250779021,0.4683850898979724,-0.0331828656427151,0.3668935990142101,0.2194227617301565,0.3355832682935594,0.3037113783815812,-9.420014810150088,10.581609304792348,64.44386640676358,0.6669248048534309,0.4615458181451033,-1.5062406921721248,5671.850911458333,12.037444444444446,0.28,179.09333837777214,-11.172972380376258,105.90188196992214,1525.0,1435.0,1200.0,1306.0,1475.0,1021.7000000000002,187.0,294.71,1637175412.042703,1637175413.1768122,0a7504a1-8902-4c5b-831d-6d6363edf1e8
0.1971932480676009,0.2387075153265407,0.4700012836888885,-0.0357030325448871,0.3663594332961721,0.2314483395492648,0.3429383198266193,0.3197226541689269,-8.93676138697702,10.707492191387308,64.48793394786345,0.7007980135921251,0.421368558763641,-1.5190484890307914,5668.93310546875,12.037,0.28,179.09787058774145,-11.170092886458669,105.88876269434635,1525.0,1435.0,1200.0,1306.0,1475.0,1021.7000000000002,187.0,294.71,1637175413.2851942,1637175414.4097383,0a7504a1-8902-4c5b-831d-6d6363edf1e8
0.1896738377080959,0.2260792889291758,0.4565923539921557,-0.0306763953791625,0.3542105867128411,0.2318044500188408,0.3388704421881565,0.3087517114787566,-8.036195731049823,10.398989947934446,63.36987429567176,0.6878217022708556,0.3760662107755146,-1.4807361475733414,5668.93310546875,12.03622222222222,0.28,179.09233054541463,-11.178705849865796,105.89243581830002,1525.0,1435.0,1200.0,1306.0,1475.0,1021.7000000000002,187.0,294.71,1637175414.5176418,1637175415.637983,0a7504a1-8902-4c5b-831d-6d6363edf1e8
0.2575539788966666,0.2732776273403945,0.6512889161243992,-0.0467287625581619,0.5343751032140879,0.1922350940486348,0.5035578492033717,0.4899708641726918,-10.0929920924709,11.43807301184894,63.599709062003456,0.6506983777335099,0.5799458914570076,-2.221969764374958,5676.023980034723,12.033,0.2899999999999999,179.08683300204268,-11.192493061024155,105.81388181265568,1525.0,1435.0,1200.0,1232.0,1475.0,1021.7000000000002,187.0,294.71,1637175416.5506144,1637175417.574191,82f68df5-2f1a-4abe-9dfb-1d999f72d29e
0.2591153864931548,0.2778933673030238,0.6481797976263961,-0.0473725008733442,0.5231576227728136,0.1910161003438799,0.5109676867330165,0.4892175536164131,-8.335622928031766,11.21810755820925,63.99466029773038,0.6487458335150894,0.581197478854345,-2.2105739565810194,5657.299099392361,12.034666666666668,0.29,179.08843278412826,-11.16963573810297,105.76591870648404,1525.0,1435.0,1200.0,1232.0,1475.0,1021.7000000000002,187.0,294.71,1637175417.682901,1637175418.9152997,82f68df5-2f1a-4abe-9dfb-1d999f72d29e
0.2517329418108288,0.2730447858670042,0.6570688632862508,-0.0414144976430102,0.5381827461347469,0.1891122788879471,0.5151314401586574,0.4888066568257319,-9.257997865935012,11.23079915087576,63.88368390647283,0.631072656828149,0.5703544514574258,-2.2504249992181653,5662.275444878473,12.031666666666666,0.2977777777777777,179.11071589684047,-11.167768060819926,105.73201971872338,1525.0,1435.0,1200.0,1232.0,1475.0,1021.7000000000002,187.0,294.71,1637175419.023487,1637175420.1429205,82f68df5-2f1a-4abe-9dfb-1d999f72d29e
-0.009446728971028,0.1598427342276844,-0.2706949066730614,0.0245755229939738,-0.3054704738596934,0.2866865573385235,-0.420357227973034,-0.4431620037117101,-13.365627800611987,10.299890094004423,63.484781396315725,0.6469789559047722,0.1114303418749795,1.4790698930307602,5657.70654296875,12.040333333333333,0.27,179.09678079311388,-11.16658776618585,105.87796795981812,1525.0,1435.0,1200.0,1602.0,1475.0,1021.7000000000002,187.0,294.71,1637175421.054129,1637175422.1906295,546b1027-3a09-4205-8e46-08eecd6e497f
-0.0336622452199291,0.1462146588083239,-0.267640573678765,0.0245481298486424,-0.2947460668467192,0.3009994601648189,-0.4312322978846559,-0.4547219021639543,-15.611432014375012,11.04543549036038,63.59047903440927,0.6831845159437172,0.0754848729611849,1.4724065612046768,5656.877332899306,12.040333333333333,0.27,179.1176751006948,-11.14515785793746,105.86519019370084,1525.0,1435.0,1200.0,1602.0,1475.0,1021.7000000000002,187.0,294.71,1637175422.2988431,1637175423.4212933,546b1027-3a09-4205-8e46-08eecd6e497f
-0.0265690712162406,0.1488608338546806,-0.2726074944137018,0.0277087478921309,-0.3051636709314798,0.2960604814976155,-0.4279725162171162,-0.4514034985014279,-14.17380472328092,10.811490332898698,63.65921430747219,0.6638928430214706,0.0739172831232741,1.4902711676087674,5657.70654296875,12.04022222222222,0.27,179.14150638961894,-11.152653895687813,105.83199167978503,1525.0,1435.0,1200.0,1602.0,1475.0,1021.7000000000002,187.0,294.71,1637175423.529321,1637175424.6505768,546b1027-3a09-4205-8e46-08eecd6e497f
-0.0877105111109995,0.1184873462254401,-0.4682469819922888,0.0651562348443014,-0.4821451573289166,0.2960210353863506,-0.6369842502922428,-0.6545377666239758,-15.407149209699206,11.17772617947119,62.769700890416686,0.5712555000139499,-0.0403955946987135,2.289978431894538,5657.70654296875,12.03788888888889,0.2622222222222222,179.09888297355835,-11.17615809444164,105.81275710817236,1525.0,1435.0,1200.0,1676.0,1475.0,1021.7000000000002,187.0,294.71,1637175426.5838225,1637175427.6054122,3de6a28c-091a-469a-a2a2-25d3d45a2b13
-0.0822302438449917,0.128135201899263,-0.4654052193398079,0.058173181453851,-0.4840736332655997,0.2953427818656754,-0.6253947662255376,-0.6575542979129914,-14.296871933586743,10.753818955796518,63.157517104523926,0.5834355054375459,-0.0144730182697643,2.274834061651552,5665.18603515625,12.036666666666669,0.2766666666666666,179.10159379974897,-11.148084214541855,105.7690537633131,1525.0,1435.0,1200.0,1676.0,1475.0,1021.7000000000002,187.0,294.71,1637175427.7131634,1637175428.8330622,3de6a28c-091a-469a-a2a2-25d3d45a2b13
-0.0962418240900844,0.125642428322091,-0.4621454375145419,0.0558584630081975,-0.4733355285594352,0.3032046059763646,-0.6432413883668698,-0.6338318506124322,-17.123669706107183,11.598456264897075,63.57342923128828,0.6107283905856719,-0.0069953050749128,2.279115904077205,5667.68408203125,12.037,0.27,179.10857880654018,-11.188075541314712,105.7310073329064,1525.0,1435.0,1200.0,1676.0,1475.0,1021.7000000000002,187.0,294.71,1637175428.942909,1637175430.1788862,3de6a28c-091a-469a-a2a2-25d3d45a2b13
-0.152137483212934,0.1219717506605808,-0.6808932421466186,0.1411058424251877,-0.6735792770604635,0.2703602604257582,-0.8820546895804964,-0.913310253856888,-17.432518970994753,11.654296319936089,67.78911698596244,0.3346200868157771,-0.0803024274949203,3.1960619785736184,5854.362413194444,12.03477777777778,0.2777777777777778,179.11144596817178,-11.175678463379924,105.72301601157749,1525.0,1435.0,1200.0,1750.0,1475.0,1021.7000000000002,187.0,294.71,1637175432.0008118,1637175433.055307,6f094e75-f116-4f7d-8ab1-68705df18322
-0.1481791775795367,0.1130963808964137,-0.6726068207207246,0.131792182892266,-0.664608027613589,0.2764004424198774,-0.8652763959435162,-0.8763569194010389,-17.033637802170812,11.36086476229364,66.29113155876043,0.3676319305999678,-0.1014699867359959,3.1457898097079178,5882.92822265625,12.034333333333333,0.27,179.12625078265273,-11.182584638404451,105.6809306626416,1525.0,1435.0,1200.0,1750.0,1475.0,1021.7000000000002,187.0,294.71,1637175433.1670997,1637175434.310582,6f094e75-f116-4f7d-8ab1-68705df18322
-0.1504665030187618,0.1133155258302518,-0.6604579685970784,0.1274914634457153,-0.6562120339689127,0.2673470176957513,-0.867125432201345,-0.8984494804751456,-17.931729851497064,12.188572578865326,64.5072214995785,0.3623445104047757,-0.077167114959343,3.1169315693288664,5866.382921006944,12.033444444444443,0.2777777777777778,179.10899772480929,-11.20658004159609,105.64034264295374,1525.0,1435.0,1200.0,1750.0,1475.0,1021.7000000000002,187.0,294.71,1637175434.4277446,1637175435.390123,6f094e75-f116-4f7d-8ab1-68705df18322
-0.2006370014293665,0.0942225234389087,-0.804874542533736,0.1706904080920391,-0.7835626875294643,0.2427206066411003,-1.0410581328082285,-1.065355844994634,-20.24655894865955,13.045836325983627,62.77927187713215,0.2066106938344554,-0.1315383339611722,3.728547299773368,5751.35400390625,12.014777777777775,0.3555555555555555,179.0921150150008,-11.213773179429502,105.53319594762394,1525.0,1435.0,1200.0,1824.0,1475.0,1021.7000000000002,187.0,294.71,1637175437.5303705,1637175438.7855277,9a904cd6-5b4e-4bb9-8dc4-9063af08c43f
-0.1823657906736035,0.1009201404347605,-0.8061757169103688,0.1682387241025451,-0.7969579286070788,0.2349957479418057,-1.0233484718392687,-1.0394145477870893,-17.26916674269855,12.468943365473711,62.34757463483149,0.1923231487461353,-0.1234557429144577,3.7258499368918536,5720.644476996527,12.016444444444444,0.36,179.1118997962966,-11.192262257548451,105.35157969977348,1525.0,1435.0,1200.0,1824.0,1475.0,1021.7000000000002,187.0,294.71,1637175438.8946755,1637175439.8967636,9a904cd6-5b4e-4bb9-8dc4-9063af08c43f
-0.1925012448564659,0.0918256257132582,-0.7926845997178384,0.1761553348028514,-0.7817684376069579,0.2402963159195577,-1.000817617508437,-1.028553167652791,-16.619500909315168,12.165301471727076,63.00911471480416,0.1854676658906005,-0.1681516795396447,3.6551732549123663,5710.4775390625,12.014666666666663,0.3577777777777778,179.13475360925946,-11.20602689113706,105.19276793574188,1525.0,1435.0,1200.0,1824.0,1475.0,1021.7000000000002,187.0,294.71,1637175440.0052598,1637175441.0457573,9a904cd6-5b4e-4bb9-8dc4-9063af08c43f
0.03724483982027,0.1745802307848843,-0.1111162873659993,0.0221786250742965,-0.1296203392800957,0.2781672984241005,-0.226030423671334,-0.2502185503652072,-12.569513062574716,7.210480253252062,65.40706858138863,0.6214149044102072,0.1543921756617904,0.7516505972853604,7908.031358506944,11.838333333333331,7.35,-178.59955668191526,-11.212651225994588,91.9486752063404,1525.0,1435.0,1350.0,1528.0,1475.0,1021.7000000000002,187.0,294.71,1637175445.5118406,1637175446.562937,2103b946-d32d-4d19-8efa-3bc1a9ac8bc2
0.0212335627317504,0.1628422804746205,-0.1218406934583421,0.0293693184675471,-0.1349072113272142,0.2823721417011682,-0.233632014581032,-0.2564230911097676,-12.678107105782887,7.043077633425185,65.24327405696381,0.61291879684144,0.1110199965991888,0.7826976003672587,7917.771592881944,11.837,7.336666666666667,-177.96344295067416,-11.027057815908677,86.51336624137535,1525.0,1435.0,1350.0,1528.0,1475.0,1021.7000000000002,187.0,294.71,1637175446.670911,1637175447.7917044,2103b946-d32d-4d19-8efa-3bc1a9ac8bc2
0.020822665976987,0.1547476145873482,-0.1190465952812507,0.0292186564699201,-0.1347154594073395,0.2837828871127397,-0.2333991730422902,-0.2480955828120989,-12.689751508130849,7.491401442391798,64.30348222631086,0.6193842370845772,0.0892751294280111,0.7757978336375415,7914.5205078125,11.835,7.360000000000001,-177.6249706496245,-10.94496662604794,81.20281447615012,1525.0,1435.0,1350.0,1528.0,1475.0,1021.7000000000002,187.0,294.71,1637175447.9004564,1637175449.020869,2103b946-d32d-4d19-8efa-3bc1a9ac8bc2
0.1909892551640563,0.4724239307677547,-0.0778226909830135,-0.1225019635867163,-0.167812374018427,0.1151475774807834,-0.2569868411877893,-0.2867423449897526,-11.946927224706137,6.437562240909337,64.79512698863898,0.5782016645393354,1.2924150569336663,0.8370221001185354,7885.396484375,11.822,7.46,-177.63021623490704,-10.68060330044895,74.48974939002476,1593.0,1435.0,1350.0,1528.0,1529.0,1021.7000000000002,187.0,294.71,1637175450.0236912,1637175450.9647672,5d7f7e00-dbce-4f4c-abb5-2ed8b08bd8ad
0.1979465587715468,0.4679468001006356,-0.0779021310528215,-0.1160881386787553,-0.166970857407842,0.1129320221822654,-0.2595732996539333,-0.2895276776591877,-12.102373492771576,6.607570886825687,64.68473582789181,0.5597822059489065,1.2769098674350017,0.8388471001128289,7880.565104166667,11.820666666666668,7.506666666666667,-177.67993090514585,-10.613289509448752,70.90524562303455,1593.0,1435.0,1350.0,1528.0,1529.0,1021.7000000000002,187.0,294.71,1637175451.072385,1637175452.1850758,5d7f7e00-dbce-4f4c-abb5-2ed8b08bd8ad
0.2092396448123973,0.4712799942986205,-0.0838579428626297,-0.1255393125752268,-0.1743341279048188,0.1159759452880284,-0.2643238146109425,-0.2796551967773611,-12.053225494281149,6.549447161937349,64.3039764588246,0.5872240161036297,1.293223264821444,0.8635999348853255,7885.396484375,11.820333333333334,7.493333333333333,-177.82298238712258,-10.532222753099775,67.89742611131715,1593.0,1435.0,1350.0,1528.0,1529.0,1021.7000000000002,187.0,294.71,1637175452.2937005,1637175453.522605,5d7f7e00-dbce-4f4c-abb5-2ed8b08bd8ad
0.4063122915686557,0.8182225562786568,-0.0214038248045328,-0.3058539777697961,-0.2061293219790322,-0.0568368230612884,-0.2765981241647532,-0.2979647595317976,-10.888586020456708,6.401478672975702,64.6473906070408,0.6084062478015305,2.609339452075846,0.8810089172095088,7892.65771484375,11.81011111111111,7.555555555555555,-178.38891364791206,-10.558115525924602,63.21749281069075,1661.0,1435.0,1350.0,1528.0,1583.0,1021.7000000000002,187.0,294.71,1637175454.5303602,1637175455.780403,767e4b80-44b3-4c55-a184-a89ed74e9a74
0.3958618182100276,0.8135383336671245,-0.0305805193171786,-0.2988687320884909,-0.2124434361456565,-0.0575764372841337,-0.2868431514052015,-0.3168112268595619,-11.0662920331624,6.4088801213650415,64.73021947207307,0.5905031107199151,2.590852757400318,0.9161885164795536,7892.65771484375,11.813,7.559999999999999,-178.7504219003025,-10.547703187126135,60.94036162401196,1661.0,1435.0,1350.0,1528.0,1583.0,1021.7000000000002,187.0,294.71,1637175455.888891,1637175457.0158749,767e4b80-44b3-4c55-a184-a89ed74e9a74
0.384301923661897,0.8061147995910942,-0.0391134756153839,-0.2939790598737651,-0.2172920184834718,-0.0580284236978685,-0.2948693359456288,-0.331000863862621,-11.223498396184644,6.33240843077309,64.21034260838968,0.5773637049688584,2.567586050515866,0.9441842276886137,7890.2373046875,11.812666666666669,7.559999999999999,-178.99976478614298,-10.57183538382865,58.956993078985874,1661.0,1435.0,1350.0,1528.0,1583.0,1021.7000000000002,187.0,294.71,1637175457.128292,1637175458.269284,767e4b80-44b3-4c55-a184-a89ed74e9a74
0.580148997681888,1.1248747851045933,0.0177546369015743,-0.481813700661409,-0.2565052701818747,-0.2101013243527454,-0.3147704385037142,-0.3331512235632412,-10.487116503433564,7.1299134154175166,62.53339849015399,0.6675662924986318,3.799525708979329,0.983157042893794,7899.9326171875,11.79677777777778,7.58,-179.3327243656226,-10.615002938293038,56.807976888933865,1729.0,1435.0,1350.0,1528.0,1636.0,1021.7000000000002,187.0,294.71,1637175459.045106,1637175460.0797677,e970bf69-087e-404a-a03f-5527a1259e13
0.5730130913433082,1.1225874599130683,0.0161658360762417,-0.4738286052954222,-0.2566422358248598,-0.2125804017885918,-0.3153183009421073,-0.338944869715274,-10.33372161925157,7.043824698741264,62.89943344933722,0.6434688146912134,3.7855316812788335,0.9867414574955,7903.981282552083,11.795111111111112,7.595555555555555,-179.62120575322706,-10.623243751254137,55.4214408983222,1729.0,1435.0,1350.0,1528.0,1636.0,1021.7000000000002,187.0,294.71,1637175460.1874342,1637175461.3091218,e970bf69-087e-404a-a03f-5527a1259e13
0.577245327541622,1.1331612027183184,0.0228771498750841,-0.4903603554070132,-0.2535879028996997,-0.2086220958848595,-0.3094424764155946,-0.3272206129267956,-10.475125136524234,7.06530134454438,62.81987562676767,0.6900479235231461,3.829356821909817,0.9659817254740064,7913.709364149306,11.795777777777776,7.615555555555556,-179.87836237547805,-10.679824658883568,54.22554004090503,1729.0,1435.0,1350.0,1528.0,1636.0,1021.7000000000002,187.0,294.71,1637175461.4181616,1637175462.539266,e970bf69-087e-404a-a03f-5527a1259e13
0.6967066999940966,1.3554426506604909,0.0437370087507917,-0.5933995950413608,-0.2987865522959791,-0.3434099472055441,-0.3538056368660953,-0.3811987594384504,-10.014862042211467,7.97707263425372,61.02911989619152,0.6266220559439144,4.689685394217379,1.085687906569336,7908.031358506944,11.771888888888888,7.717777777777779,179.61792878024528,-10.78121815306624,51.88188319116526,1796.0,1435.0,1350.0,1528.0,1690.0,1021.7000000000002,187.0,294.71,1637175464.5637195,1637175465.5002213,5bf56a9e-58a6-43a8-b31f-906d437212fc
0.7062258072862972,1.3495942199643316,0.0530095789034943,-0.5967552533382957,-0.2875964623918405,-0.3375204261817007,-0.3415472149033311,-0.3699675799437643,-10.132645201758772,7.878450868530237,60.69737538258122,0.647121904493715,4.672523419096875,1.039106812614811,7911.275933159723,11.773888888888887,7.694444444444445,179.35231031252252,-10.777207598794842,51.16904594497744,1796.0,1435.0,1350.0,1528.0,1690.0,1021.7000000000002,187.0,294.71,1637175465.6083534,1637175466.7256062,5bf56a9e-58a6-43a8-b31f-906d437212fc
0.7037357731805713,1.3561740469220382,0.049154271620364,-0.5895568872589027,-0.2931326121131739,-0.3503425985111499,-0.3481599145151268,-0.3625314422055893,-9.859857085825954,7.875820896684799,60.69168184497806,0.6019980250017961,4.694190781680157,1.062360624270511,7907.22021484375,11.777444444444445,7.683333333333334,179.17986321417789,-10.895156617751976,50.45190150560801,1796.0,1435.0,1350.0,1528.0,1690.0,1021.7000000000002,187.0,294.71,1637175466.833493,1637175467.9566758,5bf56a9e-58a6-43a8-b31f-906d437212fc
-0.1573695690766895,-0.1685048720133698,-0.1628892825540489,0.1635818944068394,-0.1026381172345633,0.4615368112255578,-0.2020066574470274,-0.2267700387892203,-13.091178626691642,8.033047283830577,62.08460221008543,0.7165822851597589,-1.1199243482515844,0.7056054508959684,7907.22021484375,11.814,7.550000000000001,179.2033454045444,-11.0197981785946,49.173246835116885,1457.0,1435.0,1350.0,1528.0,1421.0,1021.7000000000002,187.0,294.71,1637175469.5101004,1637175470.5256758,c02ebb35-6d3e-431d-8fc2-bf772aea2dee
-0.1667928021696298,-0.1753942415583754,-0.165792953195849,0.1773332388334753,-0.1011588887912752,0.4626188392585724,-0.2069237224261761,-0.2258112795901797,-13.43990771958233,8.102363115199859,63.0492529687487,0.688287231870913,-1.153721115807815,0.7149247541752963,7917.771592881944,11.817444444444444,7.52,178.9924655906499,-11.015892828209168,48.77669895337437,1457.0,1435.0,1350.0,1528.0,1421.0,1021.7000000000002,187.0,294.71,1637175470.634559,1637175471.7539375,c02ebb35-6d3e-431d-8fc2-bf772aea2dee
-0.1762571249465133,-0.1825164526379658,-0.1605334742739946,0.175826617352878,-0.0959404996692907,0.4670702203848245,-0.2002261046353199,-0.2280849082142988,-13.427240351609129,8.208294598065963,62.53777782576413,0.7025776124257098,-1.1754694860542685,0.6894808834537495,7921.83544921875,11.817,7.514444444444444,178.85804139650483,-11.052650914183667,48.42253467216151,1457.0,1435.0,1350.0,1528.0,1421.0,1021.7000000000002,187.0,294.71,1637175471.8629377,1637175472.9788926,c02ebb35-6d3e-431d-8fc2-bf772aea2dee
-0.339520123903143,-0.4720069619858871,-0.1971854683542787,0.3062863314510144,-0.0672325115426915,0.6188006823108155,-0.1771610978277951,-0.2013081330889096,-13.930287198600285,9.206127401164666,60.80155552522327,0.7535108123166488,-2.260655370053002,0.6304060042339917,7929.16455078125,11.794250000000002,7.647500000000001,178.66246101662378,-11.11304018588391,47.76401146970858,1389.0,1435.0,1350.0,1528.0,1367.0,1021.7000000000002,187.0,294.71,1637175475.1221666,1637175476.147931,3d21063d-952a-4df4-89da-696fb33d16c6
-0.3418616879738467,-0.4794759711390962,-0.2041159276217803,0.3065794377872758,-0.070972219991801,0.6270262867392405,-0.1817499931985522,-0.2064038013330363,-14.11270968560502,9.141217006215792,60.92623059208593,0.7704863253250527,-2.288959088614319,0.6506539407330898,7924.278483072917,11.798666666666668,7.610000000000001,178.61420060749575,-11.15580432044248,47.49305331187473,1389.0,1435.0,1350.0,1528.0,1367.0,1021.7000000000002,187.0,294.71,1637175476.2564056,1637175477.4896128,3d21063d-952a-4df4-89da-696fb33d16c6
-0.3373971569915915,-0.479142870729934,-0.1961034400611723,0.3118334373104748,-0.0630139712645378,0.6233616358775739,-0.175120310381855,-0.198609911224841,-14.118783309616868,9.194932245472662,61.195040482284845,0.7511944755808243,-2.290187247050214,0.6198925722383372,7921.83544921875,11.797777777777776,7.646666666666666,178.51079913256086,-11.136378693260532,47.26415432058494,1389.0,1435.0,1350.0,1528.0,1367.0,1021.7000000000002,187.0,294.71,1637175477.5983918,1637175478.713175,3d21063d-952a-4df4-89da-696fb33d16c6
-0.462080242021444,-0.7112875603225907,-0.2122023766358644,0.4159239876908712,-0.0294880818234955,0.7290470110061068,-0.1524415467767704,-0.172453864393491,-14.889862947597816,10.4489282005821,57.52615104085444,0.7604191325955051,-3.136711283619961,0.5304785958150737,7921.83544921875,11.754555555555555,7.781111111111111,178.5481375000236,-11.1311245702415,47.02436914612304,1321.0,1435.0,1350.0,1528.0,1314.0,1021.7000000000002,187.0,294.71,1637175479.5173988,1637175480.5959454,c775019b-a1cd-4098-9d26-1d7d3270f1dc
-0.4841832057590244,-0.7258179712872357,-0.2258523684083804,0.4162012060489404,-0.0389080272752033,0.7401795727542009,-0.1630947309138125,-0.1910904995023089,-15.116996737221754,10.456175065437312,57.02893726301347,0.7839849183575532,-3.186094114161324,0.5744643665880699,7921.83544921875,11.755444444444445,7.745555555555557,178.60427710154164,-11.16761637370211,46.77108068767201,1321.0,1435.0,1350.0,1528.0,1314.0,1021.7000000000002,187.0,294.71,1637175480.7048547,1637175481.881171,c775019b-a1cd-4098-9d26-1d7d3270f1dc
-0.4646929981855299,-0.7089164111471596,-0.221770793468286,0.412653797688383,-0.0396887311150661,0.7300167272528402,-0.1632864827358392,-0.1856255723735923,-14.972023332365174,10.501164049233711,57.48743731043467,0.7697972677622916,-3.127096473078474,0.5729806707265421,7921.83544921875,11.759,7.809999999999999,178.6140776640907,-11.1899194077994,46.64088589844295,1321.0,1435.0,1350.0,1528.0,1314.0,1021.7000000000002,187.0,294.71,1637175481.989537,1637175483.0189593,c775019b-a1cd-4098-9d26-1d7d3270f1dc
-0.6099313466052595,-0.9588239427288832,-0.2366041681553993,0.5270885346831181,-0.0027628082904978,0.8356993634846616,-0.1379752405947437,-0.1605197785618824,-15.619704891261074,11.944653395686956,52.71081314947883,0.7568865466971224,-4.032487670442065,0.4698500918000318,7921.83544921875,11.754111111111111,7.819999999999999,178.62125543399847,-11.125182115936113,46.478596429758944,1254.0,1435.0,1350.0,1528.0,1260.0,1021.7000000000002,187.0,294.71,1637175484.1371295,1637175485.2710483,dcc879fa-aaa9-4e2f-965b-dbd68d25305d
-0.6312431988417222,-0.9652887222616858,-0.2361247885143597,0.5314988261509974,0.0007024211594839,0.8412190760888891,-0.1364823155770732,-0.1496447098178404,-15.82327721775654,11.93217748462482,53.18088052967442,0.7592551648170822,-4.059972707438914,0.4621334464493434,7915.333279079861,11.757666666666664,7.817777777777778,178.59492126019853,-11.11933167945704,46.35509598482641,1254.0,1435.0,1350.0,1528.0,1260.0,1021.7000000000002,187.0,294.71,1637175485.3795767,1637175486.500209,dcc879fa-aaa9-4e2f-965b-dbd68d25305d
-0.6160126205262401,-0.966658378951751,-0.238371024428075,0.5378677252942978,-0.0016533870343537,0.8372881641288519,-0.1406871594152381,-0.17791440916548,-15.793596463342666,12.050418207763018,53.23855645245796,0.7367513235996516,-4.066755548000929,0.4743345004539031,7914.5205078125,11.755888888888888,7.804444444444446,178.58655200173558,-11.073994306702572,46.24513714883333,1254.0,1435.0,1350.0,1528.0,1260.0,1021.7000000000002,187.0,294.71,1637175486.608369,1637175487.8170793,dcc879fa-aaa9-4e2f-965b-dbd68d25305d
0.0101530467236657,0.123368799661646,-0.1330855688068059,0.058036215630585,-0.1338799693118203,0.3031361232020885,-0.2379327345038092,-0.2671064087316822,-12.949165612046151,7.10635364595932,66.38955458251678,0.5948185635649396,-0.0495118266708375,0.7996260303239114,7938.141927083333,11.827666666666666,7.516666666666666,178.27886108654536,-11.07295384121901,46.2028290598395,1525.0,1435.0,1350.0,1528.0,1475.0,1021.7000000000002,187.0,294.71,1637175488.495139,1637175489.5717936,24498f4c-fbb7-4445-9c53-4f0a09955229
0.0099185616060472,0.1316886370306915,-0.1278929291452446,0.0619348041228946,-0.1319427279823986,0.2915636276680178,-0.2349496236455342,-0.264784019385879,-12.607124804346643,7.130986638002849,66.44296885175869,0.560621903478561,-0.0213520644555844,0.7870072919188729,7966.009765625,11.829777777777778,7.440000000000001,178.20889262868775,-11.034932739430486,46.40957281473652,1525.0,1435.0,1350.0,1528.0,1475.0,1021.7000000000002,187.0,294.71,1637175489.679607,1637175490.727905,24498f4c-fbb7-4445-9c53-4f0a09955229
-0.0034202430819233,0.1246973658194883,-0.128538311010523,0.0709246771147324,-0.1290587803754051,0.2936444086584639,-0.2351660292645979,-0.2523278198330249,-12.767694385722166,7.109688788475903,66.93926812266976,0.5448437098664074,-0.0519839187978294,0.7840964097710138,7980.84423828125,11.829777777777778,7.384444444444444,178.17258637869958,-10.981609073125243,46.59673897074257,1525.0,1435.0,1350.0,1528.0,1475.0,1021.7000000000002,187.0,294.71,1637175490.835922,1637175492.0263505,24498f4c-fbb7-4445-9c53-4f0a09955229
0.0174670090482461,0.1119458700202087,-0.1760927661273862,-0.5079878310078453,-0.2271672382767609,0.8627637608744768,-0.1211832586026859,-0.1570408525285449,-13.151020798876187,5.553056670888921,70.55987213200233,3.117312860014556,-0.0609505903283568,0.8191169071515988,7968.479817708333,11.823666666666666,7.456666666666667,178.19289177219216,-10.75986565362844,46.97518381554491,1525.0,1535.0,1350.0,1528.0,1475.0,1021.7000000000002,187.0,294.71,1637175494.0561018,1637175495.1942194,389af03c-f749-49f2-be86-00c91dc5b9dc
0.0221649287503114,0.1268751185858634,-0.175873621124327,-0.5137814768497333,-0.2342757529049491,0.8514641010382927,-0.124758060581886,-0.1431662370770403,-12.722464635773228,5.720447003161188,70.25757425061603,3.1062781600973857,-0.0045807347097102,0.8351502750286194,7973.419921875,11.824111111111112,7.476666666666666,178.25502676198164,-10.749139220991887,47.06507935030604,1525.0,1535.0,1350.0,1528.0,1475.0,1021.7000000000002,187.0,294.71,1637175495.3027258,1637175496.331125,389af03c-f749-49f2-be86-00c91dc5b9dc
0.0298350016371798,0.1288748160989753,-0.1704360869433355,-0.5094396664393531,-0.2295641362635552,0.844177532501,-0.1200601407053304,-0.1567121347509983,-12.548924272565287,5.698188280549483,70.10708704244313,3.080296771545328,0.0028345984556492,0.8148303687007429,7966.009765625,11.822,7.526666666666667,178.20151906002377,-10.706551663424522,47.13796429893924,1525.0,1535.0,1350.0,1528.0,1475.0,1021.7000000000002,187.0,294.71,1637175496.4392023,1637175497.482831,389af03c-f749-49f2-be86-00c91dc5b9dc
0.0325058305978012,0.1117404216468789,-0.2137583058538864,-1.0675199021845985,-0.331713084252971,1.3964501487582135,-0.021212073011252,-0.049358502083573,-13.240885539349264,5.6105794175050505,73.3915396414388,5.577656680379451,-0.0196785484545436,0.8694932140771309,7958.61328125,11.810666666666666,7.566666666666666,178.3413102650367,-10.500994179577097,47.30743836772018,1525.0,1636.0,1350.0,1528.0,1475.0,1021.7000000000002,187.0,294.71,1637175499.6987998,1637175500.8365471,247e1370-ceb4-4cc8-a353-a03feed3718d
0.0478048865955073,0.1151371681109831,-0.2085262199331679,-1.0563845927209787,-0.3301242831924362,1.360209053306864,-0.0282110146433348,-0.0421815057077188,-13.21435817448617,6.027172565296773,70.16037050669341,5.4736200253391445,0.0204790889029506,0.8659612387515172,7919.401801215277,11.80811111111111,7.634444444444444,178.486990610934,-10.487292250919618,47.30198977403728,1525.0,1636.0,1350.0,1528.0,1475.0,1021.7000000000002,187.0,294.71,1637175500.9457214,1637175502.061367,247e1370-ceb4-4cc8-a353-a03feed3718d
