raw_voltage_G-,raw_voltage_G0,raw_voltage_G1,raw_voltage_G2,raw_voltage_G3,raw_voltage_G4,raw_voltage_G5,raw_voltage_G6,load_x,load_y,load_z,load_l,load_m,load_n,rpm,voltage,current,roll,pitch,yaw,aileron1_pwm,elevator_pwm,throttle_pwm,rudder_pwm,aileron2_pwm,pbaro,pdiff,Tt,sample_start_time,sample_end_time,uid
0.0271868017935747,0.1739376835297199,-0.0079573770028616,0.0336039373014321,-0.1084591548968293,0.1455250668911759,-0.2432618874120721,-0.2579112542206284,-13.666307696169484,16.688585046460695,48.19005777674059,0.3622489315815144,0.3176327747663029,0.5778276309914929,5842.826171875,12.037444444444445,0.26,178.91916703611702,-6.418982231923448,102.76499996255808,1525.0,1435.0,1200.0,1528.0,1475.0,1021.7000000000002,185.0,294.15,1637172349.6530368,1637172350.8341722,b839d94e-5aa6-427f-8ddb-1f0c259ed1f1
0.0338754863452856,0.1722083442239676,-0.0013115684267309,0.0344185848073078,-0.098054533767808,0.1442530734875946,-0.2400604653021002,-0.2560532856622664,-14.339298205297824,16.68877236743505,47.91666490760844,0.357502759366344,0.3186540478824226,0.5489806301001526,5821.699869791667,12.035333333333334,0.26,179.03380189550683,-6.456029984323375,102.47311638183702,1525.0,1435.0,1200.0,1528.0,1475.0,1021.7000000000002,185.0,294.15,1637172350.9429371,1637172351.9739254,b839d94e-5aa6-427f-8ddb-1f0c259ed1f1
0.0168095742596451,0.1678278276126374,-0.0136652690000054,0.0232880466198189,-0.113061198820595,0.1528711861173535,-0.248766713543576,-0.2691745893949753,-14.028292264193128,16.76923559161146,46.99144104072584,0.4019039113658035,0.3088120728003979,0.5969074336587173,5743.645941840277,12.035,0.2644444444444444,179.12042842584026,-6.471676050437106,102.16442750011812,1525.0,1435.0,1200.0,1528.0,1475.0,1021.7000000000002,185.0,294.15,1637172352.0824606,1637172353.299635,b839d94e-5aa6-427f-8ddb-1f0c259ed1f1
0.186523629374437,0.4492373026839757,0.0141250488654093,-0.1153074345763551,-0.1689020722276869,-0.0080222867639855,-0.2722015282458341,-0.297211448229863,-10.9234796058591,16.328103536622393,45.18045568746569,0.3527259011304673,1.3771626634820044,0.7010830835835868,5706.67578125,12.022666666666668,0.2966666666666666,179.11130632874873,-6.491813772271895,101.81161483745105,1593.0,1435.0,1200.0,1528.0,1529.0,1021.7000000000002,185.0,294.15,1637172354.1119435,1637172355.257661,70ba25f7-b0a4-47e1-9635-9aed9a6684f7
0.222038804288565,0.4865056353377328,0.0248905440396123,-0.1375232541368854,-0.1505212891234878,-0.0134598206357463,-0.282090444942087,-0.3071551512527404,-13.95445646066963,16.152388482355466,46.71116625782065,0.3887099835385845,1.5282421676697775,0.6798790436184902,5727.047200520833,12.018999999999998,0.3,179.1386862804016,-6.500640653409275,101.58559021743696,1593.0,1435.0,1200.0,1528.0,1529.0,1021.7000000000002,185.0,294.15,1637172355.3943443,1637172356.367088,70ba25f7-b0a4-47e1-9635-9aed9a6684f7
0.2152864012208216,0.4949427146720119,0.0262465033111744,-0.1265660065299637,-0.1576024105289144,-0.0213627351485389,-0.27458472981287,-0.3072373318237242,-12.266053826395584,16.087490688671185,48.22223277554832,0.3469622873815235,1.533279489920343,0.6814444896842614,5803.267578125,12.021,0.3,179.19484864921685,-6.486135466046283,101.37373596322097,1593.0,1435.0,1200.0,1528.0,1529.0,1021.7000000000002,185.0,294.15,1637172356.4759128,1637172357.59642,70ba25f7-b0a4-47e1-9635-9aed9a6684f7
0.4397592848865067,0.908866373189226,0.0644599019020695,-0.3310419527393792,-0.2236472222649822,-0.2458493462517831,-0.3320144084864714,-0.3464779787121846,-11.555766190548034,15.629215774329154,47.12661444194072,0.3028062412104542,3.118018188442949,0.8485099417733708,5862.80859375,12.012777777777778,0.32,179.16839001419208,-6.46228563126133,100.92278031236997,1661.0,1435.0,1200.0,1528.0,1583.0,1021.7000000000002,185.0,294.15,1637172359.602287,1637172360.6493423,66325849-da20-46f3-8fb7-a9210569373c
0.4335547443516709,0.8884585025854124,0.066076095809282,-0.3182493649372791,-0.2097315172381813,-0.234015518271293,-0.3267686257014999,-0.3552026872469342,-12.363749740830576,15.338088444761755,47.67479316547164,0.2983727108241544,3.0408589599198983,0.8178547329562367,5830.950846354167,12.012,0.3266666666666667,179.19198907668437,-6.451516083055644,100.71686073363276,1661.0,1435.0,1200.0,1528.0,1583.0,1021.7000000000002,185.0,294.15,1637172360.7680387,1637172361.8039596,66325849-da20-46f3-8fb7-a9210569373c
0.4196801316815174,0.8732827169357332,0.0515029574750906,-0.3273986674787188,-0.2389736730366339,-0.2293860808700877,-0.3276862952927708,-0.3419307190863025,-9.853376545512438,15.709327352417835,44.94551441325938,0.3319781974287131,2.990571172984116,0.8746922643533077,5751.350857204861,12.010333333333332,0.32,179.20908883472646,-6.431768867800274,100.55037031915424,1661.0,1435.0,1200.0,1528.0,1583.0,1021.7000000000002,185.0,294.15,1637172361.91303,1637172363.238267,66325849-da20-46f3-8fb7-a9210569373c
0.656411428537738,1.2719895178962313,0.1187941491845941,-0.5321485665686544,-0.2605183622791665,-0.4255345282264878,-0.3803358757140502,-0.4068113291399898,-13.459171516903846,16.32444173956267,45.86224499855043,0.3588314408809861,4.532845488346571,0.9322405847889824,5714.28466796875,11.99688888888889,0.37,179.1037430326078,-6.435258715011197,100.29838263228515,1729.0,1435.0,1200.0,1528.0,1636.0,1021.7000000000002,185.0,294.15,1637172364.1488008,1637172365.3786728,b1590eda-424b-421d-a0a9-4ae9cbec6487
0.6825444597848609,1.2949312536413806,0.1180134453530676,-0.520574971383756,-0.2814193135135266,-0.4486680207418463,-0.3736382572860386,-0.3945666036860671,-10.259774989529976,16.38325784086835,47.28835621082925,0.2829290494762784,4.582133363775898,0.959338750234816,5748.797254774306,11.997222222222222,0.36,179.09884806370266,-6.426007318644153,100.08219500249572,1729.0,1435.0,1200.0,1528.0,1636.0,1021.7000000000002,185.0,294.15,1637172365.4872882,1637172366.607023,b1590eda-424b-421d-a0a9-4ae9cbec6487
0.6652457079695439,1.3066692045107973,0.1168903275640294,-0.5296557922565093,-0.2795702778472988,-0.4516127816298456,-0.3791990611707262,-0.4140568104999254,-11.075083275668147,16.16075620112004,47.29728330560315,0.294855989229969,4.632892317411073,0.96714304663965,5840.196397569444,11.998222222222225,0.36,179.07550551275915,-6.424878961906893,99.91613413102502,1729.0,1435.0,1200.0,1528.0,1636.0,1021.7000000000002,185.0,294.15,1637172366.7155914,1637172367.8288543,b1590eda-424b-421d-a0a9-4ae9cbec6487
0.8111825258664095,1.5352784768346517,0.1655268058495345,-0.6581158563148339,-0.2952117498881012,-0.5659105931550155,-0.3942241887845494,-0.4144266172511544,-11.61471164629132,16.906447040912884,46.19986175865082,0.3347064531252815,5.522773981577051,0.9678471625526912,5876.655490451389,11.970444444444446,0.43,179.00621855599877,-6.399914525626759,99.65524594875748,1796.0,1435.0,1200.0,1528.0,1690.0,1021.7000000000002,185.0,294.15,1637172368.6546366,1637172369.6061592,19ee717c-f137-4b01-ab19-1b8de7474a18
0.7987597483339756,1.5410858183136291,0.1600344860283601,-0.6698127215734649,-0.3065525021077095,-0.5656503585233745,-0.3989905921690667,-0.4190834488001937,-11.179444719903922,17.02928651245288,45.47172431953956,0.3623203671706875,5.549021828365743,0.9973937894572644,5876.654296875,11.970555555555556,0.4255555555555556,179.00259552009896,-6.412299176411807,99.34218650487968,1796.0,1435.0,1200.0,1528.0,1690.0,1021.7000000000002,185.0,294.15,1637172369.715165,1637172370.8161576,19ee717c-f137-4b01-ab19-1b8de7474a18
0.8048547163663299,1.530786005151539,0.1631846944040651,-0.6668131741004494,-0.3027585548348778,-0.5590212221054097,-0.3907589587969311,-0.4130021751115071,-10.841497724428374,17.0078459878984,45.41441246071238,0.3706263832189577,5.508337348875782,0.9751564459336612,5859.691948784723,11.972888888888887,0.4288888888888889,178.98832497819313,-6.376757528155739,99.1138085052416,1796.0,1435.0,1200.0,1528.0,1690.0,1021.7000000000002,185.0,294.15,1637172370.9253483,1637172372.0505464,19ee717c-f137-4b01-ab19-1b8de7474a18
-0.2154429827838311,-0.2713934312515296,-0.0429485121560366,0.2517329418783913,-0.0432498364894574,0.3608534171792014,-0.1837628396491758,-0.2117038227011413,-13.66015054261206,17.97546714982055,45.40518057274464,0.3604226392167353,-1.357043723129961,0.3955687709293634,5826.9384765625,12.023555555555554,0.2899999999999999,179.48424983562958,-6.371282230330457,98.65389316401937,1457.0,1435.0,1200.0,1528.0,1421.0,1021.7000000000002,185.0,294.15,1637172374.1841438,1637172375.3272429,162ad00f-8a49-4965-a6e5-9f4f218a9e43
-0.2261262997671057,-0.2827752729419664,-0.0470985695015683,0.2597728213076648,-0.0431402639789531,0.3681399858036883,-0.1843928813620805,-0.217045480778672,-13.69155965488872,17.886957838955624,45.89064244669364,0.3579287244420179,-1.4050673537452738,0.4013659116314936,5834.87158203125,12.021,0.28,179.43227968514486,-6.343329870879657,98.70779701694909,1457.0,1435.0,1200.0,1528.0,1421.0,1021.7000000000002,185.0,294.15,1637172375.460914,1637172376.5503452,162ad00f-8a49-4965-a6e5-9f4f218a9e43
-0.2263454447124229,-0.2803098920439856,-0.047235535106147,0.2471445949320638,-0.0459891482699383,0.3695233380993398,-0.1862145238638134,-0.2196341304890752,-13.838619758499108,18.039078467007467,44.76969449291496,0.3902723806823685,-1.3832961858060515,0.4064678368260415,5839.730631510417,12.025,0.29,179.42985572689943,-6.340591202181828,98.71064141128343,1457.0,1435.0,1200.0,1528.0,1421.0,1021.7000000000002,185.0,294.15,1637172376.6595774,1637172377.6672947,162ad00f-8a49-4965-a6e5-9f4f218a9e43
-0.3915670560528781,-0.5897152192868771,-0.0763955095170805,0.4042030217594394,-0.0005713587846137,0.5230069606514074,-0.1568627962705622,-0.182064466748492,-14.900182529096838,19.11012311193365,44.04520292364823,0.3858835031341312,-2.550987325689671,0.3043000565620898,5798.905598958333,12.005777777777777,0.3400000000000001,179.5079293425721,-6.318205921223281,98.71390092933736,1389.0,1435.0,1200.0,1528.0,1367.0,1021.7000000000002,185.0,294.15,1637172379.601822,1637172380.652046,e32ed325-fd06-4508-ad22-874be7aebca9
-0.3889099232403108,-0.5802235012630167,-0.0685199879757801,0.3945469486734643,0.0076328799571718,0.524020505893305,-0.147357383861994,-0.16768307886372,-15.032803816601424,18.79779975864008,44.318582032923416,0.4082413489366086,-2.515189064915245,0.2703415507921667,5789.331814236111,12.004555555555555,0.3344444444444445,179.5068365123049,-6.309191447043072,98.54420260267868,1389.0,1435.0,1200.0,1528.0,1367.0,1021.7000000000002,185.0,294.15,1637172380.7662077,1637172381.8753183,e32ed325-fd06-4508-ad22-874be7aebca9
-0.3858008036888409,-0.5734026129570211,-0.0739575219818961,0.387767152733862,-0.0056938718056944,0.5210620495104451,-0.1522196625463742,-0.1656148986445965,-14.271384006319945,19.006467742449857,43.91459858425144,0.4183182754316537,-2.490921667621019,0.3034708119283438,5787.59375,12.003,0.3299999999999999,179.50211153921907,-6.302685122676205,98.38089733308308,1389.0,1435.0,1200.0,1528.0,1367.0,1021.7000000000002,185.0,294.15,1637172381.9842093,1637172383.1012678,e32ed325-fd06-4508-ad22-874be7aebca9
-0.5353946519345565,-0.8434166768831247,-0.1036927522145649,0.5065847883902849,0.0252603510546267,0.6448104445433964,-0.1329075135241656,-0.1524798977552316,-15.09305172670318,20.08724979270039,39.40393209435532,0.4329253525894977,-3.474340808888316,0.2353360401713309,5787.59375,11.945,0.49,179.58141003548295,-6.2729631276160704,98.0763460281814,1321.0,1435.0,1200.0,1528.0,1314.0,1021.7000000000002,185.0,294.15,1637172385.0571787,1637172386.0000489,ab17479d-75a3-4ecc-b59c-f70bfb14afff
-0.5405308628007681,-0.8297064149305454,-0.0914754212565611,0.5024347315202157,0.039203447825329,0.6350584957780013,-0.1322911683344328,-0.1654094505002428,-16.307209472490285,20.225214432013075,39.43826850238661,0.4212901562567919,-3.413341989212125,0.1995791976983169,5782.388834635417,11.950666666666669,0.48,179.65647381446138,-6.294738624463716,97.56691409220628,1321.0,1435.0,1200.0,1528.0,1314.0,1021.7000000000002,185.0,294.15,1637172386.1085064,1637172387.2011757,ab17479d-75a3-4ecc-b59c-f70bfb14afff
-0.535586403882459,-0.8278710752505937,-0.086243335616162,0.5090090790412538,0.0375050745425169,0.6334149089052444,-0.1195122783218311,-0.1464260185127152,-14.835772730122564,20.18131667059661,40.38232317831094,0.4036273707389828,-3.4257184508931444,0.1792243725201469,5783.68896484375,11.952,0.47,179.69446788008443,-6.303798585806523,97.1629266166378,1321.0,1435.0,1200.0,1528.0,1314.0,1021.7000000000002,185.0,294.15,1637172387.3098118,1637172388.4259691,ab17479d-75a3-4ecc-b59c-f70bfb14afff
-0.6792085642981149,-1.0828600580324723,-0.1090207138057142,0.6160887639683689,0.0629532804285439,0.7507533149801676,-0.0918589249170747,-0.1150061111585021,-14.490626667863902,21.466478539617725,35.567111535480215,0.4325483990363234,-4.35645389796697,0.0992462614365461,5778.923014322917,11.947666666666668,0.48,179.74768719627735,-6.310800146320087,96.67395792741604,1254.0,1435.0,1200.0,1528.0,1260.0,1021.7000000000002,185.0,294.15,1637172389.0659306,1637172390.1601992,a5853f8b-d352-4667-b448-4939159d84e6
-0.6709358398011457,-1.0651093056986043,-0.1038708074863398,0.5978860393609183,0.0722395470925107,0.7491097281011507,-0.0975293005261001,-0.1209641142668768,-16.227830028869366,21.38390545731825,35.43148892576549,0.4687288879447731,-4.273814045022952,0.0882675253870232,5775.8935546875,11.949,0.48,179.74165993378978,-6.307605135608337,96.3552749611216,1254.0,1435.0,1200.0,1528.0,1260.0,1021.7000000000002,185.0,294.15,1637172390.269019,1637172391.5008965,a5853f8b-d352-4667-b448-4939159d84e6
-0.679167474648715,-1.0836818520430895,-0.1087330860843404,0.6127741971092011,0.0707192290878298,0.7562456344435681,-0.0991044048600788,-0.1326198860881299,-16.050650803092793,21.52202011538172,35.780272776580205,0.4519984414522307,-4.349956630388467,0.0976510978599431,5775.46142578125,11.95011111111111,0.48,179.73250899812177,-6.311363447199136,96.0600407931577,1254.0,1435.0,1200.0,1528.0,1260.0,1021.7000000000002,185.0,294.15,1637172391.6090724,1637172392.61806,a5853f8b-d352-4667-b448-4939159d84e6
-0.0052692785566741,0.1212732262128191,-0.0201163482772432,0.0639805223084406,-0.1023367928361901,0.1614589280578281,-0.2467944089165199,-0.2842955922590846,-14.230110539652728,16.52935414053769,47.04119838383679,0.3274043763471644,0.1297682876582291,0.5830369722611933,5766.830240885417,12.032111111111114,0.25,179.4064463918841,-6.279245715855751,95.79100191848065,1525.0,1435.0,1200.0,1528.0,1475.0,1021.7000000000002,185.0,294.15,1637172393.6407669,1637172394.6665456,268525d1-eed7-48ff-a646-24219e6d90ea
-0.0129256549339301,0.097906897689638,-0.0246225161860162,0.0626245630222083,-0.1101986179907494,0.1861401258074513,-0.235248208672097,-0.2497528667841677,-12.836584242823086,16.576935463822597,47.13666276896237,0.3867327635993091,0.0313033016339326,0.5816985611970115,5778.058756510417,12.032777777777776,0.2522222222222222,179.30647974319177,-6.257521540290617,96.2644880866738,1525.0,1435.0,1200.0,1528.0,1475.0,1021.7000000000002,185.0,294.15,1637172394.774511,1637172396.0077832,268525d1-eed7-48ff-a646-24219e6d90ea
-0.0082962181097411,0.1106857866427856,-0.0159799874922779,0.0721847608171312,-0.1016793580166062,0.1671566962591572,-0.2366863474447057,-0.2614771222913331,-13.307112202441637,16.705525856141623,47.4979492823997,0.3236125195766668,0.0787331187511297,0.5621197133285097,5783.68896484375,12.035,0.25,179.2383797215271,-6.258987991391793,96.64964017724108,1525.0,1435.0,1200.0,1528.0,1475.0,1021.7000000000002,185.0,294.15,1637172396.1157467,1637172397.2381055,268525d1-eed7-48ff-a646-24219e6d90ea
0.0157001530265077,0.1079601715361086,-0.0526867656070778,-0.3902247929767972,-0.1813385485623209,0.6163489985625364,-0.1474943494938928,-0.1674091482483142,-13.574144894561789,15.568112895458526,50.65820092675612,2.3670918068718905,0.0969773757880401,0.5940164685123851,5782.822211371527,12.026444444444444,0.2777777777777778,179.17691712591588,-6.116045128395598,97.09841851556666,1525.0,1535.0,1200.0,1528.0,1475.0,1021.7000000000002,185.0,294.15,1637172398.1462452,1637172399.171415,c8a50164-8612-41aa-8e8e-4fe9627f25a7
0.0034280362864319,0.0937294473348706,-0.0621647845278582,-0.3951007686993472,-0.2019244780593223,0.6205538416403572,-0.1466177696406549,-0.1704086941925103,-11.651055211445486,15.917735412059969,48.58912196791906,2.390023616371638,0.0483359568966546,0.6302452145864361,5784.990559895833,12.029,0.2633333333333333,179.13762987780996,-6.1275533805327695,97.26366735343603,1525.0,1535.0,1200.0,1528.0,1475.0,1021.7000000000002,185.0,294.15,1637172399.2803185,1637172400.3965125,c8a50164-8612-41aa-8e8e-4fe9627f25a7
0.0200008723925391,0.1221635025076901,-0.048728460050113,-0.3890057989324962,-0.1834889084713586,0.6011595165584429,-0.1462205694460785,-0.1681350660020737,-12.988259802927857,15.609974155742782,50.653364047926935,2.330978009915942,0.1462461821154154,0.5918511525426607,5791.50439453125,12.029,0.27,179.0873414716809,-6.102063256845889,97.43332469895972,1525.0,1535.0,1200.0,1528.0,1475.0,1021.7000000000002,185.0,294.15,1637172400.5043757,1637172401.6287708,c8a50164-8612-41aa-8e8e-4fe9627f25a7
0.029314532398539,0.1071383780399137,-0.0813262708522469,-0.903613083545642,-0.2677638427981768,1.1087265432158742,-0.0486188875937416,-0.0829698584599263,-13.968031036035214,15.40368572353038,53.60683688743924,4.629363789338544,0.1319400003014603,0.6093419991357149,5785.425726996527,12.020333333333332,0.28,179.01618759654733,-5.945020891264278,97.77984903413098,1525.0,1636.0,1200.0,1528.0,1475.0,1021.7000000000002,185.0,294.15,1637172403.6759818,1637172404.700374,dab3cbc1-5b8e-4596-aef8-5d13c728ff30
0.039367806472886,0.1116993319610948,-0.0705196856133325,-0.9039965874327968,-0.2598198377263794,1.1084115224024187,-0.0339361762816241,-0.0586173766360524,-13.405999149849256,15.26664106559612,54.243547495268416,4.629535004410672,0.1401552501922097,0.5647821849417013,5787.59375,12.019666666666666,0.2833333333333334,178.99449188010374,-5.940376742083623,97.79292960530144,1525.0,1636.0,1200.0,1528.0,1475.0,1021.7000000000002,185.0,294.15,1637172404.8083389,1637172405.9333503,dab3cbc1-5b8e-4596-aef8-5d13c728ff30
0.0318620923520006,0.10856282010516,-0.0714099619589974,-0.8959840962456304,-0.2668598697709547,1.1020974091598597,-0.0281014421564793,-0.0468383356313428,-11.939497193663366,15.266700897937108,53.96930552774925,4.597922682629343,0.1193995361295342,0.5676065669957521,5794.5498046875,12.018444444444444,0.2877777777777777,179.00648872792593,-5.932759136452421,97.79986755967838,1525.0,1636.0,1200.0,1528.0,1475.0,1021.7000000000002,185.0,294.15,1637172406.0455773,1637172407.1646185,dab3cbc1-5b8e-4596-aef8-5d13c728ff30
0.0630354597586164,0.1174381898886642,-0.0854352386291685,-1.30834668586016,-0.3295764206835005,1.5015575463214308,0.0464626238755868,0.0226580040137632,-13.419017387105036,15.868977108563485,58.24289643591411,6.428982599330793,0.1751742682488409,0.5681873908804033,5779.355794270833,11.996111111111112,0.3411111111111111,179.01017854789754,-5.8256026227256825,97.78546496744852,1525.0,1737.0,1200.0,1528.0,1475.0,1021.7000000000002,185.0,294.15,1637172408.047527,1637172409.1141555,a89e471a-53a2-46c0-aa4f-3d11e599e69e
0.0612686036841983,0.1104803382592083,-0.0945160574268922,-1.3148799505484532,-0.335123527821874,1.5028450229128063,0.0358203978203255,0.0115227015274338,-13.984782613868722,15.871122291816045,56.52962001621893,6.445617334170919,0.1684959127874093,0.5995610252575728,5785.858289930556,12.000888888888888,0.3344444444444445,179.01822299292002,-5.789626593411149,97.59230494099084,1525.0,1737.0,1200.0,1528.0,1475.0,1021.7000000000002,185.0,294.15,1637172409.222361,1637172410.2541816,a89e471a-53a2-46c0-aa4f-3d11e599e69e
0.0667609236104338,0.1238892688547031,-0.0883115160421908,-1.3179753755768957,-0.3348906862714676,1.4972842196811165,0.0429700014556445,0.0297939115024317,-13.335711576815427,15.820687650382771,57.24975279954548,6.4405201138643,0.2085846637287329,0.5836925366766622,5794.5498046875,11.999555555555554,0.3377777777777778,179.04199660469106,-5.808872406376822,97.451632641575,1525.0,1737.0,1200.0,1528.0,1475.0,1021.7000000000002,185.0,294.15,1637172410.36172,1637172411.4592,a89e471a-53a2-46c0-aa4f-3d11e599e69e
0.0676648965249882,0.1164246445704589,-0.0889552543927849,-1.4605840898246143,-0.3633110503407232,1.641152889049313,0.0703494220496214,0.0584334156640888,-13.13267110015943,17.036177006348666,58.08063454159734,7.093762768286253,0.1893246191512735,0.5829585153889495,5799.34130859375,11.973333333333334,0.4111111111111111,179.11589925151063,-5.764347019791809,97.07787102981356,1525.0,1837.0,1200.0,1528.0,1475.0,1021.7000000000002,185.0,294.15,1637172413.5975678,1637172414.6410658,9f89dc2e-9f13-4c0f-91b8-750a274ff8bd
0.0735544167121872,0.1297650923548403,-0.0818330436402356,-1.449969245563475,-0.3562436248808105,1.617129121881124,0.0661993646457776,0.0475583476773621,-13.605875182695916,17.15928091634083,57.92577208177443,7.016741492136087,0.243227856926975,0.570640267188174,5795.419921875,11.971,0.4099999999999999,179.12914071158153,-5.79516772667093,96.79832125291372,1525.0,1837.0,1200.0,1528.0,1475.0,1021.7000000000002,185.0,294.15,1637172414.749982,1637172415.871066,9f89dc2e-9f13-4c0f-91b8-750a274ff8bd
0.0655145368207759,0.1106173038397397,-0.0827918027308675,-1.4351906446413076,-0.3495870962060725,1.6250457347387546,0.0695961112651685,0.0467776440196687,-13.780440614602028,17.02581649812653,58.33035690936555,7.000238405181228,0.1671791085546342,0.5563605107041925,5787.59375,11.977555555555556,0.4,179.16078725473596,-5.795946368236311,96.54466624097724,1525.0,1837.0,1200.0,1528.0,1475.0,1021.7000000000002,185.0,294.15,1637172415.9868965,1637172417.03117,9f89dc2e-9f13-4c0f-91b8-750a274ff8bd
-0.0012287936385065,0.1550763319830717,0.0432165395399058,0.6276897479691378,0.0074411281801788,-0.4100300205265455,-0.3538604231195966,-0.3827327744907469,-14.604209594489648,18.29896134099825,44.11427507415889,-2.214167886636392,0.2197798224732312,0.5035417400989061,5790.635362413194,12.035,0.25,179.15023233573854,-6.453710471053987,96.36830620314808,1525.0,1334.0,1200.0,1528.0,1475.0,1021.7000000000002,185.0,294.15,1637172417.5668728,1637172418.6281366,793d9601-6966-4dcb-a628-1d5cfeb0aa7b
-0.0220338666291526,0.1316141277382827,0.0292871393591177,0.6374006070663344,-0.0081318592820937,-0.4012505247540499,-0.3495597029918467,-0.3700497589018531,-12.656489861338974,17.998527271612115,43.32211970427548,-2.2181755528453126,0.1229339037821369,0.5352310508911556,5783.68896484375,12.035333333333332,0.25,179.0687633571385,-6.467195161750362,96.80330956773756,1525.0,1334.0,1200.0,1528.0,1475.0,1021.7000000000002,185.0,294.15,1637172418.7368088,1637172419.9681635,793d9601-6966-4dcb-a628-1d5cfeb0aa7b
-0.0262403537559486,0.1231156872539182,0.0330076725901481,0.6395175469570525,0.0033442134922853,-0.3875008208049149,-0.3467793010726589,-0.3719722084600543,-13.694263236304398,17.95311534994574,44.40058591317943,-2.1925196882564766,0.0888207221895012,0.5103742575327556,5793.245930989583,12.034555555555556,0.25,178.99038010622337,-6.450624838232694,97.15015112725024,1525.0,1334.0,1200.0,1528.0,1475.0,1021.7000000000002,185.0,294.15,1637172420.0765412,1637172421.199077,793d9601-6966-4dcb-a628-1d5cfeb0aa7b
-0.0335115831054089,0.1442286578829272,0.0767594114420896,1.1618828851474077,0.0844294841683449,-0.918131443686649,-0.4698018155682827,-0.4857994006130968,-14.18183981616616,20.55502091106215,39.9569562210481,-4.5447726546326255,0.1493453233894049,0.5149112267833666,5807.637152777777,12.027111111111113,0.2711111111111111,178.9638653118654,-6.605291436348002,97.6496937082171,1525.0,1234.0,1200.0,1528.0,1475.0,1021.7000000000002,185.0,294.15,1637172422.108528,1637172423.2463782,ea54ca69-d480-4624-a20d-c0de07d39183
-0.0419760564689229,0.1506797367914226,0.0731846096953565,1.163649741145805,0.0826078419076062,-0.9259658795259276,-0.4748147572173677,-0.4940858210332943,-14.306216304041447,20.329455270089284,39.94341284006303,-4.568101342281572,0.1740931457638429,0.530185146749886,5808.074598524306,12.021,0.28,178.9657762470132,-6.628679569317811,97.87392805975873,1525.0,1234.0,1200.0,1528.0,1475.0,1021.7000000000002,185.0,294.15,1637172423.354129,1637172424.4715128,ea54ca69-d480-4624-a20d-c0de07d39183
-0.0410994768166496,0.1336549149181597,0.070212456473076,1.1718265864452764,0.0774442393362146,-0.912502154946815,-0.470952326756584,-0.5082069764121157,-13.51426207458799,20.598166749670217,40.5519867041281,-4.5541625278459925,0.0980500744125705,0.535083832505132,5807.19970703125,12.020444444444443,0.28,178.96294095959772,-6.650616287088992,98.05288812293196,1525.0,1234.0,1200.0,1528.0,1475.0,1021.7000000000002,185.0,294.15,1637172424.5805795,1637172425.703243,ea54ca69-d480-4624-a20d-c0de07d39183
-0.0542344769308054,0.1499264261140575,0.1150686853099676,1.5494681131506471,0.1489813635663643,-1.29384201704734,-0.552556444575358,-0.5803604673861553,-14.48266960898823,22.82251984470014,37.881574545859145,-6.246884981556406,0.1459856947735894,0.4926141051262613,5781.09765625,12.015666666666666,0.2911111111111111,178.97153181975378,-6.761134344820368,98.30432104665846,1525.0,1133.0,1200.0,1528.0,1475.0,1021.7000000000002,185.0,294.15,1637172426.615628,1637172427.6349633,04114277-f360-4979-857f-4d902446c847
-0.0485367083127864,0.1576786780121817,0.1049469286710464,1.5131037464246904,0.1360244194591499,-1.279898907845369,-0.5609250443836794,-0.5852364449022032,-14.904765987639452,22.73593554222731,36.11641035729128,-6.135095675104395,0.1975275508681814,0.5338440252011447,5730.85400390625,12.013666666666666,0.3033333333333333,178.97060898530592,-6.772917180048547,98.41106855537676,1525.0,1133.0,1200.0,1528.0,1475.0,1021.7000000000002,185.0,294.15,1637172427.7438183,1637172428.7752273,04114277-f360-4979-857f-4d902446c847
-0.0542070837523238,0.142872698611627,0.1036594521782218,1.5282384452689606,0.1366270680154241,-1.272954746502173,-0.5572954552912589,-0.5805248267751788,-14.456056679190247,22.79629115639234,37.02780301609,-6.152924242915084,0.1287986209133015,0.5295260453112497,5702.87841796875,12.012999999999998,0.2899999999999999,178.9913773138422,-6.780309152277793,98.51690689002557,1525.0,1133.0,1200.0,1528.0,1475.0,1021.7000000000002,185.0,294.15,1637172428.883171,1637172430.210785,04114277-f360-4979-857f-4d902446c847
-0.0526182828979217,0.15139195782476,0.1155480647073827,1.692651958649608,0.1529670618376134,-1.4306570777694922,-0.6062058815594938,-0.6244634005996194,-14.807315415804204,24.53391404095856,37.1566776053273,-6.866224428453168,0.1426352543731173,0.5623983151726049,5725.771538628473,11.991777777777775,0.35,179.00436833364358,-6.888360705377019,98.64833035439533,1525.0,1033.0,1200.0,1528.0,1475.0,1021.7000000000002,185.0,294.15,1637172431.120846,1637172432.083926,231fc736-fd3a-46fd-b2e1-09f9838e2b82
-0.0717934658304003,0.1453791687340033,0.1121239251367814,1.7475614756132185,0.153501227587249,-1.4776500255181328,-0.6281477756844425,-0.6574858155316124,-15.04561250797555,25.113127780092785,36.7235559397388,-7.0922060902253135,0.1186412082465288,0.5963174800729822,5793.721082899306,11.994777777777776,0.35,179.05716417810794,-6.894240691910623,98.58750296637692,1525.0,1033.0,1200.0,1528.0,1475.0,1021.7000000000002,185.0,294.15,1637172432.1927776,1637172433.2884016,231fc736-fd3a-46fd-b2e1-09f9838e2b82
-0.0681090913209514,0.1496661915004727,0.1197939977589637,1.726003085350692,0.1565829531356847,-1.462241375122493,-0.6144512124504398,-0.629106536020125,-14.756891769796724,25.049225261857856,36.77052345111253,-7.008839226338843,0.1353998410677946,0.5627880013938836,5818.587727864583,11.993333333333332,0.35,179.0644163211867,-6.902736356305126,98.57138751448522,1525.0,1033.0,1200.0,1528.0,1475.0,1021.7000000000002,185.0,294.15,1637172433.401573,1637172434.4402192,231fc736-fd3a-46fd-b2e1-09f9838e2b82
-0.0073785486396961,0.1059604740217641,-0.01418573825885,0.0909216528610993,-0.0932970636689944,0.1562405394226458,-0.2420553990454463,-0.2659832909450102,-14.07037177963045,16.771070301527,47.730074785451386,0.2569932601259141,0.0621631096051862,0.5552606012988931,5808.103135850694,12.03422222222222,0.24,179.1138122492642,-6.4267823553874734,98.4791382206451,1525.0,1435.0,1200.0,1528.0,1475.0,1021.7000000000002,185.0,294.15,1637172436.6503112,1637172437.7859535,842ada12-23da-4ccd-a93e-2cb7deffdbe8
0.0058112376158311,0.1105214279468051,-0.0133091584800426,0.0879358030946128,-0.1006384194726289,0.1460639966513418,-0.2415486263271047,-0.2711058042546614,-13.202634025454566,17.025002327303064,46.52619440554642,0.2428324407505619,0.0842252858057426,0.5626737222140749,5775.8935546875,12.035333333333334,0.24,179.0964711578715,-6.378170428676546,98.5762635106427,1525.0,1435.0,1200.0,1528.0,1475.0,1021.7000000000002,185.0,294.15,1637172437.893836,1637172439.0173895,842ada12-23da-4ccd-a93e-2cb7deffdbe8
0.0082749745670566,0.1211039367767287,-0.0119871666171655,0.0950169238342808,-0.1006093827657016,0.1391045015066997,-0.2374084300856793,-0.2613390603982898,-12.59637239653564,16.698159081913698,47.95869884112534,0.2096529215687986,0.1061353332466626,0.5588585051133385,5775.8935546875,12.033,0.24,179.08906875063096,-6.366160679385939,98.65857715597016,1525.0,1435.0,1200.0,1528.0,1475.0,1021.7000000000002,185.0,294.15,1637172439.126027,1637172440.14019,842ada12-23da-4ccd-a93e-2cb7deffdbe8
0.04044983458847,0.1363257437971813,0.1404210146712258,0.079279578137486,0.0359025771268127,0.123848179159916,-0.083380754731261,-0.1044597599658061,-11.78675272752578,16.996959185640055,47.02250185952727,0.2206975230274015,0.1773981031439415,-0.0533004537816304,5773.30078125,12.034666666666668,0.24,179.11989415326516,-6.353557083092498,98.71616399868236,1525.0,1435.0,1200.0,1454.0,1475.0,1021.7000000000002,185.0,294.15,1637172442.179899,1637172443.2039986,42e66876-992d-4017-87d6-ec32c71a77ef
0.0477637969099634,0.1466940383709901,0.1483102322334292,0.072157367772951,0.0481883902894726,0.1227387579713124,-0.082517871505089,-0.0956665688477536,-13.016783270174358,16.893002081902708,47.417934288404815,0.2334180214476333,0.2228619256488157,-0.0810842941912833,5778.490234375,12.033333333333337,0.24,179.13426031781944,-6.348631947518488,98.7505471709642,1525.0,1435.0,1200.0,1454.0,1475.0,1021.7000000000002,185.0,294.15,1637172443.3120997,1637172444.4330742,42e66876-992d-4017-87d6-ec32c71a77ef
0.0493252045703632,0.1435438299602241,0.1438040645785508,0.0747186241924261,0.0415044696784278,0.121588247070261,-0.0819837056789648,-0.1158963871099406,-12.254314641978484,16.799527982692574,47.13280115818193,0.2245494301191334,0.2075746932774843,-0.0667879856698368,5786.726019965277,12.03377777777778,0.24,179.13803665352054,-6.34579566403377,98.781128963518,1525.0,1435.0,1200.0,1454.0,1475.0,1021.7000000000002,185.0,294.15,1637172444.5406752,1637172445.7741885,42e66876-992d-4017-87d6-ec32c71a77ef
0.0968248694715378,0.1581306644318847,0.3285158446466734,0.0657199852550407,0.2049318033998738,0.1035772728420683,0.1099461725065155,0.0779921006971382,-10.42037973884659,17.115688706440263,46.86291192552167,0.2165485062442949,0.2645191011647397,-0.8119734533005571,5781.522081163194,12.031555555555556,0.25,179.13784237258417,-6.337100311469783,98.78995660356526,1525.0,1435.0,1200.0,1380.0,1475.0,1021.7000000000002,185.0,294.15,1637172447.709119,1637172448.8462589,1953e0f5-66be-403c-bb0e-06c38488175a
0.1110966832466773,0.1746487135506792,0.3312688527371,0.0494484736622162,0.2038497753433469,0.1007557818375753,0.1114664904626153,0.0788686808918164,-10.447654853620543,16.977251130254484,46.65098685545835,0.24608463316102,0.330718710930599,-0.8148220967765721,5791.069878472223,12.032555555555556,0.25,179.12632212018408,-6.36151752627454,98.75948864749763,1525.0,1435.0,1200.0,1380.0,1475.0,1021.7000000000002,185.0,294.15,1637172448.9546795,1637172450.075826,1953e0f5-66be-403c-bb0e-06c38488175a
0.1035361830279419,0.1666362270492569,0.3234344217473786,0.0662130613888155,0.200398242710163,0.1011118923332211,0.1055221841418683,0.0895519966086806,-10.34689126536295,16.86284637098045,47.72725622448026,0.2081418384841606,0.2878522058724226,-0.7901654820314884,5791.50439453125,12.03011111111111,0.25,179.11356332681447,-6.366032945362088,98.76854775506682,1525.0,1435.0,1200.0,1380.0,1475.0,1021.7000000000002,185.0,294.15,1637172450.1840966,1637172451.3036792,1953e0f5-66be-403c-bb0e-06c38488175a
0.161910914424653,0.1931664601031472,0.5192541039507906,0.0537902827251929,0.3722626496241457,0.0690071592939298,0.3066561385996517,0.2846320735015167,-8.327504619975521,17.02638367200586,46.74866450135794,0.1757160977013475,0.3956834286802523,-1.5744805879099848,5783.68896484375,12.031222222222222,0.25,179.1229783631304,-6.372115750568545,98.69158670131893,1525.0,1435.0,1200.0,1306.0,1475.0,1021.7000000000002,185.0,294.15,1637172452.1021016,1637172453.148055,1ec14ee8-9d41-4857-ba0d-d6421ccd12f1
0.1899066792011549,0.209437971002369,0.5361145660012262,0.0498730669516182,0.3949578454458884,0.0617479832961115,0.3080531874632754,0.283933549146969,-10.355660217433078,17.128106437172036,47.54980719227408,0.1688606948870226,0.4655186484744664,-1.6287596684705885,5783.68896484375,12.028444444444444,0.25,179.15326493973004,-6.384072897916167,98.68068647831348,1525.0,1435.0,1200.0,1306.0,1475.0,1021.7000000000002,185.0,294.15,1637172453.255701,1637172454.3796413,1ec14ee8-9d41-4857-ba0d-d6421ccd12f1
0.1763881763730917,0.2035347545201626,0.5271296244023222,0.0473802933256657,0.3923007132926271,0.0705548704436752,0.29982155624832,0.2766880696306393,-11.037035315871805,16.939628005266936,47.59279628087355,0.1922410622256604,0.4475537117088384,-1.602247666373404,5787.59375,12.026333333333334,0.25,179.16684487361985,-6.390645484604359,98.68026376549486,1525.0,1435.0,1200.0,1306.0,1475.0,1021.7000000000002,185.0,294.15,1637172454.4884846,1637172455.6052182,1ec14ee8-9d41-4857-ba0d-d6421ccd12f1
0.2253122816245808,0.2230112599714509,0.7123892580486352,0.0502428740622078,0.5511533859207226,0.0397102205103308,0.4909570164675058,0.4784520594771796,-8.405548832503657,17.420926603397216,47.72483274449694,0.1302326846961068,0.5122073889428266,-2.339065479955293,5783.68896484375,12.024,0.2666666666666667,179.20736155577637,-6.396428899852198,98.61343795356537,1525.0,1435.0,1200.0,1232.0,1475.0,1021.7000000000002,185.0,294.15,1637172456.6083052,1637172457.8541834,f5fcf3f0-af12-41d5-ace6-f7aa9a5aacd0
0.2269832616885417,0.2254492472666608,0.7089377256175244,0.0396417375967298,0.551399923952777,0.0421071182516205,0.4837663238522379,0.4616052937424344,-9.320764569927276,17.350542594308973,46.9826267598656,0.1583149449430529,0.5354923728892653,-2.325914357495789,5783.68896484375,12.024666666666668,0.2688888888888889,179.22772917988132,-6.388475808609887,98.5824880897063,1525.0,1435.0,1200.0,1232.0,1475.0,1021.7000000000002,185.0,294.15,1637172457.9628189,1637172459.086336,f5fcf3f0-af12-41d5-ace6-f7aa9a5aacd0
0.2272024065703078,0.2356120932323092,0.7178267912836346,0.0585018988078441,0.560028755047627,0.0215896733481478,0.4837937169686497,0.457523719741294,-9.469656027214365,17.494703043224778,47.98316304490655,0.0711484200443472,0.5640391882040655,-2.347179962552145,5791.509602864583,12.022333333333332,0.26,179.20394646119135,-6.404324171645909,98.57401410167604,1525.0,1435.0,1200.0,1232.0,1475.0,1021.7000000000002,185.0,294.15,1637172459.1953375,1637172460.5234928,f5fcf3f0-af12-41d5-ace6-f7aa9a5aacd0
-0.08205218861974,0.0826900212814932,-0.227358989993146,0.1434890437061864,-0.2931024796093604,0.1448313064471342,-0.471623458289629,-0.4956472285699027,-14.512813966873225,17.386353094213344,48.03831070412506,0.1060666352750846,-0.0446914102371738,1.442355404400806,5855.688910590277,12.03022222222222,0.24,179.22467987987187,-6.400186120510005,98.74737416863978,1525.0,1435.0,1200.0,1602.0,1475.0,1021.7000000000002,185.0,294.15,1637172462.5483716,1637172463.684264,a84d1e8b-6e75-4724-a991-459c090c9bef
-0.0679310360539399,0.0869359543827975,-0.224811429861406,0.1386404620529274,-0.2917191270317257,0.1425576777839388,-0.4730068111135648,-0.5032488214062758,-14.826269411691948,17.53290085982061,47.67642052531128,0.1127775618455323,-0.0225796442330322,1.4386497014457449,5862.80859375,12.031666666666666,0.2366666666666666,179.2153346632675,-6.390364118756049,98.75093421501715,1525.0,1435.0,1200.0,1602.0,1475.0,1021.7000000000002,185.0,294.15,1637172463.793132,1637172464.9131565,a84d1e8b-6e75-4724-a991-459c090c9bef
-0.0832574859469009,0.0816353862530043,-0.2272768106464854,0.1477760664193294,-0.2880758418747001,0.1414208634427714,-0.4777047318378587,-0.4925791988046303,-15.412870790992033,17.44243694414992,47.94886897412251,0.08864099695001,-0.0420054954473531,1.4431867395352072,5872.181315104167,12.030333333333337,0.24,179.24471358361745,-6.384135982302251,98.7374081637308,1525.0,1435.0,1200.0,1602.0,1475.0,1021.7000000000002,185.0,294.15,1637172465.021474,1637172466.251325,a84d1e8b-6e75-4724-a991-459c090c9bef
-0.135975543079536,0.065719985270456,-0.4198504551403497,0.1766484110023954,-0.4665968201658764,0.1388596070659374,-0.6823313807132415,-0.7190792622767056,-16.231136390291752,17.653363735319573,47.62020068676092,0.0091016679425069,-0.1087528327287839,2.237387620146787,5864.146158854167,12.025666666666666,0.2433333333333333,179.26192566032586,-6.385221555493461,98.7539235611439,1525.0,1435.0,1200.0,1676.0,1475.0,1021.7000000000002,185.0,294.15,1637172467.1656473,1637172468.5074542,b370bb1f-2ef8-4d79-9e15-767e58e3d468
-0.1264701305759644,0.0705548704276253,-0.4226993399553813,0.1635408048851847,-0.4696511534782157,0.1391061450866564,-0.6871388745619759,-0.7105600011008573,-16.6233405799308,17.6214637570434,46.58647472205664,0.0385076880618643,-0.0772485800615981,2.2510268511099425,5838.84619140625,12.028111111111112,0.25,179.2505708502857,-6.374246010679681,98.71246507179184,1525.0,1435.0,1200.0,1676.0,1475.0,1021.7000000000002,185.0,294.15,1637172468.6153824,1637172469.735532,b370bb1f-2ef8-4d79-9e15-767e58e3d468
-0.146117023578817,0.0593050651018348,-0.4253033301814568,0.1766308794263984,-0.4697853797593878,0.1409321702397708,-0.6878434257816056,-0.7172307739207379,-16.45268766050781,17.67471856766535,46.9781002665175,0.0134547102722286,-0.1258968408733866,2.2551657139092613,5826.9384765625,12.031,0.25,179.26315054091702,-6.374483644344554,98.68773675135677,1525.0,1435.0,1200.0,1676.0,1475.0,1021.7000000000002,185.0,294.15,1637172469.8437529,1637172471.1710207,b370bb1f-2ef8-4d79-9e15-767e58e3d468
-0.1901180434592027,0.0373681089991536,-0.589865881475492,0.2082874600866324,-0.6176425114009261,0.1256287317638108,-0.876384310351427,-0.905612782791949,-18.48600771191217,18.360654167580464,44.53558248599208,-0.0974034888057867,-0.1864528087613051,2.941786158619884,5754.834689670139,12.027222222222225,0.2522222222222222,179.29206197276378,-6.346899972813327,98.66354573913638,1525.0,1435.0,1200.0,1750.0,1475.0,1021.7000000000002,185.0,294.15,1637172472.0823908,1637172473.2176282,e6dccf30-f93b-4720-a975-502e5bb49d9a
-0.1822425216040968,0.0586251679582064,-0.588331866484349,0.1822639998603988,-0.6185053948565842,0.1183558593263573,-0.8896836759422632,-0.9056812666259492,-19.98823078400314,18.683705825221185,43.01573854706144,-0.0538245743473274,-0.0793164373085787,2.9588230658738173,5644.061957465277,12.029777777777776,0.2577777777777778,179.30333937399337,-6.357938554581322,98.60272594021708,1525.0,1435.0,1200.0,1750.0,1475.0,1021.7000000000002,185.0,294.15,1637172473.3263438,1637172474.4394543,e6dccf30-f93b-4720-a975-502e5bb49d9a
-0.1983770691295689,0.0372311433857927,-0.6005492005988489,0.1980013450480187,-0.6254084626678823,0.1342301703680521,-0.896915462737998,-0.9131595911693472,-19.936488430925777,18.77960453700479,44.27544649200141,-0.0533982399484507,-0.1737985077927107,2.994498228908569,5609.57177734375,12.028555555555556,0.2522222222222222,179.28413136422745,-6.366822164234308,98.55001661148216,1525.0,1435.0,1200.0,1750.0,1475.0,1021.7000000000002,185.0,294.15,1637172474.5480523,1637172475.6762702,e6dccf30-f93b-4720-a975-502e5bb49d9a
-0.2546200758049508,0.0086957329493421,-0.7906662738599067,0.2570351533592078,-0.8204217874513133,0.1186188332348434,-1.0792540258113843,-1.1158205769392169,-16.349515371438596,19.195006667940056,44.35108625618879,-0.2265399688994979,-0.3261954422516314,3.778384665238745,5795.419921875,12.00711111111111,0.3055555555555556,179.27893586699884,-6.388773728180559,98.51105190008704,1525.0,1435.0,1200.0,1824.0,1475.0,1021.7000000000002,185.0,294.15,1637172477.6104972,1637172478.8401988,1fc1cc2a-0a3b-47d7-af18-28a01b7f8749
-0.2528208954979175,0.0218636045217116,-0.7786182276438609,0.2617314290828538,-0.7960676513173959,0.1206705776559891,-1.0784360667820978,-1.1031857677343029,-18.589477966846403,18.91943882748568,47.15479701361483,-0.2344305453251338,-0.2856223345861338,3.7317615553050345,5810.261827256944,12.004444444444443,0.3077777777777777,179.29149886161218,-6.3807306586823085,98.3357475059396,1525.0,1435.0,1200.0,1824.0,1475.0,1021.7000000000002,185.0,294.15,1637172478.94968,1637172479.8950932,1fc1cc2a-0a3b-47d7-af18-28a01b7f8749
-0.2337826769679294,0.0367106741614474,-0.7734683193489227,0.2591016899025595,-0.7912875501737743,0.1130689877506677,-1.0795180957042303,-1.1162385973620177,-19.08604155448679,18.89476770454658,47.81618447156681,-0.2456319308033258,-0.231634266345627,3.722140705970631,5819.0263671875,12.005000000000004,0.31,179.3052943259158,-6.384301756685233,98.17763318011323,1525.0,1435.0,1200.0,1824.0,1475.0,1021.7000000000002,185.0,294.15,1637172480.0268428,1637172481.0930269,1fc1cc2a-0a3b-47d7-af18-28a01b7f8749
-0.0230063223313044,0.1085765166837167,-0.0673146907731303,0.0776496876505476,-0.1268947239059603,0.1667731926119059,-0.2633535502916262,-0.2926367970831492,-13.20788386181048,13.995659913842426,47.59672402696296,0.2899687397013762,0.0652711686393884,0.705520799563159,7885.396484375,11.818,7.29,-179.42846843958802,-6.440813318921842,85.19424042332217,1525.0,1435.0,1350.0,1528.0,1475.0,1021.7000000000002,185.0,294.15,1637172485.5650804,1637172486.5308006,a9bf10c5-4879-4c1a-b592-13bd7464b860
-0.0194726101331223,0.1064398535532723,-0.0663148419360999,0.0811970962907877,-0.126607096152431,0.1648556744876185,-0.2635863917995484,-0.2785978227831545,-13.156202773199018,14.134529759153551,47.49195965021077,0.2786374213484283,0.0574490991015876,0.7037016065358662,7892.65771484375,11.815,7.300000000000001,-179.01255090026925,-6.394006601722175,79.2947055088587,1525.0,1435.0,1350.0,1528.0,1475.0,1021.7000000000002,185.0,294.15,1637172486.6397345,1637172487.7621448,a9bf10c5-4879-4c1a-b592-13bd7464b860
-0.0045844506460519,0.1122680130725929,-0.0633722732106782,0.0787388379670673,-0.1235801565583192,0.1633375479704629,-0.2614442498199394,-0.2951443633778172,-13.279846174614308,14.03537833350748,47.78740431976924,0.2802453070092206,0.0780523655773242,0.6935723856575214,7892.65771484375,11.815444444444443,7.305555555555555,-178.8355366820996,-6.292826124064244,74.28545615521995,1525.0,1435.0,1350.0,1528.0,1475.0,1021.7000000000002,185.0,294.15,1637172487.876155,1637172488.9914763,a9bf10c5-4879-4c1a-b592-13bd7464b860
0.1898381963745361,0.46335845336742,-0.0345251282989303,-0.0781486693276142,-0.1746135376901208,-0.0313201335236578,-0.3089494001857028,-0.3447933005263035,-12.677997252279816,12.945181914971135,48.41901366741056,0.1913362734271032,1.4061237777593685,0.8342626025517869,7894.275770399306,11.801,7.35,-178.95009565049864,-6.180400024529103,64.16956350383754,1593.0,1435.0,1350.0,1528.0,1529.0,1021.7000000000002,185.0,294.15,1637172491.1276436,1637172492.1592464,2be76c8a-6145-48ba-a1f9-a0ea6bb90acf
0.1826064137238854,0.4598658312263382,-0.0398393931891697,-0.0788061041023445,-0.1829684391560148,-0.0320460511540461,-0.3166331707212365,-0.3303160364469217,-12.565267921372616,13.291370159372866,47.68889834501612,0.1931587206209292,1.398447363785457,0.8623048773226647,7912.898220486111,11.803333333333336,7.33,-179.09575322909873,-6.143722145845481,60.93581347693464,1593.0,1435.0,1350.0,1528.0,1529.0,1021.7000000000002,185.0,294.15,1637172492.2719183,1637172493.490616,2be76c8a-6145-48ba-a1f9-a0ea6bb90acf
0.17777152875304,0.4606465350092068,-0.0362508947483653,-0.0777925586927922,-0.1796401751233144,-0.0289095391764873,-0.3129077062336778,-0.3283437307886632,-12.582736022164529,13.32618887915317,48.40360309833639,0.1984352075428614,1.3952679953964442,0.8486607493971432,7924.278483072917,11.803333333333336,7.37,-179.29776138617115,-6.117046557450781,58.25908207286424,1593.0,1435.0,1350.0,1528.0,1529.0,1021.7000000000002,185.0,294.15,1637172493.5989723,1637172494.723153,2be76c8a-6145-48ba-a1f9-a0ea6bb90acf
0.4226385880925574,0.8915813176728125,-0.0133776412987586,-0.2841312325347183,-0.2620660736508898,-0.2594226374653136,-0.3856912311265599,-0.4105094016772546,-11.644862722056637,12.523462217540834,48.46096995526654,0.1421898014352825,3.031230094668811,1.084777470513351,7943.861328125,11.789444444444444,7.416666666666667,-179.89604952978874,-6.10531158097866,53.6003963523809,1661.0,1435.0,1350.0,1528.0,1583.0,1021.7000000000002,185.0,294.15,1637172496.6590664,1637172497.698651,692a807b-e913-4fb7-bcc0-0ed7e3fddb91
0.4245013198977513,0.8848289148544105,-0.0104328811107132,-0.2829533284053734,-0.257888622731485,-0.2569024704047134,-0.3815685661785815,-0.4109613880389133,-11.685230678425071,12.555040460978717,48.06017074428519,0.1454676456663761,3.0097846588692527,1.0677906066058,7943.861328125,11.790666666666668,7.413333333333333,179.9394394448561,-6.148103000720005,52.24009967183071,1661.0,1435.0,1350.0,1528.0,1583.0,1021.7000000000002,185.0,294.15,1637172497.8070786,1637172498.889653,692a807b-e913-4fb7-bcc0-0ed7e3fddb91
0.4084352580084744,0.8842125697697955,-0.0135830896719049,-0.2868431515784136,-0.2618880183533968,-0.2579297124309176,-0.3867732594306883,-0.4014422774734564,-11.825210336584542,12.692435226426928,47.2864864117758,0.1524939389344039,3.015602420586394,1.083588205081425,7935.690158420139,11.79022222222222,7.456666666666667,179.72609620940108,-6.1212577485290485,50.88703805888631,1661.0,1435.0,1350.0,1528.0,1583.0,1021.7000000000002,185.0,294.15,1637172498.9982846,1637172500.138836,692a807b-e913-4fb7-bcc0-0ed7e3fddb91
0.6167461987084857,1.2513898937988273,0.026369772354841,-0.4771431729051261,-0.3221391881726292,-0.4377792543029531,-0.434327720683984,-0.4629672328705493,-11.212475947541018,13.040776605173129,47.9152725740498,0.1823254787068679,4.408799640220163,1.222832055244461,7914.5205078125,11.774444444444445,7.472222222222222,179.31385331185572,-6.113627573452496,49.07406376090435,1729.0,1435.0,1350.0,1528.0,1636.0,1021.7000000000002,185.0,294.15,1637172501.162956,1637172502.1885278,1f517d72-f49c-447d-8892-29a4bee18d91
0.6272925478059918,1.2509653004879533,0.0238085158917075,-0.4843612610974824,-0.3251250384089579,-0.431287083996243,-0.4362315427029898,-0.459543091808865,-11.338967073916372,13.079774958603611,47.81723632204751,0.2132481821227144,4.40969831561551,1.2327434024748545,7918.584364149306,11.773111111111112,7.481111111111113,179.21017862935403,-6.097072665292333,48.25029096167213,1729.0,1435.0,1350.0,1528.0,1636.0,1021.7000000000002,185.0,294.15,1637172502.2974384,1637172503.3247354,1f517d72-f49c-447d-8892-29a4bee18d91
0.620142944913416,1.2443635593097664,0.0215348871284112,-0.4867581595322416,-0.3253441833874202,-0.4249181830214931,-0.4348207968895121,-0.4467778969585147,-11.333779964345991,12.956930690143505,47.487631693094926,0.2319892777721287,4.387971226998714,1.23290182986597,7914.5205078125,11.77511111111111,7.5055555555555555,179.09469530868728,-6.1000559401398124,47.41726477393436,1729.0,1435.0,1350.0,1528.0,1636.0,1021.7000000000002,185.0,294.15,1637172503.4337628,1637172504.5533,1f517d72-f49c-447d-8892-29a4bee18d91
0.7647511965310475,1.498338854707167,0.0708698912963265,-0.6348316985127468,-0.3532988641214842,-0.5535562937080231,-0.4484762688349895,-0.4615016994719862,-10.707719529688063,13.650938531257836,45.320363388126886,0.2839667761780413,5.376680711,1.2496995156238888,7921.83544921875,11.745333333333331,7.584444444444443,178.72112646004246,-6.204396471221866,45.72205014688754,1796.0,1435.0,1350.0,1528.0,1690.0,1021.7000000000002,185.0,294.15,1637172506.6927097,1637172507.8262966,84feebac-ea29-493c-85b6-ab3b9c2999c3
0.7670385216218504,1.4932848241798145,0.0687332281460901,-0.631845847737189,-0.3557916382845114,-0.5508580709507928,-0.4516949608743273,-0.4795400726737124,-10.744285246331549,13.867493700403308,45.36776517459108,0.2846130238629056,5.357064303457626,1.2599570513677785,7921.83544921875,11.747333333333334,7.606666666666667,178.59767762098355,-6.227722088988021,45.17865205962489,1796.0,1435.0,1350.0,1528.0,1690.0,1021.7000000000002,185.0,294.15,1637172507.9348078,1637172509.0593193,84feebac-ea29-493c-85b6-ab3b9c2999c3
0.762532354252811,1.4805196304950952,0.065898040535634,-0.6166700554481478,-0.3512717731525746,-0.550871767413373,-0.4508594705964597,-0.4851830554078489,-10.812745129496768,13.573528725918328,45.57042068927112,0.248257317520816,5.305822291394557,1.255423018111322,7921.83544921875,11.748666666666669,7.605555555555556,178.50065554273343,-6.2804214095985085,44.72375349234801,1796.0,1435.0,1350.0,1528.0,1690.0,1021.7000000000002,185.0,294.15,1637172509.167698,1637172510.3802376,84feebac-ea29-493c-85b6-ab3b9c2999c3
-0.2433428758608193,-0.2972525374034392,-0.0996111774743808,0.2715244678788927,-0.0657532830232977,0.3670305646155583,-0.2109642075944906,-0.2327143463381104,-13.692277672734098,15.152356701474838,44.98371871783531,0.3080391624621882,-1.4561450490964374,0.5397720150722926,7929.16455078125,11.801666666666668,7.426666666666667,178.8856535745895,-6.279806360550123,44.1737536477976,1457.0,1435.0,1350.0,1528.0,1421.0,1021.7000000000002,185.0,294.15,1637172511.085475,1637172512.1311903,43fa688c-e342-44a9-9019-f5fb044e7be8
-0.2416718955204948,-0.2901440224551441,-0.0996796602963097,0.2689221219104244,-0.0653423862788929,0.3679071443234796,-0.2119640565070439,-0.246000009143044,-13.894563209629032,15.040996364485606,45.75565819070784,0.3151588041481588,-1.434579574424146,0.54255958749147,7925.907172309027,11.801666666666668,7.427777777777777,178.8299678011963,-6.26065427295806,43.97409735252932,1457.0,1435.0,1350.0,1528.0,1421.0,1021.7000000000002,185.0,294.15,1637172512.2390308,1637172513.3647747,43fa688c-e342-44a9-9019-f5fb044e7be8
-0.239535232155362,-0.2915821613008926,-0.1007479919498798,0.2712642332254087,-0.0667394353557142,0.3605383963156138,-0.2130734778676482,-0.2386312601521566,-13.691361873261425,15.012064679683482,44.805859176821706,0.2930229096812469,-1.4333502151117348,0.5461591429275411,7929.16455078125,11.796333333333331,7.403333333333332,178.78379572240698,-6.263854643471035,43.7736802500785,1457.0,1435.0,1350.0,1528.0,1421.0,1021.7000000000002,185.0,294.15,1637172513.4983244,1637172514.4766014,43fa688c-e342-44a9-9019-f5fb044e7be8
-0.402414732606527,-0.5950842719071711,-0.1168551457807227,0.4146261019762567,-0.0149938352811819,0.5216236083638609,-0.1663682086861054,-0.1917479349954522,-14.169884836631203,16.144188488227126,44.30439255252292,0.3379957813879241,-2.582489125824955,0.3941638988449081,7936.505859375,11.778333333333332,7.506666666666667,178.78318859448078,-6.215169055067185,43.346870076853385,1389.0,1435.0,1350.0,1528.0,1367.0,1021.7000000000002,185.0,294.15,1637172516.6156113,1637172517.7531767,e002e590-5e53-499d-8d9f-8f056550a005
-0.402935201917071,-0.6023023606928162,-0.1235390668527975,0.4207073734575108,-0.0169798363974707,0.5236506988381598,-0.171038735606477,-0.199020807760237,-14.31890747333118,15.962674565756268,44.342461128704976,0.3272280275864288,-2.6100195405690307,0.4118335651067532,7929.16455078125,11.78,7.473333333333334,178.77284617025757,-6.229090308688009,43.204255347528566,1389.0,1435.0,1350.0,1528.0,1367.0,1021.7000000000002,185.0,294.15,1637172517.8614576,1637172519.0944202,e002e590-5e53-499d-8d9f-8f056550a005
-0.3977442051700288,-0.5998780689361566,-0.1245252190761319,0.4186665864460663,-0.0179385954263875,0.5252394994947283,-0.1724083915345592,-0.1953090398489061,-14.418379383571468,15.945331713305952,44.630348515595394,0.3352335379309912,-2.60258601979748,0.4170528020500646,7929.16455078125,11.778555555555556,7.543333333333333,178.76186170825238,-6.192766271748889,43.0444031180134,1389.0,1435.0,1350.0,1528.0,1367.0,1021.7000000000002,185.0,294.15,1637172519.203246,1637172520.32541,e002e590-5e53-499d-8d9f-8f056550a005
-0.6537740456642576,-1.01678781464505,-0.1553424781551219,0.6188691650884949,0.0448601264987701,0.7436858914145607,-0.120087533854322,-0.147371080786038,-15.245882726535257,17.62483688088724,43.88780937128018,0.3835680202777292,-4.18038746341837,0.2480262293607701,7932.427354600694,11.760777777777776,7.592222222222222,178.86770535527052,-6.110528375116604,42.84458555438973,1321.0,1435.0,1350.0,1528.0,1314.0,1021.7000000000002,185.0,294.15,1637172522.0688498,1637172523.3952096,cd78e33d-b749-4982-a8c0-c0dcb76b3ce6
-0.6605538445780833,-1.040482876544049,-0.1588624939602942,0.6309495285941992,0.0478322797452058,0.7577111660704999,-0.1181563189220466,-0.145398777249795,-15.345174308689629,17.63858336046586,44.15659178157017,0.3877430631559841,-4.272648070743972,0.2435694115446238,7929.980251736111,11.760777777777776,7.6,178.86918219395108,-6.110156888716746,42.78294803004477,1321.0,1435.0,1350.0,1528.0,1314.0,1021.7000000000002,185.0,294.15,1637172523.5043666,1637172524.623675,cd78e33d-b749-4982-a8c0-c0dcb76b3ce6
-0.6746202154888344,-1.068533447673307,-0.1657929532300973,0.6367157791943047,0.0467639481164778,0.7850084047841804,-0.1148828412486284,-0.1454672593802057,-15.268049218427572,17.6410180378674,44.86982584238629,0.4358999203261417,-4.385871276739642,0.2475260889675792,7951.23046875,11.763777777777776,7.54,178.84885555098106,-6.090276295045085,42.77853231274635,1321.0,1435.0,1350.0,1528.0,1314.0,1021.7000000000002,185.0,294.15,1637172524.73238,1637172525.8520162,cd78e33d-b749-4982-a8c0-c0dcb76b3ce6
-0.816037243116063,-1.3184410588117992,-0.1696142933488392,0.7498630387673902,0.0941129509807279,0.894211056731104,-0.0789019798807102,-0.0987756881064027,-16.032496109762764,19.17397058899449,40.5078252688173,0.4349520831005686,-5.29325299702834,0.1004521360648548,8001.539767795139,11.717222222222222,7.641111111111112,178.9145498282381,-6.010832799556983,42.77379216146236,1254.0,1435.0,1350.0,1528.0,1260.0,1021.7000000000002,185.0,294.15,1637172527.5825083,1637172528.7252083,50323c6e-5bdf-4e7a-91b7-ae6410e60f5f
-0.8155578633547603,-1.3254263102568034,-0.175722959007338,0.7509724599059711,0.0893739417445845,0.8954848365685614,-0.0837368652660693,-0.1041447393013341,-16.008273970158463,19.17961331926892,39.819240549731205,0.4349475181902971,-5.314044220921969,0.1203254148566263,7988.28173828125,11.721111111111112,7.6755555555555555,178.95782287117967,-6.032728393897535,42.713622748334,1254.0,1435.0,1350.0,1528.0,1260.0,1021.7000000000002,185.0,294.15,1637172528.8424983,1637172529.836155,50323c6e-5bdf-4e7a-91b7-ae6410e60f5f
-0.8129692124193332,-1.3176877473440465,-0.17307952299703,0.7506985287697069,0.0896889625622214,0.8876504057283429,-0.0852434867965126,-0.1115134882070992,-16.056675672841465,19.291949562148144,39.750884015683305,0.4188014829323749,-5.283868275720091,0.1191957597305393,7980.84423828125,11.725,7.639999999999999,178.9322551963866,-6.045660835340392,42.69802601136427,1254.0,1435.0,1350.0,1528.0,1260.0,1021.7000000000002,185.0,294.15,1637172529.944522,1637172530.9889736,50323c6e-5bdf-4e7a-91b7-ae6410e60f5f
-0.0235541847074007,0.1143153745961766,-0.0745464740200913,0.0755130244094907,-0.1306612777934218,0.1641708465717787,-0.2706127272855547,-0.2880347529861113,-13.50884590637267,13.656550809585772,47.696282228121895,0.2861969932420987,0.0878419899627679,0.7315890127216402,7958.61328125,11.812333333333331,7.388888888888889,178.59181883649555,-6.019794197475516,42.6880971930408,1525.0,1435.0,1350.0,1528.0,1475.0,1021.7000000000002,185.0,294.15,1637172532.5447347,1637172533.6357696,10a8dd08-8b32-484b-9e6d-ef1ab504f93b
-0.0161991325310252,0.1145071264349373,-0.0772446961767718,0.0712533948204387,-0.1347291559589291,0.1688413729051143,-0.2704072788654286,-0.290582312876564,-13.255522196291484,13.608050693325785,47.8188972681482,0.3059921659399142,0.0860340551388539,0.7408709204513168,7951.23046875,11.813,7.394444444444444,178.59585775502475,-6.025631590190546,42.86897464209604,1525.0,1435.0,1350.0,1528.0,1475.0,1021.7000000000002,185.0,294.15,1637172533.743745,1637172534.8639796,10a8dd08-8b32-484b-9e6d-ef1ab504f93b
-0.0035298155521739,0.1156439407669135,-0.077696682625729,0.0791426124659263,-0.1332636240827701,0.1594729271255752,-0.2747216953740432,-0.3000055464912753,-13.487760684558172,13.61303756488542,47.66110580251486,0.2670123720934578,0.0923401282595333,0.7454534505971874,7951.23046875,11.814333333333334,7.373333333333333,178.5810635652825,-6.074890297870378,43.05484647725435,1525.0,1435.0,1350.0,1528.0,1475.0,1021.7000000000002,185.0,294.15,1637172534.9729862,1637172536.1852672,10a8dd08-8b32-484b-9e6d-ef1ab504f93b
0.0134676138859998,0.1094530964092522,-0.1131159850432684,-0.4248497002571429,-0.2184973156552317,0.6556307247748795,-0.1704223903702828,-0.1925012456691573,-13.394003977099558,12.543823035085614,51.631706278256445,2.510656904493456,0.0930544921927864,0.7622616700893495,7956.15234375,11.804333333333334,7.399999999999999,178.61227904760926,-5.920018509488754,43.261547353741584,1525.0,1535.0,1350.0,1528.0,1475.0,1021.7000000000002,185.0,294.15,1637172537.0641644,1637172538.215624,af848dab-b93d-45c6-a868-729e0710692f
0.013590882961991,0.104919535587505,-0.1131159850224562,-0.4249455761406648,-0.2191273573870304,0.658219374095189,-0.1710524320870485,-0.2048144528516959,-13.42973226214532,12.7270088905125,51.3514026468548,2.5178419121024764,0.0788029938477569,0.7629719407793482,7954.51171875,11.80577777777778,7.461111111111112,178.59460858931652,-5.894950529438076,43.34049105962356,1525.0,1535.0,1350.0,1528.0,1475.0,1021.7000000000002,185.0,294.15,1637172538.3238304,1637172539.5751867,af848dab-b93d-45c6-a868-729e0710692f
0.0147276973410441,0.1289159057585703,-0.1013917302012319,-0.4445042661962796,-0.2141692026744446,0.648631784017878,-0.1608895847695405,-0.1884059742541414,-13.20751443429765,12.535771740121165,50.85625984045,2.539765915511225,0.1747677120633964,0.7280351808949644,7958.61328125,11.80722222222222,7.377777777777778,178.65460648880577,-5.853735318143319,43.45371965895431,1525.0,1535.0,1350.0,1528.0,1475.0,1021.7000000000002,185.0,294.15,1637172539.6838386,1637172540.7989385,af848dab-b93d-45c6-a868-729e0710692f
0.0466132859816829,0.1172327415367753,-0.1351126595720706,-1.0107613252638443,-0.3130035821680842,1.2100947701743332,-0.0477560043362838,-0.0680543060713781,-13.230907617849429,12.51564683366027,55.223044264378814,5.077657232225935,0.1599919096508461,0.7473106102957526,7963.544270833333,11.797333333333334,7.456666666666667,178.7360466288293,-5.6412676749943484,43.595426352574464,1525.0,1636.0,1350.0,1528.0,1475.0,1021.7000000000002,185.0,294.15,1637172541.6015246,1637172542.8479548,3fc215bb-47ae-433d-a77e-57fb2fe43b10
0.0293145323793972,0.1131922568180276,-0.1426183742069292,-1.0099395313643995,-0.3187013514197784,1.2122451298471602,-0.0560013329055388,-0.0791759117205785,-13.448134376087518,12.558032442033982,55.01364556985872,5.080400130894943,0.1476547244306403,0.7760955446419873,7966.009765625,11.791999999999998,7.489999999999999,178.76839895819796,-5.660976043548812,43.639185097857,1525.0,1636.0,1350.0,1528.0,1475.0,1021.7000000000002,185.0,294.15,1637172542.9563704,1637172544.080381,3fc215bb-47ae-433d-a77e-57fb2fe43b10
