raw_voltage_G-,raw_voltage_G0,raw_voltage_G1,raw_voltage_G2,raw_voltage_G3,raw_voltage_G4,raw_voltage_G5,raw_voltage_G6,load_x,load_y,load_z,load_l,load_m,load_n,rpm,voltage,current,roll,pitch,yaw,aileron1_pwm,elevator_pwm,throttle_pwm,rudder_pwm,aileron2_pwm,pbaro,pdiff,Tt,sample_start_time,sample_end_time,uid
-0.016459367141529,0.0995230915718318,0.0237400330991473,0.1389691794852989,-0.0922424285868015,-0.0344703420693349,-0.29119865764287,-0.3092644222030742,-14.495447122179852,21.56045129485725,25.926597068778708,-0.2499947401348285,0.2308411007068811,0.5387242403294541,5755.640028211806,12.029,0.24,179.30089264845068,-1.436452566459837,93.41577707276193,1525.0,1435.0,1200.0,1528.0,1475.0,1021.7000000000002,185.0,294.15,1637169398.6451008,1637169399.7155645,1ad4e382-ee1b-460e-b833-fe088c02815f
-0.0318816924980545,0.0879905893844473,0.0183709820596529,0.153953214149404,-0.1012410680879046,-0.0279233869370961,-0.2878430003121785,-0.3023750517815393,-13.146157595541371,21.65338593924133,27.19557746652968,-0.2678529559972178,0.164606676497912,0.5549527601055041,5761.659993489583,12.033666666666669,0.24,179.31194996580703,-1.449323061881472,92.86209993025336,1525.0,1435.0,1200.0,1528.0,1475.0,1021.7000000000002,185.0,294.15,1637169399.824873,1637169401.029933,1ad4e382-ee1b-460e-b833-fe088c02815f
-0.0233487363304052,0.1029609277292046,0.0264245585969288,0.1372571096953763,-0.0919684974002797,-0.0338403003916242,-0.2881169315554968,-0.3063607511545841,-14.287433253028246,21.607942681421857,26.29119882440708,-0.2441056162752834,0.2394131317534724,0.5313452944021663,5771.57470703125,12.03122222222222,0.24,179.3169815384956,-1.4315513484058893,92.34251302080224,1525.0,1435.0,1200.0,1528.0,1475.0,1021.7000000000002,185.0,294.15,1637169401.1389573,1637169402.2822697,1ad4e382-ee1b-460e-b833-fe088c02815f
0.1585880103127913,0.433181364353647,0.0382202731416677,-0.0264084284238925,-0.1580097342456486,-0.2054307973927646,-0.3479512503382273,-0.3716760774476946,-13.848698118353916,20.77908662553068,26.29271959457264,-0.2651891670502505,1.495706262843124,0.7295791229814834,5779.78857421875,12.020333333333332,0.27,179.20549463740323,-1.4310223170523633,91.75741700811164,1593.0,1435.0,1200.0,1528.0,1529.0,1021.7000000000002,185.0,294.15,1637169403.1968987,1637169404.3336384,8233ff24-ee11-4ba1-bdec-9ca9de07afc3
0.1549530629093724,0.4471280328432168,0.0467913413235332,-0.0254306131897799,-0.1597527703470304,-0.2156758242754687,-0.3463136181057679,-0.3733232373591753,-13.354354763234127,21.34228591617457,26.936437844620496,-0.2859050716141025,1.5392431713553405,0.7206568408831701,5808.086968315973,12.018222222222224,0.26,179.20476456607193,-1.432189058029803,91.42201222090917,1593.0,1435.0,1200.0,1528.0,1529.0,1021.7000000000002,185.0,294.15,1637169404.4423516,1637169405.5631306,8233ff24-ee11-4ba1-bdec-9ca9de07afc3
0.1762649073142709,0.4400606092111045,0.0402032966000893,-0.0152403733956613,-0.1648889802635868,-0.2194560748656719,-0.3478476329135699,-0.3737067407771116,-12.741271043352606,21.124738625902648,26.71678128324128,-0.3188830755017411,1.5086676174884006,0.7382592982496972,5899.129069010417,12.016333333333332,0.2666666666666667,179.2265452804252,-1.4024891306468312,91.11437063486296,1593.0,1435.0,1200.0,1528.0,1529.0,1021.7000000000002,185.0,294.15,1637169405.671163,1637169406.7916386,8233ff24-ee11-4ba1-bdec-9ca9de07afc3
0.4167627649274379,0.8881708748719445,0.0714588433184502,-0.2344948978355971,-0.2393160870130888,-0.4531330998308009,-0.4188506060948533,-0.4409157678272751,-12.61558567884618,20.28076312957017,27.069779940327177,-0.3533210233263034,3.2142974207705115,0.951351158284364,5940.00390625,12.003333333333334,0.29,179.12539928573622,-1.3932110301374074,90.69056878051232,1661.0,1435.0,1200.0,1528.0,1583.0,1021.7000000000002,185.0,294.15,1637169407.7028296,1637169408.8394306,d3f25f07-413b-44e3-a4e4-c925fe7ebb91
0.4131468737676185,0.8896090134015037,0.0772524875275935,-0.2393845698026565,-0.229577832764595,-0.4483256066688426,-0.4071126530568592,-0.4334237492688585,-12.6616094879994,19.755454015215765,27.387315015391582,-0.3346544453743948,3.218163155013523,0.9142399931500516,5924.051106770833,12.008,0.2922222222222222,179.1145392849559,-1.3946344131013164,90.47539960781911,1661.0,1435.0,1200.0,1528.0,1583.0,1021.7000000000002,185.0,294.15,1637169408.9470646,1637169410.0698595,d3f25f07-413b-44e3-a4e4-c925fe7ebb91
0.4240630300753203,0.9027987982352362,0.0744857827310345,-0.2589843475806796,-0.2376861963570243,-0.4468600745420827,-0.4198778482431216,-0.4455041153233409,-13.43725884886436,20.263831067248223,26.805726841221443,-0.2843997234884806,3.2805237038430506,0.9470828748836831,5869.500651041667,12.006333333333332,0.2966666666666666,179.1120075615035,-1.390536192877603,90.2501672897488,1661.0,1435.0,1200.0,1528.0,1583.0,1021.7000000000002,185.0,294.15,1637169410.1787217,1637169411.3019063,d3f25f07-413b-44e3-a4e4-c925fe7ebb91
0.6407288704786679,1.3102850959973649,0.1089600202781086,-0.4452027906101262,-0.3065388055241333,-0.6685526375347091,-0.48607333126148,-0.5182739503661437,-12.958186191487266,20.25737515263025,27.54718225773165,-0.3604761946188781,4.823995660389758,1.1371752379404516,5856.578016493056,11.992666666666668,0.32,178.97174279670813,-1.3864393600360647,89.79265996966392,1729.0,1435.0,1200.0,1528.0,1636.0,1021.7000000000002,185.0,294.15,1637169413.2205095,1637169414.3700266,a279fc3f-e8e8-4b64-ab95-4b4019fe5355
0.6400166494983547,1.3100385579681555,0.108494337301248,-0.4528180790338932,-0.3160031289895065,-0.6627315979987874,-0.4765542205662185,-0.508371335403038,-11.417354944484742,20.257904145809164,27.370200360563043,-0.3294895944918173,4.814642046347544,1.1378786836174568,5852.135091145833,11.994333333333335,0.3299999999999999,178.94612048040173,-1.3854938057228412,89.64561358593261,1729.0,1435.0,1200.0,1528.0,1636.0,1021.7000000000002,185.0,294.15,1637169414.4795065,1637169415.485389,a279fc3f-e8e8-4b64-ab95-4b4019fe5355
0.6361953100270631,1.306463756103471,0.112904629095249,-0.4433948446198363,-0.3062648743221618,-0.6671418915400169,-0.4784032564727107,-0.4927161649987801,-12.27257205591924,20.35799658762696,27.49200447279247,-0.3601845713386438,4.805328920230959,1.120418461360999,5850.802734375,11.990333333333332,0.3222222222222222,178.95186239276396,-1.3758486181194312,89.44203448535103,1729.0,1435.0,1200.0,1528.0,1636.0,1021.7000000000002,185.0,294.15,1637169415.5936987,1637169416.7147362,a279fc3f-e8e8-4b64-ab95-4b4019fe5355
0.8681328114162898,1.6858995529343404,0.1434342574995412,-0.6422963253321997,-0.3810891865568028,-0.8566338626334026,-0.5418731257922301,-0.5714850949551653,-11.710060785951852,20.951836653818145,27.23184627153828,-0.33162683007332,6.253202828806178,1.3150347139538394,5855.244357638889,11.968444444444444,0.381111111111111,178.82903585982953,-1.3642169482585071,89.1069742432467,1796.0,1435.0,1200.0,1528.0,1690.0,1021.7000000000002,185.0,294.15,1637169418.6498003,1637169419.6954706,3f903270-9a6a-4b7b-b96d-e90c9944563d
0.8259748077661594,1.6495214871183257,0.1366544611846554,-0.6250934418035258,-0.3779663705592681,-0.837787388595682,-0.5382572333220271,-0.5613085502281642,-11.644065336411252,20.830322975920264,27.084879337570456,-0.3292151013944591,6.115048522078207,1.3105125004616769,5848.586697048611,11.965666666666667,0.38,178.83134749940862,-1.3894729008069675,88.86950374400351,1796.0,1435.0,1200.0,1528.0,1690.0,1021.7000000000002,185.0,294.15,1637169419.804387,1637169421.0154126,3f903270-9a6a-4b7b-b96d-e90c9944563d
0.8361650464620967,1.63645496814357,0.1309429963624775,-0.6176836010617276,-0.3811987590548049,-0.8282819722142056,-0.5410239389657894,-0.5726082132083498,-11.59387693982618,20.924784060239634,27.55176966677401,-0.3241284571909948,6.060275088793143,1.3257784420715495,5803.267578125,11.964444444444446,0.39,178.83563989384703,-1.3683889131809155,88.6556398963517,1796.0,1435.0,1200.0,1528.0,1690.0,1021.7000000000002,185.0,294.15,1637169421.1234343,1637169422.244353,3f903270-9a6a-4b7b-b96d-e90c9944563d
-0.2675310013534582,-0.3383833092518933,-0.0046392367120873,0.3375281795577523,-0.0263208894846551,0.1961386131731186,-0.2188671227409416,-0.2409870686190773,-14.016232157360308,22.79359170064572,23.8589107541539,-0.1730129212094126,-1.422865105302846,0.3303030935629924,5793.6796875,12.021888888888888,0.26,179.33227205531753,-1.3560483266023873,88.39450051490469,1457.0,1435.0,1200.0,1528.0,1421.0,1021.7000000000002,185.0,294.15,1637169423.154742,1637169424.300025,a02cd2c8-c51c-4864-985d-1d5fe3d047bd
-0.2683801881297906,-0.3323294293452259,0.0015926975437724,0.3410618914060668,-0.0193630375617969,0.1928103495365084,-0.2137583058679896,-0.2401241851664218,-14.109280648048028,22.678951972405045,24.736606431072875,-0.1888197425266952,-1.4073217435998078,0.307040964252491,5795.419921875,12.021,0.2522222222222222,179.3237707465306,-1.3597584711299773,88.40689958497799,1457.0,1435.0,1200.0,1528.0,1421.0,1021.7000000000002,185.0,294.15,1637169424.4100883,1637169425.4614494,a02cd2c8-c51c-4864-985d-1d5fe3d047bd
-0.260573148757139,-0.3331375264527976,0.0001271657632344,0.3409112292630136,-0.0212394661066502,0.1905504174561101,-0.2177850945108737,-0.2420827931889759,-14.257354671079463,22.825809858437506,24.26122099379215,-0.1928080056881617,-1.405163104953371,0.3163942829071618,5805.890625,12.023666666666664,0.25,179.3409509490229,-1.3487658864171748,88.45176254417636,1457.0,1435.0,1200.0,1528.0,1421.0,1021.7000000000002,185.0,294.15,1637169425.570073,1637169426.8640487,a02cd2c8-c51c-4864-985d-1d5fe3d047bd
-0.446695715967442,-0.6502129388857526,-0.0132817653945207,0.5069272023343995,0.0337248243419458,0.3426780852293725,-0.165395752963606,-0.1955007919318427,-13.94680910383474,24.02231697268302,23.58866198994632,-0.2181349589846768,-2.611895655956048,0.1470845258902607,5832.225423177083,11.999000000000002,0.3,179.4151586776254,-1.3484975169010365,88.46109713604204,1389.0,1435.0,1200.0,1528.0,1367.0,1021.7000000000002,185.0,294.15,1637169428.6832857,1637169429.9429443,2fcb2d14-7f5b-4dfb-9dc0-1965ae1404f3
-0.4310816358828857,-0.6393515640866342,-0.0144870625694354,0.4938059003805811,0.0343548660426991,0.3363365790313391,-0.1750381310294569,-0.1873513390995597,-15.029590702868278,24.0341907734218,22.446969162450404,-0.203495067683139,-2.5518371350188325,0.1604248640443226,5831.343370225694,12.003222222222222,0.3,179.4384283732177,-1.3295504772796825,88.34541042752,1389.0,1435.0,1200.0,1528.0,1367.0,1021.7000000000002,185.0,294.15,1637169430.0578425,1637169431.0505874,2fcb2d14-7f5b-4dfb-9dc0-1965ae1404f3
-0.4440111899951036,-0.6544177839246851,-0.0212120729863928,0.5037359044775038,0.0326427962159923,0.3489237155049217,-0.1755449037383149,-0.2068004542502902,-14.925445197009168,23.89915773063173,23.41028665767229,-0.1986337761449153,-2.6192708104587488,0.1723962098279202,5826.9384765625,12.000999999999998,0.3,179.42897539140642,-1.3241272003569866,88.2564100269951,1389.0,1435.0,1200.0,1528.0,1367.0,1021.7000000000002,185.0,294.15,1637169431.1595397,1637169432.294327,2fcb2d14-7f5b-4dfb-9dc0-1965ae1404f3
-0.6975345669166093,-1.1178000042216552,-0.0427430637525501,0.7286470715289116,0.1112199523826556,0.592297844002046,-0.0973923348907981,-0.1233884054698054,-14.838861002864675,25.61573100493557,23.102364460892613,-0.1487823311538599,-4.384146802282021,-0.071727727453031,5826.058810763889,11.988666666666669,0.33,179.5452054794224,-1.328917202535543,88.13383696996988,1321.0,1435.0,1200.0,1528.0,1314.0,1021.7000000000002,185.0,294.15,1637169433.1902902,1637169434.2353592,a081fee9-08e6-4ab9-9351-66cec34b7496
-0.6924942312398977,-1.1208543389938932,-0.0409899042029963,0.7366321644247918,0.1138633881564166,0.5924758992428593,-0.097433424624892,-0.1151978630218261,-14.950351529256686,25.75843489748057,23.752602310724072,-0.16531380329958,-4.401445928533998,-0.0771784229191783,5819.904947916667,11.992555555555557,0.3222222222222222,179.5420893953411,-1.3370666024266546,87.97342314712294,1321.0,1435.0,1200.0,1528.0,1314.0,1021.7000000000002,185.0,294.15,1637169434.34323,1637169435.556569,a081fee9-08e6-4ab9-9351-66cec34b7496
-0.6836873406260936,-1.112800756641228,-0.0283616767703477,0.7394125655480307,0.1231907443880933,0.584901703074715,-0.0864624805823849,-0.0994331229029078,-14.681768022300115,25.80515215962381,24.25018419142256,-0.1874529258266377,-4.377092094180234,-0.1208472583145942,5822.97998046875,11.991333333333332,0.3299999999999999,179.54225483770097,-1.3452662682411891,87.8497473940017,1321.0,1435.0,1200.0,1528.0,1314.0,1021.7000000000002,185.0,294.15,1637169435.6655414,1637169436.8945296,a081fee9-08e6-4ab9-9351-66cec34b7496
-0.8079014837294961,-1.32849434235676,-0.0323610720240726,0.8262624354642306,0.16641708209967,0.6840510810784733,-0.0516047374805647,-0.0729439773066128,-15.50521564399657,26.727763367948928,19.784960662145966,-0.1557723900290873,-5.151601829262597,-0.2564912318439604,5822.97998046875,11.926,0.47,179.59854014992132,-1.327578746333501,87.58772995379141,1254.0,1435.0,1200.0,1528.0,1260.0,1021.7000000000002,185.0,294.15,1637169438.627839,1637169439.653596,424f9176-df3f-41c0-9194-5163d25a20bc
-0.8174616857516579,-1.3392735441780017,-0.0249923232709997,0.8342886180663939,0.1761964246153997,0.6865301579416214,-0.0454001961893322,-0.0636987998613745,-15.76474988233942,26.92678419746157,19.737889909354227,-0.1667585734893409,-5.190293963589196,-0.290252890075682,5811.13671875,11.930444444444444,0.4644444444444444,179.62212555203527,-1.3377862150307716,87.16066402792738,1254.0,1435.0,1200.0,1528.0,1260.0,1021.7000000000002,185.0,294.15,1637169439.7619731,1637169440.9944656,424f9176-df3f-41c0-9194-5163d25a20bc
-0.8088640780362532,-1.3361271678386015,-0.0374298945454397,0.8262816106366793,0.1752371176976841,0.6961358274780145,-0.0492768702862762,-0.0672905852344717,-16.343442437281297,25.85193102125543,20.446302047142783,-0.1350345181212373,-5.18049680510263,-0.2651268381344099,5819.0263671875,11.92988888888889,0.4711111111111111,179.6080781296423,-1.3325218467279842,86.8291220921555,1254.0,1435.0,1200.0,1528.0,1260.0,1021.7000000000002,185.0,294.15,1637169441.1025946,1637169442.2235415,424f9176-df3f-41c0-9194-5163d25a20bc
-0.0275124902841247,0.0913736393125289,0.0230278120327106,0.1610480312524559,-0.0919821939830367,-0.0414829803707423,-0.2907329746092643,-0.3049910958664855,-13.946274860261576,21.61402679433679,26.67980437962772,-0.3148413554430683,0.1869505146094371,0.5393094920477656,5831.784993489583,12.029,0.23,179.23166033320365,-1.3317929374774968,86.27060006879567,1525.0,1435.0,1200.0,1528.0,1475.0,1021.7000000000002,185.0,294.15,1637169444.158021,1637169445.301494,99cd69bb-014b-49cd-926f-39b00f22f83c
-0.0251429855255279,0.0990711051399186,0.0213020456266774,0.148638949534127,-0.0914069384800865,-0.0381136268469024,-0.2910616920798378,-0.3173590893884023,-14.32642838592281,21.251534842812067,26.605083996156697,-0.2819703251291414,0.2205858411064807,0.5419465330543934,5855.250868055556,12.031777777777778,0.2222222222222222,179.22342464288442,-1.3159062494911318,86.74897665243458,1525.0,1435.0,1200.0,1528.0,1475.0,1021.7000000000002,185.0,294.15,1637169445.421877,1637169446.5236194,99cd69bb-014b-49cd-926f-39b00f22f83c
-0.0289506289767459,0.0884151827191898,0.0213568318743656,0.1617739489124414,-0.093310760202217,-0.0380451439831837,-0.2892400494935062,-0.3158113779325827,-13.724346281023388,21.524819038503125,26.850562802557945,-0.3092892100159898,0.1725734999980568,0.5413522134665473,5850.802734375,12.031444444444444,0.2277777777777778,179.20505750529634,-1.3172718604383111,87.11923665388152,1525.0,1435.0,1200.0,1528.0,1475.0,1021.7000000000002,185.0,294.15,1637169446.63147,1637169447.75237,99cd69bb-014b-49cd-926f-39b00f22f83c
-0.0090221356355708,0.0775127221466781,-0.0146103315653472,-0.3022654786654524,-0.1673406644144619,0.4245013199418411,-0.1943091907086684,-0.2198258824445416,-14.259412273840448,20.154157509767423,30.585737933449348,1.7663225773807938,0.1571947607456255,0.5561180621772907,5849.030164930556,12.023555555555554,0.24,179.17576206503625,-1.1938774850233511,87.56385085354312,1525.0,1535.0,1200.0,1528.0,1475.0,1021.7000000000002,185.0,294.15,1637169448.6277685,1637169449.6881895,ebb264dd-2f19-4faf-a8e0-ec66a02fba1f
-0.0119805924164461,0.0870866165320643,-0.0059404098119489,-0.3041145143142127,-0.1710798252302757,0.4138043085645731,-0.1901865262046083,-0.208005751989367,-13.38474754718944,20.76916426791926,30.19398978148772,1.751342431286045,0.1911717904252234,0.5444720481999893,5849.028862847223,12.025,0.24,179.19461642278512,-1.164400949886515,87.69158753358089,1525.0,1535.0,1200.0,1528.0,1475.0,1021.7000000000002,185.0,294.15,1637169449.7968423,1637169450.9171417,ebb264dd-2f19-4faf-a8e0-ec66a02fba1f
-0.0075292106918732,0.0849636499590116,-0.0102959155491747,-0.3087302552736162,-0.1740382821622431,0.4182693862997784,-0.1908576576527988,-0.2141418101273393,-13.31901429120662,20.565596944077765,29.911721566191005,1.770209783654565,0.1855345955674286,0.5548282072357624,5857.911675347223,12.021666666666668,0.24,179.20893249928545,-1.1742486478556289,87.83755854197287,1525.0,1535.0,1200.0,1528.0,1475.0,1021.7000000000002,185.0,294.15,1637169451.0257616,1637169452.0535743,ebb264dd-2f19-4faf-a8e0-ec66a02fba1f
-0.0025299668236151,0.0673772688663635,-0.0459343619672576,-0.8225431114162788,-0.2611073143750506,0.9312465481584518,-0.0823535127812736,-0.1074319140510604,-13.115184814307376,19.71553523921699,33.4128911362663,4.075224869573092,0.1480891978072007,0.5663081210733059,5852.579210069444,12.013666666666666,0.2555555555555555,179.1822932437026,-1.0308623443139435,88.10175633034821,1525.0,1636.0,1200.0,1528.0,1475.0,1021.7000000000002,185.0,294.15,1637169453.623134,1637169454.8077462,527d3424-875f-48a3-b17d-880693f342d1
0.0133991310787427,0.0789097711168175,-0.0397709104392959,-0.8268849225474977,-0.2538070477794465,0.923549082829477,-0.0827507130296259,-0.0942010371325693,-13.817862761917707,19.67906197405625,33.38304344817481,4.067428344338709,0.1975056953103773,0.549367796439849,5854.7998046875,12.020111111111111,0.25,179.21191653304282,-1.0149878463179722,88.08946274875211,1525.0,1636.0,1200.0,1528.0,1475.0,1021.7000000000002,185.0,294.15,1637169454.9160192,1637169456.03802,527d3424-875f-48a3-b17d-880693f342d1
0.0136730622794341,0.077772956754388,-0.0391408687182236,-0.8256659283307882,-0.2582721264260745,0.9225355375732534,-0.0817097745470693,-0.1063361892612152,-13.250563417203088,19.95262058943329,33.24038316983368,4.06450866867159,0.1903856357997582,0.5530648805462165,5846.8115234375,12.018999999999998,0.25,179.23524238796836,-1.0213703735061337,88.10933784032694,1525.0,1636.0,1200.0,1528.0,1475.0,1021.7000000000002,185.0,294.15,1637169456.147232,1637169457.169626,527d3424-875f-48a3-b17d-880693f342d1
0.0308759400348403,0.0782386397671491,-0.0544810148715418,-1.2774335248633235,-0.3317404772590007,1.3627429166083436,0.0090436254923592,-0.0154732156868835,-13.620541797647371,20.596891606543707,37.02795963873534,6.076715078350351,0.2158423552662245,0.5457423278908123,5863.700303819444,11.989555555555556,0.32,179.2194661688054,-0.8944994199456701,88.12386792942128,1525.0,1737.0,1200.0,1528.0,1475.0,1021.7000000000002,185.0,294.15,1637169459.2016475,1637169460.2456317,bf8ea1ab-9c99-4a86-9816-8098b1a97445
0.0213316300520502,0.0701001447032917,-0.0664753656219623,-1.26921339107262,-0.3416513087037687,1.3558979243039089,-0.0040322052648008,-0.0205469684887881,-13.578401221716108,20.645723699350725,35.900678271715385,6.042358851373445,0.1932392321587774,0.5917148693729066,5859.249131944444,11.987444444444444,0.3244444444444444,179.24179178047248,-0.8763246008003996,87.94514844068881,1525.0,1737.0,1200.0,1528.0,1475.0,1021.7000000000002,185.0,294.15,1637169460.3542545,1637169461.3629606,bf8ea1ab-9c99-4a86-9816-8098b1a97445
0.0282462007605493,0.0726093542209479,-0.0586858584977045,-1.266106460916059,-0.3325074846699641,1.3568807893531163,0.0038800228613311,-0.0291149883253884,-13.70362631008394,20.545520944082966,36.85837034565896,6.037372242955692,0.1951581893783568,0.5590125167067718,5850.802734375,11.993,0.3111111111111111,179.27305431521356,-0.8795213724202955,87.78178018157092,1525.0,1737.0,1200.0,1528.0,1475.0,1021.7000000000002,185.0,294.15,1637169461.4716408,1637169462.699833,bf8ea1ab-9c99-4a86-9816-8098b1a97445
0.0198776033547699,0.0574609604647821,-0.0732316043564814,-1.50229015818237,-0.3850337962581553,1.5983374410162023,0.0419153664029127,0.0214664036814275,-13.560470795714552,21.87326336836738,38.22861721460821,7.121098104791062,0.1533644829957871,0.5938124362578816,5842.826171875,11.974666666666666,0.35,179.26772980330054,-0.8178016664328956,87.48662873478696,1525.0,1837.0,1200.0,1528.0,1475.0,1021.7000000000002,185.0,294.15,1637169464.637832,1637169465.5770922,dc44b1be-8ac2-4220-9f8a-a033aed6edae
0.0311635678504782,0.055543442225367,-0.0709990652558518,-1.4634466734791072,-0.3761310315256526,1.562315486997277,0.0385871025981925,0.0135908820359662,-13.400671195789648,21.592621658718475,37.92400749384646,6.950813219837156,0.1430956569451926,0.5832879613089257,5841.49951171875,11.973333333333333,0.3566666666666667,179.28537142301678,-0.8150511338387739,87.31903486530253,1525.0,1837.0,1200.0,1528.0,1475.0,1021.7000000000002,185.0,294.15,1637169465.6851494,1637169466.7314222,dc44b1be-8ac2-4220-9f8a-a033aed6edae
0.0237537295648412,0.0554886560130417,-0.07905264202365,-1.4667612442028048,-0.3841024300645421,1.566753172383028,0.0286570975821176,0.0021405587540721,-13.6707484589653,21.72395488640049,38.043885659137686,6.968614919642515,0.1436390067645001,0.6191520301292094,5832.225423177083,11.973666666666666,0.36,179.28689683193144,-0.8319478834805241,87.12432438590326,1525.0,1837.0,1200.0,1528.0,1475.0,1021.7000000000002,185.0,294.15,1637169466.839978,1637169467.9148176,dc44b1be-8ac2-4220-9f8a-a033aed6edae
-0.0598089765253331,0.0897026591908119,0.0638846464414794,0.7411657248768647,0.002195346108904,-0.6000424277264687,-0.408496005679889,-0.4432441830582855,-13.666964942562323,23.260212785719897,22.668605119056867,-2.866154048351953,0.1454507128910643,0.5217599765922949,5826.9384765625,12.031333333333333,0.23,179.2655001259915,-1.5112867514752393,86.91223335179603,1525.0,1334.0,1200.0,1528.0,1475.0,1021.7000000000002,185.0,294.15,1637169469.6464949,1637169470.7825634,d297b0ea-8884-409f-8fd6-c937cf9f1a47
-0.0467287625993137,0.1009886233015936,0.0623369353037107,0.721744006665706,0.0032499811199401,-0.5978372811300091,-0.412755636306366,-0.4371218207108904,-14.562954787633666,22.987972319531924,21.997816708105788,-2.8198278782205293,0.2023552123004,0.528232401399871,5832.227213541667,12.029333333333334,0.2266666666666666,179.26754462928304,-1.5035563291430585,87.33296617447965,1525.0,1334.0,1200.0,1528.0,1475.0,1021.7000000000002,185.0,294.15,1637169470.89071,1637169472.0080426,d297b0ea-8884-409f-8fd6-c937cf9f1a47
-0.0649451861736852,0.0884288792462407,0.0632819978704023,0.7297564926662418,-0.0003522138016093,-0.5890577842440186,-0.4051403481522087,-0.4353960545681128,-13.509078841902166,23.256922586344924,22.56906729248257,-2.815721865231815,0.1418044460677582,0.5209907901662204,5835.754828559027,12.029222222222224,0.22,179.24733941189834,-1.5027484695462272,87.7600321003437,1525.0,1334.0,1200.0,1528.0,1475.0,1021.7000000000002,185.0,294.15,1637169472.116706,1637169473.2375023,d297b0ea-8884-409f-8fd6-c937cf9f1a47
-0.0800387943590116,0.0967426902277132,0.1075492747643588,1.2969446478212106,0.0898259281964941,-1.1427003664950797,-0.533175808706661,-0.5630891028112125,-14.105482703151802,25.854495580949457,18.921669311775613,-5.320725978034633,0.142551648671951,0.5194705701887093,5853.029134114583,12.01388888888889,0.251111111111111,179.2355884508863,-1.6704865081971887,88.37930486182124,1525.0,1234.0,1200.0,1528.0,1475.0,1021.7000000000002,185.0,294.15,1637169475.1751606,1637169476.220424,d38948f4-e350-44b6-971a-427798ad3e3b
-0.0717112863580827,0.1074397023163403,0.108617606326708,1.287220091145422,0.0905655423647669,-1.1440426302184663,-0.5320526905247108,-0.554528751385658,-14.24358061839627,25.60986797514572,18.95994715933612,-5.303437889950679,0.1845709941026941,0.5166747402415217,5886.070855034723,12.012222222222222,0.2677777777777778,179.247794757843,-1.676478267930648,88.58187233549575,1525.0,1234.0,1200.0,1528.0,1475.0,1021.7000000000002,185.0,294.15,1637169476.3283165,1637169477.5379822,d38948f4-e350-44b6-971a-427798ad3e3b
-0.0784910831145825,0.0964139728062618,0.1072479504983308,1.2891923956714202,0.0892780658664749,-1.1348385359761146,-0.5315733108285999,-0.5546246267746785,-14.181422068594063,25.82969183317935,18.984372712879,-5.285779875227537,0.1422354451429497,0.5182836651022266,5882.031521267361,12.013222222222222,0.26,179.23724135666544,-1.6743042993520103,88.76359331291347,1525.0,1234.0,1200.0,1528.0,1475.0,1021.7000000000002,185.0,294.15,1637169477.6462097,1637169478.766332,d38948f4-e350-44b6-971a-427798ad3e3b
-0.090448179481392,0.1146988782240571,0.1391746278527017,1.6434676074213053,0.1458448517062338,-1.494537894638848,-0.6231348332778994,-0.6379408196755589,-15.408364241466511,28.114348041864627,16.52442307944872,-6.877505185991307,0.1997452901223008,0.5281357369647273,5852.137044270833,12.004666666666669,0.28,179.22520656334785,-1.805375238211634,89.1071100881202,1525.0,1133.0,1200.0,1528.0,1475.0,1021.7000000000002,185.0,294.15,1637169480.704789,1637169481.7533386,c0696b12-fac1-4d06-9dcc-fb2458e17834
-0.1055006981293146,0.1086860891123529,0.1354354674566011,1.631072220054864,0.145160023798418,-1.4761160028776563,-0.6194230646397388,-0.6451178186337029,-15.5375025929446,27.82013676579355,16.687131029061835,-6.810323394149951,0.1779497132956267,0.5283043102970172,5843.268988715277,12.003333333333334,0.28,179.22605502462477,-1.821139623123174,89.21930277542681,1525.0,1133.0,1200.0,1528.0,1475.0,1021.7000000000002,185.0,294.15,1637169481.8619664,1637169483.0675995,c0696b12-fac1-4d06-9dcc-fb2458e17834
-0.088695019948871,0.1135346707763908,0.1360929022732532,1.638399880082395,0.1396129177338705,-1.4898536667275686,-0.6201626790444524,-0.6468024961278088,-14.708291398568823,28.01746830451569,16.36187482850848,-6.856016738285892,0.1922914596440456,0.5367076486826384,5846.368706597223,12.00122222222222,0.2811111111111111,179.23053866435993,-1.8009094802911771,89.31046531027897,1525.0,1133.0,1200.0,1528.0,1475.0,1021.7000000000002,185.0,294.15,1637169483.176818,1637169484.2110107,c0696b12-fac1-4d06-9dcc-fb2458e17834
-0.1094042177348918,0.1014680027971608,0.1606919207269872,1.8407117917231048,0.1714574153947036,-1.672209876211678,-0.6620741630956798,-0.6936447437321159,-14.780047699600502,30.17782277086652,15.149786146003478,-7.706844812136846,0.1349718613182135,0.5171435917907409,5838.84619140625,11.982,0.3299999999999999,179.22130880206154,-1.890430516728745,89.4690645795364,1525.0,1033.0,1200.0,1528.0,1475.0,1021.7000000000002,185.0,294.15,1637169486.1430943,1637169487.167806,a0cc0086-47d6-4442-9820-a4ec271fbd1e
-0.1011130351868243,0.110981155879215,0.1477403361989824,1.8200543981534791,0.1608175717401629,-1.6619499489240608,-0.6733386937833129,-0.7077682837627254,-15.343765243526184,29.805427736656384,15.143512190368586,-7.640589682065309,0.1764134197583346,0.5660479046900969,5840.1728515625,11.983666666666668,0.3333333333333333,179.23633521823558,-1.9014276904748963,89.408599191544,1525.0,1033.0,1200.0,1528.0,1475.0,1021.7000000000002,185.0,294.15,1637169487.2764945,1637169488.507994,a0cc0086-47d6-4442-9820-a4ec271fbd1e
-0.1111710738488246,0.1073027366966203,0.1473240798030561,1.8147705017211555,0.1622122385631763,-1.653883854132303,-0.6697990259494652,-0.7086150893869408,-15.38577350902132,29.634133651863973,15.100454593332984,-7.611729179770495,0.1639173212116938,0.5591647656970667,5829.141818576389,11.983444444444444,0.3222222222222222,179.25136467004918,-1.9270254133571387,89.37830654366508,1525.0,1033.0,1200.0,1528.0,1475.0,1021.7000000000002,185.0,294.15,1637169488.616411,1637169489.7346027,a0cc0086-47d6-4442-9820-a4ec271fbd1e
-0.0352510459794977,0.0851964914432545,0.0207130936182688,0.1609658519382077,-0.0921876423401818,-0.037154867670179,-0.2950199980466224,-0.3260701025512604,-14.383005007535084,21.76869024736948,26.39913009821788,-0.3042846866501288,0.1692271323399959,0.5473354290034965,5788.463324652777,12.032,0.22,179.26460309448052,-1.462858030359237,89.35277605545747,1525.0,1435.0,1200.0,1528.0,1475.0,1021.7000000000002,185.0,294.15,1637169490.6489935,1637169491.6731017,e1a16195-326a-446a-b0c6-36507efeb42b
-0.0398120001573166,0.0781016741657895,0.0197269413631115,0.1702795114998188,-0.0948310783468747,-0.0364015569641028,-0.2949652118177433,-0.3159072543908619,-13.956349438958767,21.987873829706245,26.72848409127265,-0.3219300718933444,0.1354729241503399,0.5520982422372924,5802.395073784723,12.031222222222222,0.22,179.27944889009646,-1.4060320659773964,89.3982689098793,1525.0,1435.0,1200.0,1528.0,1475.0,1021.7000000000002,185.0,294.15,1637169491.7812245,1637169493.014571,e1a16195-326a-446a-b0c6-36507efeb42b
-0.0331417759410308,0.1033992175516712,0.0215485837117991,0.1441190853519371,-0.0899824962919432,-0.0467698521119563,-0.3015532574435576,-0.3162907575139117,-15.357330089768215,21.55698539966973,25.348866065359328,-0.2899083463426903,0.2558264922461945,0.5524740762625518,5807.637152777777,12.032666666666664,0.22,179.24963283763964,-1.407265887475903,89.47326514587596,1525.0,1435.0,1200.0,1528.0,1475.0,1021.7000000000002,185.0,294.15,1637169493.1238968,1637169494.1307154,e1a16195-326a-446a-b0c6-36507efeb42b
0.0044141885299769,0.0983725806763319,0.1815380822843395,0.1613904452605528,0.0479555487894237,-0.060397928451246,-0.1273330138043787,-0.1617661654042185,-12.248007392672802,22.071162088893686,26.23568985922388,-0.3464109429871733,0.2151313563057774,-0.0987809341942492,5822.97998046875,12.033,0.22,179.2631004528631,-1.411884186287824,89.5309741730833,1525.0,1435.0,1200.0,1454.0,1475.0,1021.7000000000002,185.0,294.15,1637169496.1808095,1637169497.4074917,dcb4e77a-e2c0-4482-9f7b-c6d6c806b078
0.0105776399745039,0.104262100769534,0.1807847715958404,0.1600070929027734,0.0493662943343381,-0.0619456395696347,-0.1294148908416784,-0.1621633655179228,-12.580557667416636,21.888008688170974,26.64774973292293,-0.3481217210047213,0.236041728525046,-0.0955871394775225,5815.07861328125,12.03077777777778,0.2111111111111111,179.2469371896472,-1.41728900035542,89.57070462457536,1525.0,1435.0,1200.0,1454.0,1475.0,1021.7000000000002,185.0,294.15,1637169497.5164337,1637169498.7490098,dcb4e77a-e2c0-4482-9f7b-c6d6c806b078
0.0129745378024769,0.1068918399813457,0.1780865496634079,0.1567336154719548,0.0452436302132373,-0.0607540389399734,-0.1330444790695769,-0.1460699088216916,-12.596162781901066,21.965217458087512,26.729669505712053,-0.3376771961130774,0.245522537386737,-0.0807637518979529,5820.783528645833,12.028555555555556,0.22,179.23421634177305,-1.425227577445744,89.62070236820975,1525.0,1435.0,1200.0,1454.0,1475.0,1021.7000000000002,185.0,294.15,1637169498.8569343,1637169499.8653848,dcb4e77a-e2c0-4482-9f7b-c6d6c806b078
0.0730476439954178,0.1361750816314806,0.3580456228567639,0.1372434131645709,0.2064384247864149,-0.0804222979692528,0.049653922037725,0.0196310645998438,-11.56943013383436,22.038142986979977,26.85101134067804,-0.3279289128330234,0.3608194302089254,-0.8015128964887094,5818.587727864583,12.02777777777778,0.23,179.2459202503708,-1.393155997311126,89.64335962350651,1525.0,1435.0,1200.0,1380.0,1475.0,1021.7000000000002,185.0,294.15,1637169501.6222112,1637169502.6405246,34a56b40-81a2-4229-b75a-b88276902cac
0.0666924407796124,0.1345862808724,0.3592646164928909,0.1382158687677473,0.2045346032281339,-0.0799292217882628,0.0529547926851962,0.0216718522260161,-11.073806230149122,22.13916654168332,26.84064691995277,-0.3280362990097732,0.3514036777183553,-0.8051743784914404,5820.349663628473,12.024,0.23,179.2367207444687,-1.386556931781934,89.63088542135233,1525.0,1435.0,1200.0,1380.0,1475.0,1021.7000000000002,185.0,294.15,1637169502.7483552,1637169503.8684924,34a56b40-81a2-4229-b75a-b88276902cac
0.0781838534345585,0.1385445861913485,0.3607301481540599,0.1357641848695132,0.2125059999869569,-0.0836683824924599,0.0488184319822914,0.037463984595786,-12.205465483767467,21.951536795800788,26.537711628140936,-0.3326970788096462,0.3773358227225487,-0.8128242882870951,5826.9384765625,12.02588888888889,0.23,179.20256979861864,-1.4052795475139963,89.6332031322107,1525.0,1435.0,1200.0,1380.0,1475.0,1021.7000000000002,185.0,294.15,1637169503.976325,1637169505.0230827,34a56b40-81a2-4229-b75a-b88276902cac
0.133600128526265,0.1675949861204795,0.5628913355213664,0.1278338776263713,0.3963959839911992,-0.1139925649048611,0.2551981709938751,0.2363106171503112,-10.820748842421564,21.85662328002554,26.80172148736017,-0.3727745353621931,0.4879426104225111,-1.6278725701084948,5834.87158203125,12.028777777777778,0.2211111111111111,179.191794795748,-1.3963921788853737,89.6025408952067,1525.0,1435.0,1200.0,1314.2222222222222,1475.0,1021.7000000000002,185.0,294.15,1637169506.6021416,1637169507.763051,e55091d9-2d64-4dca-85a6-c0e0283588f6
0.1472282040662855,0.1765388385743211,0.5698354900654431,0.1286556710958386,0.3930677205140227,-0.1225255214671627,0.2619231809008178,0.2350368372945216,-9.737779636837988,22.17173225928343,26.98500160759293,-0.3907939697665081,0.5125424840940958,-1.6404040502443271,5841.941731770833,12.027555555555557,0.23,179.16903205197406,-1.3882792066698348,89.56169256942047,1525.0,1435.0,1200.0,1306.0,1475.0,1021.7000000000002,185.0,294.15,1637169507.8713596,1637169508.985564,e55091d9-2d64-4dca-85a6-c0e0283588f6
0.1315045551509905,0.1691563937646057,0.5595630721039,0.1334083768657755,0.3856852760197304,-0.1196492439099842,0.2526917009245626,0.2197377823258611,-9.819218645756116,22.147584211284123,26.91341511886199,-0.3957755136302728,0.4848279162326306,-1.6042024093125098,5838.84619140625,12.025555555555554,0.2222222222222222,179.17085343575275,-1.404188792391074,89.55335746190333,1525.0,1435.0,1200.0,1306.0,1475.0,1021.7000000000002,185.0,294.15,1637169509.093583,1637169510.2175283,e55091d9-2d64-4dca-85a6-c0e0283588f6
0.1906189002203711,0.1812093649062708,0.7271678433400153,0.1355450399283358,0.5329095715896733,-0.1477545841196564,0.428856825204183,0.4023265933111918,-7.4809531524973245,22.316598353668628,26.18604817019,-0.4532246635492092,0.5302958989091158,-2.281995478727468,5833.989529079861,12.023111111111112,0.24,179.17681846762787,-1.4091093745056371,89.52648522097878,1525.0,1435.0,1200.0,1232.0,1475.0,1021.7000000000002,185.0,294.15,1637169511.1291854,1637169512.2661798,0a37789d-f4f2-431b-a95b-6b5030658b07
0.1940293431992102,0.1956866267709104,0.7343722324650507,0.1333261974745217,0.5422780167898605,-0.1561779682794618,0.4215291669671657,0.4065725259418539,-8.964472749393583,22.59533993901701,26.718448997919296,-0.4656033235915379,0.5911103990399844,-2.2928116532316145,5830.90234375,12.019333333333334,0.2311111111111111,179.17194171256048,-1.4036717375845302,89.49774682059099,1525.0,1435.0,1200.0,1232.0,1475.0,1021.7000000000002,185.0,294.15,1637169512.3750365,1637169513.5873506,0a37789d-f4f2-431b-a95b-6b5030658b07
0.1855374771518879,0.1844691457081168,0.7314685623230046,0.1382706549437188,0.5456473698841208,-0.1522470557656919,0.4211593599198871,0.4009432408169417,-9.286605866021258,22.39263690594417,26.35380642759178,-0.4696321289856071,0.5537535383339826,-2.294886626925091,5834.87158203125,12.02,0.2333333333333332,179.1573600175924,-1.395064892888537,89.47482242900671,1525.0,1435.0,1200.0,1232.0,1475.0,1021.7000000000002,185.0,294.15,1637169513.6956155,1637169514.8162549,0a37789d-f4f2-431b-a95b-6b5030658b07
-0.095510546889447,0.063774478449154,-0.1944544933393719,0.203393620369487,-0.293584241204574,-0.0440591244402058,-0.5306324165379077,-0.5605028344274803,-15.484703261403071,22.54979526777535,26.24877958383052,-0.4216205275484829,0.0791606643136993,1.4468807292650507,5838.84619140625,12.027666666666669,0.22,179.24345682881017,-1.40886514781094,89.61749142038995,1525.0,1435.0,1200.0,1602.0,1475.0,1021.7000000000002,185.0,294.15,1637169516.6566288,1637169517.7959175,7a0ec4f3-e94e-4f2a-b3ff-f53e49a0532e
-0.1085550309325927,0.0502976603127699,-0.2018833883642772,0.2156972979762805,-0.2986769797603819,-0.0376753369097637,-0.5346961270363914,-0.5659653798628133,-15.230594752140805,22.62234242945541,26.842873890309203,-0.4346957585089821,0.0195658740153094,1.4691925133728063,5861.489040798611,12.028222222222222,0.2177777777777777,179.2416369628513,-1.4099535906302376,89.58124360646468,1525.0,1435.0,1200.0,1602.0,1475.0,1021.7000000000002,185.0,294.15,1637169517.904172,1637169519.02475,7a0ec4f3-e94e-4f2a-b3ff-f53e49a0532e
-0.1226487906750245,0.032697582457205,-0.2162647763186293,0.2330371402968907,-0.3017313127132677,-0.03574412206367,-0.5472558748089799,-0.5734710971360746,-15.775200243257162,22.32822655474858,26.838489517634155,-0.4724111630823228,-0.045603273383646,1.5085945420448592,5912.705132378473,12.025333333333334,0.2077777777777777,179.22772159078224,-1.414490982531209,89.55618743694946,1525.0,1435.0,1200.0,1602.0,1475.0,1021.7000000000002,185.0,294.15,1637169519.13276,1637169520.2537372,7a0ec4f3-e94e-4f2a-b3ff-f53e49a0532e
-0.1771610979046192,0.0215622802353175,-0.4102080758846154,0.2552666537563219,-0.4800742370018957,-0.0340457487353212,-0.7573885522800582,-0.7835489928248328,-17.31053737514073,22.60476680742904,26.88794187413276,-0.5273278569186326,-0.0919661931058741,2.3127843677971702,5930.871148003473,12.024888888888889,0.22,179.26220797481153,-1.437890570297438,89.55085002356805,1525.0,1435.0,1200.0,1676.0,1475.0,1021.7000000000002,185.0,294.15,1637169522.1217096,1637169523.1719062,5a3144cd-0a86-4998-918b-380ff8bc85b0
-0.1869541381650471,0.0106050332446765,-0.4085370954064617,0.2651007822922016,-0.4795126780062002,-0.0382505924473266,-0.7572104969071182,-0.7831243992160196,-17.082450845676835,22.946444048067548,26.0535822803816,-0.5566300521941544,-0.1283810294653525,2.3070911445170403,5928.592230902777,12.025,0.22,179.2542105822034,-1.447888710297802,89.52088826040891,1525.0,1435.0,1200.0,1676.0,1475.0,1021.7000000000002,185.0,294.15,1637169523.2799654,1637169524.438558,5a3144cd-0a86-4998-918b-380ff8bc85b0
-0.1776404775218449,0.0122760134178069,-0.398483819439978,0.2438574210772885,-0.4712947409378971,-0.0235267914771527,-0.7394049632598311,-0.7696743721345437,-16.89537568242359,22.68204508669416,25.70823148187217,-0.4768369158888197,-0.1171287219585278,2.256611187878134,5920.402235243056,12.027333333333337,0.22,179.2575801421939,-1.4431653498955228,89.49464819143753,1525.0,1435.0,1200.0,1676.0,1475.0,1021.7000000000002,185.0,294.15,1637169524.5475864,1637169525.5744865,5a3144cd-0a86-4998-918b-380ff8bc85b0
-0.2362730687250222,-0.0113445955474479,-0.5871289508781585,0.2848583646920051,-0.6439542049204128,-0.0296956025223195,-0.9449880283787596,-0.9700849083492938,-18.072108322272047,23.20540644727118,25.390744373955123,-0.5897539304187641,-0.2115761754980988,3.0376460815441564,5744.92333984375,12.02,0.24,179.2728084284034,-1.4588615989269045,89.47244552317554,1525.0,1435.0,1200.0,1750.0,1475.0,1021.7000000000002,185.0,294.15,1637169527.1257255,1637169528.127936,0d68531e-28a3-4adc-8634-9c05b33772f6
-0.2628878674031776,-0.0351962596933529,-0.5997137103253216,0.2966713479988604,-0.6517469540992704,-0.0142268279602227,-0.951893480115424,-0.9824368266586134,-17.966427405236484,23.316473225947608,25.73668239266766,-0.5814227450002053,-0.3070987953312306,3.0729801518976,5723.612358940973,12.019333333333334,0.24,179.27229236966616,-1.4706994432654308,89.39666077978472,1525.0,1435.0,1200.0,1750.0,1475.0,1021.7000000000002,185.0,294.15,1637169528.2362316,1637169529.3565464,0d68531e-28a3-4adc-8634-9c05b33772f6
-0.2400175892496385,-0.014746106163438,-0.6018640706116706,0.2852728344012709,-0.6548304673596185,-0.0195768229685477,-0.9624386453189224,-0.9876498602368566,-18.770831585436166,23.3178811222526,26.28758634185942,-0.5681474838747765,-0.2283204552677279,3.0977136664586578,5760.387532552083,12.019333333333334,0.24,179.27797660487536,-1.475122678515118,89.34494638193893,1525.0,1435.0,1200.0,1750.0,1475.0,1021.7000000000002,185.0,294.15,1637169529.465351,1637169530.4938428,0d68531e-28a3-4adc-8634-9c05b33772f6
-0.3136199275719668,-0.0515499511999903,-0.7621138671565273,0.3648802050501736,-0.8025598230355594,-0.0554397740752107,-1.1422620763779212,-1.1633684914134907,-18.780584562376458,24.254301866409588,25.164101921621256,-0.8302667708401518,-0.3762752802103145,3.767663767403265,5826.9384765625,11.996444444444446,0.29,179.30341830062378,-1.463466640531374,89.25960923953888,1525.0,1435.0,1200.0,1824.0,1475.0,1021.7000000000002,185.0,294.15,1637169532.634434,1637169533.7705495,b528e92a-dd39-4987-b43a-adcd534d75c6
-0.2908014575266296,-0.0348401491834849,-0.7488281994638598,0.3538955658860963,-0.7907944735930398,-0.0564396229253954,-1.132756657579785,-1.1573146077822294,-19.254264559787234,24.16929149318777,26.00232650988288,-0.8077417370883158,-0.3154866930108364,3.722806866929509,5819.904947916667,11.999666666666668,0.2877777777777777,179.3038706109288,-1.4761450843144717,89.07563278187523,1525.0,1435.0,1200.0,1824.0,1475.0,1021.7000000000002,185.0,294.15,1637169533.8788774,1637169535.0054562,b528e92a-dd39-4987-b43a-adcd534d75c6
-0.2916232510967603,-0.0269372346883681,-0.7574981249987878,0.3377336279129748,-0.7925887238141627,-0.0575079544302288,-1.147411986500492,-1.165546245173872,-20.7022901629497,23.87422848596142,24.7578059383663,-0.7770000439726106,-0.2631317856736956,3.756102546950773,5815.07861328125,11.992666666666668,0.2966666666666666,179.3024833236174,-1.4670974908315684,88.91897708089164,1525.0,1435.0,1200.0,1824.0,1475.0,1021.7000000000002,185.0,294.15,1637169535.1419833,1637169536.229101,b528e92a-dd39-4987-b43a-adcd534d75c6
-0.0669037940797648,0.0529137030227881,-0.0424828290815935,0.1734160232526286,-0.1242786810114577,-0.0128845652329627,-0.322536388387993,-0.3350276524380495,-13.952124190930746,19.0791638289602,26.66312016984277,-0.2985475672677744,0.0371728624565943,0.7143454948088257,7903.171549479167,11.81011111111111,7.239999999999999,179.6898142445299,-1.674279516200335,75.42595734827913,1525.0,1435.0,1350.0,1528.0,1475.0,1021.7000000000002,185.0,294.15,1637169539.60098,1637169540.8261943,ce8e46a1-667b-4dcd-ab96-b66c3817fe81
-0.0461171813334565,0.0697056838232062,-0.0320109164670172,0.1635759394917255,-0.1202501060154498,-0.0181047406706546,-0.3145792821106705,-0.3432491629002096,-13.72772408190025,19.150801510351084,27.040536944499447,-0.2869117344588349,0.0970963190135566,0.685860229201769,7907.22021484375,11.81,7.242222222222223,179.79886352699856,-1.7174318568926656,70.02343405024006,1525.0,1435.0,1350.0,1528.0,1475.0,1021.7000000000002,185.0,294.15,1637169540.9336605,1637169542.055488,ce8e46a1-667b-4dcd-ab96-b66c3817fe81
-0.0483449564889492,0.0720614918935733,-0.0340868384226757,0.1595961961591153,-0.1223611626935773,-0.015459518271336,-0.3168112260202005,-0.3504499802623481,-13.847792790542323,19.129344945213813,27.2079618317942,-0.2722695968672719,0.1056559911628407,0.6951542229488009,7907.22021484375,11.809333333333331,7.256666666666667,179.86847377937968,-1.7151646965489462,65.06842322880038,1525.0,1435.0,1350.0,1528.0,1475.0,1021.7000000000002,185.0,294.15,1637169542.1638825,1637169543.28457,ce8e46a1-667b-4dcd-ab96-b66c3817fe81
0.138435013610489,0.4122565975761356,-0.0210203211539981,-0.0097480532626749,-0.1890223185813029,-0.1933915212136468,-0.3778157084165496,-0.4133034995221846,-13.464218060809069,18.24828720371137,26.95545170528633,-0.2951446109436444,1.4027809247008014,0.8949479292067221,7920.209906684027,11.797,7.292222222222222,179.78856967300942,-1.669354167182913,56.50995638324356,1593.0,1435.0,1350.0,1528.0,1529.0,1021.7000000000002,185.0,294.15,1637169545.218331,1637169546.1824286,15486e4b-93f0-4766-adbb-166469700f89
0.1347259856731628,0.4141357652668273,-0.0252936475479318,-0.0160501140470316,-0.1936232669702595,-0.1872592975510631,-0.3826620996149573,-0.4159151601359701,-13.68270353299108,18.303868950501567,27.229195784084755,-0.2670594491126335,1.4094551007584286,0.9143224403323552,7914.5205078125,11.793666666666669,7.307777777777777,179.7418876067621,-1.6348025761913785,53.7599989005364,1593.0,1435.0,1350.0,1528.0,1529.0,1021.7000000000002,185.0,294.15,1637169546.2907293,1637169547.4889495,15486e4b-93f0-4766-adbb-166469700f89
0.1330338057134155,0.4065266725263706,-0.0243360794230459,-0.0070998534179534,-0.1923106839719839,-0.1930109950770328,-0.3825523365630329,-0.4061342436778336,-13.52824027377022,18.445431494605767,26.52531360355762,-0.2992222108968768,1.3850227505887729,0.9092880368144548,7920.209906684027,11.796,7.296666666666665,179.68311155222443,-1.6149370658541349,51.58049426384928,1593.0,1435.0,1350.0,1528.0,1529.0,1021.7000000000002,185.0,294.15,1637169547.5977013,1637169548.7227046,15486e4b-93f0-4766-adbb-166469700f89
0.37864524536824,0.8611064774071785,0.0019625046023624,-0.2309748820257867,-0.2716536659337233,-0.4232335059153493,-0.4546397217175357,-0.4891550585079505,-13.17991920545721,17.289392578684446,27.64453915018629,-0.3175559984715361,3.106799794587791,1.1394831224795186,7913.709364149306,11.785555555555554,7.348888888888889,179.45849850463884,-1.5789142212846643,48.77215991321594,1661.0,1435.0,1350.0,1528.0,1583.0,1021.7000000000002,185.0,294.15,1637169549.631423,1637169550.6521866,1e212ff6-9233-4448-80f0-22e165a7c08f
0.3810695360782735,0.8540390537935756,0.0030856224333192,-0.2293312947895503,-0.2716262727811511,-0.4201106898326759,-0.4528317755434259,-0.4707057895775606,-13.031356561441848,17.489952630490873,27.327473580990603,-0.3128364427415978,3.081923553626931,1.1340743876270538,7902.36181640625,11.783666666666669,7.386666666666667,179.38643545543573,-1.54356014235549,47.281343629996144,1661.0,1435.0,1350.0,1528.0,1583.0,1021.7000000000002,185.0,294.15,1637169550.7622612,1637169551.9972763,1e212ff6-9233-4448-80f0-22e165a7c08f
0.3944070055925589,0.8660163954811858,0.0132663341476998,-0.2308420849716745,-0.264542769075296,-0.4315455322840292,-0.4440082122448375,-0.4564994782168614,-12.76022047114166,17.37052024342998,27.245681562821936,-0.3352854433974593,3.126481141066617,1.099545376357674,7899.9326171875,11.782000000000002,7.38,179.33519537628231,-1.5004561703118129,46.15270495770545,1661.0,1435.0,1350.0,1528.0,1583.0,1021.7000000000002,185.0,294.15,1637169552.1050603,1637169553.1135705,1e212ff6-9233-4448-80f0-22e165a7c08f
0.6188417719769456,1.2709622760006367,0.0231236879489907,-0.4352453903529685,-0.3572982599339812,-0.6320923855353265,-0.5287381224012441,-0.5417772521762618,-12.351623649500596,17.206158856164127,28.09490116626434,-0.3251149155928864,4.660644376409455,1.3818396021982304,7907.22021484375,11.765333333333334,7.423333333333334,179.0362744239864,-1.4346279810299936,43.81341070157056,1729.0,1435.0,1350.0,1528.0,1636.0,1021.7000000000002,185.0,294.15,1637169555.1668046,1637169556.295499,dadef835-18d3-451b-8653-9291108a0b87
0.610034885654369,1.268989971537028,0.0235071915883241,-0.439915917924138,-0.3573804392791007,-0.6295448247928203,-0.5291216261782578,-0.5643217929074532,-12.50394950873436,17.318588921815,27.57071705746372,-0.3082504670599106,4.659572251774347,1.380803218771239,7907.22021484375,11.763555555555556,7.441111111111111,178.97970224382095,-1.3906244280123496,43.1621476107504,1729.0,1435.0,1350.0,1528.0,1636.0,1021.7000000000002,185.0,294.15,1637169556.403787,1637169557.7325964,dadef835-18d3-451b-8653-9291108a0b87
0.6079119192756705,1.2563069583092263,0.0209322385404076,-0.4228363055654898,-0.3561477488350928,-0.6333661659582089,-0.5311487174107782,-0.563678054701852,-12.415070033275905,17.349023254711557,27.47816618820401,-0.3552614279252608,4.609928861904764,1.3840545798925,7909.653645833333,11.764666666666663,7.416666666666667,178.89049997326055,-1.3767162655874343,42.53244628877511,1729.0,1435.0,1350.0,1528.0,1636.0,1021.7000000000002,185.0,294.15,1637169557.8408575,1637169558.9673128,dadef835-18d3-451b-8653-9291108a0b87
0.8412738623566706,1.6804757147220668,0.0646516537071836,-0.6319143304343829,-0.4316021049356411,-0.8492514139332196,-0.5959197623769042,-0.6201626799677428,-11.701261256275188,18.28714467919119,28.404793771583133,-0.3598527276799382,6.216084218634407,1.5703642677085952,7916.958821614583,11.738333333333337,7.483333333333332,178.68957402171657,-1.3336248155572354,41.28373061414587,1796.0,1435.0,1350.0,1528.0,1690.0,1021.7000000000002,185.0,294.15,1637169561.192849,1637169562.3103206,77e86c4a-c5ff-4ee1-999e-66a8afaae5b8
0.86035316679984,1.698171671691756,0.066925282439349,-0.6360369959505389,-0.431930822368785,-0.8621946684194338,-0.598371447065569,-0.6296817912889975,-11.770463775474337,18.18126312856151,28.490906588165,-0.3802480233411045,6.282831327643088,1.573425043115132,7955.335069444444,11.739888888888892,7.489999999999999,178.61044400345224,-1.309305428982778,41.0401068733704,1796.0,1435.0,1350.0,1528.0,1690.0,1021.7000000000002,185.0,294.15,1637169562.4184911,1637169563.4724529,77e86c4a-c5ff-4ee1-999e-66a8afaae5b8
0.8754056833984579,1.704348820742734,0.0667198340538103,-0.6397350681127556,-0.4353138731185915,-0.8647970159995885,-0.6012203322095853,-0.6241346837914671,-11.733657806718382,18.334203654204817,28.483489539645124,-0.3767329249280425,6.306249507050057,1.5830366539329292,7979.195963541667,11.739666666666668,7.476666666666666,178.58032590485217,-1.2666896020213452,40.83688635772024,1796.0,1435.0,1350.0,1528.0,1690.0,1021.7000000000002,185.0,294.15,1637169563.582415,1637169564.5843067,77e86c4a-c5ff-4ee1-999e-66a8afaae5b8
-0.2877679432877685,-0.3723009250806868,-0.051761973936989,0.3814218115602739,-0.0376008276170317,0.2013109813389092,-0.2406824558556181,-0.2669009598022293,-14.171855091655436,20.35052235970823,25.379603433019177,-0.2787809280698958,-1.5708861950903037,0.4402801226629481,7980.84423828125,11.799555555555555,7.334444444444443,179.08695898108738,-1.223374558159567,40.395731269418285,1457.0,1435.0,1350.0,1528.0,1421.0,1021.7000000000002,185.0,294.15,1637169565.6981134,1637169566.836073,b16ec43b-107f-447e-8dca-15f53ba6d78f
-0.292294382600921,-0.3690773023796064,-0.0554808636479423,0.3690713516522003,-0.0425239187804949,0.210273460976183,-0.2376588032328397,-0.2688595689103336,-13.805161554179977,20.044660789534102,25.48495755708718,-0.2327928189006015,-1.5610451066984825,0.4485621000329938,7980.84423828125,11.799333333333337,7.295555555555556,179.11111356563217,-1.1984261419932662,40.26131124927766,1457.0,1435.0,1350.0,1528.0,1421.0,1021.7000000000002,185.0,294.15,1637169566.944919,1637169568.0670564,b16ec43b-107f-447e-8dca-15f53ba6d78f
-0.2802277128008384,-0.3613935316947234,-0.0498926675673746,0.3595659407059154,-0.0396750345285733,0.2067945352830367,-0.2332896005349836,-0.2538618349333296,-13.80602533902155,20.034438379086502,24.85521386020776,-0.2190588815223307,-1.5251143707740242,0.4308054627763886,7980.84423828125,11.800000000000002,7.306666666666666,179.10886567448532,-1.1874660955427596,40.14479543168137,1457.0,1435.0,1350.0,1528.0,1421.0,1021.7000000000002,185.0,294.15,1637169568.179784,1637169569.2954862,b16ec43b-107f-447e-8dca-15f53ba6d78f
-0.4563928816947922,-0.6763459822641872,-0.0630276677610524,0.5098308724970412,0.0177820300061176,0.3660718056186452,-0.1812974588639836,-0.2131008717825347,-14.183582096408704,21.11768405839936,23.437860462090622,-0.1939915146505189,-2.710458475776516,0.2569261705455938,7966.009765625,11.773222222222223,7.453333333333335,179.18622287920505,-1.1550605713327842,40.06331886398219,1389.0,1435.0,1350.0,1528.0,1367.0,1021.7000000000002,185.0,294.15,1637169570.2038844,1637169571.249196,83bd10ba-4c5f-44e5-94c8-95f2ba30332b
-0.4525977431412224,-0.6755396715016054,-0.0623958395393537,0.5119591984058836,0.0210412154879689,0.367452180399233,-0.1775612755502522,-0.2020578715852925,-14.145018023352952,20.818262149815272,24.04485947341336,-0.1975278818717467,-2.7133141500690985,0.247428462444907,7958.61328125,11.778666666666668,7.383333333333334,179.16838546073262,-1.145611810957848,39.96220929696877,1389.0,1435.0,1350.0,1528.0,1367.0,1021.7000000000002,185.0,294.15,1637169571.3572693,1637169572.566881,83bd10ba-4c5f-44e5-94c8-95f2ba30332b
-0.4486674254046251,-0.6692797464037107,-0.066955007210043,0.5005827187756677,0.0119943406892418,0.3680381548809266,-0.1858506717581706,-0.2029725635268497,-14.250771826220202,21.101170881343226,23.45891448290229,-0.1690467849184268,-2.682777450690768,0.2774088249522061,7958.61328125,11.77688888888889,7.403333333333332,179.16768422797784,-1.142778195515776,39.91194024304234,1389.0,1435.0,1350.0,1528.0,1367.0,1021.7000000000002,185.0,294.15,1637169572.675293,1637169573.911132,83bd10ba-4c5f-44e5-94c8-95f2ba30332b
-0.700616293650369,-1.1242510880363732,-0.0763270267180269,0.7428777945405699,0.107110984902913,0.5932429064519225,-0.1025833308824921,-0.130154506058584,-14.678856190373374,22.664184797890243,24.085797568205013,-0.1997607804907304,-4.422122113418117,-0.0109071498982366,7943.861328125,11.762777777777778,7.496666666666666,179.30533834269048,-1.1578955741570318,39.84352944777045,1321.0,1435.0,1350.0,1528.0,1314.0,1021.7000000000002,185.0,294.15,1637169574.617344,1637169575.7607648,39ea80f4-555e-45ef-9444-0cfb44305112
-0.6993972996584533,-1.126743863554106,-0.0895852960717116,0.7400152140684891,0.0955373930580825,0.6001870609898426,-0.1154307036044727,-0.1361946886813472,-14.899131809056726,22.66078913557273,24.25162736333972,-0.1784661882983607,-4.431870342056904,0.0409754149206302,7939.774956597223,11.763444444444444,7.48,179.3408720223925,-1.1534225591605811,39.78969237891258,1321.0,1435.0,1350.0,1528.0,1314.0,1021.7000000000002,185.0,294.15,1637169575.8736591,1637169576.8712018,39ea80f4-555e-45ef-9444-0cfb44305112
-0.6979317673371942,-1.1213611120578448,-0.0857502594947373,0.724401138777845,0.0963865796716107,0.6072681810948012,-0.1096233624115455,-0.1364001372330051,-14.86433961335718,22.63262443424925,24.00149915019857,-0.1273505439187594,-4.407546051740642,0.0265203129397253,7936.505859375,11.762111111111112,7.529999999999999,179.35096552416596,-1.147339848817862,39.750427139194,1321.0,1435.0,1350.0,1528.0,1314.0,1021.7000000000002,185.0,294.15,1637169576.979758,1637169578.2201784,39ea80f4-555e-45ef-9444-0cfb44305112
-0.8203379646104872,-1.3452863391390004,-0.0799703115274292,0.8177842664796433,0.1466529486288732,0.7144437416452675,-0.0589460931685472,-0.0938860163185459,-14.93365355623,23.66435971197504,20.478560369218226,-0.0906313732048374,-5.2268010404658645,-0.1536935318651352,7934.874457465277,11.702,7.639999999999999,179.43945593723285,-1.111181775989199,39.71370993949078,1254.0,1435.0,1350.0,1528.0,1260.0,1021.7000000000002,185.0,294.15,1637169580.153957,1637169581.284603,fa52332f-7c7b-45d9-90d8-85277ef565c9
-0.8179273692464925,-1.3460396505683392,-0.0844627829152778,0.8065393928991288,0.1406401596126049,0.7203880474979171,-0.0635481369933834,-0.0758476477934415,-15.077112776544832,23.78556950028447,19.711409284884777,-0.0515227272568506,-5.220710065004536,-0.1342496500583757,7933.243055555556,11.702444444444446,7.684444444444444,179.42705231370007,-1.1244901742855895,39.65394692261803,1254.0,1435.0,1350.0,1528.0,1260.0,1021.7000000000002,185.0,294.15,1637169581.393181,1637169582.5132816,fa52332f-7c7b-45d9-90d8-85277ef565c9
-0.812928123193005,-1.3397118344601182,-0.0826685336623272,0.8032522191278573,0.1420098154363816,0.7190594814382069,-0.0615073497162854,-0.0813673613209179,-15.06939002419801,23.64730779770921,19.98985770104243,-0.0478720720928279,-5.198983325891644,-0.1402748593173527,7934.874457465277,11.705777777777778,7.667777777777778,179.4466003151047,-1.1398488151297157,39.61378351302359,1254.0,1435.0,1350.0,1528.0,1260.0,1021.7000000000002,185.0,294.15,1637169582.621999,1637169583.743087,fa52332f-7c7b-45d9-90d8-85277ef565c9
-0.0405004011997981,0.0872134585570857,-0.0498331173037196,0.1473973267947603,-0.1360714187937143,-0.0202771339816762,-0.3304148883769634,-0.3550115308948677,-13.926451350899596,18.502670517570152,26.931854264695072,-0.2605997299971464,0.1659820226429056,0.7561999097511949,7929.16455078125,11.803444444444445,7.366666666666666,179.09192528752388,-1.1775771437053772,39.60542677657408,1525.0,1435.0,1350.0,1528.0,1475.0,1021.7000000000002,185.0,294.15,1637169585.62436,1637169586.6732814,3fab5d8b-3adc-4c3c-a43e-2743f21dd9c7
-0.0312105611864615,0.0968796558143475,-0.0437018228439248,0.1429411813687426,-0.1317022162569676,-0.0273618279859198,-0.3284396060882372,-0.3561888394206545,-14.140592434553502,18.53898930158248,26.71982802553518,-0.2660635433079055,0.2065689147109477,0.739745722322163,7936.505859375,11.805,7.376666666666667,179.10345161120324,-1.1675584775636014,39.7303839490746,1525.0,1435.0,1350.0,1528.0,1475.0,1021.7000000000002,185.0,294.15,1637169586.783221,1637169587.7367182,3fab5d8b-3adc-4c3c-a43e-2743f21dd9c7
-0.0378944819369698,0.0778825292535427,-0.0460576310134302,0.1568705810380628,-0.1305654018384578,-0.0214312179789605,-0.3268918947462411,-0.3450124456470324,-13.932163381929826,18.62615305152245,26.73494473692781,-0.2835901406078593,0.1318460766441603,0.7371597412855158,7936.505859375,11.804,7.383333333333335,179.09763684348982,-1.1831093953476437,39.81048385420107,1525.0,1435.0,1350.0,1528.0,1475.0,1021.7000000000002,185.0,294.15,1637169587.852043,1637169589.068367,3fab5d8b-3adc-4c3c-a43e-2743f21dd9c7
-0.0170072294930824,0.0738694376171783,-0.0702320578797747,-0.3525455535086975,-0.2073346192519493,0.4747265959755105,-0.211018993849461,-0.22074355215885,-13.702548181070924,17.630464871642353,30.38531899906792,1.973353918203382,0.1439868218432951,0.7104618366862945,7943.861328125,11.797777777777778,7.407777777777778,179.136716150281,-1.052447971389038,40.09058194350925,1525.0,1535.0,1350.0,1528.0,1475.0,1021.7000000000002,185.0,294.15,1637169591.20629,1637169592.4365456,ee6796e0-0022-4ec1-92b5-a3615dfb7481
-0.0100356810163808,0.0927843848561674,-0.0653697793306136,-0.3603936828453296,-0.2056088526275338,0.4616052940129569,-0.2103341658246886,-0.2142513828583262,-13.751030583746385,17.483752175813162,30.150849770021846,1.9607798099554927,0.2186226426540629,0.7024239180451642,7943.861328125,11.8,7.42,179.1580885711039,-1.0452705927941837,40.19309511439712,1525.0,1535.0,1350.0,1528.0,1475.0,1021.7000000000002,185.0,294.15,1637169592.5454023,1637169593.5895803,ee6796e0-0022-4ec1-92b5-a3615dfb7481
-0.0291423807233392,0.073937920389357,-0.0745053843446343,-0.3468888736165993,-0.2100465380995798,0.4708093805784246,-0.2161278107386212,-0.2364809001917587,-13.736716023328492,17.56618279911501,30.543219721376857,1.9511603825420296,0.1421175806832673,0.7275375271892615,7945.498914930556,11.800333333333334,7.396666666666666,179.13626232215614,-1.06833127985472,40.27528619577446,1525.0,1535.0,1350.0,1528.0,1475.0,1021.7000000000002,185.0,294.15,1637169593.698754,1637169594.6430595,ee6796e0-0022-4ec1-92b5-a3615dfb7481
0.0006887245626704,0.072554567995659,-0.1065690296625817,-0.91713159432918,-0.3039364590125045,1.0212055385876089,-0.0961048583258357,-0.1334690738393634,-13.511518492397252,16.74555618862401,34.29127080827052,4.467976138652557,0.1702788960932599,0.7288514159422889,7951.23046875,11.784,7.48,179.13015309739853,-0.9028335076776204,40.48645173924916,1525.0,1636.0,1350.0,1528.0,1475.0,1021.7000000000002,185.0,294.15,1637169596.623561,1637169597.66557,3b0ace42-4260-4839-acb2-5535a3bd4665
-0.0062280376507585,0.066432206343919,-0.1044460629381685,-0.9201311426890214,-0.3029776997535601,1.0286838591344931,-0.0928450771841082,-0.0785732627770005,-13.48045590923538,16.938458413409133,34.12727019423462,4.492921144840248,0.149057162382106,0.7189546171027476,7951.23046875,11.784666666666666,7.445555555555554,179.17894189754983,-0.903080402414962,40.475598189203055,1525.0,1636.0,1350.0,1528.0,1475.0,1021.7000000000002,185.0,294.15,1637169597.773692,1637169598.904288,3b0ace42-4260-4839-acb2-5535a3bd4665
