raw_voltage_G-,raw_voltage_G0,raw_voltage_G1,raw_voltage_G2,raw_voltage_G3,raw_voltage_G4,raw_voltage_G5,raw_voltage_G6,load_x,load_y,load_z,load_l,load_m,load_n,rpm,voltage,current,roll,pitch,yaw,aileron1_pwm,elevator_pwm,throttle_pwm,rudder_pwm,aileron2_pwm,pbaro,pdiff,Tt,sample_start_time,sample_end_time,uid
-0.1045145458586843,0.0252055648863902,-0.0061458582011672,0.3619765348758664,-0.0835588099977186,-0.5372847773990767,-0.4456684736831033,-0.4719384802844543,-16.683105483357483,22.582491698891232,-27.3896519133519,-1.887248888287641,0.4107952169190592,0.703382408343312,5687.74169921875,12.032666666666666,0.2688888888888889,178.80519394616672,10.651969534764705,65.23762674619921,1525.0,1435.0,1200.0,1528.0,1475.0,1021.7000000000002,187.0,294.71,1637174570.5090663,1637174571.454429,387d0823-678e-4ad5-b0cc-8e6abeb598ef
-0.1087604792803504,0.0228223636708045,-0.005118616273882,0.3574155811807948,-0.0852845764552901,-0.5280122047704795,-0.4396967728123062,-0.4601594371257067,-16.211052561314617,22.60315525731077,-26.97656090061524,-1.855632185871612,0.3954814967484106,0.6964061984325612,5668.114800347223,12.033111111111111,0.2644444444444444,178.9439758010023,10.704247423217028,64.13957897338118,1525.0,1435.0,1200.0,1528.0,1475.0,1021.7000000000002,187.0,294.71,1637174571.5621202,1637174572.7606497,387d0823-678e-4ad5-b0cc-8e6abeb598ef
-0.1262098960108956,-0.0072963691287266,-0.0273070417261759,0.3713586768161203,-0.1145541237992553,-0.5092479142653666,-0.4346016518999496,-0.4558724130460492,-12.954738888129173,22.37712106645964,-26.759697991807613,-1.8458480561778,0.2544213437850349,0.7584170174822585,5630.048014322917,12.033,0.27,179.0555993058781,10.758390901950149,63.30714890937598,1525.0,1435.0,1200.0,1528.0,1475.0,1021.7000000000002,187.0,294.71,1637174572.8859093,1637174574.1058247,387d0823-678e-4ad5-b0cc-8e6abeb598ef
0.0308759400361755,0.2882479649939886,-0.0151444973901044,0.2202582516923017,-0.1567943134618852,-0.65189761641066,-0.5013586944329029,-0.5212050140743334,-15.658472459662034,21.693897520595016,-25.839980804869857,-1.830693384833792,1.393240367445855,0.9285414345462684,5616.92431640625,12.021,0.3,179.21894555660867,10.8328143506939,62.04449585429037,1593.0,1435.0,1200.0,1528.0,1529.0,1021.7000000000002,187.0,294.71,1637174575.2141073,1637174576.2382114,008b2649-13d9-4a9c-a22f-35c62e90808c
0.039011695937697,0.2855771362265178,-0.0025984494402932,0.2394745225092607,-0.1552739953136923,-0.6653613382907009,-0.4808412444613152,-0.5098094747830789,-13.355456925078805,21.85779910150272,-25.49765220814425,-1.9013702832228967,1.3623211061590732,0.8820280145238328,5623.475965711806,12.023,0.3077777777777777,179.3421500266772,10.868446309228991,61.52052775794164,1593.0,1435.0,1200.0,1528.0,1529.0,1021.7000000000002,187.0,294.71,1637174576.352588,1637174577.3926966,008b2649-13d9-4a9c-a22f-35c62e90808c
0.0362723841511774,0.2953427818874172,-0.0158019322413199,0.2337630578731873,-0.1582187557102387,-0.6742914978475077,-0.5088096243335196,-0.5346276461643408,-15.581008249414106,21.763973406362624,-26.29956572407941,-1.9110814218864227,1.4216720411954384,0.9423403621526182,5646.52587890625,12.025,0.3,179.46768738580218,10.902209641843662,61.11927159913128,1593.0,1435.0,1200.0,1528.0,1529.0,1021.7000000000002,187.0,294.71,1637174577.5024636,1637174578.4454453,008b2649-13d9-4a9c-a22f-35c62e90808c
0.2521712316363843,0.6859822956506196,-0.0032284911648958,0.059844161615695,-0.2393708732775527,-0.8924914719766743,-0.5922353869148967,-0.6192724040165217,-15.300059853771836,21.385463917338303,-25.943020800439257,-2.010772332824876,2.903863000829068,1.201111186731456,5733.821451822917,12.009444444444446,0.3299999999999999,179.6172776355444,10.940544363151572,60.4950120406497,1661.0,1435.0,1200.0,1528.0,1583.0,1021.7000000000002,187.0,294.71,1637174580.0058258,1637174581.0627887,8953d1bd-6008-475a-9986-b1438198f268
0.2458982081177106,0.6770795334363063,-0.0040365882181837,0.059912644400782,-0.237932734519644,-0.8834517384269619,-0.5887016737000068,-0.6246962424908725,-15.25883978364297,21.30298820519,-25.87782470941729,-1.9911691624499408,2.869541593383348,1.1943006547138717,5733.39501953125,12.010333333333334,0.3400000000000001,179.6836276109617,10.973259166864905,60.222230222307466,1661.0,1435.0,1200.0,1528.0,1583.0,1021.7000000000002,187.0,294.71,1637174581.1712768,1637174582.2908723,8953d1bd-6008-475a-9986-b1438198f268
0.2496647615115931,0.6803393140630041,-0.0085016663641093,0.061391872652826,-0.2397680735566029,-0.8865197694537672,-0.5968374320217628,-0.6099313470937315,-15.74726309319339,21.26250089673565,-25.711796256231,-2.002110334640657,2.883287313345365,1.214787055063766,5725.73583984375,12.010555555555555,0.3400000000000001,179.76868775124544,10.990634693794725,60.00697225715506,1661.0,1435.0,1200.0,1528.0,1583.0,1021.7000000000002,187.0,294.71,1637174582.3991554,1637174583.720796,8953d1bd-6008-475a-9986-b1438198f268
0.4170229994944471,0.9979898732760988,-0.0017218696921318,-0.1120750466800909,-0.3086617724268372,-1.0242387476970571,-0.6546232324253304,-0.6871799654884897,-15.585048252322428,20.52448978113249,-23.94118534055401,-1.924475272713071,4.079603821097696,1.4214842225908455,5673.945149739583,11.997,0.38,179.8120002575022,11.003616416949718,59.61936661085593,1729.0,1435.0,1200.0,1528.0,1636.0,1021.7000000000002,187.0,294.71,1637174585.5468438,1637174586.4923809,3f25ec61-7131-4eef-a3f6-cdfbf1f124f8
0.4119415767125439,0.9994691015192404,0.0057427548672721,-0.1139925650025614,-0.3002657807605315,-1.0196093076721695,-0.6546506254992015,-0.6837695214084226,-16.51029599216442,20.893339532181965,-23.299295947150217,-1.9072934385374591,4.086727013314249,1.4001815467744765,5625.539225260417,11.997,0.38,179.81943757459845,11.011780674873869,59.47692756917476,1729.0,1435.0,1200.0,1528.0,1636.0,1021.7000000000002,187.0,294.71,1637174586.600024,1637174587.7157466,3f25ec61-7131-4eef-a3f6-cdfbf1f124f8
0.4267064656240511,0.995880603398338,0.0087559977521364,-0.1097055417784671,-0.3008547328891268,-1.0222253520641098,-0.6401185718322976,-0.654541055975944,-15.006344179616349,20.533485869587096,-23.54583725582799,-1.924360236754156,4.064465548088246,1.37664088697102,5609.57177734375,11.998555555555557,0.3711111111111111,179.8533669187554,11.034115203732332,59.32515014107836,1729.0,1435.0,1200.0,1528.0,1636.0,1021.7000000000002,187.0,294.71,1637174587.8490326,1637174589.049813,3f25ec61-7131-4eef-a3f6-cdfbf1f124f8
0.6191430962273924,1.3301998925482508,0.0322318993949417,-0.2531633094140418,-0.3582707159250755,-1.2083891136724343,-0.7117242071038818,-0.7291325420903702,-15.852610691122822,20.97170450027029,-22.40922198013989,-2.015260348184551,5.333440421289023,1.5648207062564998,5639.174641927083,11.979666666666668,0.4266666666666666,179.78161654043436,11.02611240389106,59.20208758716261,1796.0,1435.0,1200.0,1528.0,1690.0,1021.7000000000002,187.0,294.71,1637174590.1653204,1637174591.3023827,b8a1d24c-2c03-4d73-bbee-6ccaf785b082
0.6040220970016722,1.3145584223807594,0.0148509664539188,-0.2423978131092184,-0.3717892215561122,-1.202937878917156,-0.7164495214498495,-0.7512935828494731,-14.858959040997073,20.484001307467768,-22.488231054299167,-2.0309059313116453,5.266007238933728,1.6126387502305737,5704.5869140625,11.977222222222222,0.43,179.76866043048872,11.016563894295125,59.11018511515036,1796.0,1435.0,1200.0,1528.0,1690.0,1021.7000000000002,187.0,294.71,1637174591.4114294,1637174592.4183223,b8a1d24c-2c03-4d73-bbee-6ccaf785b082
0.6002418472020367,1.3180647414336757,0.013152593152015,-0.2500678868176442,-0.3776787428422203,-1.2030200584329742,-0.722544492506616,-0.7414046627627237,-14.986665225299516,20.847524847829785,-23.04892789454351,-2.011617181089848,5.285874229687225,1.6309811957838232,5722.762966579861,11.976888888888888,0.4277777777777778,179.77435984389615,11.028881191825857,59.05570297287089,1796.0,1435.0,1200.0,1528.0,1690.0,1021.7000000000002,187.0,294.71,1637174592.525985,1637174593.571057,b8a1d24c-2c03-4d73-bbee-6ccaf785b082
-0.3548739687552131,-0.4281368748185333,-0.0287999666693688,0.593982520535803,-0.0068032930377709,-0.3120311263901034,-0.3594623166308084,-0.3862527911941445,-15.267922104641151,23.47867492795685,-27.916762844709307,-1.898981293692243,-1.3248449647226272,0.4540376497571457,5718.09619140625,12.034777777777778,0.26,-179.79248868377317,11.007429559781352,58.92023603651249,1457.0,1435.0,1200.0,1528.0,1421.0,1021.7000000000002,187.0,294.71,1637174595.5250826,1637174596.515003,7a159301-988e-4f70-8924-3a6c46b1f704
-0.3410130490611956,-0.4126871534510186,-0.002844987536677,0.5874218696032344,0.0077835421008273,-0.3213447877655429,-0.3361233767694087,-0.3550520249965475,-14.529490312864692,23.823328634912126,-27.765997848340607,-1.9011382369359864,-1.2710027723645685,0.3679601669477406,5715.55517578125,12.035666666666666,0.26,-179.7648507027517,11.000925227552992,59.02456414044481,1457.0,1435.0,1200.0,1528.0,1421.0,1021.7000000000002,187.0,294.71,1637174596.6232889,1637174597.8621893,7a159301-988e-4f70-8924-3a6c46b1f704
-0.3338223546768402,-0.4054553690456701,-0.0128982618193932,0.5788067350839764,0.0010585317053283,-0.3190848551678921,-0.3476284880410755,-0.3702004218820486,-15.133649883512524,23.56674154545133,-27.641940730674715,-1.879112109758508,-1.2402835742132403,0.4078617054958837,5710.4775390625,12.033666666666669,0.26,-179.76181354530075,10.994474683064348,59.12799369504631,1457.0,1435.0,1200.0,1528.0,1421.0,1021.7000000000002,187.0,294.71,1637174597.9757583,1637174599.1774814,7a159301-988e-4f70-8924-3a6c46b1f704
-0.4981947887545828,-0.7076015410353018,-0.015911504697166,0.7231136623977784,0.0615014452354232,-0.1639302211441338,-0.2876375519600326,-0.3019230661275829,-15.12482209663168,24.84380677772512,-28.57642578272382,-1.8478087414433528,-2.3832322228074942,0.2070989554645084,5699.0869140625,12.015888888888888,0.3188888888888889,-179.70357176333812,10.98865763862122,59.25971465209992,1389.0,1435.0,1200.0,1528.0,1367.0,1021.7000000000002,187.0,294.71,1637174600.087558,1637174601.134002,dcca44bc-09a5-4a34-8085-cf954ddb7038
-0.4992494240873597,-0.7113407029926888,-0.0220475631013221,0.7192923229218801,0.0606522586021243,-0.1532058148605288,-0.2902262019029735,-0.3275630268031888,-15.5271607657236,24.540244052586285,-28.10100195496473,-1.8175341934091307,-2.398546021663584,0.2203332085659877,5699.0869140625,12.01388888888889,0.32,-179.7468432884599,10.975273124032672,59.29770795881306,1389.0,1435.0,1200.0,1528.0,1367.0,1021.7000000000002,187.0,294.71,1637174601.2428772,1637174602.2458377,dcca44bc-09a5-4a34-8085-cf954ddb7038
-0.4978934644179306,-0.7091903424072865,-0.0267317862620753,0.7054861931905143,0.0559680355861424,-0.1424403190249196,-0.2967457647063143,-0.3162770609846598,-16.105288692623954,24.660424249758297,-28.119849959333447,-1.7619300140287315,-2.384817051844516,0.2420398037625304,5694.880045572917,12.015888888888888,0.32,-179.7622673734256,10.98305251976984,59.33539087137392,1389.0,1435.0,1200.0,1528.0,1367.0,1021.7000000000002,187.0,294.71,1637174602.3538456,1637174603.5113225,dcca44bc-09a5-4a34-8085-cf954ddb7038
-0.7000684312615376,-1.0998027132084498,-0.01599368405583,0.9152215758754064,0.1366407646214953,0.0621999696587648,-0.1954597018207615,-0.2340840020751848,-13.823996348253834,26.648365051985028,-25.587959914073725,-1.759922671281985,-3.91354589885951,-0.0677610324189714,5687.74169921875,12.002444444444444,0.3499999999999999,-179.74225947261692,10.97171734652351,59.36585275616228,1321.0,1435.0,1200.0,1528.0,1314.0,1021.7000000000002,187.0,294.71,1637174605.6181924,1637174606.6636896,d9de7c95-1a48-4731-acca-624034f0c227
-0.6759487820800582,-1.0553025631433457,-0.0117614473589176,0.8696805223620486,0.1343671359284198,0.0655008403062596,-0.1963636746911126,-0.2296600140904195,-14.630339496423824,26.280984629981603,-24.860729694625547,-1.652290355066046,-3.741512455604319,-0.0635484144424786,5660.2333984375,12.004666666666669,0.35,-179.78061022589665,10.9800183030948,59.32092604853166,1321.0,1435.0,1200.0,1528.0,1314.0,1021.7000000000002,187.0,294.71,1637174606.7726214,1637174607.8922644,d9de7c95-1a48-4731-acca-624034f0c227
-0.6667583878954727,-1.042619541217766,-0.0140898623885891,0.864968906651154,0.1249576003893822,0.0648297088514066,-0.1895290913502428,-0.2151827493168136,-13.193782481435749,25.91399063178278,-23.792841085877445,-1.6448256596097952,-3.7131494117047055,-0.0531346534885402,5556.253092447917,12.005000000000004,0.3566666666666667,-179.79035462911253,10.97764225103728,59.34948079272176,1321.0,1435.0,1200.0,1528.0,1314.0,1021.7000000000002,187.0,294.71,1637174608.002024,1637174609.2122009,d9de7c95-1a48-4731-acca-624034f0c227
-0.7975057906522168,-1.2857336468181284,0.0037019675408784,0.9984966459801068,0.1941252191084595,0.1858935876750732,-0.1369069089448923,-0.1619716141931827,-14.383891290018504,27.81138640128204,-22.71261753431893,-1.66094772106175,-4.641405853343971,-0.2748519349375801,5516.521267361111,11.983444444444444,0.42,-179.7999533216261,10.94735064665949,59.289847169988285,1254.0,1435.0,1200.0,1528.0,1260.0,1021.7000000000002,187.0,294.71,1637174610.1260078,1637174611.2608354,1864308b-6f0b-47f4-a676-4fb5148a7d87
-0.8047101838821051,-1.287130697027621,0.0090436255363326,1.0027973650514872,0.2088901086987151,0.1753883276509003,-0.1405091040791012,-0.1797771424686026,-15.876739300266232,27.69427941684803,-23.82088682360145,-1.6956942752066588,-4.626449931043783,-0.2998051296804774,5581.63037109375,11.985,0.4133333333333333,-179.8030542275093,10.949966039929174,59.287637983246746,1254.0,1435.0,1200.0,1528.0,1260.0,1021.7000000000002,187.0,294.71,1637174611.3694246,1637174612.40195,1864308b-6f0b-47f4-a676-4fb5148a7d87
-0.8327059631375202,-1.3329183349229454,-0.0046803264159895,1.0358471588884324,0.1824146620002004,0.1904545415454822,-0.1181426223835743,-0.1415089536832287,-10.887091617432896,27.64922500200804,-23.723373936776323,-1.734845545227347,-4.839301092237449,-0.2784875813513206,5634.15771484375,11.984,0.4022222222222222,-179.8157356120683,10.959240393320927,59.23389274248772,1254.0,1435.0,1200.0,1528.0,1260.0,1021.7000000000002,187.0,294.71,1637174612.510743,1637174613.6260989,1864308b-6f0b-47f4-a676-4fb5148a7d87
-0.117759118892531,-0.0159388978181712,-0.0164045808284729,0.3740568986350668,-0.0887498060300951,-0.4984824164120545,-0.4397104693759344,-0.4565435453237634,-16.027789325241304,22.71547678561885,-26.04569143836039,-1.82639028026416,0.2377933673822213,0.7133802462198299,5655.633517795139,12.033444444444443,0.26,179.7788783934871,10.931530410721924,59.253105305713056,1525.0,1435.0,1200.0,1528.0,1475.0,1021.7000000000002,187.0,294.71,1637174614.5366657,1637174615.875231,db428682-b1f9-42ad-82a7-367644241f81
-0.1351126597415365,-0.0178701125899755,-0.0147062075315369,0.3722489530338133,-0.0815728089296949,-0.4948117377918508,-0.4401350628678699,-0.4693909201847384,-16.851645596140358,22.59890337846183,-26.01885262740056,-1.815162134511216,0.236471605874706,0.7011544033670175,5657.70654296875,12.035777777777778,0.26,179.76254513445187,10.920901972327217,59.290623534823936,1525.0,1435.0,1200.0,1528.0,1475.0,1021.7000000000002,187.0,294.71,1637174615.9845822,1637174617.1114852,db428682-b1f9-42ad-82a7-367644241f81
-0.1297573049142249,-0.0217188456512103,-0.0223899770478759,0.3752211060416006,-0.0939681950536328,-0.4957841937201266,-0.4390530344047876,-0.4563654890831401,-15.483736482681914,22.462070083141743,-26.335000254327,-1.8247033318525991,0.2143014346246783,0.7270978483674139,5661.44384765625,12.036444444444443,0.26,179.7583453270222,10.930264359268271,59.34726249906132,1525.0,1435.0,1200.0,1528.0,1475.0,1021.7000000000002,187.0,294.71,1637174617.2198403,1637174618.335986,db428682-b1f9-42ad-82a7-367644241f81
-0.1239636602987905,-0.0432635329741718,-0.0418116977182628,-0.0821480644292284,-0.1715044186097344,-0.0319501752334927,-0.3133870858509186,-0.3363699160315751,-12.768846824138167,21.686978237521185,-22.868300772386743,0.2451204010533093,0.1386227222739404,0.6807464049478894,5657.70654296875,12.033111111111111,0.26,179.73772726264764,11.066788931446904,59.35799652079695,1525.0,1535.0,1200.0,1528.0,1475.0,1021.7000000000002,187.0,294.71,1637174619.0423107,1637174620.1803377,41fa9247-41af-4bcb-ad3e-6757f7416123
-0.1165675181918527,-0.0542755664895982,-0.0452221409354003,-0.0712456033201517,-0.1752846691163055,-0.0304435538175805,-0.322988374944757,-0.351819636143043,-13.087951517771572,22.310055906824108,-22.816726698846395,0.2277209312751749,0.09757438295091,0.7025712392752776,5655.220540364583,12.036,0.26,179.7030693649792,11.05099108335162,59.34669635227012,1525.0,1535.0,1200.0,1528.0,1475.0,1021.7000000000002,187.0,294.71,1637174620.2888775,1637174621.41214,41fa9247-41af-4bcb-ad3e-6757f7416123
-0.121224348334748,-0.0541933871076977,-0.0417021252427897,-0.0676981945076108,-0.1747231101236924,-0.0339361763451811,-0.3121680919883973,-0.3338634450690117,-12.035161038515009,22.05772326871166,-22.784803540915547,0.2109080233373327,0.0899303881245338,0.6825283055609929,5656.877332899306,12.035,0.25,179.66550180672428,11.051444342294038,59.294994855892746,1525.0,1535.0,1200.0,1528.0,1475.0,1021.7000000000002,187.0,294.71,1637174621.5207946,1637174622.637439,41fa9247-41af-4bcb-ad3e-6757f7416123
-0.0914206351222545,-0.0543851389365995,-0.0726015625922105,-0.5769637195872303,-0.2560258904653047,0.4614409352946663,-0.2090466892110879,-0.2348510098797776,-12.516750783384165,21.181051657826384,-18.76626604346559,2.465912801232537,0.1177313386510739,0.6897643789670175,5653.97509765625,12.027111111111113,0.28,179.59532388973216,11.16937306041114,59.20505340708221,1525.0,1636.0,1200.0,1528.0,1475.0,1021.7000000000002,187.0,294.71,1637174624.572337,1637174625.5561693,2055e22a-ad2f-47e7-8002-a4c4e0273e26
-0.0966527208463841,-0.0450577822284994,-0.0782856347085952,-0.5848529395622403,-0.2506157492320136,0.4577976510540311,-0.2352071190044764,-0.2585186655047557,-15.510391583192805,21.4087837877782,-19.126859521915407,2.475184234221714,0.1777136360135938,0.7257543268709914,5651.90478515625,12.02588888888889,0.2744444444444445,179.56724270532453,11.192422292675255,59.0875362078626,1525.0,1636.0,1200.0,1528.0,1475.0,1021.7000000000002,187.0,294.71,1637174625.6651497,1637174626.73362,2055e22a-ad2f-47e7-8002-a4c4e0273e26
-0.1052952497477287,-0.0623428398389448,-0.0859831009783301,-0.5748544488208549,-0.2563272148175829,0.4690973108873691,-0.2318925514636305,-0.2535879037885482,-14.647585349160126,21.21091102938953,-18.63870332219693,2.476839057905576,0.1007285519183963,0.7386760723990963,5653.97509765625,12.025555555555556,0.28,179.53028986409493,11.183787415744543,58.94263146789105,1525.0,1636.0,1200.0,1528.0,1475.0,1021.7000000000002,187.0,294.71,1637174626.84228,1637174628.0549605,2055e22a-ad2f-47e7-8002-a4c4e0273e26
-0.0766831373619207,-0.0491393568768632,-0.1096233623981606,-1.0481940447855518,-0.3361918595046977,0.9073323588133118,-0.1372219298219193,-0.1646150498737607,-14.425924303517524,20.73647241772705,-16.186903667878173,4.525530055833088,0.1837220627281361,0.7461432063023073,5650.24853515625,12.012,0.33,179.51093614362674,11.356399292402935,58.72005609340785,1525.0,1737.0,1200.0,1528.0,1475.0,1021.7000000000002,187.0,294.71,1637174629.078067,1637174630.2152245,b98a4e03-20ad-41f9-9f43-c20033dc6a66
-0.0818604367245235,-0.0700403060581753,-0.1116093635382571,-1.0359082231866732,-0.3452589828203277,0.9227683790837032,-0.1228679354102939,-0.1427416440292702,-12.257726378803602,20.88145126573189,-15.261833705635132,4.534604120763555,0.0801498612477155,0.7411032713866662,5643.634657118056,12.01022222222222,0.32,179.46006793032814,11.338525256527443,58.51442793607526,1525.0,1737.0,1200.0,1528.0,1475.0,1021.7000000000002,187.0,294.71,1637174630.3235652,1637174631.4435978,b98a4e03-20ad-41f9-9f43-c20033dc6a66
-0.0837368653721514,-0.0552069325091822,-0.1066375124489377,-1.050604640334085,-0.3367945082118657,0.9172212732658448,-0.1269084204427611,-0.1625605656411963,-13.633808875774603,20.76245929228305,-15.895341526033404,4.553955632902821,0.1532609824664595,0.7284089426053363,5640.745876736111,12.014444444444443,0.31,179.4432079878169,11.352307534771407,58.34636581917774,1525.0,1737.0,1200.0,1528.0,1475.0,1021.7000000000002,187.0,294.71,1637174631.5515966,1637174632.7654717,b98a4e03-20ad-41f9-9f43-c20033dc6a66
-0.0649862758662704,-0.0712456032387117,-0.1061855260821455,-1.2724479737188,-0.3815137800513566,1.1516789494675288,-0.0613019013357369,-0.0718619490038506,-11.354986339175603,21.818557718904543,-13.611629890787023,5.589772192856246,0.0840970184109133,0.6957877391170616,5641.570963541667,11.992666666666668,0.3766666666666667,179.42057274090746,11.45241097697459,58.13632991310077,1525.0,1837.0,1200.0,1528.0,1475.0,1021.7000000000002,187.0,294.71,1637174633.583266,1637174634.6311452,0bed3706-ecbd-47e9-a6b3-a4071c549804
-0.0646301652650758,-0.062425019125075,-0.111198466757174,-1.2802276274157185,-0.3825684152054757,1.1472275683416733,-0.0774501446239052,-0.0919274083374559,-12.7988916877567,21.941036862212115,-14.10914048448142,5.59707452464122,0.1324507279931382,0.7262863965522316,5623.079264322917,11.99,0.3766666666666666,179.38552021008698,11.472303049158606,57.96369460509897,1525.0,1837.0,1200.0,1528.0,1475.0,1021.7000000000002,187.0,294.71,1637174634.739703,1637174635.838021,0bed3706-ecbd-47e9-a6b3-a4071c549804
-0.0744505982406072,-0.0462630793816581,-0.1025148481645863,-1.2984303688257486,-0.3591609923161054,1.1517337356935078,-0.0904207862268662,-0.1239773575965294,-16.663223270713072,21.95714933070936,-13.596556392704562,5.646937109782686,0.2186675129618038,0.7008452571852143,5598.580078125,11.994999999999996,0.38,179.3753295678453,11.4510691293939,57.77846215153795,1525.0,1837.0,1200.0,1528.0,1475.0,1021.7000000000002,187.0,294.71,1637174635.94607,1637174637.062604,0bed3706-ecbd-47e9-a6b3-a4071c549804
-0.1535208358003739,-0.0343470730471539,0.0183024992557157,0.9683368260365908,-0.0028449875643472,-1.0482625271772514,-0.5496253801496759,-0.5837572153956118,-14.108142097664969,24.209956206898088,-29.28711672616249,-4.390284648696984,0.1129504077655797,0.7047012799769545,5596.961317274306,12.031777777777778,0.27,179.34792988453486,10.756376660191163,57.55387490688923,1525.0,1334.0,1200.0,1528.0,1475.0,1021.7000000000002,187.0,294.71,1637174638.090434,1637174639.120681,b4cc073a-bf32-48e2-8443-c16fcd3946f3
-0.1529592768588189,-0.015199283606812,0.0277120351221097,0.96263905807289,0.0207541832945807,-1.070122249697928,-0.5635547843338391,-0.5815931588753424,-17.407158459030388,24.03692014526854,-30.47040846597013,-4.429081404644485,0.2198984685826361,0.677926559575222,5612.02099609375,12.029666666666666,0.27,179.4203997094485,10.723743629020396,57.87286674951616,1525.0,1334.0,1200.0,1528.0,1475.0,1021.7000000000002,187.0,294.71,1637174639.2328498,1637174640.350227,b4cc073a-bf32-48e2-8443-c16fcd3946f3
-0.1524935938471658,-0.0165552429642022,0.0288077598071068,0.9599819258911152,0.0112898611429663,-1.065314754314171,-0.5528577689152055,-0.5862636863617253,-15.649509209575294,24.175609348204983,-30.28944846577868,-4.410396932216098,0.2011677083795612,0.6753335490951308,5640.341851128473,12.029,0.27,179.47888586040142,10.715309768351508,58.12282359347202,1525.0,1334.0,1200.0,1528.0,1475.0,1021.7000000000002,187.0,294.71,1637174640.48586,1637174641.4801776,b4cc073a-bf32-48e2-8443-c16fcd3946f3
-0.1789333136434882,-0.0183477056653485,0.0644462053367212,1.4557068241813556,0.0898146136633615,-1.5418107282090234,-0.6612904813559458,-0.6855869969103485,-15.942442558718522,26.20134884363863,-33.68506931530519,-6.584866233860633,0.1678727927652986,0.6724901454330684,5706.67578125,12.005888888888888,0.33,179.584594421456,10.54520457111851,58.62823406584582,1525.0,1234.0,1200.0,1528.0,1475.0,1021.7000000000002,187.0,294.71,1637174643.6186411,1637174644.6434865,eef2562b-794b-4777-9a91-1e425450f0d1
-0.1691212173130546,-0.0031874014860925,0.0712123052655334,1.4069828026856497,0.0907299010761362,-1.5001260967875245,-0.6493089656949856,-0.671442613882534,-16.555328912626464,26.231668169066705,-31.95175559421016,-6.380780160266689,0.2201371127788412,0.6483722445310444,5701.616536458333,12.012,0.3266666666666667,179.5826576833713,10.55463127567425,58.81517786124888,1525.0,1234.0,1200.0,1528.0,1475.0,1021.7000000000002,187.0,294.71,1637174644.7525003,1637174645.872224,eef2562b-794b-4777-9a91-1e425450f0d1
-0.1722166398074676,-0.0280329593734573,0.0595839270503394,1.3975458734076447,0.0737050788940783,-1.4660490209198018,-0.6346262497628735,-0.6645943333627121,-14.300043687716588,25.943190691441647,-31.800408494556724,-6.284249009266174,0.1100672432171726,0.665326342816448,5637.04150390625,12.008888888888889,0.3299999999999999,179.60382216287948,10.544123693682357,59.02409058066236,1525.0,1234.0,1200.0,1528.0,1475.0,1021.7000000000002,187.0,294.71,1637174645.980692,1637174647.2104304,eef2562b-794b-4777-9a91-1e425450f0d1
-0.1810235278200761,-0.0082003420392771,0.0914558186742893,1.6638480901365569,0.1230674753730984,-1.740459918679174,-0.6993836027171115,-0.7236402190285728,-15.45031518252788,27.76140196664039,-33.32880270156762,-7.488781995612274,0.1754029153646438,0.6478771562616025,5576.72509765625,11.999000000000002,0.36,179.6077472449225,10.469302860738145,59.27801652343592,1525.0,1133.0,1200.0,1528.0,1475.0,1021.7000000000002,187.0,294.71,1637174648.0117958,1637174649.0535443,be54f037-1a7f-400a-a052-8dbe3366eb50
-0.1779281052890033,-0.0052966715853006,0.0852512776611843,1.6676557340629363,0.1130826843202898,-1.745678315030074,-0.7047663524039951,-0.7178328755607003,-14.822887823817076,27.825279842031307,-33.216547463644034,-7.508649306283757,0.1799966990831778,0.6785537783375194,5569.47802734375,11.999333333333333,0.3566666666666667,179.59966485440464,10.460999342845916,59.45858623452354,1525.0,1133.0,1200.0,1528.0,1475.0,1021.7000000000002,187.0,294.71,1637174649.1626332,1637174650.4909327,be54f037-1a7f-400a-a052-8dbe3366eb50
-0.1790019155307707,-0.0058993201617939,0.0921110619832841,1.668639695268622,0.1239966498500779,-1.7460119640265663,-0.7071983143711347,-0.741963482417647,-16.07023384691362,28.112084745606893,-33.198869996218825,-7.510000864045682,0.1867267251686042,0.6567711475722777,5576.72509765625,11.999666666666668,0.3566666666666666,179.58256661418238,10.428375228866566,59.60116187998811,1525.0,1133.0,1200.0,1528.0,1475.0,1021.7000000000002,187.0,294.71,1637174650.6000054,1637174651.7223654,be54f037-1a7f-400a-a052-8dbe3366eb50
-0.1952542535600522,-0.0118847163835971,0.0898122316171409,1.807579805779244,0.1250397797140145,-1.8814935958743748,-0.7555943022956871,-0.7743038116934985,-15.72552973298002,29.53902944541477,-35.31735424059581,-8.118680290356844,0.163386156664007,0.7245509871079311,5613.24560546875,11.984,0.3899999999999999,179.55275056172553,10.354321748702857,59.799808825079054,1525.0,1033.0,1200.0,1528.0,1475.0,1021.7000000000002,187.0,294.71,1637174652.518018,1637174653.5595329,f85682e0-6747-4c9c-a8fb-540e1984f8a7
-0.1917342375887631,0.0111939852902104,0.1029883208494146,1.7959925146427331,0.1490224532574773,-1.8918619083281627,-0.7641546550551722,-0.7837681370856112,-18.87977195335724,29.50225677773132,-35.05859118619824,-8.116975388988104,0.2722381739911634,0.6869785211595575,5665.19091796875,11.983,0.3933333333333333,179.55495443609774,10.383546705205264,59.92869449471718,1525.0,1033.0,1200.0,1528.0,1475.0,1021.7000000000002,187.0,294.71,1637174653.667461,1637174654.886253,f85682e0-6747-4c9c-a8fb-540e1984f8a7
-0.2007498612270729,-0.0290410261151274,0.0866937992003835,1.8423340106953785,0.1144769939640794,-1.9002069610063324,-0.7560457410901158,-0.7755584157870464,-13.773286601736572,30.0643647117074,-35.847989026827456,-8.234903334867733,0.0854573008333531,0.742461444963149,5693.200032552083,11.983555555555556,0.39,179.54017087109423,10.36807054004714,60.04676342143974,1525.0,1033.0,1200.0,1528.0,1475.0,1021.7000000000002,187.0,294.71,1637174654.999018,1637174656.1093442,f85682e0-6747-4c9c-a8fb-540e1984f8a7
-0.1367014606198016,-0.0317036371791319,-0.0128708686105362,0.3712764974511917,-0.0851750040445861,-0.4756639441754627,-0.4295613172614934,-0.4564065801907988,-15.866668748824816,22.91159643600743,-25.31268510894061,-1.7671682169315988,0.1715986929313806,0.6883782790902404,5696.56396484375,12.034666666666666,0.2433333333333333,179.54377569315616,10.78695162255577,60.22121100630133,1525.0,1435.0,1200.0,1528.0,1475.0,1021.7000000000002,187.0,294.71,1637174658.1293793,1637174659.1888113,5ce3cb53-bd09-467b-9aba-4dea5a1d848c
-0.1366329778597768,-0.021924294044871,-0.0102548258620958,0.3675510338132318,-0.0791622144759352,-0.4859226690304541,-0.4340674859904078,-0.4602142238721159,-16.762602861167867,22.785270624666243,-25.89718066025898,-1.7830685382110356,0.2204211312714046,0.6827900672915787,5670.188422309027,12.036111111111111,0.2455555555555555,179.5197212847192,10.788339953368316,60.181284756053046,1525.0,1435.0,1200.0,1528.0,1475.0,1021.7000000000002,187.0,294.71,1637174659.297285,1637174660.320819,5ce3cb53-bd09-467b-9aba-4dea5a1d848c
-0.1452618104262835,-0.0505637989480398,-0.0304709468864637,0.3790698386876638,-0.1042269180386748,-0.4671720758179997,-0.4346016519725164,-0.4542836119596597,-14.468207349185752,22.803940747365733,-25.80538738736856,-1.7666303420341058,0.0932533572777597,0.7436083810887381,5642.80859375,12.03677777777778,0.2477777777777777,179.4813523176017,10.777940231447063,60.11532941378778,1525.0,1435.0,1200.0,1528.0,1475.0,1021.7000000000002,187.0,294.71,1637174660.4293563,1637174661.642522,5ce3cb53-bd09-467b-9aba-4dea5a1d848c
-0.0871473086180656,-0.0170894087429372,0.1446943408557078,0.3674003716777776,0.0538724621163221,-0.4932366331902376,-0.264476668262402,-0.2895824645916209,-14.03996557251504,23.0790357991868,-25.05225759542073,-1.7879961046434942,0.221642684233623,0.0524768977855934,5639.095703125,12.036333333333332,0.24,179.3700202341305,10.780304425537274,59.91767739958594,1525.0,1435.0,1200.0,1454.0,1475.0,1021.7000000000002,187.0,294.71,1637174663.577179,1637174664.7152555,581f6fd4-ab21-40dd-82f8-6eb7b347279c
-0.0812577881534359,-0.0010644348885619,0.1512686888050473,0.3588674162863168,0.0605563827027036,-0.5018654674084893,-0.2594363340364185,-0.2748175719147446,-14.256393880725543,22.716840479037767,-25.11353169644522,-1.7903303803412147,0.2852822019180666,0.0290103165835054,5639.920789930556,12.033666666666669,0.25,179.34070961567224,10.779612394565117,59.8773231241497,1525.0,1435.0,1200.0,1454.0,1475.0,1021.7000000000002,187.0,294.71,1637174664.8233764,1637174665.8765094,581f6fd4-ab21-40dd-82f8-6eb7b347279c
-0.077806255236113,-0.0067758999303561,0.1562542359902698,0.361593031222291,0.0580225193717112,-0.4996466242646185,-0.2482462442818965,-0.2637233580850568,-12.973923861054486,22.94626899147136,-25.184148170732858,-1.7890892006851815,0.2553939664961344,0.0097692896062782,5639.095703125,12.035666666666666,0.24,179.3322083068853,10.764005886630333,59.83446292819796,1525.0,1435.0,1200.0,1454.0,1475.0,1021.7000000000002,187.0,294.71,1637174665.9849374,1637174666.933627,581f6fd4-ab21-40dd-82f8-6eb7b347279c
-0.0162539187163137,0.0214253146597335,0.3361037375789069,0.3481293151673055,0.2160944981813826,-0.5228759937175709,-0.0585488929174803,-0.078655442394025,-10.838903833345997,22.8112328847473,-24.907849956722373,-1.801738958662841,0.3566625772781083,-0.7155412516989132,5638.272026909723,12.032222222222224,0.25,179.30717642248706,10.774651969680397,59.69446454078021,1525.0,1435.0,1200.0,1380.0,1475.0,1021.7000000000002,187.0,294.71,1637174667.52469,1637174668.606001,611c42e0-28bb-4f67-86bb-6f2d46fe1945
-0.0138885826886804,0.0235709103573301,0.3312932683236015,0.3303928685258875,0.2124976629446143,-0.5086512205969038,-0.0665834136377798,-0.1020277285383306,-11.789876751660003,22.961632305150463,-24.95476989296498,-1.7294936041482198,0.3737377971926933,-0.6933344262860291,5629.631727430556,12.031777777777778,0.26,179.30870790268102,10.761478242318734,59.643673736292186,1525.0,1435.0,1200.0,1380.0,1475.0,1021.7000000000002,187.0,294.71,1637174668.71431,1637174669.8345077,611c42e0-28bb-4f67-86bb-6f2d46fe1945
-0.0230885016319992,0.0241235367286392,0.3245301463636873,0.3197911373833916,0.2082326739083112,-0.5003451488514526,-0.072341328028773,-0.0925848432998209,-12.238370783189284,22.807647342392105,-25.128692355057595,-1.6885248718352883,0.3814002256442704,-0.6706302698958307,5635.38916015625,12.034,0.25,179.31395348796357,10.762241136503528,59.61786624596824,1525.0,1435.0,1200.0,1380.0,1475.0,1021.7000000000002,187.0,294.71,1637174669.9425392,1637174671.175485,611c42e0-28bb-4f67-86bb-6f2d46fe1945
0.0652953917772626,0.0819778001847024,0.5561800224428591,0.3055330208139209,0.4202279939982358,-0.5504471739628222,0.141420863412322,0.1201364110964986,-12.703791744317805,23.177520647997625,-24.34657941877414,-1.7550710498970483,0.6111982956724901,-1.5719904799939783,5632.509331597223,12.029222222222224,0.2588888888888889,179.30396168011777,10.77453614105572,59.50282385195791,1525.0,1435.0,1200.0,1306.0,1475.0,1021.7000000000002,187.0,294.71,1637174672.092962,1637174673.111108,10532fbd-d149-4283-a6f2-151fb47728a5
0.0613781761432595,0.0840459805558857,0.5520299655919793,0.2952742990907671,0.4174886825295011,-0.5463792949140694,0.1377364892530198,0.1151645605611987,-13.034287533988556,23.03640354932087,-24.849533964987376,-1.724177484163236,0.626749654407846,-1.5580789696794,5635.38916015625,12.028888888888888,0.26,179.29111333537904,10.769528758620451,59.47475860465832,1525.0,1435.0,1200.0,1306.0,1475.0,1021.7000000000002,187.0,294.71,1637174673.2189434,1637174674.2638423,10532fbd-d149-4283-a6f2-151fb47728a5
0.0538587654865704,0.0559132493509764,0.5353749519140146,0.3153123630194127,0.3944099831706549,-0.5378189432884727,0.1427768227003327,0.1081519227258974,-10.097049949285235,22.944806322910008,-24.987357945270634,-1.7501221508514682,0.4981427856783281,-1.512449773003245,5631.68603515625,12.032777777777776,0.25,179.277214659328,10.778575913358567,59.45589210435092,1525.0,1435.0,1200.0,1306.0,1475.0,1021.7000000000002,187.0,294.71,1637174674.3760357,1637174675.565341,10532fbd-d149-4283-a6f2-151fb47728a5
0.1099461723800181,0.1123567667759017,0.7235108625492525,0.2951236369156562,0.5734924708629042,-0.586304775349927,0.3051632137593545,0.274825337706856,-12.198563622905263,23.156541119570488,-25.302372988814074,-1.8038720054266555,0.7419223296565063,-2.239368356641897,5635.802517361111,12.026666666666667,0.27,179.29777352872972,10.787333259375648,59.36346750232212,1525.0,1435.0,1200.0,1232.0,1475.0,1021.7000000000002,187.0,294.71,1637174677.6158905,1637174678.8426034,a3eb3960-af96-41fe-8f7b-ccf341a42be5
0.1159315684025216,0.1072205573746055,0.734687253285133,0.3121484582239117,0.5777384036150429,-0.5926188906574543,0.3221195521770968,0.3079573110048471,-10.640456370260909,23.33180900296523,-24.58931194877607,-1.8538481321868137,0.7039260556028509,-2.282977142595883,5635.38916015625,12.025,0.27,179.28226141021474,10.787949114765809,59.307693695379626,1525.0,1435.0,1200.0,1232.0,1475.0,1021.7000000000002,187.0,294.71,1637174678.9504592,1637174680.183431,a3eb3960-af96-41fe-8f7b-ccf341a42be5
0.0995915742501236,0.0854841191738864,0.7094855879086314,0.3198596201556453,0.5567552778577022,-0.5797989078233763,0.3041633650544719,0.2727982473702262,-10.301889853640327,23.297813177330102,-24.95243200894211,-1.8438021058738423,0.620675593232396,-2.197302865924757,5635.38916015625,12.026000000000002,0.27,179.2825938127543,10.783245391157394,59.30448805992915,1525.0,1435.0,1200.0,1232.0,1475.0,1021.7000000000002,187.0,294.71,1637174680.2915916,1637174681.4173012,a3eb3960-af96-41fe-8f7b-ccf341a42be5
-0.1994590973514744,-0.0570011817238746,-0.2223323524408388,0.3903010158908699,-0.2726809079004391,-0.4539548936193928,-0.6581158560352824,-0.6940419436379912,-18.57391483475783,23.47435974626068,-24.93881959095277,-1.7693020541601878,0.0769536592567865,1.5502090192247973,5639.508246527777,12.03111111111111,0.251111111111111,179.41640328987413,10.76710906924324,59.52196659547172,1525.0,1435.0,1200.0,1602.0,1475.0,1021.7000000000002,187.0,294.71,1637174683.555455,1637174684.580355,4ab1fb37-1405-4915-af84-4d2ca529a1c9
-0.2193191094446047,-0.0979675904105122,-0.2495200243824849,0.4126674942790365,-0.3052650253752555,-0.4368067983664974,-0.6565681443828124,-0.68444065291136,-15.12613589120185,23.29897697102321,-25.39415496970778,-1.782074747044711,-0.1015425065330123,1.6265259994867682,5642.80859375,12.030666666666669,0.25,179.39803008100682,10.767712876938615,59.48431783385669,1525.0,1435.0,1200.0,1602.0,1475.0,1021.7000000000002,187.0,294.71,1637174684.6889365,1637174685.809636,4ab1fb37-1405-4915-af84-4d2ca529a1c9
-0.1970621993877506,-0.0633015989283235,-0.218661674383558,0.4020663587474971,-0.273571184358131,-0.4584747591882669,-0.6504183873554034,-0.6692648604976411,-17.48803974978355,23.62967696806797,-24.88273246212616,-1.804230592191687,0.0439273783629165,1.5355740623454892,5642.80859375,12.033,0.25,179.40541123876986,10.767488619060869,59.45670110231262,1525.0,1435.0,1200.0,1602.0,1475.0,1021.7000000000002,187.0,294.71,1637174685.9175289,1637174687.1509326,4ab1fb37-1405-4915-af84-4d2ca529a1c9
-0.297731917274694,-0.119964264815264,-0.4589678352767435,0.4761236448305186,-0.4900590308247003,-0.4782662908654372,-0.904160946283155,-0.9379366803695902,-17.946838906971838,24.12828569068772,-27.79827954412553,-2.025115907622028,-0.1638480916101135,2.508432966285811,5788.106825086806,12.026888888888887,0.2544444444444445,179.4588855486918,10.747009814654398,59.54912722216123,1525.0,1435.0,1200.0,1676.0,1475.0,1021.7000000000002,187.0,294.71,1637174689.0855906,1637174690.2278996,82f8b058-e525-46c8-9567-cd10bfab38ce
-0.2886784905973825,-0.1189781125096734,-0.4527222030672482,0.4793286392452424,-0.4879086705041403,-0.482210900812629,-0.8984768712942662,-0.916652215883208,-17.51176787232504,24.335232158445905,-27.761032484456788,-2.0393018500387337,-0.1635540204258387,2.489316982808101,5828.263237847223,12.028333333333332,0.25,179.43836310696562,10.741887362504366,59.52002150937808,1525.0,1435.0,1200.0,1676.0,1475.0,1021.7000000000002,187.0,294.71,1637174690.3359177,1637174691.380868,82f8b058-e525-46c8-9567-cd10bfab38ce
-0.290979512762447,-0.1186356985086308,-0.4540096798446711,0.4727542917133578,-0.4878264911425672,-0.4765131309653482,-0.899558899945665,-0.9168302727375632,-17.835421846918194,24.279221690093703,-27.770682741451832,-2.012267948489702,-0.1591666126482987,2.492267427893615,5834.87158203125,12.027666666666669,0.25,179.44902275553028,10.752398549318324,59.51365804980136,1525.0,1435.0,1200.0,1676.0,1475.0,1021.7000000000002,187.0,294.71,1637174691.4893885,1637174692.681712,82f8b058-e525-46c8-9567-cd10bfab38ce
-0.3739943680907512,-0.168477478940372,-0.6811534762067438,0.5414425267755619,-0.6859198804190711,-0.4781978082193165,-1.1457820944792507,-1.1601634952268904,-19.796548781404866,24.855393327083576,-27.779988291474467,-2.1794768707111207,-0.3549876695429432,3.4152194934603664,5825.618977864583,12.023333333333332,0.26,179.46570207748346,10.766882250044551,59.55803834229837,1525.0,1435.0,1200.0,1750.0,1475.0,1021.7000000000002,187.0,294.71,1637174693.5915406,1637174694.7284715,0d7481f1-71a6-4060-8f33-77f56728359c
-0.3729623619132227,-0.1568234931011224,-0.6563168422712772,0.5099440179625085,-0.6669644317046625,-0.4564994766294607,-1.107031523867002,-1.142918918987951,-19.05804540521003,24.33755231770817,-26.94881552110494,-2.061356798242352,-0.3184278771887856,3.303409097464443,5817.714138454861,12.027555555555557,0.26,179.45667863868,10.757287067489282,59.501375092943945,1525.0,1435.0,1200.0,1750.0,1475.0,1021.7000000000002,187.0,294.71,1637174694.8368022,1637174695.9647634,0d7481f1-71a6-4060-8f33-77f56728359c
-0.355175293129738,-0.1403173522089452,-0.649062427680668,0.5076531198694983,-0.656403785720984,-0.4618304166539427,-1.1144443449823769,-1.1454259856961635,-20.72087419051223,24.55859574420901,-25.702543318634497,-2.066980245119631,-0.2550507003677614,3.2921721665526307,5713.04248046875,12.022,0.2766666666666666,179.4598827563106,10.763386900736798,59.48461380872074,1525.0,1435.0,1200.0,1750.0,1475.0,1021.7000000000002,187.0,294.71,1637174696.0763123,1637174697.1858666,0d7481f1-71a6-4060-8f33-77f56728359c
-0.404674665239982,-0.1594514460462784,-0.8136951302276403,0.5734650777334376,-0.8052854392631339,-0.4967703463348566,-1.3063332897938826,-1.320440761454641,-22.00702719512738,25.34345118925134,-26.09460904065612,-2.2976552073818097,-0.3327636277715875,3.989063114753528,5639.095703125,12.004,0.3266666666666667,179.51203352735337,10.75828588779166,59.474404952641294,1525.0,1435.0,1200.0,1824.0,1475.0,1021.7000000000002,187.0,294.71,1637174699.120901,1637174700.1726615,2da62877-fd92-4e8b-a7e5-1ce2f373bccf
-0.41094769029803,-0.1782705191499984,-0.8238716783324018,0.57624547885879,-0.8138731857822021,-0.4828409427575111,-1.3053882265365997,-1.33071318853184,-21.256641026523464,25.187831085238457,-26.40926078593608,-2.273836662044248,-0.4068589971556664,4.01117823547845,5634.159071180556,12.005333333333333,0.3244444444444444,179.49175697243734,10.739582932569396,59.46910093129582,1525.0,1435.0,1200.0,1824.0,1475.0,1021.7000000000002,187.0,294.71,1637174700.2810316,1637174701.2831335,2da62877-fd92-4e8b-a7e5-1ce2f373bccf
-0.4191930202994083,-0.1921314376632219,-0.8160920292962132,0.5970916390472977,-0.8183656591251531,-0.4846488887596763,-1.2822410214296065,-1.3191258885654014,-18.28906999732376,25.377812137785742,-25.767547778292283,-2.3216803137876463,-0.4876072916626168,3.975143950700694,5627.98828125,12.007555555555555,0.3222222222222222,179.4929044442179,10.73757182131378,59.441953964984656,1525.0,1435.0,1200.0,1824.0,1475.0,1021.7000000000002,187.0,294.71,1637174701.3923008,1637174702.716222,2da62877-fd92-4e8b-a7e5-1ce2f373bccf
-0.1383313512384376,-0.0509746957128227,-0.0227734807276982,0.3579771400663076,-0.0708484030747035,-0.4608305676038271,-0.4016888147147564,-0.4221925682319627,-15.196986312491113,20.033762142684555,-27.527635936114766,-1.7234221173804845,0.1151725689305283,0.6387558149567513,7834.94189453125,11.82,7.356666666666667,178.15393844444566,10.576487691290817,51.034122388113005,1525.0,1435.0,1350.0,1528.0,1475.0,1021.7000000000002,187.0,294.71,1637174706.5399325,1637174707.723381,bb6d14ca-4cf4-4525-88ad-a161480e6adb
-0.1499186406065546,-0.0720400036828627,-0.0398256966418886,0.3728516015842616,-0.0810386430932768,-0.4557217500742356,-0.4176179155706511,-0.4346564387130532,-15.453004863144812,20.112914149343208,-27.914758693422787,-1.746010024288097,0.0384969102588917,0.6953829714851709,7836.534776475694,11.817777777777778,7.352222222222222,177.87602867185657,10.525563223795276,47.86641346029494,1525.0,1435.0,1350.0,1528.0,1475.0,1021.7000000000002,187.0,294.71,1637174707.8331397,1637174708.951126,bb6d14ca-4cf4-4525-88ad-a161480e6adb
-0.1563423271705941,-0.0688076157304786,-0.0382505923824521,0.3659896262597469,-0.0812577880610082,-0.4517497471841143,-0.4155086451466394,-0.4368752825496012,-15.43640423196353,20.138629493739284,-27.7844247276338,-1.7213274361808482,0.0502928338810003,0.6910470952786393,7849.291015625,11.818666666666669,7.41,177.74957606738272,10.48619733365017,44.99209986173424,1525.0,1435.0,1350.0,1528.0,1475.0,1021.7000000000002,187.0,294.71,1637174709.0598824,1637174710.2936738,bb6d14ca-4cf4-4525-88ad-a161480e6adb
0.0173574366388748,0.2511029002291279,-0.0344977352264978,0.2089585914563699,-0.1472478113948481,-0.6120406169982118,-0.4830053012770543,-0.5188355086024701,-15.758419975687564,19.197315429321105,-26.799796915875856,-1.7333572379301947,1.263260018046306,0.9107954046595248,7849.291015625,11.796666666666669,7.433333333333334,177.7023066048668,10.461209940345324,41.437385964809046,1593.0,1435.0,1350.0,1528.0,1529.0,1021.7000000000002,187.0,294.71,1637174711.203787,1637174712.2311227,c32b155a-a845-4897-bd6c-ae7bf2634b65
0.0189051477209009,0.2455147046140069,-0.0402502900138291,0.2060138314800144,-0.1515896207948658,-0.5988645234686325,-0.4858952759155985,-0.5229307817361263,-15.873280075141455,19.21108988769432,-26.123808667393,-1.6972513269190586,1.2371206869413065,0.9288306314549396,7843.705674913194,11.796,7.5,177.8279395866402,10.51570906323398,39.70126988828247,1593.0,1435.0,1350.0,1528.0,1529.0,1021.7000000000002,187.0,294.71,1637174712.3398345,1637174713.5666745,c32b155a-a845-4897-bd6c-ae7bf2634b65
0.0150564147385478,0.2407209093676412,-0.0393326205798493,0.2111226474002324,-0.1500419096126538,-0.5999602488525128,-0.4857309171960194,-0.4978660718909043,-15.889282213205147,19.31696167023696,-26.275465132225133,-1.7105225045464394,1.2200293930615005,0.9244339009840488,7842.10986328125,11.795555555555556,7.528888888888888,178.0083324717193,10.549016101266592,38.09346498659384,1593.0,1435.0,1350.0,1528.0,1529.0,1021.7000000000002,187.0,294.71,1637174713.6748111,1637174714.800708,c32b155a-a845-4897-bd6c-ae7bf2634b65
0.2396525777194368,0.6499192603999563,-0.0392641377447544,0.0060988653648993,-0.242151274971327,-0.8035185824211681,-0.578032051171244,-0.5900165454579488,-16.2013433773953,18.339234379538023,-25.39646724791031,-1.7119568671113257,2.7744207318027576,1.230352154302178,7840.516981336806,11.78188888888889,7.607777777777778,178.23110136822902,10.66062518685414,35.77849948482757,1661.0,1435.0,1350.0,1528.0,1583.0,1021.7000000000002,187.0,294.71,1637174716.5045674,1637174717.5541255,85059666-25f9-4bd3-aa4c-6a63df0d7b0f
0.2360777760961876,0.6451117688029139,-0.0433731055569711,-0.0027354153939961,-0.2484106031405858,-0.7912601572968576,-0.5771691679245735,-0.5941803008350909,-15.882538990606982,18.38487809506545,-25.49461030734206,-1.664239764126637,2.7558311122535937,1.2426566247281063,7830.17138671875,11.784,7.58,178.41136220298418,10.762401645949025,34.983738293549926,1661.0,1435.0,1350.0,1528.0,1583.0,1021.7000000000002,187.0,294.71,1637174717.6631954,1637174718.8954592,85059666-25f9-4bd3-aa4c-6a63df0d7b0f
0.2382418322329017,0.6451939481468179,-0.0387299719660254,0.0028938705574115,-0.2420417025191601,-0.7970948934728869,-0.5754434008661741,-0.5858801827988853,-16.13772080008668,18.402494963778352,-25.5500119717514,-1.689838787268361,2.7580380355197733,1.2249912026637282,7827.7861328125,11.781444444444444,7.595555555555555,178.58719555733737,10.7841493477213,34.111338721431714,1661.0,1435.0,1350.0,1528.0,1583.0,1021.7000000000002,187.0,294.71,1637174719.004048,1637174720.1302788,85059666-25f9-4bd3-aa4c-6a63df0d7b0f
0.4158593876532701,0.988742314853282,-0.0327541037809512,-0.1640695689344509,-0.3156654790558783,-0.9688986612201722,-0.6504856794159949,-0.6621765919992622,-16.423018010646665,17.902913198403184,-24.235921518027546,-1.7022245470633932,4.057852937989814,1.4659322648532824,7823.024739583333,11.765333333333334,7.686666666666667,178.8334405729343,10.889591436534497,32.856535071522266,1729.0,1435.0,1350.0,1528.0,1636.0,1021.7000000000002,187.0,294.71,1637174722.0583932,1637174723.1986835,0a064060-801d-45a2-81dd-48d95a0c2f51
0.4171325719707379,0.9906759114808192,-0.0318542993767206,-0.1623414202268797,-0.3164688120370849,-0.9750543745455084,-0.6514593263073646,-0.6661831331384614,-16.30004676108298,17.996294147082157,-24.617286085593847,-1.7192905901944069,4.067460619611903,1.46694507502002,7822.231174045139,11.762999999999998,7.649999999999999,178.96893634786915,10.944309884386495,32.475968694072726,1729.0,1435.0,1350.0,1528.0,1636.0,1021.7000000000002,187.0,294.71,1637174723.307152,1637174724.361684,0a064060-801d-45a2-81dd-48d95a0c2f51
0.4194883798828978,0.9806637278534858,-0.036346770805755,-0.1651081254144105,-0.3207969253743218,-0.961179752613218,-0.6505416567568846,-0.6803316838828485,-16.072829321109033,18.034935739589027,-24.41723285718433,-1.681692723271633,4.026584084983236,1.4768467518669333,7827.7861328125,11.767333333333331,7.632222222222222,179.05618670214673,10.963551665643283,32.135637063748966,1729.0,1435.0,1350.0,1528.0,1636.0,1021.7000000000002,187.0,294.71,1637174724.4703484,1637174725.540946,0a064060-801d-45a2-81dd-48d95a0c2f51
0.5377718494124686,1.1885089942439755,-0.0069128655626374,-0.2446577457142637,-0.3382463437402369,-1.0664104801241496,-0.6737984216000482,-0.6939871586930998,-16.42811190696339,17.94830991269002,-20.81473125232444,-1.7374289867111756,4.788374669240617,1.5229244216620774,7834.94189453125,11.709333333333332,7.866666666666666,179.24218186016506,11.01608340945976,31.491637879111103,1796.0,1435.0,1350.0,1528.0,1690.0,1021.7000000000002,187.0,294.71,1637174727.5885432,1637174728.7257135,baab0f00-9f24-420f-a2cf-9290f0c6392e
0.5264721896328485,1.1829344950373553,-0.0262113170081432,-0.2396721977263671,-0.3535180091023582,-1.0640546700943625,-0.6920833341072176,-0.715737301589069,-16.562460423687757,17.821426066498333,-20.746171099631184,-1.745240102939701,4.765970748369425,1.595488734152078,7834.94189453125,11.71377777777778,7.852222222222222,179.32707959372854,11.036760573943372,31.2826416796078,1796.0,1435.0,1350.0,1528.0,1690.0,1021.7000000000002,187.0,294.71,1637174728.8339822,1637174729.9541233,baab0f00-9f24-420f-a2cf-9290f0c6392e
0.5313821076875133,1.1832858415195249,-0.009000697512273,-0.2468349030737933,-0.3400620312784307,-1.0614826927344403,-0.6746964396764664,-0.7023801748466368,-16.45133987492929,18.01502843385984,-21.138719638828142,-1.7211694698252984,4.771957402376825,1.5283703099081811,7834.94189453125,11.716666666666663,7.833333333333333,179.4004510036126,11.029394309787254,31.084585925335027,1796.0,1435.0,1350.0,1528.0,1690.0,1021.7000000000002,187.0,294.71,1637174730.0621998,1637174731.1841862,baab0f00-9f24-420f-a2cf-9290f0c6392e
-0.3473956465166857,-0.4341496653316763,-0.0347579698147167,0.5209387804847972,0.0025788497741975,-0.2405898671480502,-0.3183315442970892,-0.3436290934504031,-14.981575146363047,20.739621283355667,-27.99321719459833,-1.591996697266664,-1.3401765756567727,0.3906673632780835,7834.94189453125,11.809111111111111,7.561111111111113,-179.8966596933546,11.056735557034813,31.09903746725392,1457.0,1435.0,1350.0,1528.0,1421.0,1021.7000000000002,187.0,294.71,1637174733.1186545,1637174734.1393402,afb743c3-8a18-4742-b7d0-ed6a351f7c1c
-0.3373697638960185,-0.4243566238687524,-0.0287999666723241,0.5128989013300641,0.0051674993608048,-0.2426032616241637,-0.3131268512668819,-0.3339593213196984,-14.882184727437616,20.723602210234805,-27.92522470409669,-1.5781337204858914,-1.303385477566127,0.3728961836056723,7834.94189453125,11.810333333333334,7.553333333333332,-179.8510431366178,11.04179394904298,31.07324894967768,1457.0,1435.0,1350.0,1528.0,1421.0,1021.7000000000002,187.0,294.71,1637174734.247235,1637174735.3727868,afb743c3-8a18-4742-b7d0-ed6a351f7c1c
-0.3446974240199124,-0.4280683919835901,-0.0367165777491764,0.5154601575490431,-0.0005576621870184,-0.2423841165754584,-0.3217145947618121,-0.3559559978931763,-15.064063962441,20.72015143859837,-28.13820526710087,-1.5839614124876935,-1.314949201774904,0.4028595563000297,7837.331217447917,11.808666666666667,7.563333333333333,-179.8350923681761,11.043114736873733,31.022391361117755,1457.0,1435.0,1350.0,1528.0,1421.0,1021.7000000000002,187.0,294.71,1637174735.480767,1637174736.7131112,afb743c3-8a18-4742-b7d0-ed6a351f7c1c
-0.5204927920251016,-0.7473900601004436,-0.048701066915287,0.6595890298203261,0.0561597874136984,-0.0658628555910333,-0.2589843475267905,-0.2792415612816543,-14.793510540931692,21.652339206352792,-28.47254033991745,-1.5067482610768037,-2.530040602972666,0.214590859390487,7842.10986328125,11.79,7.63,-179.70091102520144,11.013120814907264,31.17159684353668,1389.0,1435.0,1350.0,1528.0,1367.0,1021.7000000000002,187.0,294.71,1637174738.535519,1637174739.478307,6c72fb3a-f04d-49b6-97b2-3f499a1ff8fd
-0.4942638754403198,-0.7277902765731682,-0.0313749198179394,0.647714114678061,0.0671444273130904,-0.074121880845191,-0.2442879384043061,-0.2646958140966834,-14.615921296166215,21.62912017848853,-28.34850938450479,-1.4977025245307256,-2.456325666641531,0.1576634939974816,7846.897298177083,11.791666666666666,7.563333333333333,-179.69439047127383,11.001923004354246,31.138827872628685,1389.0,1435.0,1350.0,1528.0,1367.0,1021.7000000000002,187.0,294.71,1637174739.5863235,1637174740.713498,6c72fb3a-f04d-49b6-97b2-3f499a1ff8fd
-0.4913191146281646,-0.7125186074834376,-0.022444763309576,0.6453720033855682,0.073554416721375,-0.0875855985686045,-0.2392339076819848,-0.2658326288868864,-14.607512286574924,21.522747612775493,-28.38678765062824,-1.5229364300163928,-2.3979151957283733,0.131387094963648,7842.10986328125,11.788666666666666,7.66,-179.69607980472858,11.002327503335092,31.13553913654333,1389.0,1435.0,1350.0,1528.0,1367.0,1021.7000000000002,187.0,294.71,1637174740.8217895,1637174741.9251523,6c72fb3a-f04d-49b6-97b2-3f499a1ff8fd
-0.7152442240342758,-1.1229088243341845,-0.0256771512271817,0.838890661371713,0.1530081516609701,0.1436534023614301,-0.1500556061351114,-0.1734356345346184,-14.03390448852644,23.31467354766564,-27.039593778889625,-1.4276207672369032,-3.977128839492939,-0.1457912364054595,7848.493109809027,11.779777777777776,7.668888888888889,-179.58667687024294,11.002421133844964,31.07378474007256,1328.5555555555557,1435.0,1350.0,1528.0,1319.888888888889,1021.7000000000002,187.0,294.71,1637174742.5073242,1637174743.472109,1c3ba1fa-5e9f-49a0-a6c1-979d46168205
-0.6969319178855288,-1.111787210537185,-0.0311968645118927,0.8378223299596881,0.1460639966665005,0.1349149980676342,-0.1602458465294862,-0.1976374553924999,-14.176461262269733,23.3250146525172,-26.9324606332821,-1.4451082087761398,-3.93557477298379,-0.1129168249256141,7846.897298177083,11.779333333333334,7.67,-179.56054153083883,11.015985510081656,31.14576734482542,1321.0,1435.0,1350.0,1528.0,1314.0,1021.7000000000002,187.0,294.71,1637174743.5801551,1637174744.7007396,1c3ba1fa-5e9f-49a0-a6c1-979d46168205
-0.7084781213767944,-1.1177041282299518,-0.0271152899216428,0.8451088984165519,0.1530492413570754,0.1348602119599401,-0.1523977178463953,-0.1873102504459624,-13.99578915245882,23.10852342148087,-26.76310022453485,-1.4627820022897364,-3.961188655619289,-0.1393666692375293,7842.10986328125,11.78077777777778,7.648888888888889,-179.56783769069222,10.98901707732629,31.34830104700904,1321.0,1435.0,1350.0,1528.0,1314.0,1021.7000000000002,187.0,294.71,1637174744.8092644,1637174745.9361916,1c3ba1fa-5e9f-49a0-a6c1-979d46168205
-0.8206529856474022,-1.339876193345406,0.0013187663447253,0.9578863526786328,0.2254218541467454,0.2581292343137178,-0.0772446962028844,-0.1117737227963809,-13.890289069009688,24.323443198336207,-25.04006604150742,-1.4303809122726283,-4.822549038147858,-0.4075900811958333,7842.10986328125,11.74877777777778,7.735555555555556,-179.51085266353687,10.98582832762128,31.40400237805536,1254.0,1435.0,1350.0,1528.0,1260.0,1021.7000000000002,187.0,294.71,1637174747.5288372,1637174748.552274,7b0dd558-7db0-410f-8d45-13c37e8ae49a
-0.8272958196826071,-1.3602156025974863,-0.017020925980822,0.97636300881532,0.2123553378498063,0.2621286292509034,-0.0960363755380737,-0.1101438321979445,-14.045084456289096,24.56337893839574,-25.03093996018169,-1.4624716438116774,-4.901252911021829,-0.3405315670970625,7842.10986328125,11.746222222222222,7.775555555555554,-179.52073822399564,10.973009485505242,31.500792609328656,1254.0,1435.0,1350.0,1528.0,1260.0,1021.7000000000002,187.0,294.71,1637174748.6607673,1637174749.708594,7b0dd558-7db0-410f-8d45-13c37e8ae49a
-0.814448441668223,-1.333603163609425,-0.0043242159245956,0.9522707640565944,0.2157931738891706,0.2582798964593198,-0.0840929758859827,-0.1182521953545425,-13.697225760589772,24.46427948024421,-24.930870175155405,-1.416607734720001,-4.801019564851788,-0.37609195114714,7836.534776475694,11.750555555555556,7.746666666666666,-179.55309207118407,10.95118522869602,31.556594116482795,1254.0,1435.0,1350.0,1528.0,1260.0,1021.7000000000002,187.0,294.71,1637174749.8167963,1637174750.933807,7b0dd558-7db0-410f-8d45-13c37e8ae49a
-0.1259995168453828,-0.0324859845930169,-0.0416374774749961,0.3266180495742845,-0.088512581545269,-0.4430014793017994,-0.4148764118540566,-0.4496678707700357,-15.59481145056982,19.380063722571474,-26.636800988088822,-1.6179503479613984,0.1820907496802206,0.7105137990192203,7842.10986328125,11.80977777777778,7.597777777777777,-179.94615579753997,10.936913738152755,31.64635911873977,1525.0,1435.0,1350.0,1528.0,1475.0,1021.7000000000002,187.0,294.71,1637174752.5045831,1637174753.7084303,a7e3d04c-02b9-4d2a-9bd2-5b87224251d8
-0.1239636602784837,-0.0223351908186616,-0.0257182409125146,0.3335698743737028,-0.074738225888261,-0.4574201237389202,-0.4025790912105334,-0.4256441021766616,-15.444819304644517,19.36830100176409,-26.254847482429657,-1.665181497735155,0.2158686229382838,0.6544818263533213,7842.10986328125,11.809444444444445,7.586666666666667,-179.97974515005828,10.9297559844938,31.64227352725125,1525.0,1435.0,1350.0,1528.0,1475.0,1021.7000000000002,187.0,294.71,1637174753.8169043,1637174754.859749,a7e3d04c-02b9-4d2a-9bd2-5b87224251d8
-0.1427827330979661,-0.0441401127302412,-0.0469753005126221,0.3304744523328229,-0.0927765944274804,-0.4348892797646553,-0.4172755015704563,-0.4425456590530596,-15.45450623784705,19.49343509627785,-26.63397250071076,-1.6078634107111351,0.1365512963632585,0.7256926126764672,7842.907769097223,11.808333333333334,7.577777777777778,179.97491241176556,10.89989961494812,31.66872343481212,1525.0,1435.0,1350.0,1528.0,1475.0,1021.7000000000002,187.0,294.71,1637174754.9675448,1637174756.0590878,a7e3d04c-02b9-4d2a-9bd2-5b87224251d8
-0.1222241971900743,-0.0470574798154939,-0.068204967142575,-0.1484805017978308,-0.1632590896408613,0.0331084791381751,-0.307209936979556,-0.3235636313488068,-15.326711857355548,18.56871620825748,-22.8580428073682,0.517674138083949,0.1488470053311791,0.6951627635928365,7847.695203993056,11.810333333333332,7.557777777777777,179.9369805767549,11.08526003969234,31.69694539700766,1525.0,1535.0,1350.0,1528.0,1475.0,1021.7000000000002,187.0,294.71,1637174757.023023,1637174758.1051056,8dc4dc64-76ab-43e6-b135-c7adb8a45992
-0.0984332735271438,-0.0333883138957967,-0.0520704204610403,-0.1619442199842287,-0.1520963934765382,0.028328380247867,-0.291376712935958,-0.3086069868576773,-15.143816703178118,18.490228665728747,-23.2727613842644,0.5376125127543011,0.2051750266696793,0.6365335783852928,7847.695203993056,11.811777777777776,7.582222222222223,179.90156073353904,11.072312657210675,31.74728578846542,1525.0,1535.0,1350.0,1528.0,1475.0,1021.7000000000002,187.0,294.71,1637174758.212991,1637174759.4473886,8dc4dc64-76ab-43e6-b135-c7adb8a45992
-0.1152252553833078,-0.0517690961422642,-0.0669448836775548,-0.151206117307159,-0.1619305233266802,0.0402306895797858,-0.3030324860356257,-0.315962040360385,-15.239510052132973,18.56909794049585,-22.838188267212587,0.5399393511180741,0.130797886892549,0.6851825999470053,7842.10986328125,11.812666666666663,7.523333333333334,179.86693926354616,11.069712347275406,31.81986148131121,1525.0,1535.0,1350.0,1528.0,1475.0,1021.7000000000002,187.0,294.71,1637174759.555323,1637174760.6713784,8dc4dc64-76ab-43e6-b135-c7adb8a45992
-0.0845312657930343,-0.0523854413022638,-0.1021039513852511,-0.6810986900563982,-0.2543686067882224,0.5517697309933772,-0.1983907656107465,-0.2312762068080388,-15.158539863444894,17.865308137083826,-19.29676876834912,2.878932785288693,0.159525903324883,0.710644384625922,7842.10986328125,11.802666666666669,7.559999999999999,179.84704064576417,11.20613427688901,31.926123287688547,1525.0,1636.0,1350.0,1528.0,1475.0,1021.7000000000002,187.0,294.71,1637174762.6093743,1637174763.654515,40be1f20-a263-47c9-81ac-387ed21abb69
-0.1066051887170488,-0.0662912838437015,-0.1058951589408708,-0.6746026842385962,-0.2554089974625773,0.5577326641575671,-0.1989484895003681,-0.2185269006362246,-15.074419326089654,17.900033105524912,-19.553133009428308,2.8777217920774167,0.108007753642941,0.716080693328475,7842.10986328125,11.802888888888887,7.583333333333333,179.8231516796871,11.242377916809776,31.92212307356464,1525.0,1636.0,1350.0,1528.0,1475.0,1021.7000000000002,187.0,294.71,1637174763.7626543,1637174764.7161355,40be1f20-a263-47c9-81ac-387ed21abb69
