raw_voltage_G-,raw_voltage_G0,raw_voltage_G1,raw_voltage_G2,raw_voltage_G3,raw_voltage_G4,raw_voltage_G5,raw_voltage_G6,load_x,load_y,load_z,load_l,load_m,load_n,rpm,voltage,current,roll,pitch,yaw,aileron1_pwm,elevator_pwm,throttle_pwm,rudder_pwm,aileron2_pwm,pbaro,pdiff,Tt,sample_start_time,sample_end_time,uid
0.0040717745845856,0.1415578290260464,0.0134950071502565,0.0852512776157765,-0.1000905570939589,0.0585977748120332,-0.2662709176274231,-0.2896783409959096,-14.093221820501356,19.60904990387938,38.05060601633344,0.0690050684376792,0.2841265348355681,0.5506842096335386,5826.498643663194,12.036,0.2588888888888889,178.82573308391088,-3.899594954986745,97.89113710082752,1525.0,1435.0,1200.0,1528.0,1475.0,1021.7000000000002,185.0,294.15,1637170851.6010468,1637170852.5513413,c8966189-6091-42d6-94e7-507f9eed916d
-0.0010868973171026,0.1295453995973419,0.0112728774556184,0.0898626349156757,-0.1053560623924911,0.0659583053551813,-0.2571577742326944,-0.2746718404105776,-12.783253993361011,19.502997863464063,38.04821540238616,0.0749884154323487,0.2291117521499666,0.5474530247350211,5822.97998046875,12.037666666666668,0.26,178.88636087862355,-3.9306746873037657,97.58864775414526,1525.0,1435.0,1200.0,1528.0,1475.0,1021.7000000000002,185.0,294.15,1637170852.6599352,1637170853.730319,c8966189-6091-42d6-94e7-507f9eed916d
0.0074286765899241,0.1443394754788281,0.0116870614102998,0.0813900932367488,-0.101436555313511,0.0563179203844177,-0.2656458564167159,-0.2916294806970407,-13.943025118835846,19.356902943723973,37.60646092430442,0.0708350866986736,0.2977892957488245,0.5539768016900073,5828.259765625,12.035666666666666,0.26,178.95552337415907,-3.953708931097202,97.3315617105157,1525.0,1435.0,1200.0,1528.0,1475.0,1021.7000000000002,185.0,294.15,1637170853.8384163,1637170854.9589636,c8966189-6091-42d6-94e7-507f9eed916d
0.1833460278711103,0.4624270874563193,0.0376009504916187,-0.0827507130451639,-0.1543563258419688,-0.1104177628566561,-0.3088124345857627,-0.3378491442243942,-13.327664277560778,18.73317569919188,36.66162472897042,0.063733907820269,1.516671393810378,0.6885951182682075,5826.9384765625,12.026777777777776,0.29,178.93968796002335,-3.966345350244157,97.03722988643216,1593.0,1435.0,1200.0,1528.0,1529.0,1021.7000000000002,185.0,294.15,1637170855.5989635,1637170856.6030653,32333243-c155-4c96-a819-e67deeb76b54
0.1742378167488073,0.4456625011805059,0.0341768108257338,-0.0735466252419816,-0.1550822435194667,-0.1027476896405143,-0.3085111102441482,-0.3293572770386601,-13.17146965847307,18.83046358057116,36.60771124199886,0.06075188348853,1.4518176867812986,0.6918677493252355,5824.302951388889,12.025,0.29,178.9791391326694,-3.9566379913181455,96.8167870487898,1593.0,1435.0,1200.0,1528.0,1529.0,1021.7000000000002,185.0,294.15,1637170856.721109,1637170857.7123177,32333243-c155-4c96-a819-e67deeb76b54
0.176689500632951,0.4515520208846832,0.03740919868289,-0.0914343316585739,-0.1469464870537193,-0.09709101058651,-0.309839676618564,-0.3242484597164138,-14.506645737942108,18.680271874058217,35.90730752676315,0.1121950501099244,1.491969403520197,0.6769679043339295,5760.450358072917,12.025,0.29,179.01230045999966,-3.94934344414831,96.57316937929362,1593.0,1435.0,1200.0,1528.0,1529.0,1021.7000000000002,185.0,294.15,1637170857.820573,1637170858.9417896,32333243-c155-4c96-a819-e67deeb76b54
0.4279391558160794,0.8878147643798199,0.069472842310767,-0.2764200688991217,-0.231303599370017,-0.3398351447086871,-0.3665023489427795,-0.383102581703457,-11.3253328486684,17.975502085723438,37.84642581145578,-0.0171658796728992,3.113313445430009,0.8852494765962632,5699.0869140625,12.016111111111112,0.3166666666666666,178.96119394899,-3.964269115032081,96.19679939417912,1653.4444444444443,1435.0,1200.0,1528.0,1577.0,1021.7000000000002,185.0,294.15,1637170860.578377,1637170861.600454,39f20224-31d4-4df4-b3fa-a18cf65eae9f
0.4299273480990301,0.9091841333223448,0.0791332989686286,-0.2832053449503846,-0.2207753275367739,-0.3557730108842339,-0.3664892002469369,-0.3901042640264391,-12.219184085608513,17.827644573143292,37.71292315448957,-0.0386448347696381,3.202416588018652,0.8594961029862793,5761.243760850694,12.01388888888889,0.3155555555555555,178.96113930747666,-3.968418597248471,96.00428975351242,1661.0,1435.0,1200.0,1528.0,1583.0,1021.7000000000002,185.0,294.15,1637170861.7092755,1637170862.8338673,39f20224-31d4-4df4-b3fa-a18cf65eae9f
0.4261668212987585,0.8985468389289899,0.0658925619349927,-0.2827714379432907,-0.2403537384326944,-0.3487516058598999,-0.3743915680989583,-0.3858835319270317,-11.147404396115949,18.17109213174012,37.19525586094923,-0.0217711455734597,3.158635554899815,0.914057607317792,5815.084147135417,12.014666666666663,0.3133333333333333,178.97008533746956,-3.9698836728254383,95.86812765567848,1661.0,1435.0,1200.0,1528.0,1583.0,1021.7000000000002,185.0,294.15,1637170862.9425876,1637170863.9706647,39f20224-31d4-4df4-b3fa-a18cf65eae9f
0.6492892187645145,1.3157226298440217,0.109603758541624,-0.4818410936621051,-0.2983756553876002,-0.5740737445954063,-0.4459424049966853,-0.4699387818762939,-12.38191816265268,18.576510239356185,37.10774059899038,-0.0748189876971532,4.760099310011252,1.0829552329707803,5835.754828559027,11.995666666666663,0.36,178.86587334675315,-3.9597871828442144,95.66821181322176,1729.0,1435.0,1200.0,1528.0,1636.0,1021.7000000000002,185.0,294.15,1637170864.5973866,1637170865.708048,c956be39-46b8-4d36-9853-718eb0f8f5e6
0.6611230442334735,1.3043955757582548,0.1108775384696136,-0.480649492601126,-0.2967183715559627,-0.5630206185021306,-0.4369163708422829,-0.4662407108532866,-11.872910963178905,18.489218749833643,37.2951462039905,-0.0528982428748775,4.712284930273775,1.0654064802501384,5834.87158203125,11.998333333333331,0.36,178.87445358217053,-3.970048735730381,95.49929061030863,1729.0,1435.0,1200.0,1528.0,1636.0,1021.7000000000002,185.0,294.15,1637170865.8205616,1637170866.9368773,c956be39-46b8-4d36-9853-718eb0f8f5e6
0.6611915270203456,1.3166402992807371,0.1170135965817704,-0.4868540353174984,-0.2912123542580878,-0.5658284138418105,-0.430533773190081,-0.4578584141100141,-11.904943426735072,18.222164317554736,37.84061289984951,-0.0466057808091756,4.754750724858369,1.0427392504032944,5838.84619140625,11.994222222222223,0.3588888888888888,178.8971267745753,-3.9554898554914137,95.3177039599446,1729.0,1435.0,1200.0,1528.0,1636.0,1021.7000000000002,185.0,294.15,1637170867.0746088,1637170868.0722878,c956be39-46b8-4d36-9853-718eb0f8f5e6
0.8187019358354798,1.5835314583241644,0.1456394033773158,-0.6413101728182383,-0.3401638622036892,-0.6996027477220893,-0.4705003402649195,-0.4849365174545732,-11.693970168047606,18.893739631438265,35.7281472084918,0.0068474206356012,5.793827322485709,1.1551287609340088,5838.84619140625,11.973,0.42,178.8027821304798,-3.965533980689002,94.9629408988145,1796.0,1435.0,1200.0,1528.0,1690.0,1021.7000000000002,185.0,294.15,1637170870.0771534,1637170871.0249488,41cdbb1e-05cd-452e-84e5-2ad11d0ce220
0.8036220262186466,1.550043368539485,0.1433931678174667,-0.6256276078074627,-0.3380956815763118,-0.6863033842296146,-0.4639807768405039,-0.4892509347672333,-11.197879870157172,19.04203400720693,35.01957146721703,0.0023648236984619,5.668924765144877,1.1414633466815118,5788.4912109375,11.975222222222222,0.4122222222222222,178.81450728855503,-3.9475759904049617,94.72907370381344,1796.0,1435.0,1200.0,1528.0,1690.0,1021.7000000000002,185.0,294.15,1637170871.133785,1637170872.2512913,41cdbb1e-05cd-452e-84e5-2ad11d0ce220
0.7941166154258864,1.5461124558029895,0.1439547267109393,-0.6214912457935778,-0.3449850516383922,-0.6856596457052135,-0.4538453210634813,-0.4702127136166756,-9.542486051321744,19.04103230603674,35.13730290606716,-0.0046458575285936,5.640947839283836,1.1365354665321523,5708.808430989583,11.974444444444446,0.42,178.8350206233623,-3.9468088273519353,94.48643275136854,1796.0,1435.0,1200.0,1528.0,1690.0,1021.7000000000002,185.0,294.15,1637170872.3601618,1637170873.595956,41cdbb1e-05cd-452e-84e5-2ad11d0ce220
-0.2503692113098566,-0.3147156522249204,-0.0198698102008136,0.2986162591628911,-0.024417067797679,0.2863167503401951,-0.1976511513365099,-0.2330293661992653,-14.55242025004894,20.33885046445956,34.93012844575209,0.1018689083017589,-1.424642194881966,0.3370340291976928,5702.87841796875,12.029,0.29,179.35258503790917,-3.955152093150583,94.17502393654016,1457.0,1435.0,1200.0,1528.0,1421.0,1021.7000000000002,185.0,294.15,1637170874.598421,1637170875.6441472,a095108f-32b9-45ec-aef1-d1800aa35940
-0.2568750773595957,-0.3177288955569055,-0.0252251647614667,0.3085325669809846,-0.035018204455596,0.2826049831906487,-0.203732423923631,-0.2197573999171459,-13.83439918592227,20.72238832956482,35.2281865959697,0.0738441146371375,-1.4452212539721154,0.3679189821798266,5800.224012586806,12.027222222222225,0.28,179.34844442545233,-3.9248185115685175,94.21976167560376,1457.0,1435.0,1200.0,1528.0,1421.0,1021.7000000000002,185.0,294.15,1637170875.7527902,1637170876.7920134,a095108f-32b9-45ec-aef1-d1800aa35940
-0.2453425735836506,-0.3201531868247435,-0.0237459363935454,0.3139974934818163,-0.0309777195479312,0.2790849678491935,-0.2034995824476459,-0.2208394280967676,-14.040488426248665,20.67725033423964,35.113798554148254,0.0532590911759499,-1.4524211926177797,0.3595354734794134,5836.200032552083,12.028555555555556,0.2777777777777778,179.3369363156108,-3.9132346055999134,94.25907472664652,1457.0,1435.0,1200.0,1528.0,1421.0,1021.7000000000002,185.0,294.15,1637170876.9013731,1637170877.9586298,a095108f-32b9-45ec-aef1-d1800aa35940
-0.4080029296392713,-0.6157523855893806,-0.0435100710240389,0.4464432049572356,0.0211102938019454,0.4354448693549343,-0.1647383180922353,-0.1901317407680681,-15.404465602989632,21.564234022399067,33.57604945364712,0.1098196742768281,-2.5553597841906504,0.2222496325677173,5859.69140625,12.005000000000004,0.33,179.42906949623497,-3.908910479240996,94.2253776089213,1389.0,1435.0,1200.0,1528.0,1367.0,1021.7000000000002,185.0,294.15,1637170878.575779,1637170879.627899,e9c7e443-8726-405a-84be-d14196c744b5
-0.4036748162225802,-0.6089178005874644,-0.0351825631430396,0.4625777495577194,0.023205867275684,0.4185159243210674,-0.1592733907775978,-0.175202490585995,-14.534966526030962,21.80874092388135,34.2786368075369,0.0379676950269554,-2.543561491262077,0.2027302874044877,5861.47265625,12.006666666666666,0.3299999999999999,179.42310901781926,-3.911849832177564,94.06937229372868,1389.0,1435.0,1200.0,1528.0,1367.0,1021.7000000000002,185.0,294.15,1637170879.7367508,1637170880.97026,e9c7e443-8726-405a-84be-d14196c744b5
-0.4141526856427968,-0.6233265849957444,-0.0400037519251628,0.4603315141778061,0.0196036723378158,0.4345819862309548,-0.1571093343355164,-0.1736684755519269,-14.286759493452283,21.81560317139136,34.249891774012205,0.0790630246282125,-2.599134136741455,0.2094943216868466,5866.8212890625,12.006666666666668,0.3222222222222222,179.43672993284406,-3.919978279040441,93.95409311982712,1389.0,1435.0,1200.0,1528.0,1367.0,1021.7000000000002,185.0,294.15,1637170881.079322,1637170882.1989448,e9c7e443-8726-405a-84be-d14196c744b5
-0.6725246412309943,-1.0770938027442276,-0.078285634677435,0.6726007592127082,0.0890315278252068,0.6792572860388185,-0.1014739095801037,-0.1373725923446802,-15.63293964567525,23.194647008296386,33.67201621583903,0.1565195988551982,-4.314925829797546,0.0325333748647062,5830.90234375,11.997777777777776,0.36,179.5608511660812,-3.8992206226747337,93.61864659257972,1321.0,1435.0,1200.0,1528.0,1314.0,1021.7000000000002,185.0,294.15,1637170884.0959082,1637170885.1575975,7d4f0a21-decf-4da1-97bb-d2f51b71d77b
-0.6738532078449033,-1.0864348622588926,-0.0739027357583608,0.688283317274737,0.0895656935784412,0.6772986783528726,-0.0954200303409958,-0.109130286964355,-14.801226166358743,23.54145384381213,34.17665375868297,0.1197587061709867,-4.36196686018041,0.0173702989983899,5828.7001953125,11.996,0.35,179.59576405747868,-3.8910988162735496,93.42479519919604,1321.0,1435.0,1200.0,1528.0,1314.0,1021.7000000000002,185.0,294.15,1637170885.26625,1637170886.3860157,7d4f0a21-decf-4da1-97bb-d2f51b71d77b
-0.6729903244989343,-1.078038865953576,-0.0738479494807827,0.6798736311189045,0.0910175288034363,0.6724227039691385,-0.0962007342163109,-0.1166907882524039,-15.09452911590524,23.256693088874048,33.5546790659788,0.1256401592072711,-4.321854240960686,0.0164064195155285,5822.97998046875,11.997,0.35,179.61323871701518,-3.879617884893059,93.2755290039845,1321.0,1435.0,1200.0,1528.0,1314.0,1021.7000000000002,185.0,294.15,1637170886.4943504,1637170887.6112149,7d4f0a21-decf-4da1-97bb-d2f51b71d77b
-0.8043814663478752,-1.3092780525407022,-0.0773953583444626,0.7745853246615014,0.1396950970874348,0.7752427594112268,-0.0637124957108694,-0.0865857505195848,-16.557418856292767,24.42481835651005,28.46852729686981,0.1490640392205381,-5.145575486989638,-0.1271405560699759,5812.452311197917,11.945,0.49,179.65852742467183,-3.867998310158789,92.82336137401076,1254.0,1435.0,1200.0,1528.0,1260.0,1021.7000000000002,185.0,294.15,1637170889.6616662,1637170890.806853,f012be64-98aa-4262-876d-fa7797847df3
-0.8024365539348303,-1.3136746519539415,-0.0795868078169098,0.784515328720116,0.1374899512277997,0.7783381813656319,-0.0663833247670191,-0.078162366048952,-16.453015480951805,24.61404357817709,29.573826773944592,0.1349942317998578,-5.173958903819531,-0.1162378334104453,5811.13671875,11.94788888888889,0.4888888888888889,179.6986464380367,-3.89172847433766,92.29483374693608,1254.0,1435.0,1200.0,1528.0,1260.0,1021.7000000000002,185.0,294.15,1637170890.918625,1637170892.0653694,f012be64-98aa-4262-876d-fa7797847df3
-0.7976290598104422,-1.303265257823196,-0.0757106816165995,0.7781601261325174,0.1376680064081193,0.7765987185953144,-0.0589050034671422,-0.072040004228876,-15.890269363978312,24.382249572522763,29.98779688912481,0.1444268827329004,-5.141545076210592,-0.1301351162360565,5811.13671875,11.946,0.48,179.7008062956342,-3.876387774598073,91.95676746268708,1254.0,1435.0,1200.0,1528.0,1260.0,1021.7000000000002,185.0,294.15,1637170892.1735537,1637170893.2628925,f012be64-98aa-4262-876d-fa7797847df3
0.0019351113872682,0.1091243789907575,0.0141798350847201,0.1108775384378043,-0.0961733411330826,0.0615288383639197,-0.2532865784431186,-0.2863089863675199,-12.832381008056451,19.532672980780475,37.3514620198124,0.0178360092194663,0.1566409300402768,0.5221556361221271,5802.395073784723,12.034777777777778,0.25,179.32730423106122,-3.872367544225351,91.59048111351724,1525.0,1435.0,1200.0,1528.0,1475.0,1021.7000000000002,185.0,294.15,1637170894.0772676,1637170895.1925328,a38fba47-9bf8-4ae1-826c-cc3c4d750e48
-0.0136241794682357,0.1116034560635806,0.0095503982206727,0.0987286911620914,-0.0958446237013869,0.0691715180455284,-0.2586145404051291,-0.2738040265166128,-13.704326609907776,19.284037248317823,37.16232330455394,0.0600671375288802,0.1749848094333107,0.5350231807930287,5813.7646484375,12.034666666666666,0.25,179.27009912003265,-3.8606265439058376,91.99863879902895,1525.0,1435.0,1200.0,1528.0,1475.0,1021.7000000000002,185.0,294.15,1637170895.3005226,1637170896.427688,a38fba47-9bf8-4ae1-826c-cc3c4d750e48
-0.0100493776269389,0.1182599833872171,0.0117966338623028,0.1027965689844579,-0.0939818916331102,0.0570363671585341,-0.2593541546705799,-0.2861035384205519,-13.67952979726749,19.21652344916762,36.903544570059005,0.0232572191066269,0.2017092892260254,0.5309984324209265,5826.9384765625,12.035999999999998,0.2488888888888889,179.23383081553985,-3.860955768510206,92.35550176387387,1525.0,1435.0,1200.0,1528.0,1475.0,1021.7000000000002,185.0,294.15,1637170896.5617907,1637170897.6504204,a38fba47-9bf8-4ae1-826c-cc3c4d750e48
0.0119199027618107,0.1123156770903576,-0.0272522554736643,-0.358133750173134,-0.1712167908417746,0.506790236772196,-0.1773802427757087,-0.1918712040137738,-14.815079833725756,18.149990759644567,39.85603724107383,2.064544577091512,0.2155406114221325,0.5717568038832167,5822.97998046875,12.029333333333334,0.26,179.1832919691412,-3.7324773963331968,92.82182458144752,1525.0,1535.0,1200.0,1528.0,1475.0,1021.7000000000002,185.0,294.15,1637170898.6747534,1637170899.81097,4115c6a9-c7ae-4ecc-95c0-2d09bb9b885b
0.0090423802288983,0.0974075958691388,-0.0294026152231921,-0.3395475170038632,-0.1724544617653448,0.5100823910970078,-0.174845134039553,-0.2034584938391425,-14.16329777602961,18.250909652689607,40.67681479107536,2.031037356208725,0.1453155859650412,0.572695387496317,5822.97998046875,12.029999999999998,0.26,179.16912615680266,-3.71714476001138,92.99176879491633,1525.0,1535.0,1200.0,1528.0,1475.0,1021.7000000000002,185.0,294.15,1637170899.9191608,1637170901.1247008,4115c6a9-c7ae-4ecc-95c0-2d09bb9b885b
0.0112761644709404,0.1205610051987844,-0.0204450656849118,-0.3661051488714791,-0.1771200081199237,0.5083653408450859,-0.1638617382815522,-0.1944050675229567,-13.197709115520633,18.3211747104156,40.25226827696529,2.0884166251557144,0.2329223594273805,0.5538182299385581,5824.739312065973,12.031444444444446,0.26,179.14887844046305,-3.6921054762415904,93.13728597518345,1525.0,1535.0,1200.0,1528.0,1475.0,1021.7000000000002,185.0,294.15,1637170901.2329874,1637170902.4740057,4115c6a9-c7ae-4ecc-95c0-2d09bb9b885b
0.0318483957573804,0.1245740967903569,-0.0591241483760917,-0.8902178420043146,-0.2659558967488054,1.0049340280445085,-0.0761626680166869,-0.0986524191708607,-14.650949218168725,17.704718674927786,42.99582067852244,4.380235888036123,0.2960105216436541,0.6016713528482085,5827.8193359375,12.021666666666668,0.2722222222222222,179.1440411487109,-3.525562530967904,93.28438775933802,1525.0,1636.0,1200.0,1528.0,1475.0,1021.7000000000002,185.0,294.15,1637170903.0949566,1637170904.202652,27371f1b-84d9-447e-9c5b-bb2c66ac85c1
0.0380255436291817,0.1059467774425918,-0.0575216509658342,-0.8720835889710233,-0.2665037591725525,1.011741217234419,-0.0647534341987297,-0.0995563916184389,-13.32164357057421,17.810810687543523,43.78402415008609,4.356203992369973,0.20762309704959,0.5838917229802695,5834.87158203125,12.022,0.28,179.14631787843422,-3.524083700148857,93.29821661567756,1525.0,1636.0,1200.0,1528.0,1475.0,1021.7000000000002,185.0,294.15,1637170904.3105507,1637170905.4324176,27371f1b-84d9-447e-9c5b-bb2c66ac85c1
0.0313279265639224,0.116808148203145,-0.0530976623770262,-0.8802604386808915,-0.266859869733837,1.0093306230350687,-0.0624113226012654,-0.0807099264553539,-13.195291420016064,17.917591104388126,43.90784602616978,4.370243520700293,0.2476571348639521,0.5764734150111349,5830.90234375,12.022,0.28,179.1723135784153,-3.532777819484245,93.3075466540838,1525.0,1636.0,1200.0,1528.0,1475.0,1021.7000000000002,185.0,294.15,1637170905.5405667,1637170906.7756855,27371f1b-84d9-447e-9c5b-bb2c66ac85c1
0.0442711744384215,0.0946060270999612,-0.0799840080216819,-1.3150717024811729,-0.3432455883800021,1.4597556461670382,0.0200693553374523,-0.015281463551161,-13.873159852802232,18.529991394590727,48.13566585588419,6.366290003406146,0.1835529158104892,0.5984663151748287,5874.424424913194,11.993444444444444,0.36,179.16732450468157,-3.373993826812085,93.32235222747468,1525.0,1737.0,1200.0,1528.0,1475.0,1021.7000000000002,185.0,294.15,1637170908.5956166,1637170909.7324705,8354467d-16d2-4cc7-88d9-daa80348db1c
0.0633778737129237,0.1124389461288843,-0.0760257024201364,-1.3338907916782217,-0.3458068452753725,1.458317507354253,0.0201926243550596,-0.0129256553769387,-13.955144776888323,18.65864492820705,47.96636701570907,6.406491268669877,0.2550881150112657,0.5980275851877139,5897.771158854167,11.993666666666668,0.3533333333333333,179.222547343031,-3.37086960816517,93.07674317838048,1525.0,1737.0,1200.0,1528.0,1475.0,1021.7000000000002,185.0,294.15,1637170909.8399663,1637170910.9612129,8354467d-16d2-4cc7-88d9-daa80348db1c
0.0350123007167263,0.1010844992348965,-0.078052793172071,-1.3176055681112058,-0.3372601912524679,1.451976000282288,0.0165082500555172,0.0026610285727022,-14.696902304788075,18.37658410749589,47.60071116017131,6.3531031607321,0.2188544618709689,0.5922458551238455,5907.25439453125,11.994,0.3400000000000001,179.2401191430357,-3.3744733155781943,92.88468357128905,1525.0,1737.0,1200.0,1528.0,1475.0,1021.7000000000002,185.0,294.15,1637170911.0696528,1637170912.1917589,8354467d-16d2-4cc7-88d9-daa80348db1c
0.0666025914834966,0.1185793871236842,-0.0695127146638371,-1.515107410714557,-0.369092642703891,1.6154663589980351,0.053282962179343,0.027182799407658,-14.673967486258189,19.791181654306826,47.582417452831926,7.175815000667915,0.3093528281478119,0.5713972121001906,5833.548502604167,11.978,0.3966666666666667,179.21798477666547,-3.3326053231830737,92.45831280690057,1525.0,1837.0,1200.0,1528.0,1475.0,1021.7000000000002,185.0,294.15,1637170914.239684,1637170915.2599056,51c061cf-6658-4984-b992-8324ccc72117
0.0450232941516457,0.0857842524558576,-0.0708281560036151,-1.4482405000768,-0.3599708759433984,1.589480530156864,0.0524694580056646,0.0298594160745836,-13.926356327421091,19.80141324245121,48.06089068038447,6.967040931716878,0.1685030633657382,0.5597359321284511,5822.97998046875,11.977,0.39,179.25037808716908,-3.278126880589406,92.20082605883968,1525.0,1837.0,1200.0,1528.0,1475.0,1021.7000000000002,185.0,294.15,1637170915.369305,1637170916.6045904,51c061cf-6658-4984-b992-8324ccc72117
0.0532287237937381,0.1013858234817473,-0.0706429547773495,-1.487128049414175,-0.3676665568867039,1.607158025457404,0.0556256215276874,0.0290406004876993,-13.925773143666104,19.815887763330235,47.66938622008299,7.094528468413955,0.2352840828308531,0.5664606804991071,5819.0263671875,11.982333333333337,0.38,179.2446726024824,-3.3075180146456824,92.01661206237488,1525.0,1837.0,1200.0,1528.0,1475.0,1021.7000000000002,185.0,294.15,1637170916.7133255,1637170917.8327494,51c061cf-6658-4984-b992-8324ccc72117
-0.0266799777330747,0.1337627008801948,0.056985749453542,0.68190608111232,0.0009465772686165,-0.5190415518119732,-0.3795938793684937,-0.4003459579350573,-13.43994566381006,20.89274702185161,32.66923327757353,-2.5647883290357547,0.2272791823930981,0.5117614229809402,5810.699273003473,12.032111111111112,0.24,179.22562092815753,-4.004061417681622,91.59468319767662,1525.0,1334.0,1200.0,1528.0,1475.0,1021.7000000000002,185.0,294.15,1637170919.6550472,1637170920.6966753,59ca7cf0-1321-4946-927c-f039e2fdfcb1
-0.0363779989807595,0.1259689542965834,0.0551632258233603,0.6884964357032528,-0.0029934582039656,-0.5140964973065599,-0.3742732298110986,-0.3980592263157439,-12.530513703658675,20.861207740271293,33.158026703110934,-2.568306482431644,0.1863515076241164,0.5124897954480275,5813.327745225694,12.032333333333334,0.24,179.19511123204495,-3.983552731197535,92.08620030636872,1525.0,1334.0,1200.0,1528.0,1475.0,1021.7000000000002,185.0,294.15,1637170920.8046513,1637170922.1351097,59ca7cf0-1321-4946-927c-f039e2fdfcb1
-0.0285534287145174,0.1317784864264465,0.0494758668143118,0.6849139641883979,-0.0040776778320542,-0.514575877104174,-0.3866225973006079,-0.4139746312792076,-13.613982494056875,20.831164327463167,33.36670379585243,-2.562297014997746,0.214039832390455,0.5395224039240473,5815.08447265625,12.033666666666669,0.24,179.1614763449322,-3.965141956289765,92.48684933725286,1525.0,1334.0,1200.0,1528.0,1475.0,1021.7000000000002,185.0,294.15,1637170922.2435868,1637170923.3708637,59ca7cf0-1321-4946-927c-f039e2fdfcb1
-0.0613840808023247,0.1305047065123633,0.0837035666016766,1.2253390396632178,0.0751980037696988,-1.042016892267154,-0.5170275616187406,-0.5410102446741293,-14.295959950732042,23.429839633848577,28.558563371691303,-4.948772458477704,0.1923797107776917,0.5668182647182495,5815.07861328125,12.025,0.26,179.10527754844134,-4.085633465733569,93.13919842815103,1525.0,1234.0,1200.0,1528.0,1475.0,1021.7000000000002,185.0,294.15,1637170925.0956545,1637170926.1148653,64c15e62-a8f1-4f13-933a-b1080baa8cd3
-0.053974242292139,0.1318606657664869,0.0935924817980918,1.2202850096951936,0.0876892650880092,-1.0352233948004457,-0.5026187781597048,-0.5266699423721143,-14.40008331995253,23.07975462582561,29.14954936126049,-4.923892469551373,0.194207674637736,0.5168341537968671,5812.45068359375,12.022666666666666,0.27,179.1262553361122,-4.100436620099101,93.35960863266736,1525.0,1234.0,1200.0,1528.0,1475.0,1021.7000000000002,185.0,294.15,1637170926.223811,1637170927.4590497,64c15e62-a8f1-4f13-933a-b1080baa8cd3
-0.0644899125662238,0.1272180803931773,0.0914930733067703,1.2194801998854772,0.0858917287659465,-1.0329968806237977,-0.5096916828745317,-0.5283759857524312,-14.91514360893662,23.43748921002023,28.67746235441091,-4.915141333532771,0.1845967871133228,0.5304728353781178,5810.699273003473,12.02277777777778,0.2788888888888889,179.12460698379246,-4.11711978403368,93.50818649659256,1525.0,1234.0,1200.0,1528.0,1475.0,1021.7000000000002,185.0,294.15,1637170927.567546,1637170928.684304,64c15e62-a8f1-4f13-933a-b1080baa8cd3
-0.0732179078709415,0.1286419745971991,0.1249439038480444,1.6196492884249265,0.1421056913430411,-1.412303667873049,-0.5948788235764961,-0.6173822775041512,-14.337103419317913,25.860245391144456,27.10789228201122,-6.652410608475435,0.1526494023296209,0.5304757236506022,5805.452094184027,12.012999999999998,0.2955555555555555,179.13393854001853,-4.2564243380682445,93.75236044705116,1525.0,1133.0,1200.0,1528.0,1475.0,1021.7000000000002,185.0,294.15,1637170929.691046,1637170930.8275576,cb755e87-3dce-49ee-86bd-9d6b8f98728f
-0.0853941490175922,0.1311758378643867,0.1218758747771544,1.613992609034236,0.1404347112219203,-1.4125502063066098,-0.5998095862462819,-0.6136294193091795,-14.726941970214162,25.805963328726808,26.657510718784835,-6.640985168380861,0.1694048730555628,0.5433255065881875,5803.704481336806,12.014444444444443,0.2911111111111111,179.1421195888244,-4.268678978099717,93.8513283703048,1525.0,1133.0,1200.0,1528.0,1475.0,1021.7000000000002,185.0,294.15,1637170930.9370203,1637170932.1694915,cb755e87-3dce-49ee-86bd-9d6b8f98728f
-0.0589050035631713,0.158034788542402,0.1315730380579715,1.5811208638652008,0.144132781941474,-1.4146183887808987,-0.5986316818313623,-0.6302707444115169,-15.572993027455396,25.91776198195252,25.84714739610768,-6.570813123453418,0.2879764991767069,0.524574433854503,5801.522569444444,12.011666666666663,0.3,179.14271002073266,-4.284948536134556,93.92525682006122,1525.0,1133.0,1200.0,1528.0,1475.0,1021.7000000000002,185.0,294.15,1637170932.2784932,1637170933.2312129,cb755e87-3dce-49ee-86bd-9d6b8f98728f
-0.0891607029269179,0.1327920317269564,0.1394485589582128,1.7908563041283951,0.160157754945885,-1.5853324900544266,-0.6428578848196561,-0.6774280122798247,-14.378726056926917,27.671138804285835,25.35096128817913,-7.415004707094023,0.1639518508637451,0.5531816672666326,5799.777560763889,11.990444444444444,0.3511111111111111,179.13265598227437,-4.347623917210279,94.09486483644088,1525.0,1033.0,1200.0,1528.0,1475.0,1021.7000000000002,185.0,294.15,1637170935.128158,1637170936.152892,9babc19b-ac0d-4dd4-84fc-6050bb0bb878
-0.0830109477439049,0.1408593045333268,0.1359148469109287,1.7822137753083225,0.1575006226562363,-1.5866336680257411,-0.6524728724676097,-0.6790442073623381,-15.142396974344626,27.741013177883307,25.11108805569652,-7.398568599418127,0.2025813409813985,0.5753066208447829,5803.267578125,11.990444444444444,0.3544444444444444,179.14359642750497,-4.36479007986929,94.03024138106376,1525.0,1033.0,1200.0,1528.0,1475.0,1021.7000000000002,185.0,294.15,1637170936.2612998,1637170937.381768,9babc19b-ac0d-4dd4-84fc-6050bb0bb878
-0.0836957756983885,0.1286693676970683,0.1278064845147094,1.7816248237072465,0.1504331986782092,-1.5722111737016016,-0.6509251604001915,-0.6873854134561127,-14.561869395581027,27.56074000619517,25.359987560937498,-7.366097694562607,0.1501022731927927,0.5931325536346894,5795.419921875,11.997,0.3400000000000001,179.1480208722673,-4.343442371050283,93.99802641438843,1525.0,1033.0,1200.0,1528.0,1475.0,1021.7000000000002,185.0,294.15,1637170937.4900053,1637170938.6110125,9babc19b-ac0d-4dd4-84fc-6050bb0bb878
-0.0196369688242065,0.1120691390403321,0.0112213784016527,0.1099872621538801,-0.0987209011417478,0.0597208926490095,-0.2647779925410759,-0.3013615069315041,-13.61961307396976,19.884284178070548,37.3324322077499,0.0175658146582666,0.1733540911904984,0.5456463645347732,5794.11669921875,12.033333333333331,0.24,179.1489588849133,-3.9043006233018,93.9326205228964,1525.0,1435.0,1200.0,1528.0,1475.0,1021.7000000000002,185.0,294.15,1637170940.5743587,1637170941.8056805,a0d521a5-0b7c-475a-bb5a-1b59c0cdb04c
-0.0039544089068119,0.1225470061709154,0.0073315557047991,0.1000709539006531,-0.1005699366659386,0.0559269458948469,-0.2686130294606009,-0.2929792119883296,-13.921649687124798,19.48226271397302,36.93141382014755,0.0283343733888996,0.2193119179265348,0.5594964001215347,5821.22412109375,12.032777777777776,0.2322222222222222,179.1686738464976,-3.886093141385577,94.0528766279732,1525.0,1435.0,1200.0,1528.0,1475.0,1021.7000000000002,185.0,294.15,1637170941.9419963,1637170942.9180825,a0d521a5-0b7c-475a-bb5a-1b59c0cdb04c
0.0010168940997476,0.1277308795617992,0.013560750632455,0.1065614789426066,-0.0969934910782599,0.0488781489786268,-0.2674137586518035,-0.2903056429903763,-13.924338434555718,19.74812982586356,37.52613005054519,1.9836526061186577e-05,0.2331029543775492,0.5458385239133507,5827.819932725694,12.034333333333333,0.2311111111111111,179.15155435679787,-3.866483810574078,94.11644443966858,1525.0,1435.0,1200.0,1528.0,1475.0,1021.7000000000002,185.0,294.15,1637170943.0376365,1637170944.141492,a0d521a5-0b7c-475a-bb5a-1b59c0cdb04c
0.0340398451349541,0.1313128034386112,0.1666088339581747,0.0939348957278054,0.0467776447809443,0.0430110911167607,-0.1064594571965781,-0.1296203404998199,-13.274386273008014,19.68954581864152,36.74477851897441,0.0227532820412668,0.26011828547877,-0.088069729687603,5830.90234375,12.033666666666669,0.2366666666666666,179.15764233207813,-3.8958926604335145,94.20501302045597,1525.0,1435.0,1200.0,1454.0,1475.0,1021.7000000000002,185.0,294.15,1637170945.1660864,1637170946.3014328,f3e429aa-f51a-4b3e-87fe-fdc9e88e2b41
0.0349712111412764,0.1253000143805993,0.1637325567337545,0.1005777265609681,0.043682222507275,0.0451340577295804,-0.1024463653191182,-0.1377971857820456,-12.519445948389366,19.500538644586484,37.08104954646812,0.0115767231086193,0.2282396063674948,-0.0852362604608786,5830.90234375,12.035,0.2377777777777777,179.15533372813866,-3.8783527820767913,94.28729858611683,1525.0,1435.0,1200.0,1454.0,1475.0,1021.7000000000002,185.0,294.15,1637170946.4099662,1637170947.5302763,f3e429aa-f51a-4b3e-87fe-fdc9e88e2b41
0.0391875597697925,0.1442193442267246,0.1686627697966397,0.0882979401039162,0.0455778262164108,0.038214556301474,-0.1022003751372163,-0.1153622215188801,-12.809942704630297,19.42792974938937,37.14749161909496,0.0233563903138896,0.3024890087294336,-0.0927868720463711,5829.5810546875,12.033666666666669,0.2366666666666666,179.1530569984153,-3.8887154122763,94.33100724334548,1525.0,1435.0,1200.0,1454.0,1475.0,1021.7000000000002,185.0,294.15,1637170947.638532,1637170948.7593317,f3e429aa-f51a-4b3e-87fe-fdc9e88e2b41
0.1016871477236407,0.1723476918163459,0.3491702535607409,0.0651447298085967,0.1981520072152676,0.016056263639126,0.0863470023820777,0.0561871802355715,-10.44225331794588,19.69852286954153,36.290166607164274,0.0376287519682233,0.4131263973833646,-0.8115652157881453,5833.990125868056,12.032111111111112,0.25,179.14142139170926,-3.886769946727709,94.35031467030927,1525.0,1435.0,1200.0,1380.0,1475.0,1021.7000000000002,185.0,294.15,1637170949.6014392,1637170950.5403516,afae313e-d563-42bc-bad1-bbb41efd962f
0.0924282742280832,0.170635622025009,0.349608543369323,0.0730613406236462,0.2061097073835418,0.0171245951903111,0.0818956208236078,0.0699111316330264,-11.48630069620152,19.626255289691507,37.23031326815781,0.0213385725351512,0.4048139646727643,-0.816175730023164,5836.196451822917,12.031333333333333,0.2466666666666666,179.13426031781944,-3.880232175031536,94.38478815287014,1525.0,1435.0,1200.0,1380.0,1475.0,1021.7000000000002,185.0,294.15,1637170950.6494887,1637170951.7222536,afae313e-d563-42bc-bad1-bbb41efd962f
0.0916064806266496,0.1525561652676915,0.3439655616581102,0.0821969451106468,0.2047948378405716,0.0225621289940963,0.0774990255683866,0.0512427220429761,-11.66220935565248,19.763672821426383,36.64189619377266,0.0133973811188976,0.3419849806585786,-0.8035498506526255,5836.638075086806,12.030666666666669,0.24,179.17809950755222,-3.875520530300959,94.39361882855708,1525.0,1435.0,1200.0,1380.0,1475.0,1021.7000000000002,185.0,294.15,1637170951.83055,1637170952.854626,afae313e-d563-42bc-bad1-bbb41efd962f
0.1619569348367885,0.1938556708947437,0.5513423984159811,0.0609618008412117,0.3844328627961577,-0.0080951524416435,0.2920895754991616,0.2689215736407207,-9.37241833479789,19.73790163983042,36.86911450701853,0.0037516432240283,0.4944234778818035,-1.6296886032809612,5834.87158203125,12.031,0.2444444444444444,179.18585556680972,-3.9043555494063753,94.3748039341234,1525.0,1435.0,1200.0,1306.0,1475.0,1021.7000000000002,185.0,294.15,1637170954.7887638,1637170955.8147228,3c7b88b8-dd37-415d-987c-afd3106c594d
0.1741008511543084,0.2094927572313992,0.5556047670400278,0.0535026549571858,0.3890957188289285,-0.0164319739586689,0.286741343598728,0.2612794421592133,-10.321821590995464,19.80570086025092,36.88568373950971,0.0020301202756903,0.5608345908657926,-1.6330766272915538,5831.343370225694,12.031666666666666,0.2388888888888888,179.20116126182978,-3.904392261673164,94.3974938225462,1525.0,1435.0,1200.0,1306.0,1475.0,1021.7000000000002,185.0,294.15,1637170955.9227135,1637170957.042578,3c7b88b8-dd37-415d-987c-afd3106c594d
0.1649652469031734,0.1997818976096247,0.5487017021654593,0.0658706473448992,0.3839047235308588,-0.0149527456113049,0.2822214795509662,0.260649400612383,-10.020160570480783,19.83736996549188,37.3161405073754,-0.0224583392161379,0.5165029081085869,-1.6104228321713918,5828.7001953125,12.03022222222222,0.24,179.21402326694684,-3.890102320132767,94.41300897670082,1525.0,1435.0,1200.0,1306.0,1475.0,1021.7000000000002,185.0,294.15,1637170957.150138,1637170958.3846624,3c7b88b8-dd37-415d-987c-afd3106c594d
0.2144920008589198,0.2214224592420783,0.7237710971352392,0.0649118882514398,0.5424286789213926,-0.0480299355428892,0.454181759898435,0.4300210323301234,-9.136576768910633,20.168584739908976,36.83045584992331,-0.0833441734568773,0.6069411205710512,-2.307404782745497,5826.9384765625,12.023,0.27,179.20025815903955,-3.908006285517747,94.36413821427948,1525.0,1435.0,1200.0,1232.0,1475.0,1021.7000000000002,185.0,294.15,1637170960.0738344,1637170961.047425,c62cf6d9-2603-43d7-aa78-6ac17fa8faae
0.2204773966529288,0.2222442527141198,0.7221549033790854,0.06807579328951,0.5412918646665557,-0.0535222557908281,0.4494153579155006,0.4257887961385329,-9.310305920001202,20.24436345465689,36.55392573921517,-0.1025328057372066,0.6132131200165816,-2.297282446598769,5819.0263671875,12.027,0.25,179.22938208566046,-3.894176774618399,94.31520810510334,1525.0,1435.0,1200.0,1232.0,1475.0,1021.7000000000002,185.0,294.15,1637170961.155857,1637170962.2805932,c62cf6d9-2603-43d7-aa78-6ac17fa8faae
0.2260245026219414,0.2210937418553587,0.7227301587840054,0.0725408714171298,0.5378814218937996,-0.0522621722624503,0.4547707118672826,0.4281583005432179,-8.43289952909786,20.265194554157567,37.17482493622585,-0.1090659773989171,0.5966719988503822,-2.2996656158600164,5819.0263671875,12.023555555555554,0.26,179.25069531151053,-3.893267496198767,94.32657141493448,1525.0,1435.0,1200.0,1232.0,1475.0,1021.7000000000002,185.0,294.15,1637170962.3936126,1637170963.5045316,c62cf6d9-2603-43d7-aa78-6ac17fa8faae
-0.0843121208839493,0.0888260794687901,-0.2048007555843743,0.1357915779958539,-0.2907055814561798,0.0673224826311311,-0.4997288035055452,-0.5200271097694412,-16.11798352596104,20.148406931498013,36.8276108837082,-0.0339042580183651,0.0914683210452695,1.4309645450349049,5818.149088541667,12.034777777777776,0.23,179.2546477143102,-3.905828593537374,94.5135265939862,1525.0,1435.0,1200.0,1602.0,1475.0,1021.7000000000002,185.0,294.15,1637170964.0739682,1637170965.1423004,8d3571bd-4aab-4a57-86ee-d4de1eff724e
-0.0705607754086916,0.0820736761474301,-0.2102930761926135,0.1490498462729321,-0.2970881787888464,0.0605426861248119,-0.5021257019403603,-0.5368738813616368,-15.35574259273472,20.1374053700679,36.62464797225038,-0.0790418433282577,0.0605658573597334,1.450107699162497,5821.663736979167,12.032666666666668,0.2366666666666666,179.24165365886927,-3.9132148739423127,94.4981442490654,1525.0,1435.0,1200.0,1602.0,1475.0,1021.7000000000002,185.0,294.15,1637170965.2508843,1637170966.371835,8d3571bd-4aab-4a57-86ee-d4de1eff724e
-0.0841066724240795,0.0742529412334978,-0.2174974667116524,0.1488170048336231,-0.3028270375797641,0.0640216120037336,-0.5080563133108944,-0.5258207561898279,-15.395554728694693,20.172899424056848,35.94899670064215,-0.0709501784361836,0.0370759569287625,1.4742448296976736,5822.97998046875,12.034,0.23,179.25138895516625,-3.915256104434892,94.47891954328152,1525.0,1435.0,1200.0,1602.0,1475.0,1021.7000000000002,185.0,294.15,1637170966.48118,1637170967.599995,8d3571bd-4aab-4a57-86ee-d4de1eff724e
-0.1462890523126976,0.055173635209924,-0.4055101553051545,0.1874002091267251,-0.4771842624733571,0.0599811272416276,-0.7107106610883833,-0.734309842858027,-16.228411753327002,20.631040895568223,36.26241117002173,-0.1737579235763287,-0.0480277184451509,2.2542455545688624,5826.9384765625,12.027555555555557,0.24,179.25273526134262,-3.8930134985390072,94.48856832384904,1525.0,1435.0,1200.0,1676.0,1475.0,1021.7000000000002,185.0,294.15,1637170968.6029809,1637170969.8535964,3488862a-d20e-40c6-a69f-c7a9310903c5
-0.155808161234099,0.0486951629688942,-0.4111668351691282,0.1894546927961534,-0.4753900128764092,0.0648160124081428,-0.7180383229071549,-0.7331456341495569,-17.10526831420289,20.49590551083136,36.27259534363453,-0.1691449603773918,-0.0668238611817678,2.268636165349856,5819.0263671875,12.029,0.24,179.25130699289622,-3.901497115238724,94.42685301123852,1525.0,1435.0,1200.0,1676.0,1475.0,1021.7000000000002,185.0,294.15,1637170969.962042,1637170971.0817268,3488862a-d20e-40c6-a69f-c7a9310903c5
-0.1423033534679529,0.0570363671717475,-0.4063456455573582,0.1864551465991888,-0.473225956076672,0.0625149905859828,-0.7130116838827725,-0.7374326597579076,-16.882829347836545,20.435766794305568,36.75184004397423,-0.1675196615976567,-0.0406872498822184,2.253799124309333,5825.179144965277,12.027333333333331,0.24,179.24332781412582,-3.887774316558784,94.40327368040384,1525.0,1435.0,1200.0,1676.0,1475.0,1021.7000000000002,185.0,294.15,1637170971.190354,1637170972.3112457,3488862a-d20e-40c6-a69f-c7a9310903c5
-0.2159497555893319,0.0195077964468204,-0.6143279430083385,0.2425014617782196,-0.6623070045229377,0.052584985503559,-0.9392378524663164,-0.9618234915524022,-17.998403684190617,21.14705697095165,35.77582136712586,-0.3226185005925566,-0.1849694240803444,3.110436770065366,5830.90234375,12.023222222222223,0.2577777777777778,179.24259926061436,-3.902555509968861,94.36668208029036,1525.0,1435.0,1200.0,1750.0,1475.0,1021.7000000000002,185.0,294.15,1637170974.1339333,1637170975.1798446,b9e7fe0f-817c-4de0-bb5a-0a8502b3a606
-0.2228117322637311,0.0228360601628431,-0.6133143973470744,0.2389951430362723,-0.6602114302955964,0.0559680355235202,-0.9364163597547348,-0.9681650019969332,-18.070198464074632,20.9527757630299,36.27853216315727,-0.3083003899054284,-0.1759411174825338,3.1032942780429864,5826.9384765625,12.024777777777778,0.25,179.26903664616177,-3.89703306486556,94.29752262039445,1525.0,1435.0,1200.0,1750.0,1475.0,1021.7000000000002,185.0,294.15,1637170975.2927525,1637170976.505578,b9e7fe0f-817c-4de0-bb5a-0a8502b3a606
-0.2055266734427181,0.0284653458150092,-0.6109722851380827,0.2378309356126161,-0.6603073062706933,0.0488458251026783,-0.9384297551604774,-0.9750132881401932,-18.15048620944185,21.12587686122992,35.89759710934546,-0.3205157893897766,-0.1505886470554297,3.1031054237970133,5826.058810763889,12.025222222222222,0.25,179.29378621607424,-3.8957852272496942,94.24875203408092,1525.0,1435.0,1200.0,1750.0,1475.0,1021.7000000000002,185.0,294.15,1637170976.6190908,1637170977.8408935,b9e7fe0f-817c-4de0-bb5a-0a8502b3a606
-0.2698320234707638,0.0137963314536924,-0.755347764251238,0.2929595808289458,-0.7897124450894256,0.0241783229270681,-1.1029529240469158,-1.117758916166946,-19.200804971911648,21.56885033622828,36.37496705648497,-0.5050086959207819,-0.2183360285647235,3.7088708998557554,5819.0263671875,12.00411111111111,0.3011111111111111,179.2839507436694,-3.920567857175046,94.16666378499606,1525.0,1435.0,1200.0,1824.0,1475.0,1021.7000000000002,185.0,294.15,1637170979.6623917,1637170980.6008525,755e2792-b487-4a0f-a6f4-9fd22b735016
-0.2545329655915612,0.0060988653942254,-0.7554299436077874,0.2957673751943253,-0.7879455882042762,0.0254931925907924,-1.1056648446766344,-1.1379750523225087,-19.57831780593796,21.77980226859365,35.84629856442351,-0.5072676736937394,-0.2401960194762464,3.708434595684852,5819.0263671875,12.003333333333334,0.3055555555555556,179.29521903798013,-3.913711058726392,94.01917040332908,1525.0,1435.0,1200.0,1824.0,1475.0,1021.7000000000002,185.0,294.15,1637170980.7088692,1637170981.6468742,755e2792-b487-4a0f-a6f4-9fd22b735016
-0.2639151093696928,0.0132758621891673,-0.7584568842819251,0.2996845906818812,-0.7946569049023767,0.011604882033336,-1.1134581919839164,-1.1341674053276276,-19.341184061009592,21.956409675889105,35.33968565293076,-0.5462541998669321,-0.2111373846394651,3.733079352389452,5819.0263671875,12.005000000000004,0.3,179.31258745012957,-3.912983358988571,93.89602436932348,1525.0,1435.0,1200.0,1824.0,1475.0,1021.7000000000002,185.0,294.15,1637170981.7547472,1637170982.7943275,755e2792-b487-4a0f-a6f4-9fd22b735016
-0.0291423807116933,0.1022760998237744,-0.0480436320739417,0.1191365630660948,-0.1278671796270208,0.0655145368837359,-0.2959650607050119,-0.3093876908619789,-13.5817813775801,17.00296431079977,37.67567690238129,-0.0120315351054862,0.1283818817813628,0.7111215057268931,7914.5205078125,11.819,7.260000000000001,-179.864175313662,-4.068040890570123,80.90407566223212,1525.0,1435.0,1350.0,1528.0,1475.0,1021.7000000000002,185.0,294.15,1637170986.783944,1637170987.7627363,c9e51126-0f09-489c-b860-40dfc866f55f
-0.0244855507450552,0.1044264594629612,-0.0433046226338642,0.1185750042146557,-0.1228679353713744,0.0623917215267301,-0.2907877608278152,-0.3264809985042933,-13.553099303565968,16.887212034539314,37.49728326491989,-0.0183275429367304,0.1381927362348733,0.6905524173056801,7921.83544921875,11.817777777777776,7.260000000000001,-179.6113186749485,-4.0831478460581145,74.96695649349574,1525.0,1435.0,1350.0,1528.0,1475.0,1021.7000000000002,185.0,294.15,1637170987.870374,1637170988.9257133,c9e51126-0f09-489c-b860-40dfc866f55f
-0.0176509677888527,0.1003722782127846,-0.0442359886829692,0.1205883982619043,-0.1211284723900677,0.0658706474053818,-0.2892537461157962,-0.3153867848611791,-13.599337656880785,16.73421289949196,37.694985535728165,-0.0161040415468787,0.1212525947768822,0.6871050471867428,7928.350206163194,11.81711111111111,7.29,-179.4925128467055,-4.0560721224145375,70.57183676888955,1525.0,1435.0,1350.0,1528.0,1475.0,1021.7000000000002,185.0,294.15,1637170989.0336835,1637170990.0217924,c9e51126-0f09-489c-b860-40dfc866f55f
0.1614452314146937,0.4476348054614978,-0.0335800657477034,-0.0506459784072674,-0.1925012448371129,-0.1196766370514443,-0.3564901628218559,-0.3902384903510289,-13.241958637930727,15.952766890380042,37.062792439604266,-0.0513613492185156,1.448516769169372,0.9057188723360324,7921.83544921875,11.803666666666668,7.3244444444444445,-179.57567571221975,-3.9002874602775934,62.431504997402,1585.4444444444443,1435.0,1350.0,1528.0,1523.0,1021.7000000000002,185.0,294.15,1637170991.575794,1637170992.5857055,2cc44394-c5d0-48dc-aa91-d53500a27cfc
0.1702521183170352,0.4500180064558581,-0.0233898258606939,-0.0530702693692645,-0.1843243985873009,-0.118895933167471,-0.3449439619102889,-0.3680911511937606,-13.040121075740473,15.94778401398824,37.2709247718199,-0.043529245684821,1.4551263980868827,0.864955821937777,7911.275933159723,11.802666666666669,7.355555555555556,-179.6565739905692,-3.8814049279984015,59.07784265161053,1593.0,1435.0,1350.0,1528.0,1529.0,1021.7000000000002,185.0,294.15,1637170992.6997497,1637170993.8155382,2cc44394-c5d0-48dc-aa91-d53500a27cfc
0.1655405023333343,0.4418685547883287,-0.0325117341599076,-0.0592748106423672,-0.1917479340636739,-0.1034325175558627,-0.3500801723242601,-0.378664896828146,-13.15745582860575,15.944862662412662,37.46747850087981,0.0047137312435302,1.4238349972465905,0.8939698591671222,7907.22021484375,11.800222222222224,7.393333333333333,-179.73597721640033,-3.861660463791449,56.46705672397661,1593.0,1435.0,1350.0,1528.0,1529.0,1021.7000000000002,185.0,294.15,1637170993.9239018,1637170995.0412505,2cc44394-c5d0-48dc-aa91-d53500a27cfc
0.4038743043473762,0.871680219722989,-0.0111724953303081,-0.2536152960000315,-0.2742697089757807,-0.3466697286464082,-0.4303557178248723,-0.4542973094652307,-12.45489554854556,15.306597937508812,37.09497852781113,-0.1063625484058326,3.0594884157719733,1.1421061955005818,7907.22021484375,11.789555555555555,7.376666666666667,139.8682616893239,-3.8053617757839726,52.17341084313957,1653.4444444444443,1435.0,1350.0,1528.0,1577.0,1021.7000000000002,185.0,294.15,1637170996.5777922,1637170997.5948513,4174ab39-b6a9-41ce-bc56-d248b26ddcee
0.3990120264234389,0.8715843438195942,-0.0147062075006915,-0.2512594876476648,-0.275954385859248,-0.3479161156427779,-0.4343962034759799,-0.4579132013316324,-12.596268654077612,15.228657387890488,37.18530369479301,-0.1152268707346028,3.058813486492289,1.1550399889093148,7907.22021484375,11.791444444444444,7.472222222222222,179.74848253386074,-3.812124848859016,50.43297543087286,1661.0,1435.0,1350.0,1528.0,1583.0,1021.7000000000002,185.0,294.15,1637170997.7029552,1637170998.7509472,4174ab39-b6a9-41ce-bc56-d248b26ddcee
0.4025320416909508,0.8772410220317548,-0.0048720782133844,-0.2536837788181164,-0.2679692911356275,-0.3488200886948537,-0.4230280573633682,-0.4502157336847533,-12.368116009614129,15.123918190783767,37.60878188979057,-0.1118119156626752,3.07558152131272,1.116036203110343,7914.5205078125,11.790111111111113,7.430000000000001,179.61570669203527,-3.825111647224018,49.19593103171535,1661.0,1435.0,1350.0,1528.0,1583.0,1021.7000000000002,185.0,294.15,1637170998.862003,1637170999.8483398,4174ab39-b6a9-41ce-bc56-d248b26ddcee
0.626525540595343,1.273126332255312,0.0191105962308361,-0.4551601912732175,-0.3475326120365538,-0.5446672245883757,-0.4942364821711618,-0.5271219294790601,-12.014492411496798,15.285504254438218,38.35008053255683,-0.0948636324363489,4.57764833167559,1.340461036929235,7921.83544921875,11.774444444444445,7.507777777777779,179.21683730488488,-3.814762487675372,46.56654611951653,1729.0,1435.0,1350.0,1528.0,1636.0,1021.7000000000002,185.0,294.15,1637171001.6896105,1637171002.8225772,f72bec08-1eda-447f-8e11-132827637352
0.6313056390833117,1.2850560348196307,0.0300267535418674,-0.4567215991645861,-0.3408212971244495,-0.5604730577145642,-0.4880456360802419,-0.5233005880136347,-11.87263774744484,15.356449780398128,37.62513829842705,-0.1258895919853448,4.628698573867198,1.30810303622028,7921.83544921875,11.773333333333332,7.493333333333333,179.11059598907505,-3.8256297929635545,45.839885708813455,1729.0,1435.0,1350.0,1528.0,1636.0,1021.7000000000002,185.0,294.15,1637171002.9308093,1637171003.9496405,f72bec08-1eda-447f-8e11-132827637352
0.6203346967127521,1.2701130893487556,0.0251370820825241,-0.4500513736750437,-0.3442454373489516,-0.5490775177175478,-0.4903329619446261,-0.5274095565289797,-11.802948588190157,15.57920118100229,38.00595158525547,-0.1139997300034327,4.567657612919582,1.3214334688717595,7914.5205078125,11.779111111111112,7.442222222222223,179.00678166715034,-3.844318660920656,45.10304755733716,1729.0,1435.0,1350.0,1528.0,1636.0,1021.7000000000002,185.0,294.15,1637171004.088458,1637171005.1766975,f72bec08-1eda-447f-8e11-132827637352
0.805224523387027,1.5982963504131131,0.0669115858795603,-0.6288189071678519,-0.3932654294950922,-0.7088890182033477,-0.5283683152358621,-0.5523509974638515,-11.487947417984795,16.017170051075343,37.60627511838484,-0.0647834599335164,5.8245230154144165,1.42303104894387,7921.83544921875,11.747,7.569999999999999,178.66559095081095,-3.846476526379687,43.82549216784744,1796.0,1435.0,1350.0,1528.0,1690.0,1021.7000000000002,185.0,294.15,1637171007.0927818,1637171008.0365524,3f09f6bf-096f-478a-8873-e3dd8f764159
0.8211947092655967,1.605993817376835,0.0681305795532756,-0.6349001813793794,-0.3964567283684495,-0.7111489511550525,-0.5300392958945993,-0.547324358510286,-11.413369516470093,16.216296906350347,37.5566147635539,-0.0547336081293485,5.854134880746223,1.428873671562841,7921.83544921875,11.75088888888889,7.57888888888889,178.6199531445967,-3.849524735456151,43.36370042187821,1796.0,1435.0,1350.0,1528.0,1690.0,1021.7000000000002,185.0,294.15,1637171008.145039,1637171009.3797996,3f09f6bf-096f-478a-8873-e3dd8f764159
0.8067996275266046,1.5993098958570882,0.0617205901510449,-0.6271479263400747,-0.4007300555106772,-0.7135869395232403,-0.5361753559367465,-0.5652120699135282,-11.368713350918952,16.21383920753931,37.245514573033006,-0.0780618610265105,5.8301464496815285,1.4510207365624854,7921.83544921875,11.753,7.549999999999999,178.52965652594935,-3.839661705135307,43.01177075088881,1796.0,1435.0,1350.0,1528.0,1690.0,1021.7000000000002,185.0,294.15,1637171009.4883654,1637171010.6094823,3f09f6bf-096f-478a-8873-e3dd8f764159
-0.2554387251093662,-0.323411777268239,-0.0746870126236129,0.3242901588243515,-0.0536633898428754,0.2773121568613748,-0.2283695579377269,-0.2404606440960943,-13.909420897961896,17.80207337773236,35.49704044282121,0.004588262986106,-1.4735126160451812,0.4967901876559932,7936.505859375,11.803222222222225,7.422222222222222,178.96142921106144,-3.817299808088293,42.13621676973891,1457.0,1435.0,1350.0,1528.0,1421.0,1021.7000000000002,185.0,294.15,1637171012.6357968,1637171013.6807196,2b824e22-5cd6-468d-85fd-b89939288ca7
-0.2591695251453437,-0.3248998668986906,-0.0760607656132434,0.3208194748684932,-0.0546546872680861,0.2794799765369745,-0.2265476057516471,-0.2494920836503444,-13.747141214783108,17.647652506919663,35.14653711402646,0.0162223927960128,-1.4767983224644083,0.4968908943779203,7942.226779513889,11.804666666666668,7.406666666666666,178.87147561969235,-3.765331270287128,41.91773799093789,1457.0,1435.0,1350.0,1528.0,1421.0,1021.7000000000002,185.0,294.15,1637171013.7889144,1637171014.9434536,2b824e22-5cd6-468d-85fd-b89939288ca7
-0.2607785970623876,-0.3226459608962871,-0.0738890391654334,0.3254204225615753,-0.0537140075520277,0.2770852704134783,-0.2303585366593575,-0.2443290288644231,-14.061041832973956,17.985880155717606,35.713295711945044,0.0027451820812946,-1.471569323480397,0.498829400276281,7943.861328125,11.803555555555556,7.423333333333334,178.8575177486685,-3.748472608436375,41.76022661903327,1457.0,1435.0,1350.0,1528.0,1421.0,1021.7000000000002,185.0,294.15,1637171015.0524652,1637171016.1392634,2b824e22-5cd6-468d-85fd-b89939288ca7
-0.4220829947730652,-0.6386393427927824,-0.0885854472512865,0.4804380604005793,0.0019488080575628,0.4292677219392171,-0.1793114576887737,-0.2011300786543792,-14.143549254675747,19.00633056969489,33.75437507826735,0.0007167696294833,-2.658791153503346,0.3302518726680778,7943.861328125,11.783666666666669,7.433333333333334,178.93580234129556,-3.706340965996104,41.40435630834773,1389.0,1435.0,1350.0,1528.0,1367.0,1021.7000000000002,185.0,294.15,1637171018.27829,1637171019.4171798,6374fbbb-ebdf-437f-9a85-b95d4817b2b9
-0.4479831928359021,-0.6540890663501888,-0.0972005830473401,0.4873685184126805,-0.0012014004739535,0.4405673817985411,-0.1866939033999891,-0.2042528943225076,-14.557483156400208,19.09054221061896,34.05537259152586,0.0104440886421146,-2.7178730343803896,0.3550888219437396,7941.409505208333,11.782000000000002,7.470000000000001,178.95797313534138,-3.720631571582671,41.28906726861735,1389.0,1435.0,1350.0,1528.0,1367.0,1021.7000000000002,185.0,294.15,1637171019.5248692,1637171020.7360642,6374fbbb-ebdf-437f-9a85-b95d4817b2b9
-0.446175246690413,-0.6505416563831267,-0.0982552181077759,0.4819720748263214,-0.0020094974274286,0.4429231897004143,-0.1844613641384178,-0.2095534624121433,-14.420562158159242,18.83796082180264,34.18473339446934,0.026273595219846,-2.706090429039104,0.355212191363826,7938.957682291667,11.781666666666668,7.506666666666667,178.96728495990988,-3.740652563587272,41.23671386862922,1389.0,1435.0,1350.0,1528.0,1367.0,1021.7000000000002,185.0,294.15,1637171020.844021,1637171021.8958497,6374fbbb-ebdf-437f-9a85-b95d4817b2b9
-0.6883030828912071,-1.1089246277324367,-0.1233199218522242,0.7051848689372978,0.0765265699105406,0.6842154397680854,-0.1154854898527196,-0.1483709300613958,-15.166739007782756,20.5367483225016,34.01051950772547,0.0745861584748485,-4.447522387352724,0.1292302477930877,7943.861328125,11.763333333333334,7.569999999999999,179.0598613439202,-3.665983085737792,41.11249777165364,1321.0,1435.0,1350.0,1528.0,1314.0,1021.7000000000002,185.0,294.15,1637171022.7837803,1637171023.808713,30c36767-fe45-426c-a1b7-02a501ec50da
-0.692535320889343,-1.1005697209459715,-0.1264427374076688,0.7028153645305334,0.0716232019962276,0.6809008729112952,-0.1207175755328972,-0.1500966962960368,-15.167368108526356,20.540256906713164,34.3604854281535,0.072406138970156,-4.419189867307176,0.1490968133866909,7937.323133680556,11.768555555555556,7.48888888888889,179.04491233655676,-3.676248243446021,40.984547837931785,1321.0,1435.0,1350.0,1528.0,1314.0,1021.7000000000002,185.0,294.15,1637171023.9172735,1637171025.0413773,30c36767-fe45-426c-a1b7-02a501ec50da
-0.6955759581337277,-1.0941186371138336,-0.1273056206420978,0.6911458977426644,0.0690071593161602,0.6836675774757746,-0.122717273216766,-0.1423307471941339,-15.364744283165928,20.55601873815512,34.11476788401442,0.104869749904973,-4.390037286024215,0.156870507392798,7943.861328125,11.764666666666669,7.573333333333333,179.10002740969932,-3.6426641084333298,40.964759641541406,1321.0,1435.0,1350.0,1528.0,1314.0,1021.7000000000002,185.0,294.15,1637171025.1492913,1637171026.2686346,30c36767-fe45-426c-a1b7-02a501ec50da
-0.8163385677112149,-1.3444371516907057,-0.1247032743773219,0.7995815417559887,0.1226565785901632,0.796047829963773,-0.0738479495195776,-0.1060622577207948,-15.704885942385422,21.77625944566437,29.606420730385167,0.1201277637842481,-5.299684181315462,-0.0257638268381926,7938.957682291667,11.714333333333334,7.733333333333334,179.17771398131904,-3.6409739212049663,40.95798181715502,1254.0,1435.0,1350.0,1528.0,1260.0,1021.7000000000002,185.0,294.15,1637171027.2892716,1637171028.4223528,d2d1083b-9b4a-4d24-ae74-51fb2c430854
-0.807079689471753,-1.3253578274444726,-0.1247580606167467,0.7898843792071609,0.1193694045995952,0.7892132478787564,-0.0781212760149762,-0.1014739104258984,-15.861583626659872,21.69784059665025,30.00785879557769,0.1261065060750185,-5.229384857835642,-0.0124152212895473,7943.044053819444,11.716666666666669,7.716666666666667,179.16047761949358,-3.636911950787317,40.90931216585924,1254.0,1435.0,1350.0,1528.0,1260.0,1021.7000000000002,185.0,294.15,1637171028.5310545,1637171029.656474,d2d1083b-9b4a-4d24-ae74-51fb2c430854
-0.8081206284865526,-1.3306720971243822,-0.1318665750116802,0.8006224801196268,0.1150823818425681,0.7882270957428726,-0.0849695556479713,-0.1086098180177225,-15.852509813614262,21.663064695373407,30.479464051645163,0.0991632196650868,-5.255333969632577,0.0130009386381309,7936.505859375,11.717333333333332,7.656666666666666,179.1607842190963,-3.6275127567157335,40.8724906160437,1254.0,1435.0,1350.0,1528.0,1260.0,1021.7000000000002,185.0,294.15,1637171029.76585,1637171030.7724907,d2d1083b-9b4a-4d24-ae74-51fb2c430854
-0.031224257748955,0.0933870334301036,-0.0638631578598518,0.1220402334650886,-0.1353591976886094,0.0679525242979638,-0.3075112613525653,-0.3412458913005659,-13.889963890910115,16.520111751575154,37.06666587165293,-0.0173438267073904,0.1012528013481881,0.7574025672678065,7938.140407986111,11.811777777777776,7.426666666666667,178.87170632830433,-3.637303738027208,40.93836968786324,1525.0,1435.0,1350.0,1528.0,1475.0,1021.7000000000002,185.0,294.15,1637171032.6141832,1637171033.7528486,a8a47412-8381-4790-8ec2-8b11eb3610e7
-0.0365385225778981,0.0935239990041437,-0.0615484393610624,0.1245330069705321,-0.133277320638424,0.0668567995868521,-0.3061553018253888,-0.3313569746212513,-13.903088305267197,16.580642056069873,37.2696454850061,-0.0248868828745733,0.099901247302159,0.7497718554932926,7943.861328125,11.809111111111111,7.4144444444444435,178.78024857749804,-3.6291971572560495,41.086008021322606,1525.0,1435.0,1350.0,1528.0,1475.0,1021.7000000000002,185.0,294.15,1637171033.8615005,1637171034.9810998,a8a47412-8381-4790-8ec2-8b11eb3610e7
-0.0277042421118441,0.1018925961550468,-0.0546316770003957,0.1268340287940104,-0.1295381598895024,0.059981127171829,-0.3003753532384766,-0.3306584502300083,-13.589307794088134,16.591201904940835,37.80584817968245,-0.0448701442969162,0.1244707223080442,0.7290254032838256,7949.592881944444,11.812555555555557,7.443333333333334,178.78747036418045,-3.629633530453024,41.21259001993568,1525.0,1435.0,1350.0,1528.0,1475.0,1021.7000000000002,185.0,294.15,1637171035.0897229,1637171036.2107022,a8a47412-8381-4790-8ec2-8b11eb3610e7
-0.014222445123212,0.08941557933379,-0.0970066397654848,-0.3857388953984097,-0.2197365804167111,0.5660031933368328,-0.1998557496005259,-0.2199864063109301,-13.677421241241165,15.43552899591035,41.14095149121383,2.2391841345537657,0.1091417839975705,0.7656347053089629,7944.680121527777,11.808333333333334,7.378888888888889,178.85867736300756,-3.493026521685659,41.40934272589679,1525.0,1535.0,1350.0,1528.0,1475.0,1021.7000000000002,185.0,294.15,1637171037.104092,1637171038.060859,b3fc471a-3cfd-4de5-9350-d4a441bc2562
-0.0067074172146691,0.0913873358661093,-0.09500913356562,-0.3833354227723977,-0.2185247087829464,0.5638090048565935,-0.1978976893887587,-0.2124845262293886,-13.537510231086548,15.429640032501956,41.43267930725286,2.229009209238518,0.1127918502473987,0.7592447840244088,7951.23046875,11.80788888888889,7.397777777777778,178.90733714847454,-3.486703711220866,41.48684032894949,1525.0,1535.0,1350.0,1528.0,1475.0,1021.7000000000002,185.0,294.15,1637171038.1688738,1637171039.110999,b3fc471a-3cfd-4de5-9350-d4a441bc2562
-0.0053925475729607,0.0948936548251694,-0.0892702752066113,-0.3817603181366135,-0.2132241400208816,0.5566594019558231,-0.1940763491833168,-0.2218392768894085,-13.555059856633584,15.41540232753781,41.148135041415536,2.2095272280642937,0.1287584412145359,0.7387920694275857,7954.51171875,11.804,7.44888888888889,178.9142659959326,-3.521815792753198,41.53610724234269,1525.0,1535.0,1350.0,1528.0,1475.0,1021.7000000000002,185.0,294.15,1637171039.2185318,1637171040.3074772,b3fc471a-3cfd-4de5-9350-d4a441bc2562
0.0274791934946068,0.0930309228942064,-0.1159648693905558,-0.9601388134135116,-0.3052924184926231,1.1158076637257273,-0.0700266094727606,-0.0903796968351553,-13.433677240709292,14.938138390539166,45.04109198145383,4.766876820661963,0.1559201518315458,0.7244344345514472,7951.23046875,11.789,7.52,178.94986342406688,-3.3433003322062564,41.68017414577604,1525.0,1636.0,1350.0,1528.0,1475.0,1021.7000000000002,185.0,294.15,1637171041.1039257,1637171042.15351,019f208b-4c95-4f9b-947e-870a6c15c000
0.0136867588656081,0.0899765903802717,-0.1179919601966779,-0.9571666582955846,-0.3061689983885556,1.115629608467165,-0.0726015626212359,-0.087681474819698,-13.522275703174657,14.972034579741504,44.96180607346693,4.759838782460839,0.1453004672233178,0.731526489735678,7951.23046875,11.79277777777778,7.464444444444445,178.956898518912,-3.3029604997741875,41.72503217206,1525.0,1636.0,1350.0,1528.0,1475.0,1021.7000000000002,185.0,294.15,1637171042.2655056,1637171043.3778985,019f208b-4c95-4f9b-947e-870a6c15c000
