raw_voltage_G-,raw_voltage_G0,raw_voltage_G1,raw_voltage_G2,raw_voltage_G3,raw_voltage_G4,raw_voltage_G5,raw_voltage_G6,load_x,load_y,load_z,load_l,load_m,load_n,rpm,voltage,current,roll,pitch,yaw,aileron1_pwm,elevator_pwm,throttle_pwm,rudder_pwm,aileron2_pwm,pbaro,pdiff,Tt,sample_start_time,sample_end_time,uid
-0.0686295605345287,0.0378200953907146,-0.0006398415324224,0.2300375941537183,-0.1105547284453376,-0.2053623145913842,-0.3690909989844966,-0.3960458323034612,-15.166959031270045,23.6392276867427,4.557334193486317,-0.8306177530612288,0.1808426134230237,0.6696709983101609,5822.97998046875,12.041,0.27,179.41620749111792,3.288871361052201,83.06129680675207,1525.0,1435.0,1200.0,1528.0,1475.0,1021.7000000000002,185.0,294.15,1637170124.0925682,1637170125.251475,df94187c-e494-4143-a27b-71b72dfbdb69
-0.0738616461519288,0.0501880878537897,0.015261863207216,0.2244904881921103,-0.0976662660913229,-0.2118544840445768,-0.354435678714075,-0.3895399658396722,-15.082670168603933,23.54339647408152,4.749250955147134,-0.8324640691169817,0.2266220010964756,0.6113914678997682,5819.465657552083,12.041777777777778,0.27,179.39794508309714,3.3262159658057424,82.25975361708356,1525.0,1435.0,1200.0,1528.0,1475.0,1021.7000000000002,185.0,294.15,1637170125.3647463,1637170126.5718186,df94187c-e494-4143-a27b-71b72dfbdb69
-0.07201261062897,0.0525028062638523,0.0221512322676361,0.2269147789002069,-0.0992824600773775,-0.216346955772258,-0.3464094939496768,-0.366968033424065,-14.077474365017224,23.867721538876,4.798504697165732,-0.8450209828961494,0.2278963065344983,0.5937148914073083,5821.662109375,12.041,0.27,179.4182049419952,3.338056169879763,81.6380705577389,1525.0,1435.0,1200.0,1528.0,1475.0,1021.7000000000002,185.0,294.15,1637170126.6849136,1637170127.7951412,df94187c-e494-4143-a27b-71b72dfbdb69
0.1171642586964653,0.3855072207697847,0.0317936095981689,0.0623506318229848,-0.1665736570865401,-0.385554265505071,-0.4108107245513296,-0.4412855756698313,-13.993781679867938,23.08907382108509,5.3840279126198425,-0.8585821626591792,1.4919429309635923,0.8039725262440637,5819.0263671875,12.029,0.31,179.33611669291037,3.3594721568745345,80.8515803460912,1593.0,1435.0,1200.0,1528.0,1529.0,1021.7000000000002,185.0,294.15,1637170128.6115634,1637170129.7519462,1b18f9e1-69bf-47a4-b7c7-2613ef7edfdf
0.1250808692799837,0.3844251927168248,0.0332591413561816,0.0621588799254475,-0.1625057788983824,-0.3841024300544517,-0.4100163240440966,-0.434560563141886,-14.34075727442484,23.01857146879939,5.425977959999181,-0.8554495157590191,1.4900839936351429,0.7950160380664006,5822.97998046875,12.029555555555554,0.31,179.32022208380184,3.3873832743150336,80.40241344589282,1593.0,1435.0,1200.0,1528.0,1529.0,1021.7000000000002,185.0,294.15,1637170129.882753,1637170130.8653471,1b18f9e1-69bf-47a4-b7c7-2613ef7edfdf
0.1201046358021947,0.3938473285851394,0.0380304745541893,0.0503245055833363,-0.1567806168626689,-0.3848316349094851,-0.4147975196604507,-0.4420284758233236,-15.541400973112056,23.238897440409048,5.089473267403208,-0.8293525535833556,1.538666303748464,0.7871533512968899,5819.0263671875,12.028111111111112,0.3088888888888889,179.321175274646,3.4071090740814416,80.0198037035166,1593.0,1435.0,1200.0,1528.0,1529.0,1021.7000000000002,185.0,294.15,1637170130.9730358,1637170132.0912597,1b18f9e1-69bf-47a4-b7c7-2613ef7edfdf
0.3565116083812695,0.806292854847506,0.0505441983699494,-0.1413308977925355,-0.2552862762711612,-0.6067674403399782,-0.4868540352161283,-0.5117543870066822,-12.841465637298404,22.66938957784576,5.663298591098624,-0.8974459943298547,3.085773041285458,1.058013857386049,5815.07861328125,12.019666666666666,0.3400000000000001,179.21176930452071,3.4782897007892526,79.3699127218097,1661.0,1435.0,1200.0,1528.0,1583.0,1021.7000000000002,185.0,294.15,1637170133.3219717,1637170134.4591396,13c99b53-4384-499b-a392-8c73ef515542
0.3339396814240298,0.7980886170053291,0.0364641361157835,-0.1403036556893757,-0.2568887738103363,-0.60115184936148,-0.4974825673806045,-0.5230403530750859,-13.723695243289765,22.018511804541067,5.370892207024387,-0.8926507617828232,3.0628078411024062,1.0927760047039066,5819.0263671875,12.016222222222222,0.3400000000000001,179.22334723407383,3.5125113201244784,79.06925841928444,1661.0,1435.0,1200.0,1528.0,1583.0,1021.7000000000002,185.0,294.15,1637170134.567731,1637170135.6878998,13c99b53-4384-499b-a392-8c73ef515542
0.3673318888645656,0.8297550575711625,0.0677744690629024,-0.1530551528403278,-0.233070455580794,-0.6212994939162745,-0.4782936840401455,-0.5068099266129442,-14.202383116781157,22.199993062202395,5.443086683912111,-0.9066283001545652,3.1878823917108328,0.9937467016138618,5824.739312065973,12.017777777777775,0.3444444444444444,179.21053987047011,3.5197475735270225,78.79009948098712,1661.0,1435.0,1200.0,1528.0,1583.0,1021.7000000000002,185.0,294.15,1637170135.796296,1637170136.9172122,13c99b53-4384-499b-a392-8c73ef515542
0.5536324627525618,1.2035478152971513,0.0695824147765859,-0.3336716925490868,-0.3334662439824214,-0.815571559710639,-0.5596375674541735,-0.5790866869377785,-12.383022749956334,22.165040924018545,5.931973026209252,-0.9349048366816496,4.594974307835604,1.289462821702681,5821.662109375,12.006333333333336,0.3866666666666666,179.10847407697293,3.5570900201305133,78.42034339571894,1729.0,1435.0,1200.0,1528.0,1636.0,1021.7000000000002,185.0,294.15,1637170137.6233246,1637170138.7603862,f9006329-4445-4f83-967d-56c66f127693
0.5769692049559134,1.208435295155134,0.0774502658262803,-0.3325655581611323,-0.3291205991963377,-0.8190806197573831,-0.5528851620315094,-0.5744753288436882,-12.113256198857997,22.293028852650963,6.311787140197032,-0.9438487792448036,4.608394466199249,1.264478066979717,5819.0263671875,12.006,0.3866666666666667,179.11250844204267,3.5684393043579394,78.19420038575927,1729.0,1435.0,1200.0,1528.0,1636.0,1021.7000000000002,185.0,294.15,1637170138.8690624,1637170139.9898655,f9006329-4445-4f83-967d-56c66f127693
0.5590562994713221,1.2018631385999663,0.0719519193974472,-0.3359727147156537,-0.3229609818442067,-0.809079387863464,-0.5581583386995332,-0.5862636863632925,-13.412637407409107,21.862886212422364,6.342718113674498,-0.9174633586693824,4.592731076726364,1.2695775464213053,5815.07861328125,12.006,0.38,179.12167000244938,3.571203467685484,77.98942903771257,1729.0,1435.0,1200.0,1528.0,1636.0,1021.7000000000002,185.0,294.15,1637170140.0992172,1637170141.1060886,f9006329-4445-4f83-967d-56c66f127693
0.7548074959695001,1.5596309606908731,0.087894713475328,-0.5138773523331658,-0.3984564262155255,-0.992668159695241,-0.6358315473472341,-0.6530207351564438,-13.76933043005277,22.236197013419467,6.548638093067081,-0.92558072480101,5.958198340521243,1.5028812198840906,5822.97998046875,11.985666666666669,0.44,179.00776825003044,3.597058840481416,77.50824828196443,1796.0,1435.0,1200.0,1528.0,1690.0,1021.7000000000002,185.0,294.15,1637170143.1112585,1637170144.086326,9bcfd6e5-5a17-402b-bc86-987b3ea503ab
0.7737909243677624,1.5659724680439784,0.0887302035547504,-0.5144800013145364,-0.4039076576174206,-0.997160634127406,-0.6351467191629602,-0.6632931583588283,-13.123268839156914,22.416204221959447,6.714552911899578,-0.9327299361494866,5.9760699021359445,1.5095660550481724,5820.783528645833,11.985555555555557,0.44,178.98047784974668,3.5991577955588565,77.26273257878887,1796.0,1435.0,1200.0,1528.0,1690.0,1021.7000000000002,185.0,294.15,1637170144.194484,1637170145.406109,9bcfd6e5-5a17-402b-bc86-987b3ea503ab
0.7764206633705925,1.574998501233664,0.0961811313124692,-0.5217117860370553,-0.3980181362493391,-0.9982563591440786,-0.6303666186441552,-0.6530344328336133,-13.380393426851796,22.43229048181297,6.917495410810164,-0.9184984775713636,6.011307214144167,1.4857105936751822,5815.07861328125,11.988111111111111,0.4388888888888889,179.0096002585478,3.60534025512258,77.04398742261021,1796.0,1435.0,1200.0,1528.0,1690.0,1021.7000000000002,185.0,294.15,1637170145.5147407,1637170146.6385963,9bcfd6e5-5a17-402b-bc86-987b3ea503ab
-0.3187972275669566,-0.4056608174830199,0.0092353773536511,0.4505384755811751,-0.0091864942774266,0.0159466910823128,-0.2596143892827621,-0.2804057686111931,-14.158653561147949,25.19207052910673,3.5463964662884657,-0.8195707243728481,-1.5071530733453642,0.309185537040041,5846.833658854167,12.036333333333332,0.27,179.58989768389154,3.605687883292212,76.71295319756668,1457.0,1435.0,1200.0,1528.0,1421.0,1021.7000000000002,185.0,294.15,1637170148.6829023,1637170149.819026,8bcf6cb7-45c9-4ed1-8e52-affb071fc67b
-0.3070044887596933,-0.4077974810463238,0.0109748403329052,0.4528121041503317,-0.0058993201459648,0.0127006067305196,-0.2582173401401597,-0.2931161768083809,-14.249442747870113,25.137938657577,3.0984354561796352,-0.8323831999584325,-1.510724587817897,0.2994364222486868,5897.773003472223,12.03611111111111,0.27,179.6174324531656,3.613146639593343,76.7698600570015,1457.0,1435.0,1200.0,1528.0,1421.0,1021.7000000000002,185.0,294.15,1637170149.9277532,1637170150.9807942,8bcf6cb7-45c9-4ed1-8e52-affb071fc67b
-0.3128666167011739,-0.4058662658878477,0.0003737037905187,0.449045550837911,-0.0134598206604803,0.0154947046111257,-0.2698320233337748,-0.2917054313573236,-14.696547313035405,25.00110778833195,3.190023206916268,-0.8192534631061058,-1.5013392332857862,0.3407947625537699,5930.417317708333,12.037333333333336,0.27,179.6359786934919,3.640296167225452,76.87775427859046,1457.0,1435.0,1200.0,1528.0,1421.0,1021.7000000000002,185.0,294.15,1637170151.0890143,1637170152.2308788,8bcf6cb7-45c9-4ed1-8e52-affb071fc67b
-0.4706914967854578,-0.7009366738705818,0.0080068555822165,0.5807040060155696,0.0525123343083306,0.1757527752366732,-0.1949404234835811,-0.2176505132580575,-14.191464506465117,26.20599260152701,2.4073557431614323,-0.7476245076821791,-2.62037639314918,0.0981094654231689,5914.04833984375,12.013666666666666,0.3400000000000001,179.70763648480423,3.650500896732273,76.96442937915793,1389.0,1435.0,1200.0,1528.0,1367.0,1021.7000000000002,185.0,294.15,1637170153.1880407,1637170154.3258278,e8e86af8-71b8-4eb7-aec4-91b9953d00f3
-0.4748969367749973,-0.7004930243298251,0.0012365870139417,0.5771631482108902,0.047736403892903,0.1817709237793494,-0.2015135812227118,-0.2191958415625771,-14.49680134905906,26.129966529710146,2.812091447930064,-0.727043898426356,-2.6201330337576376,0.1236130048801833,5906.802354600694,12.012999999999998,0.3411111111111111,179.6875299257075,3.643446307388904,76.87784003541005,1389.0,1435.0,1200.0,1528.0,1367.0,1021.7000000000002,185.0,294.15,1637170154.4354198,1637170155.646819,e8e86af8-71b8-4eb7-aec4-91b9953d00f3
-0.4699387814499303,-0.6853172315528067,0.0040169884363782,0.5695752554591931,0.0469830931465749,0.1741967270829344,-0.1997467250231525,-0.2307146478150604,-14.292786574976304,25.971887477865803,2.874186675686289,-0.7277445882488861,-2.564101085178508,0.1203982933903987,5890.126139322917,12.017,0.3400000000000001,179.68397367387965,3.6575337148476623,76.79031343792605,1389.0,1435.0,1200.0,1528.0,1367.0,1021.7000000000002,185.0,294.15,1637170155.7549736,1637170156.98851,e8e86af8-71b8-4eb7-aec4-91b9953d00f3
-0.7060818181923898,-1.126826042980117,-0.0003397082737206,0.7840657243363206,0.1350632783845942,0.4130295598035676,-0.1069441962976082,-0.1390012926813043,-13.929118166003231,27.74030953164111,3.7230358955676137,-0.6630687490384796,-4.256779415682559,-0.1765786565571181,5775.029296875,12.009666666666668,0.37,179.7816013622362,3.639786037471816,76.73767013435314,1321.0,1435.0,1200.0,1528.0,1314.0,1021.7000000000002,185.0,294.15,1637170158.591509,1637170159.6563523,e7bdb9e7-4759-4272-8e61-e94441762ff2
-0.7007395627504817,-1.1285792038716245,-0.0075155140922417,0.784624901174389,0.1313128034502513,0.417283234137321,-0.1141158339056429,-0.1391668421327736,-14.280466783930857,27.63470380539109,4.104408331022966,-0.6559449881131109,-4.264773715532592,-0.1513497785462026,5774.1650390625,12.009555555555556,0.3744444444444444,179.7830296306826,3.640787845981954,76.68963569065015,1321.0,1435.0,1200.0,1528.0,1314.0,1021.7000000000002,185.0,294.15,1637170159.7648964,1637170160.8797455,e7bdb9e7-4759-4272-8e61-e94441762ff2
-0.7005341140294662,-1.1324416362357033,-0.0016807800472277,0.7840633423356437,0.1329289973054627,0.416023150847004,-0.1039392902953802,-0.1300038439579413,-13.494199725832075,27.69188373725841,3.3709697169950648,-0.6565613684250368,-4.277884741582549,-0.1769740487917466,5770.279134114583,12.010555555555555,0.37,179.79233993743122,3.635184482109734,76.63253834482846,1321.0,1435.0,1200.0,1528.0,1314.0,1021.7000000000002,185.0,294.15,1637170160.9880717,1637170162.2003148,e7bdb9e7-4759-4272-8e61-e94441762ff2
-0.8682396179840077,-1.4435669888825335,0.0014182152853501,0.9481957404037454,0.2070666799581015,0.5716714242427052,-0.0395142488236906,-0.0574222033016013,-14.038164766535797,28.906690861147545,3.894624616842104,-0.6690243250395951,-5.465576215141914,-0.4102515460323648,5764.24072265625,11.985111111111111,0.44,179.8414064986088,3.642056269029068,76.49808303537715,1254.0,1435.0,1200.0,1528.0,1260.0,1021.7000000000002,185.0,294.15,1637170164.1360877,1637170165.2681816,f7fe4581-4e13-442e-83bc-25687ba1728a
-0.8763569173706754,-1.4453534984449776,-0.0014479385396619,0.9482576726109996,0.2064247282296742,0.5763413547764431,-0.0438661816000289,-0.0767242275846267,-14.447930412433456,28.951275372226053,4.291378276207365,-0.6586602514537716,-5.473081477278975,-0.3992349724538338,5767.257649739583,11.987333333333332,0.4377777777777778,179.85028878016948,3.632282031167433,76.36115671526608,1254.0,1435.0,1200.0,1528.0,1260.0,1021.7000000000002,185.0,294.15,1637170165.377095,1637170166.5013683,f7fe4581-4e13-442e-83bc-25687ba1728a
-0.8738093567331093,-1.4501062093424488,-0.00137945579119,0.94125873173979,0.204233278912511,0.5838059784936105,-0.0448112442303017,-0.0694102650941564,-14.56945199267168,29.274762632657097,3.768030409047752,-0.6240950988412384,-5.484536966955109,-0.3965902510037251,5793.245930989583,11.986555555555556,0.4322222222222222,179.84449222629382,3.627729425494404,76.23814349049434,1254.0,1435.0,1200.0,1528.0,1260.0,1021.7000000000002,185.0,294.15,1637170166.6097925,1637170167.7261877,f7fe4581-4e13-442e-83bc-25687ba1728a
-0.0504131368381639,0.0707740153883784,0.0201789278238867,0.2082189773200719,-0.1025285446640077,-0.2118133943186975,-0.3482722262144477,-0.366461259959117,-14.376091816860082,23.55772538916092,5.530730894501816,-0.7948471219647854,0.2942198505779414,0.6064748078273806,5801.958821614583,12.038666666666666,0.2666666666666667,179.38027462480443,3.6183554651772543,76.10557407216385,1525.0,1435.0,1200.0,1528.0,1475.0,1021.7000000000002,185.0,294.15,1637170169.7771509,1637170170.7972004,c1efaed3-8315-49e6-b34f-6e1a48d19e37
-0.0548782152265689,0.0695961113545934,0.0245892197271617,0.2115609374598494,-0.1039392902408977,-0.215114265302249,-0.3441769545417967,-0.3776787434483078,-13.747406755965349,23.89464931392608,5.360332430078174,-0.8070608490511062,0.286736389445225,0.5965016055440676,5810.261827256944,12.03622222222222,0.26,179.39668832828986,3.624792444151298,76.38738388276903,1525.0,1435.0,1200.0,1528.0,1475.0,1021.7000000000002,185.0,294.15,1637170170.9047434,1637170172.0309982,c1efaed3-8315-49e6-b34f-6e1a48d19e37
-0.0696431059065762,0.0642955431807039,0.0135224002247668,0.2125196965111285,-0.1018026270383883,-0.2093206204515671,-0.3581474467226423,-0.3815137812009919,-15.300667458294932,23.49135684491277,5.487809694000895,-0.8001905605068135,0.2758933450334609,0.6271938091267887,5811.13671875,12.039111111111112,0.26,179.3912272125935,3.626111903889712,76.63239870540545,1525.0,1435.0,1200.0,1528.0,1475.0,1021.7000000000002,185.0,294.15,1637170172.1388218,1637170173.2599056,c1efaed3-8315-49e6-b34f-6e1a48d19e37
-0.0340457487755962,0.0632135150569175,0.0023049186206442,-0.2465067813416094,-0.1671215194572338,0.2350779274277102,-0.2399324322031105,-0.2673118571887435,-14.166711250551115,22.71473627924976,8.836328874854345,1.229281296294182,0.2899230623180734,0.564816992755469,5812.452311197917,12.035999999999998,0.27,179.3624797052868,3.772970742010049,77.03026557256766,1525.0,1535.0,1200.0,1528.0,1475.0,1021.7000000000002,185.0,294.15,1637170175.2706065,1637170176.2281969,3c8c59fa-6a73-4c2b-b9a2-d200e48efe36
-0.0403324694491117,0.0562693598724847,-0.0062143409720079,-0.2440277037847598,-0.1789142574275962,0.2365982454093082,-0.2471231263116872,-0.2746943041160394,-13.654884220049905,22.98054884016207,8.343606018660038,1.2286224613535903,0.2637818675761072,0.6014652227409419,5806.762803819444,12.035111111111112,0.27,179.37695667068758,3.787029168596704,77.12316752892846,1525.0,1535.0,1200.0,1528.0,1475.0,1021.7000000000002,185.0,294.15,1637170176.3366082,1637170177.5600595,3c8c59fa-6a73-4c2b-b9a2-d200e48efe36
-0.0386996014812777,0.0568428287949207,-0.0070998533191688,-0.2398746684707109,-0.1759748566023595,0.2323064587515391,-0.2530948266507595,-0.2776914699988517,-14.33348858942414,22.998992174880183,8.334031678375842,1.20934506564595,0.2702534252305593,0.606781298633139,5817.271809895833,12.035,0.27,179.35183523492026,3.788416171316909,77.1979960458355,1525.0,1535.0,1200.0,1528.0,1475.0,1021.7000000000002,185.0,294.15,1637170177.669124,1637170178.904889,3c8c59fa-6a73-4c2b-b9a2-d200e48efe36
-0.0189795340202491,0.0556804078461566,-0.0382095026769507,-0.7507320221310145,-0.2605320588295488,0.7293866856214576,-0.1466177696635927,-0.1829821371634863,-14.25282469183392,22.13039656831189,12.26016451447103,3.472079110124288,0.2914360623282984,0.6140869637642951,5830.90234375,12.029,0.2899999999999999,179.3597203088621,3.935543426385253,77.27887003906788,1525.0,1636.0,1200.0,1528.0,1475.0,1021.7000000000002,185.0,294.15,1637170179.7026055,1637170180.644224,47053420-9fde-45b3-8656-78f83252af3f
-0.0188425684426175,0.0531328479250667,-0.0381821095655142,-0.7568269931803945,-0.263257674349975,0.7370293645810961,-0.142864912338143,-0.1603280268128283,-13.886111601726954,22.1928703368504,12.205798540418092,3.503593429557485,0.2805207203583703,0.6122111777965521,5822.97998046875,12.026333333333334,0.2844444444444445,179.340900860969,3.930572708784908,77.17659250970638,1525.0,1636.0,1200.0,1528.0,1475.0,1021.7000000000002,185.0,294.15,1637170180.7526157,1637170181.970146,47053420-9fde-45b3-8656-78f83252af3f
-0.027978173201669,0.0492019356395462,-0.0406064005419393,-0.759470430079417,-0.2692430712452817,0.7421381804388275,-0.1445769822686171,-0.1615470203022511,-13.59359783866378,22.471728168569232,12.01775188083188,3.5228817039343148,0.2655502273938701,0.6254317745417493,5882.92822265625,12.028,0.28,179.37183251099026,3.930785820173386,77.14716426021245,1525.0,1636.0,1200.0,1528.0,1475.0,1021.7000000000002,185.0,294.15,1637170182.0781934,1637170183.0934289,47053420-9fde-45b3-8656-78f83252af3f
0.0009900488035685,0.0474350795601386,-0.0648356135633898,-1.223948417336952,-0.3478339362810783,1.1946450524214745,-0.0511390544524441,-0.0751902132754128,-13.666977876032965,22.41690370967352,15.562065935740163,5.586431761990369,0.2836798918801214,0.633150509050263,5926.317057291667,12.011111111111113,0.3488888888888888,179.36844625498173,4.069727235817077,77.05826024124583,1525.0,1737.0,1200.0,1528.0,1475.0,1021.7000000000002,185.0,294.15,1637170185.1386356,1637170186.1620014,aa65eb72-c20e-4775-b590-258b740088cd
-0.0225543359130245,0.0289858150411187,-0.081394753636525,-1.1995548261159668,-0.3503541034854209,1.189796470773199,-0.0693828712125137,-0.0935025128211772,-14.535373124048164,22.128332956937328,15.37047242113013,5.517305212130552,0.2182702810980496,0.682352748120933,5884.280436197917,12.013,0.3444444444444444,179.35844685803684,4.070849805866291,76.85877470070682,1525.0,1737.0,1200.0,1528.0,1475.0,1021.7000000000002,185.0,294.15,1637170186.2704525,1637170187.3912923,aa65eb72-c20e-4775-b590-258b740088cd
-0.0063332272465365,0.0353349918366715,-0.0687369414752296,-1.1997093236076344,-0.3440049256871702,1.1836631520215997,-0.0579813075152992,-0.0802683488120941,-14.015488725240022,22.354749614252857,15.449807129780442,5.506276895343039,0.238526098477018,0.6413669828556061,5854.7998046875,12.014,0.3400000000000001,179.35899175535064,4.060566671479621,76.6848014345376,1525.0,1737.0,1200.0,1528.0,1475.0,1021.7000000000002,185.0,294.15,1637170187.4992702,1637170188.6196797,aa65eb72-c20e-4775-b590-258b740088cd
0.0065508517844872,0.0438739743206948,-0.0538372766947239,-1.3347536768225725,-0.3557642453230227,1.3037792309817506,-0.0229789292364322,-0.0461124182260644,-14.204358985818253,23.391918732256368,16.216893487897472,6.088465366475158,0.2826795840559282,0.5876110784667853,5819.0322265625,12.002333333333333,0.3766666666666667,179.3446210373369,4.111580358321192,76.36572687073073,1525.0,1837.0,1200.0,1528.0,1475.0,1021.7000000000002,185.0,294.15,1637170190.588741,1637170191.8095884,69729642-d1d9-4d0e-b300-f5acfc04065a
-0.0136307538049245,0.0215946041110696,-0.0686317520028504,-1.3024270292368296,-0.3793880738028904,1.2947827833731702,-0.0305794237414522,-0.0656338498598171,-11.846362661345308,23.9472992355993,15.961052776291629,5.999419341756147,0.1797880172875087,0.6494234312322742,5791.076822916667,11.999555555555554,0.39,179.34197851303804,4.076451841646171,76.18439900864524,1525.0,1837.0,1200.0,1528.0,1475.0,1021.7000000000002,185.0,294.15,1637170191.9184847,1637170193.0337813,69729642-d1d9-4d0e-b300-f5acfc04065a
-0.0015712076603382,0.0428604289867558,-0.0524539242270536,-1.3407664732028242,-0.3587227024482773,1.3124080633180368,-0.0201163484779367,-0.0411131744522652,-13.912374618431867,23.64533289284252,16.526821091401874,6.123364076917016,0.2748969975590192,0.5860411887951092,5783.68896484375,12.005000000000004,0.37,179.31480346706027,4.066759708350184,76.03058314853654,1525.0,1837.0,1200.0,1528.0,1475.0,1021.7000000000002,185.0,294.15,1637170193.1423442,1637170194.2618265,69729642-d1d9-4d0e-b300-f5acfc04065a
-0.0903796965769971,0.0589264922224575,0.0532835101148369,0.7948562295010523,-0.0071731001040976,-0.7666474300054347,-0.4760200546461959,-0.5048102295013034,-15.051016457806584,25.09317568849437,1.4232761629279824,-3.354110615963902,0.2208627459413784,0.6101725111345805,5787.59375,12.03588888888889,0.26,179.2944813775498,3.4389427596759057,75.8547437229041,1525.0,1334.0,1200.0,1528.0,1475.0,1021.7000000000002,185.0,294.15,1637170195.1736424,1637170196.1966174,f1df2512-533f-47e7-a883-dd02dcda8152
-0.0902975172610732,0.0601454859610677,0.0541053035967968,0.7888845304889166,-0.0121723441506791,-0.7639081169665985,-0.4733218319868235,-0.4945241116399416,-14.479545207022085,25.29589665904289,1.2089512052243354,-3.3328460428394115,0.22408031657336,0.612129067763455,5797.598470052083,12.033444444444443,0.2655555555555555,179.3296340844781,3.4416017428334182,76.26081592398924,1525.0,1334.0,1200.0,1528.0,1475.0,1021.7000000000002,185.0,294.15,1637170196.305046,1637170197.4319737,f1df2512-533f-47e7-a883-dd02dcda8152
-0.0981867353840516,0.0570774568487695,0.0607892241973471,0.7827895624876078,-0.0077757487180748,-0.7549368672061809,-0.4622002237876968,-0.4808412453610755,-14.151048606729669,25.32205515782917,1.3254933108294733,-3.298247535452849,0.2103900037052932,0.5811537148718824,5798.905598958333,12.035666666666666,0.2611111111111111,179.34619653430548,3.440509552896451,76.58701741074007,1525.0,1334.0,1200.0,1528.0,1475.0,1021.7000000000002,185.0,294.15,1637170197.549085,1637170198.5966327,f1df2512-533f-47e7-a883-dd02dcda8152
-0.1132118610766696,0.0666239581399773,0.0974686078184371,1.335856571373445,0.0762663353341011,-1.296129344205469,-0.5926873734550705,-0.6210666538173665,-14.850935342542815,27.62241011607581,-2.263407008068924,-5.745811639583924,0.2172270502454234,0.6019823059862663,5799.34130859375,12.023333333333332,0.3,179.35602745325085,3.262965497031466,77.02152293043007,1525.0,1234.0,1200.0,1528.0,1475.0,1021.7000000000002,185.0,294.15,1637170199.635253,1637170200.6990345,7c28513a-2bf1-4e5d-92dd-4f92174dcd54
-0.1085824239770407,0.0668431030729892,0.0998928986475492,1.324077530731645,0.0738694375946426,-1.2849118525284953,-0.5853871054242982,-0.6025899907170454,-14.360846268718282,27.702405570556653,-2.1463695698403384,-5.693117440362421,0.2151482429379106,0.5919465731850827,5792.37451171875,12.023666666666664,0.3044444444444444,179.36156749557762,3.273656426913893,77.21759489420388,1525.0,1234.0,1200.0,1528.0,1475.0,1021.7000000000002,185.0,294.15,1637170200.8079555,1637170202.045194,7c28513a-2bf1-4e5d-92dd-4f92174dcd54
-0.0924234614605619,0.0793528250235456,0.1079798231307795,1.3200036978110026,0.0783523807511977,-1.294071881164121,-0.5811119912923107,-0.6018783644446566,-14.338011450985883,27.74639756308156,-2.192374013508445,-5.703813214625591,0.2633284130908452,0.5701414091714274,5787.59375,12.016222222222222,0.3288888888888889,179.3752126957195,3.275116047825899,77.41491071131658,1525.0,1234.0,1200.0,1528.0,1475.0,1021.7000000000002,185.0,294.15,1637170202.1535883,1637170203.273199,7c28513a-2bf1-4e5d-92dd-4f92174dcd54
-0.1134447026767327,0.0863606989290638,0.1347095498861358,1.665806698203068,0.138558282738315,-1.634790824892573,-0.6723602823167628,-0.6915765636971217,-16.351932218810063,29.64475626174128,-4.6438940597869305,-7.236990153171829,0.2847449635837664,0.5798561868922777,5788.897298177083,12.012666666666668,0.3333333333333333,179.3799923103187,3.128916488972012,77.67558639880993,1525.0,1133.0,1200.0,1528.0,1475.0,1021.7000000000002,185.0,294.15,1637170204.1840427,1637170205.3209636,9bab680f-0d3e-41a4-8b56-191bfa6fc2df
-0.1190739886411901,0.0885658447962065,0.1378597582760831,1.6763804433765233,0.1329426938653111,-1.6419130448863173,-0.6691689830218452,-0.6968223471375609,-15.207370546586604,30.0487904400792,-3.952041961943156,-7.273324831851919,0.2776875116844142,0.5806369381474187,5798.470540364583,12.012777777777778,0.3311111111111111,179.38462924985524,3.1060772613089385,77.80411234515178,1525.0,1133.0,1200.0,1528.0,1475.0,1021.7000000000002,185.0,294.15,1637170205.42984,1637170206.4710572,9bab680f-0d3e-41a4-8b56-191bfa6fc2df
-0.1232514392483152,0.0882919136754234,0.1272312290606831,1.6760380292126411,0.1311073550536871,-1.6425019975696324,-0.6791674745108471,-0.6929873082470911,-15.93863649116978,29.52476004073329,-4.187808187027262,-7.278284658485643,0.2832848933492884,0.611195317162668,5807.637152777777,12.013666666666666,0.3311111111111111,179.37739987407377,3.1240337812050334,77.92814250919996,1525.0,1133.0,1200.0,1528.0,1475.0,1021.7000000000002,185.0,294.15,1637170206.5789232,1637170207.629645,9bab680f-0d3e-41a4-8b56-191bfa6fc2df
-0.1250659594147621,0.0861415539528209,0.1528580373248685,1.8259375829053048,0.1407480884033445,-1.787088552236267,-0.7028986890525195,-0.7242653295219077,-13.823475342667187,32.06862582822413,-5.452736034320465,-7.9223239008141455,0.2546720717259918,0.5966255259235497,5821.22412109375,11.998555555555557,0.38,179.3630428164384,3.080575659109704,78.11924740762737,1525.0,1033.0,1200.0,1528.0,1475.0,1021.7000000000002,185.0,294.15,1637170208.609497,1637170209.7147608,a1c57ac5-35c1-4f89-a867-f5530ae21d6f
-0.1273330138260643,0.0873468510553941,0.1539258209412099,1.8054842334289207,0.1502003570971004,-1.7678941685665217,-0.7029584065982579,-0.731392475096249,-15.441689945760578,31.77789175384754,-5.217778262948888,-7.835705069711324,0.2711445752621396,0.5816662704043262,5812.888671875,11.999444444444444,0.38,179.35277021192667,3.0684621051732743,78.14627901963257,1525.0,1033.0,1200.0,1528.0,1475.0,1021.7000000000002,185.0,294.15,1637170209.823167,1637170211.0558703,a1c57ac5-35c1-4f89-a867-f5530ae21d6f
-0.1219091765100008,0.0951401928358896,0.1542271452035502,1.7731877397588651,0.147707583475595,-1.7464727172363983,-0.6963977520129907,-0.7300776042822893,-15.567831780457269,31.556927894391368,-5.28498764035706,-7.716239233634478,0.3058545657566652,0.5758773030594077,5807.19970703125,12.000666666666667,0.3733333333333333,179.35788071124566,3.04413164325735,78.23031387263086,1525.0,1033.0,1200.0,1528.0,1475.0,1021.7000000000002,185.0,294.15,1637170211.1649787,1637170212.284789,a1c57ac5-35c1-4f89-a867-f5530ae21d6f
-0.0648767032993236,0.0641311844806964,0.0251370820566812,0.2031923405406053,-0.0966801138123036,-0.2002398011689901,-0.3450398378832271,-0.3820205544817829,-14.92419671844616,23.839861861697667,5.623728039999922,-0.7556447298062401,0.2732983082324924,0.5859325013835551,5812.45068359375,12.040333333333333,0.25,179.33263177861383,3.4932966224650253,78.26069455405907,1525.0,1435.0,1200.0,1528.0,1475.0,1021.7000000000002,185.0,294.15,1637170213.195365,1637170214.2203484,8252bdc6-2e03-40ab-806f-ecd65429d217
-0.0594391693311443,0.0579951262444821,0.0288077598124824,0.2154781530396567,-0.1018026270116297,-0.2065676118585996,-0.3404651865111505,-0.358914455190785,-13.672571659726742,24.372851163910173,5.496483933870347,-0.793252169829807,0.2412825200399425,0.5812350185628791,5833.557454427083,12.039,0.2466666666666666,179.3331281056935,3.4957384150933044,78.3111537149174,1525.0,1435.0,1200.0,1528.0,1475.0,1021.7000000000002,185.0,294.15,1637170214.3294754,1637170215.4511547,8252bdc6-2e03-40ab-806f-ecd65429d217
-0.0512760200863133,0.0580499124855576,0.0282598974733399,0.219833658501573,-0.0984332733964014,-0.2100191449631256,-0.3423827050370576,-0.3690909999160904,-14.034672753919995,24.208404513685178,5.577980419225507,-0.8121198768459518,0.2427547865838838,0.5800967998005712,5845.925889756944,12.040111111111113,0.2422222222222222,179.3417963746602,3.5008956822353565,78.35691674126639,1525.0,1435.0,1200.0,1528.0,1475.0,1021.7000000000002,185.0,294.15,1637170215.5833576,1637170216.6785643,8252bdc6-2e03-40ab-806f-ecd65429d217
-0.0165004568414541,0.0844431807350056,0.1676634689284812,0.1978369863645162,0.0315607681048551,-0.2204011374649243,-0.1974183097933333,-0.2278109769818242,-13.63593872005496,23.75549553529921,5.996864203141546,-0.7816240332168894,0.3467489148099949,0.0106756365285039,5839.730631510417,12.037777777777778,0.2477777777777777,179.34421122598673,3.503489565152342,78.41183829238246,1525.0,1435.0,1200.0,1454.0,1475.0,1021.7000000000002,185.0,294.15,1637170217.701104,1637170218.7254658,ef9f6313-c824-4bea-a6c7-38369d345021
-0.0107342055869853,0.0785536605740752,0.1737173476186376,0.2002612770715573,0.0320401476596817,-0.2186616743979987,-0.1909809266879426,-0.2166756740895034,-13.072359126397842,24.185315857029355,5.781183330125299,-0.7797837489090451,0.3226749207480844,-0.0081727171823276,5838.84619140625,12.037666666666668,0.24,179.31922184054338,3.5022729851383025,78.44200647903651,1525.0,1435.0,1200.0,1454.0,1475.0,1021.7000000000002,185.0,294.15,1637170218.83377,1637170220.063545,ef9f6313-c824-4bea-a6c7-38369d345021
-0.0101863432854948,0.080443785653937,0.1721559399753524,0.2002475805034591,0.0315059818627239,-0.2206750687718571,-0.1948570531460823,-0.2250990582785648,-13.341858695189208,24.19279154053428,5.736886623382671,-0.7844481296351707,0.3319669194799641,0.0001765575655507,5837.079698350694,12.039222222222223,0.24,179.31062490910804,3.493086641579916,78.4830672995969,1525.0,1435.0,1200.0,1454.0,1475.0,1021.7000000000002,185.0,294.15,1637170220.1717885,1637170221.3880494,ef9f6313-c824-4bea-a6c7-38369d345021
0.0409292140889693,0.1052071632831542,0.3503207643826202,0.1833871176235744,0.1931253703989207,-0.2389736729939942,-0.0085975422653037,-0.0356345504079489,-12.003320753593764,23.96982785244669,5.776357577462044,-0.7794610198107984,0.42838777140133,-0.7240752288003884,5834.87158203125,12.036444444444443,0.26,179.2922319685831,3.50852161215961,78.439303241945,1525.0,1435.0,1200.0,1380.0,1475.0,1021.7000000000002,185.0,294.15,1637170222.0961072,1637170223.231878,3b5c0a52-bc8a-4897-841d-3025c59c3510
0.050462018935611,0.1146988782281668,0.3575936364784071,0.1784700531887999,0.1903449691343983,-0.2481777615612449,-0.0020642836945813,-0.0255264899190373,-11.08461643873732,24.25670426392353,5.191506526067045,-0.7864190405136376,0.4637399525984984,-0.7386986781706879,5840.1728515625,12.037,0.2566666666666666,179.28199730956683,3.501537387994253,78.43600729621552,1525.0,1435.0,1200.0,1380.0,1475.0,1021.7000000000002,185.0,294.15,1637170223.3407905,1637170224.4600189,3b5c0a52-bc8a-4897-841d-3025c59c3510
0.0435003321014046,0.1049441893744885,0.3465646204019489,0.1824557516447463,0.1868605647590564,-0.2381184598273932,-0.0122238432652173,-0.0424001022225409,-11.759840580978173,24.110571899227445,5.708006933948928,-0.7745806635459498,0.4261628950933656,-0.7052831005328205,5830.4619140625,12.035888888888888,0.26,179.28147669737007,3.49775943960959,78.42749232705023,1525.0,1435.0,1200.0,1380.0,1475.0,1021.7000000000002,185.0,294.15,1637170224.5680785,1637170225.685943,3b5c0a52-bc8a-4897-841d-3025c59c3510
0.114339790164271,0.1392079760389296,0.5494615633428055,0.1581020803013976,0.3676665612943402,-0.2591975374726519,0.1966048916225513,0.1673633347455691,-10.31761740449464,24.071180331412048,5.873902739646863,-0.7564180448027468,0.5588552702670475,-1.5202547780958846,5756.935221354167,12.035,0.26,179.2496965860719,3.487636458929396,78.32083968207037,1525.0,1435.0,1200.0,1306.0,1475.0,1021.7000000000002,185.0,294.15,1637170227.624576,1637170228.7609603,6be87331-e8d6-4ebc-8851-8269afd534d1
0.1152741335997071,0.1512823853370993,0.5619462730704966,0.1561994497026382,0.3793300733116371,-0.2687226020049925,0.2044524238883118,0.1680606686165023,-10.616051078672529,24.021098773092007,6.033001839594444,-0.7733654722322831,0.6058686644117367,-1.5628515804580552,5732.119954427083,12.035666666666666,0.2566666666666666,179.23497373386098,3.483843000323492,78.30379304772184,1525.0,1435.0,1200.0,1306.0,1475.0,1021.7000000000002,185.0,294.15,1637170228.8698642,1637170229.986241,6be87331-e8d6-4ebc-8851-8269afd534d1
0.1233277098180689,0.1487896117527236,0.5579331817863517,0.1691974833697322,0.3803710117036725,-0.2775979731165616,0.1917968042721052,0.163486018366266,-11.47602136996088,24.204463380506297,6.063774338378667,-0.8220422564398362,0.6004815353135773,-1.5416010953765065,5755.274685329861,12.032888888888888,0.26,179.24260836753325,3.4821105987315093,78.32971437453196,1525.0,1435.0,1200.0,1306.0,1475.0,1021.7000000000002,185.0,294.15,1637170230.0955677,1637170231.219167,6be87331-e8d6-4ebc-8851-8269afd534d1
0.1756211690741967,0.1817024409882101,0.7590534286925177,0.1710328221887254,0.5553719255688204,-0.3236047201292124,0.3919035131091126,0.3659759294208313,-9.363135631072824,24.60822531687568,5.876973218095476,-0.9158408067013144,0.7231566128011155,-2.333970055731878,5844.601128472223,12.027222222222225,0.28,179.2442339525557,3.4884385792700496,78.27495902468569,1525.0,1435.0,1200.0,1232.0,1475.0,1021.7000000000002,185.0,294.15,1637170232.146719,1637170233.1743476,f5594d29-8616-4fb9-a161-14594913ea69
0.1748678583813831,0.1719778847115164,0.7545883510073882,0.1734023267275793,0.5557006429472301,-0.3159483427226753,0.3913556508300567,0.36983835860863,-9.52040061235956,24.416694662500102,5.904861939627807,-0.9055476545503592,0.6869714730487996,-2.328699282288484,5854.7998046875,12.031666666666666,0.27,179.22519138514974,3.4840582461460863,78.24931849454146,1525.0,1435.0,1200.0,1232.0,1475.0,1021.7000000000002,185.0,294.15,1637170233.2829628,1637170234.4053173,f5594d29-8616-4fb9-a161-14594913ea69
0.1736625612688332,0.1823598757680062,0.7612037881877618,0.1705123529995422,0.5515916757511289,-0.323892347940147,0.3963275011754812,0.3718654491031765,-8.600781649259266,24.795813417438648,5.878509286140158,-0.9135784816567426,0.7204166083300908,-2.337517916418197,5850.802734375,12.032,0.27,179.21599491488726,3.506377288499245,78.19923195844784,1525.0,1435.0,1200.0,1232.0,1475.0,1021.7000000000002,185.0,294.15,1637170234.5175982,1637170235.6319358,f5594d29-8616-4fb9-a161-14594913ea69
-0.1349483009919246,0.0252603511153083,-0.1985551243001414,0.2432547725023487,-0.3051965426073776,-0.18788550420378,-0.579360617737832,-0.5944405352094461,-15.570975574780364,24.559235981995005,5.44153909765372,-0.8249781805730311,0.1146002917582283,1.5031227615253229,5788.906087239583,12.035111111111112,0.25,179.3092740494722,3.4945866507285768,78.3565365274026,1525.0,1435.0,1200.0,1602.0,1475.0,1021.7000000000002,185.0,294.15,1637170237.6587198,1637170238.6828797,7b888b90-c20b-4d0b-b364-f94c624d3248
-0.1320583270357092,0.0232058672977935,-0.197062199237653,0.2461995324474986,-0.3044432317433892,-0.1851872819485859,-0.5750051107871409,-0.5966456820245759,-15.237103122673563,24.53101422111057,5.945196974475203,-0.8254219707539333,0.0997993560183096,1.4945930498135047,5762.088758680556,12.035333333333334,0.25,179.3067225943622,3.491345915694883,78.32725247079112,1525.0,1435.0,1200.0,1602.0,1475.0,1021.7000000000002,185.0,294.15,1637170238.7912896,1637170239.845811,7b888b90-c20b-4d0b-b364-f94c624d3248
-0.1259770545714694,0.0258356065627437,-0.1927751759944999,0.240816785229006,-0.298156510412759,-0.1849270471991081,-0.5745120345098937,-0.5900165447881109,-15.90385121188153,24.554253859148627,5.665713617485697,-0.8127076813453419,0.1177935100780446,1.4788855926613227,5760.3671875,12.038222222222224,0.2411111111111111,179.31808954696098,3.486359403282081,78.33611957415361,1525.0,1435.0,1200.0,1602.0,1475.0,1021.7000000000002,185.0,294.15,1637170239.954025,1637170241.1632717,7b888b90-c20b-4d0b-b364-f94c624d3248
-0.1920903481435668,-0.0151718904855588,-0.3998808686562655,0.2930691532726548,-0.4866211936805691,-0.1781883398715694,-0.790123341891276,-0.8159139742941998,-16.462439908579977,25.00381655355717,6.121614190812665,-0.922974228139117,-0.0556517751829779,2.320437828316765,5756.49853515625,12.034666666666666,0.26,179.3270568264313,3.473242949902521,78.33838567913826,1525.0,1435.0,1200.0,1676.0,1475.0,1021.7000000000002,185.0,294.15,1637170243.188449,1637170244.438919,a7fcff83-b6f2-472d-8f94-e6b7ce65621c
-0.2255647407930963,-0.0262113170143095,-0.432149967363042,0.3027252264887344,-0.5087822311667322,-0.1812837622955419,-0.8264055427457283,-0.849648614902935,-17.385570885538332,24.866296538334,5.151159901937674,-0.9548495901799524,-0.0851584209093016,2.4430574458666547,5766.835503472223,12.034444444444444,0.2588888888888889,179.32774136316812,3.484567593273879,78.32192568214842,1525.0,1435.0,1200.0,1676.0,1475.0,1021.7000000000002,185.0,294.15,1637170244.5471797,1637170245.6666698,a7fcff83-b6f2-472d-8f94-e6b7ce65621c
-0.2230993599824584,-0.0220064734119672,-0.4267535221598749,0.3134085414801835,-0.5067688365112814,-0.1950898946812593,-0.8305008157567949,-0.8574693552260216,-17.525655997513827,25.368318847756683,5.172401376271286,-1.0064432100463838,-0.069549200463567,2.439118390782049,5859.721354166667,12.03422222222222,0.25,179.34368606033053,3.4818569093789,78.29044458135392,1525.0,1435.0,1200.0,1676.0,1475.0,1021.7000000000002,185.0,294.15,1637170245.7753575,1637170246.9170215,a7fcff83-b6f2-472d-8f94-e6b7ce65621c
-0.286062447595926,-0.0524950138197507,-0.6350371467161148,0.3615656381187127,-0.6923298722947768,-0.2006233049418526,-1.05357679546886,-1.0906534075660737,-18.92374154359704,25.56898807642956,4.787528374040389,-1.137314118219792,-0.1897231756423336,3.2885156275938967,5933.155815972223,12.029444444444444,0.26,179.3786839496377,3.4778255799487763,78.30512114006046,1525.0,1435.0,1200.0,1750.0,1475.0,1021.7000000000002,185.0,294.15,1637170248.6265593,1637170249.7601776,46491d5a-5e01-4e04-98df-c034fcc9ef30
-0.2858843923021657,-0.0579325477728665,-0.6283258306196018,0.3605110032264975,-0.6904671395914782,-0.196130833185114,-1.043098921033643,-1.0786963024651073,-18.23773179258755,25.78656600353592,4.590735403507196,-1.122749457407482,-0.2126694714416671,3.2613576917215688,5885.660319010417,12.031666666666668,0.26,179.3838172162539,3.486172450569486,78.23661813723477,1525.0,1435.0,1200.0,1750.0,1475.0,1021.7000000000002,185.0,294.15,1637170249.86876,1637170250.9991505,46491d5a-5e01-4e04-98df-c034fcc9ef30
-0.2855693715018115,-0.067328387318091,-0.6243675239343546,0.3649212947370546,-0.6862485979660912,-0.1897071466430317,-1.036236940679185,-1.0600963636130043,-18.036594354441856,25.88974977141831,4.811705534709431,-1.117245526872748,-0.2515819522151029,3.2397580227651424,5821.22412109375,12.031222222222222,0.26,179.3618482922435,3.499268389665601,78.18819209601936,1525.0,1435.0,1200.0,1750.0,1475.0,1021.7000000000002,185.0,294.15,1637170251.1108754,1637170252.2211502,46491d5a-5e01-4e04-98df-c034fcc9ef30
-0.3336169061601035,-0.0760804886541788,-0.7702633231632158,0.4316235298043702,-0.8174342927054346,-0.2327143450434687,-1.2138677418286166,-1.2278382445283418,-19.590835098491308,26.69146041957602,4.963397972112852,-1.36706052883286,-0.292199457840322,3.868541968327689,5807.19970703125,12.008666666666668,0.3311111111111111,179.35912077003496,3.4889199890268623,78.17916789830598,1525.0,1435.0,1200.0,1824.0,1475.0,1021.7000000000002,185.0,294.15,1637170253.1317708,1637170254.1532755,dcbfac4d-cb88-4ab2-b5c0-0f475fba5692
-0.3516443197179288,-0.0841866602822442,-0.786932042294538,0.4286913707927192,-0.8290736336862736,-0.2242202863172233,-1.2226669660449625,-1.236157541490856,-19.45947519363688,26.227871830506693,4.565017444791287,-1.345259569007597,-0.3207049850426219,3.91835838178297,5803.267578125,12.007,0.345,179.35459994371433,3.480667816133083,78.0051589633711,1525.0,1435.0,1200.0,1824.0,1475.0,1021.7000000000002,185.0,294.15,1637170254.2619202,1637170255.3856285,dcbfac4d-cb88-4ab2-b5c0-0f475fba5692
-0.3401129110565653,-0.0832925489218311,-0.7738885298067697,0.4363176139572137,-0.8257601607147393,-0.2330430625166408,-1.2134760197800438,-1.2282814651664635,-18.651624533628727,26.887103987830272,4.507034751092155,-1.3768714431736353,-0.322656277533033,3.883367283343247,5803.267578125,11.997222222222222,0.3811111111111111,179.36530133232392,3.447653930768284,77.80515053390562,1525.0,1435.0,1200.0,1824.0,1475.0,1021.7000000000002,185.0,294.15,1637170255.4945338,1637170256.7288597,dcbfac4d-cb88-4ab2-b5c0-0f475fba5692
-0.0753271780337129,0.0391760547340324,-0.0260332617293843,0.2190392580859185,-0.1194437954989219,-0.1918985962957536,-0.3663516867323804,-0.3835134795751041,-14.503755806530773,21.30438298888446,5.1574208815405,-0.7918663222751331,0.175620468518118,0.7148281226638895,7863.6943359375,11.824,7.360000000000001,178.79739994141386,3.207009883734175,66.56627233013558,1525.0,1435.0,1350.0,1528.0,1475.0,1021.7000000000002,185.0,294.15,1637170260.0911057,1637170261.1200168,681ea820-6b10-4072-bbe2-d1dd33ffc8ad
-0.0700129130153149,0.041778400877582,-0.0223762804969638,0.2159301393722682,-0.1171427735238508,-0.1909672303358521,-0.3617770354020731,-0.3858555909839656,-14.385217140936769,21.27922616142617,5.276594724518428,-0.7826660165789944,0.1840998319988973,0.7007447798953637,7874.130316840277,11.826333333333332,7.357777777777778,178.6985610328445,3.1188048207926307,61.48815721473524,1525.0,1435.0,1350.0,1528.0,1475.0,1021.7000000000002,185.0,294.15,1637170261.22869,1637170262.3493576,681ea820-6b10-4072-bbe2-d1dd33ffc8ad
-0.0889415578754935,0.0298623948510835,-0.0308955401654863,0.2239152327680124,-0.1220187486850644,-0.1886799046058467,-0.370460655091766,-0.3982646757553902,-14.58325445062509,21.37113800962544,4.921195751730359,-0.7955097516942997,0.1424374632720748,0.7293130498212094,7870.9150390625,11.826333333333332,7.373333333333333,178.6574994533742,3.065430449819173,57.55658800980953,1525.0,1435.0,1350.0,1528.0,1475.0,1021.7000000000002,185.0,294.15,1637170262.4587326,1637170263.4849918,681ea820-6b10-4072-bbe2-d1dd33ffc8ad
0.0918086419434297,0.3652883625311734,-0.021927581250011,0.0636178374420254,-0.1896786577597742,-0.3635964866064187,-0.4365454679655181,-0.461527996940519,-14.445754867678636,20.536271449512,5.582202132759599,-0.8318923207057389,1.4139475105769492,0.9438868363126198,7878.1494140625,11.818,7.38,178.56026943380934,3.061947978263917,52.725638467724266,1593.0,1435.0,1350.0,1528.0,1529.0,1021.7000000000002,185.0,294.15,1637170264.1162417,1637170265.0769129,9abb697c-2b53-4c3c-84e4-c5d9019d6e2a
0.0960167725381718,0.3661539849665674,-0.0268824483954767,0.0511742399873131,-0.1951857705267795,-0.352285318731123,-0.4378888267181109,-0.4626111219273799,-14.45766633353098,20.432618119411583,5.658836258885544,-0.7793325387971026,1.4178154242448129,0.9601923396874712,7887.81689453125,11.813,7.449999999999999,178.59646032949155,3.0974633966962988,50.04380680961864,1593.0,1435.0,1350.0,1528.0,1529.0,1021.7000000000002,185.0,294.15,1637170265.1856291,1637170266.2404091,9abb697c-2b53-4c3c-84e4-c5d9019d6e2a
0.1068918399320562,0.376138775424348,-0.0151992835929613,0.0529821857564305,-0.1884470630437823,-0.3672830529975011,-0.4309446699125376,-0.4561052548033991,-14.199296325942848,20.606366039311627,5.2227491285848,-0.8153186512981537,1.45782180917731,0.9259198625872296,7892.65771484375,11.813777777777778,7.384444444444444,178.6770975428327,3.1224428925949166,47.59855241379474,1593.0,1435.0,1350.0,1528.0,1529.0,1021.7000000000002,185.0,294.15,1637170266.34879,1637170267.5811207,9abb697c-2b53-4c3c-84e4-c5d9019d6e2a
0.3424041540406892,0.7992802174890649,-0.0022834285968209,-0.1545754709539621,-0.2743107985672401,-0.5828258483219667,-0.5137677797744101,-0.5288476955845604,-14.110385084825031,19.762375216906246,6.090708517604796,-0.8362415508917166,3.0628967635885345,1.1941991240986216,7892.65771484375,11.803666666666668,7.443333333333332,178.6462569620004,3.2212383061401737,44.29642118910634,1661.0,1435.0,1350.0,1528.0,1583.0,1021.7000000000002,185.0,294.15,1637170268.6980736,1637170269.8363116,2904fe0f-11d4-4750-907d-0c04c13c4b63
0.3408701395600985,0.7954999676639757,-0.0042420365141084,-0.1585611698076484,-0.274886054112837,-0.5767171812767745,-0.511946137052794,-0.5356822807324463,-14.061698421424676,19.60834000319426,5.911980365894057,-0.814646426601375,3.050321946440514,1.194411638809539,7892.65771484375,11.80211111111111,7.470000000000001,178.71852947033798,3.2672264915724307,42.84680802205466,1661.0,1435.0,1350.0,1528.0,1583.0,1021.7000000000002,185.0,294.15,1637170269.9488094,1637170270.9924505,2904fe0f-11d4-4750-907d-0c04c13c4b63
0.3324467566550409,0.8001704937150717,-0.0031874014946114,-0.1518087657866799,-0.274680605743859,-0.5887564599297382,-0.5159729263558678,-0.5508306783701259,-14.125480869578375,19.728427871528712,5.722547445106049,-0.856145774759996,3.0692071638592004,1.1986907875707191,7899.9326171875,11.799555555555555,7.51111111111111,178.79012351321808,3.330428627271955,41.77634358874478,1661.0,1435.0,1350.0,1528.0,1583.0,1021.7000000000002,185.0,294.15,1637170271.1009614,1637170272.0466795,2904fe0f-11d4-4750-907d-0c04c13c4b63
0.5632474460013982,1.2082183416463987,0.0154947047000594,-0.3473408601754416,-0.3537097609742492,-0.8029570233211469,-0.5908109444090321,-0.6176562096425721,-13.752848863357611,19.06182051438672,6.3026012465681935,-0.8996192810737105,4.617103511341388,1.436430659849379,7894.274359809027,11.789666666666667,7.567777777777778,178.73914601689273,3.4168287652934546,40.61607203367802,1729.0,1435.0,1350.0,1528.0,1636.0,1021.7000000000002,185.0,294.15,1637170272.588848,1637170273.7262278,1b084d03-af37-43e0-96a4-596e03cd55d4
0.5563580776795564,1.2011509175382518,0.0062906172120568,-0.3544219821924844,-0.3618866078948811,-0.7884112713336598,-0.5948377338384067,-0.6274081618556283,-13.69870218242673,18.99719787471381,6.408505371850691,-0.8518023133956749,4.589561763150125,1.4651438053586154,7907.22021484375,11.790333333333333,7.5,178.79060617991942,3.4637458090209647,39.78866595326232,1729.0,1435.0,1350.0,1528.0,1636.0,1021.7000000000002,185.0,294.15,1637170273.8345633,1637170274.9550982,1b084d03-af37-43e0-96a4-596e03cd55d4
0.5569744227590695,1.195576418328056,0.008755997810263,-0.3481489572586466,-0.3581200535571021,-0.7892330652090692,-0.5940159400364348,-0.6203544321752225,-13.85104500154585,19.137227868904525,6.348198643645074,-0.8668346648044833,4.569653067042376,1.4546144000391126,7907.22021484375,11.791,7.486666666666666,178.8822308909054,3.500279352526501,39.02461253358316,1729.0,1435.0,1350.0,1528.0,1636.0,1021.7000000000002,185.0,294.15,1637170275.0636473,1637170276.3908298,1b084d03-af37-43e0-96a4-596e03cd55d4
0.7734896001161077,1.580176396512425,0.0253574180074787,-0.5381929192474612,-0.4439367519244178,-0.985877640268198,-0.6760970621528078,-0.7037950889836608,-13.645955667489469,19.67467295229686,6.826912193594711,-0.8754596894218171,6.030902457704344,1.711204654598948,7914.5205078125,11.770444444444443,7.613333333333333,178.86088730865902,3.562371369042487,38.27664420939936,1796.0,1435.0,1350.0,1528.0,1690.0,1021.7000000000002,185.0,294.15,1637170277.1857636,1637170278.1248925,989c6261-637b-401c-8d3f-f8d017b717d3
0.7634851582649232,1.5699004032901889,0.0160104099497755,-0.5367065444080643,-0.4507540666075701,-0.9751300036919284,-0.6814565870672394,-0.7069679281070067,-13.619270061559025,19.645118555068954,7.061454503559561,-0.855271730474304,5.989317562385386,1.739993135270719,7917.771592881944,11.773111111111112,7.625555555555555,178.905860309794,3.578263250818533,37.91893354218746,1796.0,1435.0,1350.0,1528.0,1690.0,1021.7000000000002,185.0,294.15,1637170278.2554882,1637170279.3467066,989c6261-637b-401c-8d3f-f8d017b717d3
0.7558758274233135,1.5650411019410644,0.0278626972444271,-0.5372025981906494,-0.4378888267103877,-0.9731368551852748,-0.6686759066427829,-0.6918504945191813,-13.73337856774748,19.65556559984336,6.698550964508468,-0.8491297525887234,5.975928888588946,1.6869290201496394,7914.5205078125,11.768,7.637777777777779,178.9638653118654,3.6032550078553487,37.57242362630446,1796.0,1435.0,1350.0,1528.0,1690.0,1021.7000000000002,185.0,294.15,1637170279.4550865,1637170280.5820243,989c6261-637b-401c-8d3f-f8d017b717d3
-0.3137021068550979,-0.4071537426452614,-0.0297313326548755,0.415667040371328,-0.0226365151266703,0.0525301993787269,-0.2616140871240377,-0.2785293397922294,-14.315038289059066,22.10231999767723,3.854354267567261,-0.6811535236550564,-1.512604281672255,0.3845746849642615,7892.65771484375,11.821222222222223,7.444444444444445,179.6127727463318,3.6554784445217887,36.94186966904778,1457.0,1435.0,1350.0,1528.0,1421.0,1021.7000000000002,185.0,294.15,1637170281.8047714,1637170282.9411538,fda149ca-7823-4bb9-8883-6b5e0fd38603
-0.3110586706341444,-0.4007437519191202,-0.0297587257829449,0.4145987088691374,-0.02577302713276,0.0447368574497468,-0.263531605599461,-0.285035206264029,-14.081964060881695,22.157964550326923,3.4902839183544785,-0.6958295102483821,-1.4868550733869637,0.3920071153268843,7892.65771484375,11.818,7.50111111111111,179.65582874103973,3.675549761739649,36.68843853553408,1457.0,1435.0,1350.0,1528.0,1421.0,1021.7000000000002,185.0,294.15,1637170283.0496166,1637170284.1663682,fda149ca-7823-4bb9-8883-6b5e0fd38603
-0.3190985518286296,-0.4130295674831119,-0.0405927039594081,0.418748765800758,-0.0312379541550919,0.0539957311299403,-0.2712975552865491,-0.2982249942456492,-14.328599884884191,22.05303008965377,3.5693979367933384,-0.6857317184529159,-1.533089466184207,0.4238074811304884,7892.65771484375,11.821,7.438888888888889,179.6969616580414,3.69399207884046,36.52723203128849,1457.0,1435.0,1350.0,1528.0,1421.0,1021.7000000000002,185.0,294.15,1637170284.2743485,1637170285.3999293,fda149ca-7823-4bb9-8883-6b5e0fd38603
-0.4721028381653528,-0.693904977036112,-0.0414966768924098,0.5458528182411654,0.0274244073529212,0.2066027834705169,-0.2097452138136749,-0.2315364421038944,-14.304152868420962,23.067866220019045,3.000603559240566,-0.6229148006594897,-2.597364168075058,0.2234288807026057,7890.2373046875,11.797333333333333,7.546666666666667,179.8363126953078,3.7043007315727774,36.17108471848661,1389.0,1435.0,1350.0,1528.0,1367.0,1021.7000000000002,185.0,294.15,1637170287.1291716,1637170288.2322166,c0e446cb-e4fe-4989-a1e5-cc80969beb4e
-0.4796907334778786,-0.6957403165991861,-0.0367302743332696,0.5487564883860375,0.0299719672765358,0.202877319656972,-0.206622398123774,-0.2329608839447328,-14.146031199434582,23.28295279538849,2.62262880197192,-0.6361538707447486,-2.602068664589652,0.2083082425447414,7892.65771484375,11.798,7.553333333333332,179.87002195559157,3.711934321743914,36.04968379781394,1389.0,1435.0,1350.0,1528.0,1367.0,1021.7000000000002,185.0,294.15,1637170288.3409889,1637170289.500214,c0e446cb-e4fe-4989-a1e5-cc80969beb4e
-0.4724726452704621,-0.7116557240067496,-0.0316214578272432,0.5608916381530231,0.0397376136183,0.2052468242395947,-0.2007876635866022,-0.2326869531972531,-14.355327304689853,23.370304411308485,2.3735158423373,-0.6575148173171339,-2.659240634122603,0.1773828489727996,7916.963324652777,11.8,7.541111111111111,179.87780078214627,3.7207873852731126,36.0430365059317,1389.0,1435.0,1350.0,1528.0,1367.0,1021.7000000000002,185.0,294.15,1637170289.6127546,1637170290.6085212,c0e446cb-e4fe-4989-a1e5-cc80969beb4e
-0.7349261867721242,-1.192596968580396,-0.0420445392870121,0.8154147620417024,0.1351478397265278,0.4422520583736209,-0.1099520798909517,-0.1331677493875032,-14.06774070010569,25.07915358704007,2.681001904991497,-0.6880712731324256,-4.499792450782909,-0.1237208402697547,7980.019314236111,11.786666666666669,7.547777777777778,-179.9884559179797,3.733970836167968,35.93043931964423,1321.0,1435.0,1350.0,1528.0,1314.0,1021.7000000000002,185.0,294.15,1637170292.6586268,1637170293.6891117,a1297060-5931-4945-8c86-dfa9e94016d8
-0.732607894476461,-1.1839228714743733,-0.0468603684812724,0.8046319984096517,0.1315331393875809,0.4448722693670743,-0.1156337699829832,-0.15099233338214,-14.489051164138054,24.877320636072344,2.8143667310254346,-0.6596286252040258,-4.464440521871944,-0.1032121412074796,7961.078776041667,11.787,7.543333333333333,-179.99641688291234,3.722822070167737,35.91020336640824,1321.0,1435.0,1350.0,1528.0,1314.0,1021.7000000000002,185.0,294.15,1637170293.8017342,1637170294.9118347,a1297060-5931-4945-8c86-dfa9e94016d8
-0.725612523031485,-1.1753118977405022,-0.038579309805706,0.7967737475338165,0.135147839750032,0.4484702954293214,-0.1062129191335341,-0.1307434575234372,-14.1952217180413,24.92109456549595,3.5622015330441488,-0.6328474519784361,-4.439358592291625,-0.1306214743367419,7943.044053819444,11.78788888888889,7.558888888888889,139.99989764846785,3.697048825653386,35.884546519701,1321.0,1435.0,1350.0,1528.0,1314.0,1021.7000000000002,185.0,294.15,1637170295.0208905,1637170296.135681,a1297060-5931-4945-8c86-dfa9e94016d8
-0.8874511359111414,-1.488168987518142,-0.0278138144085671,0.9398890760038182,0.2103008541616823,0.6212249729402997,-0.0280603524909931,-0.0503309583286892,-14.258705037047498,26.318812745617844,3.603112317295464,-0.5577014845911962,-5.629590547180126,-0.3960909901932821,7914.5205078125,11.758888888888889,7.672222222222222,-179.8986966075471,3.7235457381966746,35.95992145174163,1254.0,1435.0,1350.0,1528.0,1260.0,1021.7000000000002,185.0,294.15,1637170298.1882164,1637170299.215318,c9b74245-3a1e-4c10-ba4b-dc40b6f61fca
-0.9060647690183184,-1.495359688857117,-0.0334157070448732,0.9451485540781908,0.2056440244278267,0.622320697525316,-0.0329089343692051,-0.0652739039000778,-14.164368793410553,26.39626187543581,3.4042251491898567,-0.5668530736185352,-5.656466376859835,-0.3762791637326925,7912.087076822917,11.761333333333331,7.683333333333334,-179.92295592165914,3.718452883533045,35.972015440032,1254.0,1435.0,1350.0,1528.0,1260.0,1021.7000000000002,185.0,294.15,1637170299.346625,1637170300.4433165,c9b74245-3a1e-4c10-ba4b-dc40b6f61fca
-0.8990932171097531,-1.494209176636072,-0.0421678082288955,0.9549826824083452,0.2004393324140105,0.6126920177676133,-0.0453591064896576,-0.0700950926961301,-14.4544747217949,26.30576681882969,3.404028514658181,-0.6118551489658688,-5.651863378283342,-0.3394742913159365,7920.211534288194,11.760777777777776,7.681111111111111,-179.93509848018363,3.699208256364104,36.02667289050017,1254.0,1435.0,1350.0,1528.0,1260.0,1021.7000000000002,185.0,294.15,1637170300.5514252,1637170301.5800302,c9b74245-3a1e-4c10-ba4b-dc40b6f61fca
-0.0679721257949684,0.0564200220124387,-0.0341142315414806,0.2065206041477524,-0.128031538313071,-0.1991577729581684,-0.3738574022710303,-0.3863075785519221,-14.487557021713023,20.834327972549783,4.8343864171193855,-0.7835014146468312,0.244065277375539,0.7499521228391418,7921.83544921875,11.82322222222222,7.467777777777779,179.60962782367395,3.6422767797891473,36.05396404969382,1525.0,1435.0,1350.0,1528.0,1475.0,1021.7000000000002,185.0,294.15,1637170303.718322,1637170304.8576767,bc177151-8ac1-4d3d-bb76-1092dd4f1df5
-0.0630550610306259,0.0551736352165175,-0.0301696225440221,0.2010830705549543,-0.1229501147330314,-0.1915835754574394,-0.3660503624387479,-0.4024969126877737,-14.494210163263192,20.65439271351536,5.073012544141004,-0.7551771459737676,0.2382392134133064,0.7267458101456435,7902.366265190973,11.819222222222225,7.496666666666666,179.5758366011202,3.638053019265533,36.151080991682406,1525.0,1435.0,1350.0,1528.0,1475.0,1021.7000000000002,185.0,294.15,1637170304.973462,1637170306.0840387,bc177151-8ac1-4d3d-bb76-1092dd4f1df5
-0.0563985333135346,0.0671581239578584,-0.0191986788251042,0.189975161951124,-0.1148554481065158,-0.193528486950453,-0.3542028371077436,-0.3864993291308464,-14.381853015001775,20.47161647696673,5.1012051153736335,-0.7350952156471697,0.2842032472471704,0.685443707095024,7875.737955729167,11.823,7.483333333333332,179.6013769551566,3.657291243132128,36.22251945803139,1525.0,1435.0,1350.0,1528.0,1475.0,1021.7000000000002,185.0,294.15,1637170306.1921265,1637170307.3142426,bc177151-8ac1-4d3d-bb76-1092dd4f1df5
-0.0468246384777884,0.0454216854782986,-0.06300027461013,-0.2892400495660208,-0.2052527420684227,0.2931650292090788,-0.2610936177945193,-0.2806112179886897,-14.175423604926657,19.66486500379118,8.725571374134004,1.4327147845554784,0.2253058440329952,0.7344621976157244,7874.934136284723,11.81611111111111,7.5677777777777795,179.57568026567918,3.779245551423175,36.37919109612304,1525.0,1535.0,1350.0,1528.0,1475.0,1021.7000000000002,185.0,294.15,1637170309.247606,1637170310.38467,8a74fb32-ec55-48bf-a8e3-be0176e1737f
-0.0564670160460873,0.0494210806061935,-0.0586173757051504,-0.2921574170992945,-0.2036228514661479,0.2909872764974002,-0.2582584298553845,-0.2698457210896487,-14.095125827303471,19.78663813618032,8.617126376789768,1.435450570837818,0.2413379327179954,0.7225427220849877,7878.1494140625,11.814,7.54,179.5662470155255,3.7480658801576734,36.45908875175909,1525.0,1535.0,1350.0,1528.0,1475.0,1021.7000000000002,185.0,294.15,1637170310.493638,1637170311.616249,8a74fb32-ec55-48bf-a8e3-be0176e1737f
-0.0528796132935792,0.0522310665587217,-0.0568768169635571,-0.2905291699282838,-0.2014861881153753,0.2852128077543001,-0.2584200492600423,-0.2827451409243556,-14.19168086271806,19.753881489286048,8.407903278794157,1.41858920757514,0.2543241348745693,0.7174951629531786,7882.175564236111,11.81611111111111,7.507777777777779,179.5473820330379,3.7677725885967153,36.47256433553657,1525.0,1535.0,1350.0,1528.0,1475.0,1021.7000000000002,185.0,294.15,1637170311.7279365,1637170312.8493388,8a74fb32-ec55-48bf-a8e3-be0176e1737f
-0.0348949355573395,0.0301226294687415,-0.1059526845313951,-0.8522783550469816,-0.3077851925942343,0.8496698520187893,-0.1531099389706216,-0.1898441141230414,-14.166080300289806,19.143725680733745,12.256195943937533,3.9483059655115618,0.2031573908693624,0.7773303085293831,7944.680121527777,11.80888888888889,7.466666666666667,179.5246496456603,3.916305961428566,36.56690822072213,1525.0,1636.0,1350.0,1528.0,1475.0,1021.7000000000002,185.0,294.15,1637170314.664822,1637170315.7104175,70fed8d2-265b-42df-929f-e35a7b1229ca
-0.0285945183920118,0.0341220246008598,-0.0964198791767382,-0.8550313646143556,-0.2982112966450201,0.8483138928250304,-0.1427827329672622,-0.1634919317329987,-14.182217924296609,18.998636328559616,12.338375198925185,3.9509868910429247,0.218484242508571,0.73721626930707,7958.61328125,11.812777777777775,7.451111111111111,179.50512137591335,3.951438272653127,36.61641874419575,1525.0,1636.0,1350.0,1528.0,1475.0,1021.7000000000002,185.0,294.15,1637170315.818822,1637170317.0313938,70fed8d2-265b-42df-929f-e35a7b1229ca
