raw_voltage_G-,raw_voltage_G0,raw_voltage_G1,raw_voltage_G2,raw_voltage_G3,raw_voltage_G4,raw_voltage_G5,raw_voltage_G6,load_x,load_y,load_z,load_l,load_m,load_n,rpm,voltage,current,roll,pitch,yaw,aileron1_pwm,elevator_pwm,throttle_pwm,rudder_pwm,aileron2_pwm,pbaro,pdiff,Tt,sample_start_time,sample_end_time,uid
-0.023335039770117,0.1118499940989302,0.0328208514998554,0.1656226817310272,-0.1008438678378731,-0.1466177696672596,-0.3218515604246114,-0.3452589843552719,-14.071264294054789,23.23145442623697,15.091143869949734,-0.5521130203243695,0.3674289643879569,0.5677583947811345,5731.270128038194,12.031333333333334,0.2,179.34686589284416,0.9685259588076528,87.27071127692471,1525.0,1435.0,1200.0,1528.0,1475.0,1021.7000000000002,135.0,293.35,1637168646.620496,1637168647.6827197,4aef5896-0a79-4aa0-af2a-6839cb1aa2f8
-0.030498340041546,0.0988656567668131,0.0187407891460706,0.1723066020918082,-0.1017341441936062,-0.1371260538436936,-0.333986713245163,-0.3566682190696794,-15.114963865403048,22.782392554652205,15.416685508930687,-0.550012611345877,0.3215084363149234,0.6038425961637611,5798.937717013889,12.030555555555557,0.2,179.33976553174696,0.9627781411776756,86.75068040517755,1525.0,1435.0,1200.0,1528.0,1475.0,1021.7000000000002,135.0,293.35,1637168647.8145573,1637168649.018389,4aef5896-0a79-4aa0-af2a-6839cb1aa2f8
-0.0311956193891091,0.0960628428681029,0.0263000444146433,0.1737746240925524,-0.0993746005802482,-0.1377150059331316,-0.3244563972078246,-0.3527410422766142,-14.433946359329951,23.01782290426555,15.194189583237817,-0.5524031268879834,0.3084505456705415,0.5764951230765539,5847.698459201389,12.033555555555555,0.2,179.33664641202597,0.9683243140735625,86.2663866009877,1525.0,1435.0,1200.0,1528.0,1475.0,1021.7000000000002,135.0,293.35,1637168649.126702,1637168650.1678343,4aef5896-0a79-4aa0-af2a-6839cb1aa2f8
0.1410242109753495,0.4239052457696408,0.0286686027931555,0.0105102529874434,-0.1797382424654973,-0.3040723289092472,-0.3904329805948515,-0.4167040814875462,-13.251137668224136,22.387913065093656,15.594373638971318,-0.5613444454028982,1.5463812424275374,0.8165488645679767,5854.7998046875,12.022444444444444,0.23,179.26257984066638,0.996091440217028,85.74123839973237,1593.0,1435.0,1200.0,1528.0,1529.0,1021.7000000000002,135.0,293.35,1637168651.157878,1637168652.11051,756e199a-693d-4b51-b327-9e22025cebb6
0.152378109806226,0.4441558798653071,0.0482157834196637,-0.0037489605062872,-0.1677515612347594,-0.3120037333434028,-0.3747613753128871,-0.3986344819472214,-13.130650058709984,22.47982593104845,15.55484321185424,-0.5453651084682312,1.62482736825216,0.7535806714435286,5854.7998046875,12.02222222222222,0.23,179.2641644445538,0.99908841101675,85.4892416059444,1593.0,1435.0,1200.0,1528.0,1529.0,1021.7000000000002,135.0,293.35,1637168652.2407944,1637168653.2075284,756e199a-693d-4b51-b327-9e22025cebb6
0.1612260864831612,0.4412932993659975,0.0468324309549766,0.0007982970523559,-0.1630125516028258,-0.3106203806554573,-0.3804728413989728,-0.4043322521298467,-14.044138126778998,22.46395011944145,15.925556281292373,-0.5530888864488447,1.616622943199438,0.7567275893381638,5861.478407118056,12.022777777777778,0.23,179.24232605304755,1.0094399184429237,85.22052678579793,1593.0,1435.0,1200.0,1528.0,1529.0,1021.7000000000002,135.0,293.35,1637168653.3164089,1637168654.4321048,756e199a-693d-4b51-b327-9e22025cebb6
0.3899038157147456,0.8535185846228176,0.0553653869816275,-0.2027736648172137,-0.257080525669329,-0.5236703944147313,-0.4617071475993553,-0.4844160484181339,-12.97533846568822,21.76193687945544,16.131820108507867,-0.5762902038693118,3.178918685410904,1.0383013930972194,5864.147786458333,12.012333333333332,0.26,179.1037202653106,1.0320253618896478,84.66691339172161,1661.0,1435.0,1200.0,1528.0,1583.0,1021.7000000000002,135.0,293.35,1637168656.1661346,1637168657.345518,582047a7-394c-4133-8a67-ff7871d2d541
0.3853565585679259,0.8653798033268564,0.0618438592005793,-0.2137856990608478,-0.2512594875246411,-0.5245880640235799,-0.4546945078996302,-0.4833340203494902,-13.09968898558302,21.4887798609702,16.267798699381004,-0.5550410040442298,3.224842299847772,1.0131131405717737,5859.69140625,12.013777777777776,0.26,179.08463823458936,1.0211171821881508,84.4687058554673,1661.0,1435.0,1200.0,1528.0,1583.0,1021.7000000000002,135.0,293.35,1637168657.459029,1637168658.6411135,582047a7-394c-4133-8a67-ff7871d2d541
0.3844525857673673,0.8537240329849699,0.0556804078325478,-0.2076770332891825,-0.2543412136310096,-0.5191916184445247,-0.4606936020169382,-0.4888263419414353,-13.31358156259293,21.61786581069193,16.163891992808875,-0.5562695274101762,3.1824202277704163,1.032547558581178,5854.7998046875,12.015555555555554,0.26,179.07970835582844,1.0443496793370282,84.26304582391859,1661.0,1435.0,1200.0,1528.0,1583.0,1021.7000000000002,135.0,293.35,1637168658.7490437,1637168659.8733375,582047a7-394c-4133-8a67-ff7871d2d541
0.5983380257482853,1.2589093045266362,0.0815942965460807,-0.4020175323062434,-0.3269055913639844,-0.7343783241576326,-0.5319020283994624,-0.5512004861206201,-13.1903755413016,21.235391028821965,16.40095206207373,-0.6025835606225085,4.7247020582158905,1.2453459600982202,5850.359266493056,11.994333333333334,0.3088888888888889,179.01028327746482,1.051577418719044,84.02138690089436,1729.0,1435.0,1200.0,1528.0,1636.0,1021.7000000000002,135.0,293.35,1637168660.6711817,1637168661.7178142,b3674fdc-405d-4cb2-9e94-d48090d48c9d
0.6032003035676128,1.2633058997366204,0.0825393591173467,-0.4061949834351613,-0.3270151637769727,-0.7314472591948311,-0.5290942330161355,-0.5514470239412739,-13.056318286174848,21.12739332172582,16.897912406768114,-0.5870959327048567,4.736411006072669,1.241543627677586,5829.582845052083,11.996,0.31,178.99530239588523,1.0462104552830989,83.82100812339387,1729.0,1435.0,1200.0,1528.0,1636.0,1021.7000000000002,135.0,293.35,1637168661.826085,1637168662.9457057,b3674fdc-405d-4cb2-9e94-d48090d48c9d
0.6129796454679713,1.2717703729671923,0.0908531700892324,-0.4030995605979415,-0.3224268159432473,-0.7432126080995219,-0.5235882149927916,-0.5582542154769737,-12.751571338390214,21.202168194408983,16.860300099303046,-0.6194596879875535,4.766481566606237,1.2173028181801022,5826.9384765625,11.998444444444443,0.31,178.9742942518181,1.0445720399400074,83.67577098088273,1729.0,1435.0,1200.0,1528.0,1636.0,1021.7000000000002,135.0,293.35,1637168663.0541017,1637168664.062518,b3674fdc-405d-4cb2-9e94-d48090d48c9d
0.8383838887838849,1.6456179672928204,0.1233414065390807,-0.5864691340817231,-0.3921560079783266,-0.9347453788787258,-0.593728312230102,-0.6228745989519865,-12.960022146270203,22.23555945204858,17.54496294255934,-0.6277501826539734,6.188698382752269,1.4118795644439206,5834.87158203125,11.975222222222222,0.3722222222222222,178.85179860360347,1.0422283364173084,83.36492451829601,1796.0,1435.0,1200.0,1528.0,1690.0,1021.7000000000002,135.0,293.35,1637168665.619796,1637168666.7236688,2a2a1f1d-6f58-45b1-8179-11ece56869d6
0.8184143081619197,1.6327705933619745,0.1123704633076482,-0.5883044733587038,-0.4032091329864514,-0.9234731045948288,-0.5961936936322599,-0.631777365159975,-12.328340511019151,22.14739518995944,17.06388782777267,-0.5991692464733862,6.139834763690761,1.4436278957410575,5830.464301215277,11.977222222222222,0.3655555555555556,178.84328059879851,1.054636892864452,83.18988498370635,1796.0,1435.0,1200.0,1528.0,1690.0,1021.7000000000002,135.0,293.35,1637168666.831972,1637168667.9597332,2a2a1f1d-6f58-45b1-8179-11ece56869d6
0.8222904338362756,1.6334965110314588,0.1121924080613989,-0.5870032998182961,-0.4023462496603446,-0.9272259636546258,-0.5901261161824133,-0.6136157222850273,-11.77524631350626,21.704907082474705,16.827022270163766,-0.613239067884528,6.140563070628789,1.434389953244884,5822.97998046875,11.976,0.37,178.82178827021022,1.0352992517999382,83.04735487283625,1796.0,1435.0,1200.0,1528.0,1690.0,1021.7000000000002,135.0,293.35,1637168668.091594,1637168669.089717,2a2a1f1d-6f58-45b1-8179-11ece56869d6
-0.2913082301865308,-0.3816507455554616,0.0039758987764762,0.4012308687858665,-0.0197328446355981,0.1120828355671574,-0.2387271349089215,-0.2534509379515153,-13.806596943564656,24.540504335641497,14.162396170613809,-0.4950258207715767,-1.5079554646065798,0.31893973158467,5826.9384765625,12.02822222222222,0.2155555555555555,179.43438338340923,1.0614300021706893,82.74708154308472,1457.0,1435.0,1200.0,1528.0,1421.0,1021.7000000000002,135.0,293.35,1637168671.2297947,1637168672.3672917,78723c3d-54c0-4eef-9d69-45582490de53
-0.302936610264387,-0.3942241887756681,-0.0082825213932712,0.4016828551687694,-0.0231158946915307,0.123533158341214,-0.2497665624912677,-0.2743655857300647,-14.65635441085532,24.35528754975361,14.01511918038328,-0.4726044221744496,-1.5486297433912384,0.3537315512955811,5831.343370225694,12.028444444444444,0.2111111111111111,179.4279129175355,1.0632062900996833,82.84876636380822,1457.0,1435.0,1200.0,1528.0,1421.0,1021.7000000000002,135.0,293.35,1637168672.4748209,1637168673.6876645,78723c3d-54c0-4eef-9d69-45582490de53
-0.3000192429309197,-0.3849516167855535,0.0041402574687378,0.4026827038551244,-0.0224036736328116,0.1131511671109597,-0.2380149138168635,-0.2718865078050668,-13.470898622921354,24.74826813720597,14.043695343014898,-0.4943645856669962,-1.5218244953504054,0.3209348059640153,5842.826171875,12.029333333333334,0.2166666666666666,179.4336502764383,1.053464365198966,82.93950390911203,1457.0,1435.0,1200.0,1528.0,1421.0,1021.7000000000002,135.0,293.35,1637168673.7963865,1637168674.8211997,78723c3d-54c0-4eef-9d69-45582490de53
-0.4464628743465851,-0.6810165104694453,0.0012776766824803,0.5393606500747496,0.0411209660557679,0.2727297650424137,-0.1757914418100571,-0.1962130131326559,-13.779623303622342,25.65641797785249,13.601516935208656,-0.4384303215518488,-2.6431378105043994,0.1138832454629695,5854.7998046875,12.005000000000004,0.28,179.5544990901531,1.078513977258282,83.10454404675677,1389.0,1435.0,1200.0,1528.0,1367.0,1021.7000000000002,135.0,293.35,1637168676.6181138,1637168677.584834,68bdce30-6ee0-4307-8e36-ca6e257193ff
-0.4561874332929665,-0.6761679269466768,0.0005791521803311,0.5372787733503083,0.0428056427582677,0.2681551146746499,-0.1794073335783637,-0.1937750253969658,-14.237879860455358,25.526888137332204,13.341577392526055,-0.4451795292824636,-2.61919556539986,0.1176235749416409,5858.80078125,12.009,0.28,179.5589144279965,1.0819537838471602,83.01873258566437,1389.0,1435.0,1200.0,1528.0,1367.0,1021.7000000000002,135.0,293.35,1637168677.721756,1637168678.7222831,68bdce30-6ee0-4307-8e36-ca6e257193ff
-0.4601046500197129,-0.6831942641122991,-0.0051734025392371,0.5382238358224507,0.0392993237521641,0.2736885240761956,-0.1826397217215907,-0.2024723412652234,-14.262307597559712,25.46784832190885,13.239519806048184,-0.4355834346791516,-2.644953214405525,0.1338642092505471,5858.80078125,12.006444444444444,0.2844444444444445,179.54138209130704,1.068098424950672,82.95513593539246,1389.0,1435.0,1200.0,1528.0,1367.0,1021.7000000000002,135.0,293.35,1637168678.859275,1637168679.8383782,68bdce30-6ee0-4307-8e36-ca6e257193ff
-0.7158057831169461,-1.1513155084244355,-0.0191575891532937,0.7692162742083731,0.1319154520051255,0.5211168357370909,-0.0984058803039996,-0.1202518934224948,-14.928333811785128,27.07147555786317,13.701284358745932,-0.3909686618707668,-4.429370573387591,-0.1482413660530423,5866.8212890625,11.998,0.3,179.7089205603682,1.0918751553671653,82.88888917172261,1321.0,1435.0,1200.0,1528.0,1314.0,1021.7000000000002,135.0,293.35,1637168681.6735508,1637168682.6989098,0e0a59c3-5bca-4ed8-962e-031e973e0d04
-0.7211063535059038,-1.1517811918111929,-0.0123640959284207,0.7777081397290558,0.132025024483743,0.5138028741261823,-0.0950228301142493,-0.123045991078329,-14.348942801681114,27.584689212446204,13.738195649445778,-0.4225217178014215,-4.436151255589803,-0.1622029099258959,5862.365451388889,11.998888888888889,0.2955555555555555,179.7144332819383,1.0761893413470156,82.78078397317927,1321.0,1435.0,1200.0,1528.0,1314.0,1021.7000000000002,135.0,293.35,1637168682.81874,1637168684.0399053,0e0a59c3-5bca-4ed8-962e-031e973e0d04
-0.7304748034762115,-1.1624371225360324,-0.019472610038933,0.7854603911629264,0.1186434870233762,0.5145698813417945,-0.0938312294865587,-0.1204847343253711,-12.808543748390834,27.72836110796062,13.34527587736052,-0.4369741043222254,-4.4849402757449575,-0.1367409727963364,5854.7998046875,11.999,0.3,179.708633692423,1.0825308755421896,82.70770777924932,1321.0,1435.0,1200.0,1528.0,1314.0,1021.7000000000002,135.0,293.35,1637168684.148492,1637168685.276429,0e0a59c3-5bca-4ed8-962e-031e973e0d04
-0.907927502247514,-1.5060156237835485,-0.0176509676971427,0.9385468133486338,0.2053563967064754,0.7089925118482364,-0.0217873285040881,-0.0380314483096271,-14.692100869392874,28.718571290494264,13.449168907494006,-0.3396826008760126,-5.779873935939031,-0.4017131974774813,5858.80078125,11.976666666666668,0.37,179.84199085923782,1.0881945253202074,82.6055668536712,1254.0,1435.0,1200.0,1528.0,1260.0,1021.7000000000002,135.0,293.35,1637168686.179615,1637168687.3138912,518b0ea6-8512-4468-b464-b8c1c11c5caa
-0.9093108554620092,-1.5140966025608396,-0.016623725782012,0.9445869952361772,0.2151220425637873,0.7082665943214864,-0.0234446121282993,-0.0501529025935815,-15.652509928281168,28.55151111650088,13.01603818543548,-0.3565478062593112,-5.80022754090972,-0.4161937888517943,5858.80078125,11.979,0.36,179.86005139722317,1.0767297563491585,82.42468978407095,1254.0,1435.0,1200.0,1528.0,1260.0,1021.7000000000002,135.0,293.35,1637168687.423024,1637168688.5418968,518b0ea6-8512-4468-b464-b8c1c11c5caa
-0.907776839967526,-1.5081385926246202,-0.0187877820845697,0.9470797686651332,0.2047811412735894,0.7026236127192687,-0.0279096903339945,-0.0517827929201684,-14.926076807243865,28.957097608947567,13.335574462665052,-0.3718538953385797,-5.786292163137449,-0.3912669341732509,5854.7998046875,11.978222222222222,0.36,179.85194168594862,1.0703661189029203,82.28794863797738,1254.0,1435.0,1200.0,1528.0,1260.0,1021.7000000000002,135.0,293.35,1637168688.6510165,1637168689.774413,518b0ea6-8512-4468-b464-b8c1c11c5caa
-0.0254853994836126,0.1177395141506616,0.0144811593785926,0.1479952113740681,-0.1049254425377346,-0.1383861373221457,-0.3454370381883366,-0.3744600519713179,-16.29495808009534,22.62793306655659,14.632164543452218,-0.4999587139808044,0.4103223704234955,0.6305006983124835,5846.8115234375,12.032333333333334,0.2022222222222222,179.40157722591573,1.0608963106360112,82.11912533444236,1525.0,1435.0,1200.0,1528.0,1475.0,1021.7000000000002,135.0,293.35,1637168691.6374483,1637168692.7338765,6d0d7616-74d1-44c9-9f43-68ca7041b154
-0.0262934965391159,0.1081519233376374,0.0224251634466293,0.1681702415144164,-0.1103492800788329,-0.1433442918989795,-0.3280834955240216,-0.3538467274644457,-13.727397244835569,23.07626409707804,15.310758997915087,-0.5518420588798626,0.3482033785922986,0.6039373103077071,5850.802734375,12.03133333333333,0.2055555555555555,179.39547103679777,1.071050762361443,82.39828199600994,1525.0,1435.0,1200.0,1528.0,1475.0,1021.7000000000002,135.0,293.35,1637168692.8424065,1637168693.8671694,6d0d7616-74d1-44c9-9f43-68ca7041b154
-0.0412090491540023,0.1048373561956488,0.019781727610392,0.1688687660024953,-0.1057198429779823,-0.1406734627766173,-0.3357261764739196,-0.3653244457403656,-14.897567985251404,23.03871218933722,15.287304779694324,-0.5483893838075169,0.3440075716445339,0.6108857579895307,5854.7998046875,12.032111111111112,0.2088888888888888,179.40279603522765,1.0784459955316992,82.70801513776195,1525.0,1435.0,1200.0,1528.0,1475.0,1021.7000000000002,135.0,293.35,1637168693.978139,1637168695.106161,6d0d7616-74d1-44c9-9f43-68ca7041b154
0.001222890354464,0.1037690246484512,-0.0013109729251282,-0.2967457648606846,-0.1833656394053184,0.3060534900017961,-0.2213735932675131,-0.2515060258861033,-13.087487072858218,22.070359288054856,18.05248278938883,1.4996603624136136,0.3586551955122304,0.583931582258058,5815.07861328125,12.031333333333333,0.2066666666666666,179.38611215981504,1.2121074615035594,83.25061674907639,1525.0,1535.0,1200.0,1528.0,1475.0,1021.7000000000002,135.0,293.35,1637168697.238479,1637168698.376571,17ae0a34-b23f-4eac-89c0-15408ad645f9
-0.0232665568713414,0.0995778777785358,-0.0057897476748046,-0.2892674427620623,-0.1848037781805967,0.3093543604049484,-0.2312762062438242,-0.228687557630157,-13.762901309460778,22.34225701662876,18.86136736390028,1.491576980860396,0.3393470781626806,0.6062100296612615,5809.824381510417,12.030666666666669,0.21,179.36705137857123,1.2241784690532838,83.33386309468051,1525.0,1535.0,1200.0,1528.0,1475.0,1021.7000000000002,135.0,293.35,1637168698.4850829,1637168699.4625924,17ae0a34-b23f-4eac-89c0-15408ad645f9
-0.0119258061611934,0.090086162813101,-0.0019136215179266,-0.2876238555016392,-0.1853105509060693,0.3119430098286029,-0.2204148340436658,-0.2531085238574482,-12.727752137352216,22.427363065479085,18.173021657919296,1.4948550165064738,0.3025664436846471,0.5847364433730062,5807.19970703125,12.027666666666669,0.22,179.35095489942725,1.228746122486828,83.41226683616308,1525.0,1535.0,1200.0,1528.0,1475.0,1021.7000000000002,135.0,293.35,1637168699.5705698,1637168700.7144554,17ae0a34-b23f-4eac-89c0-15408ad645f9
0.0032910706761149,0.0917571429354687,-0.0379629646146638,-0.7909040462075811,-0.2673666424398151,0.8001431006079347,-0.1277713037092486,-0.1559451270771438,-13.861528648385194,21.49958030017716,22.15820672777831,3.719301758585813,0.3412011247421225,0.6147324172330145,5813.32666015625,12.02,0.2444444444444444,179.38310687658023,1.355981696684078,83.50554597074805,1525.0,1636.0,1200.0,1528.0,1475.0,1021.7000000000002,135.0,293.35,1637168701.7444804,1637168702.884936,3de786d5-0963-432f-a080-85e64ae0a781
-0.0005713588991505,0.0889493484293067,-0.0366343983909093,-0.7885893268174126,-0.2643260060656516,0.7993897899572678,-0.1274699793823788,-0.1381259032157926,-14.06863439137594,21.51483605129603,21.970338848633475,3.712420616098315,0.3336005912690623,0.6076154428274351,5804.578287760417,12.022666666666668,0.24,179.36260264869185,1.363838050629081,83.4663437205518,1525.0,1636.0,1200.0,1528.0,1475.0,1021.7000000000002,135.0,293.35,1637168702.997361,1637168704.1177027,3de786d5-0963-432f-a080-85e64ae0a781
0.000236738164215,0.0800328888491375,-0.0316625475043183,-0.7807274985318923,-0.2629426534759867,0.804169888469228,-0.1167318767588604,-0.1399749394788109,-13.151153752846009,21.66463434151528,22.49051441094784,3.707213128574036,0.2884042113601966,0.5839691551636483,5803.267578125,12.022,0.2322222222222222,179.36355432171618,1.378596879912813,83.4357201879531,1525.0,1636.0,1200.0,1528.0,1475.0,1021.7000000000002,135.0,293.35,1637168704.2524738,1637168705.2269669,3de786d5-0963-432f-a080-85e64ae0a781
0.0239454814319669,0.0754856315024771,-0.0621099982846148,-1.257395441984278,-0.3488200887101206,1.2711129381680075,-0.0317584233911985,-0.0513445035049796,-13.754386741801392,21.95300147382855,26.046201887110403,5.832401290432638,0.3008675089259993,0.6212015509001336,5800.658854166667,11.993,0.3166666666666666,179.4018352552844,1.5140748916126814,83.32923222642324,1525.0,1737.0,1200.0,1528.0,1475.0,1021.7000000000002,135.0,293.35,1637168707.1618052,1637168708.409198,e0714ec9-a3b4-41f9-80ee-229fff00f6ba
0.0163028015457556,0.069965918406391,-0.0701635750948783,-1.275940598968081,-0.3615168007373304,1.295438026320174,-0.0349497216590914,-0.0478792738431315,-13.563680243100636,22.25149471397782,26.25968172270868,5.9306041021256375,0.2787012029339039,0.6534980335765156,5878.030219184027,11.993000000000002,0.31,179.41047316785475,1.5183617958122166,83.12604092880453,1525.0,1737.0,1200.0,1528.0,1475.0,1021.7000000000002,135.0,293.35,1637168708.5222971,1637168709.6408403,e0714ec9-a3b4-41f9-80ee-229fff00f6ba
0.014440069588128,0.0780742810270766,-0.069122636560113,-1.287158090328903,-0.3579146051347382,1.296602233842426,-0.033717031317317,-0.0645890759382667,-14.034762150360756,21.91167470258276,26.1016277599541,5.9560609426121855,0.3152888629354309,0.6458875758006687,5952.37939453125,11.997555555555554,0.3044444444444444,179.41132314695145,1.51339451702239,82.92475070050482,1525.0,1737.0,1200.0,1528.0,1475.0,1021.7000000000002,135.0,293.35,1637168709.7487566,1637168710.8687656,e0714ec9-a3b4-41f9-80ee-229fff00f6ba
0.0255205855904585,0.0780605845007849,-0.0682871466620782,-1.4663092582089596,-0.3891290682001508,1.47084986010762,-0.0005850554904541,-0.0294163127642398,-14.229990658969603,23.18626877964678,27.53427178249021,6.760360905841185,0.3260537093940351,0.6398795657554929,5976.821885850694,11.985555555555557,0.33,179.4322842386043,1.610671256978443,82.65561392644962,1525.0,1837.0,1200.0,1528.0,1475.0,1021.7000000000002,135.0,293.35,1637168711.6676636,1637168712.7129552,23277d2c-d498-494a-a9c7-3c1ec0ebff27
0.0142757108560133,0.0614877486753197,-0.0683145397533758,-1.4670762653364793,-0.3896906271490293,1.4872446418493304,0.0053181613149633,-0.0288684500894496,-13.909574013254437,23.3984333368532,27.474479438325144,6.800489208467123,0.2622539032264313,0.6303174731565502,5962.046712239583,11.983111111111112,0.3411111111111111,179.4134845223688,1.5806694613216847,82.43586852701252,1525.0,1837.0,1200.0,1528.0,1475.0,1021.7000000000002,135.0,293.35,1637168712.8206494,1637168713.9413917,23277d2c-d498-494a-a9c7-3c1ec0ebff27
0.0364641359743863,0.0891958865044716,-0.0706292581733376,-1.4811015574387032,-0.3978674742336639,1.473219364914257,-0.0025299668216258,-0.0194452173580423,-13.887939222535598,23.26866709191096,27.46648589911571,6.79964428382178,0.3676718593977036,0.6590707392201028,5944.581868489583,11.981000000000002,0.3411111111111111,179.38836460442133,1.59275765106604,82.25610477824696,1525.0,1837.0,1200.0,1528.0,1475.0,1021.7000000000002,135.0,293.35,1637168714.0499775,1637168715.0641048,23277d2c-d498-494a-a9c7-3c1ec0ebff27
-0.0457563068406747,0.0944005787393714,0.0608851001173231,0.7540267921675549,-0.0190480166837876,-0.6937680114947958,-0.4481612479413955,-0.4720343559578317,-13.398114771222586,25.09143273012632,11.501718274796984,-3.0954340794823394,0.2583971768376746,0.5956255231126573,5927.720160590277,12.03077777777778,0.22,179.38064345501957,0.9017571006951411,82.08654229646176,1525.0,1334.0,1200.0,1528.0,1475.0,1021.7000000000002,135.0,293.35,1637168715.6394494,1637168716.684346,d8527c96-065d-43a5-b5eb-f7cb0f5bffb0
-0.0517964894669792,0.1041799214173147,0.063569625578689,0.7377278890119118,-0.0115559989721657,-0.6901932084254394,-0.4478599236441661,-0.4707879685374297,-14.4645245444008,24.73996507798784,11.260031001328947,-3.053406267357433,0.3069364798746882,0.5814307942735351,5868.166232638889,12.027444444444445,0.22,179.39326412678597,0.935775095015736,82.41596915032066,1525.0,1334.0,1200.0,1528.0,1475.0,1021.7000000000002,135.0,293.35,1637168716.792508,1637168717.9324872,d8527c96-065d-43a5-b5eb-f7cb0f5bffb0
-0.0497967917649317,0.1104255520305697,0.0690208558819025,0.7280855126759823,-0.0108437778996018,-0.6858240044073846,-0.4383134200994994,-0.4628028737553408,-13.92274551894109,24.67442561995537,11.544335601686916,-3.021682240475471,0.3255386790681463,0.5609158504940989,5850.802734375,12.029,0.21,179.39009643683087,0.922524943054767,82.72423911377047,1525.0,1334.0,1200.0,1528.0,1475.0,1021.7000000000002,135.0,293.35,1637168718.047942,1637168719.1548915,d8527c96-065d-43a5-b5eb-f7cb0f5bffb0
-0.0842162450018549,0.1090969858586809,0.0959072001318588,1.2942875154144429,0.0689797661843193,-1.230111873724929,-0.5808809362641995,-0.6141361921502355,-15.009332173877596,27.01399054799936,7.637616200588799,-5.50630444993156,0.2949040397233968,0.6161036118162372,5846.8115234375,12.020555555555555,0.24,179.40104902461994,0.7686792067974447,83.12211660567141,1525.0,1234.0,1200.0,1528.0,1475.0,1021.7000000000002,135.0,293.35,1637168720.1755266,1637168721.2029114,0cb37f65-06b3-4109-9a03-a5959b73367d
-0.0756148058893817,0.1132333464825172,0.1027691759233331,1.2910962172356804,0.0729243750743884,-1.230974757670492,-0.5752790420506512,-0.6120543145485323,-14.927905563882817,27.14181464790381,7.719312589460498,-5.499801625610101,0.3099476139870703,0.5939936060290049,5846.8115234375,12.018666666666666,0.2488888888888889,179.41658694607182,0.7649396367239772,83.33996700706876,1525.0,1234.0,1200.0,1528.0,1475.0,1021.7000000000002,135.0,293.35,1637168721.3116777,1637168722.4270766,0cb37f65-06b3-4109-9a03-a5959b73367d
-0.0815454159704575,0.1049606252488386,0.0954141240613658,1.293315059797704,0.0675142344471244,-1.22475651481707,-0.5758679942425674,-0.60034375344249,-14.516114097430792,26.90935477305597,7.711453263373662,-5.492534773406194,0.2753315773812422,0.6116174524139276,5838.84619140625,12.017,0.26,179.41152957044636,0.7650956460708787,83.53061124718218,1525.0,1234.0,1200.0,1528.0,1475.0,1021.7000000000002,135.0,293.35,1637168722.5377035,1637168723.6526687,0cb37f65-06b3-4109-9a03-a5959b73367d
-0.1117052395449161,0.1121102287056034,0.1355313433818767,1.6687240662615554,0.1224922198601197,-1.5961664816171972,-0.6525687478966306,-0.688494835463129,-13.638316392316876,29.545314663103493,4.875736675219368,-7.154511805468085,0.2774340234800883,0.5909460071605617,5837.963541666667,12.008888888888889,0.28,179.40609273986703,0.6507540460705359,83.73498796207683,1525.0,1133.0,1200.0,1528.0,1475.0,1021.7000000000002,135.0,293.35,1637168724.6826124,1637168725.7031882,ac3b5b03-308c-41c6-9bd7-1bf88ad8d500
-0.0897907446286156,0.1233140134090569,0.1456804930130359,1.6499049909116603,0.1350519638031797,-1.5882909494071142,-0.6473366607059883,-0.6759761761403228,-14.863910680819751,29.475617794303275,5.15880591069978,-7.094891688891155,0.3285798984892256,0.5533168096158271,5824.739312065973,12.008222222222225,0.2788888888888889,179.4127620401366,0.6250730802577843,83.91112791603275,1525.0,1133.0,1200.0,1528.0,1475.0,1021.7000000000002,135.0,293.35,1637168725.8133018,1637168726.9382555,ac3b5b03-308c-41c6-9bd7-1bf88ad8d500
-0.0884895714864606,0.1354354674944395,0.1419413326113832,1.6287848945568963,0.132011327913888,-1.5767173435784712,-0.6488432827858652,-0.6638821108321042,-15.306219699341304,29.13008243767938,5.7137496792994815,-7.02385345503733,0.3746122560028635,0.5665969719281864,5826.498643663194,12.003222222222222,0.2888888888888888,179.41396567125037,0.6386012422623139,84.00808472803081,1525.0,1133.0,1200.0,1528.0,1475.0,1021.7000000000002,135.0,293.35,1637168727.0739577,1637168728.07277,ac3b5b03-308c-41c6-9bd7-1bf88ad8d500
-0.0973353573292734,0.1193157141009612,0.1486504546382985,1.8076740390122208,0.1479404250324031,-1.7280902660980102,-0.6937471930424204,-0.7215041022825305,-15.067227454871809,30.714676617515405,5.199923514110695,-7.756661773883925,0.2954429936553101,0.5980993989223772,5826.058810763889,11.98488888888889,0.3377777777777778,179.41400513456557,0.5599862036602575,84.07937065348831,1525.0,1033.0,1200.0,1528.0,1475.0,1021.7000000000002,135.0,293.35,1637168728.6244657,1637168729.7112534,695ecc3e-4b7c-4f74-9ba3-0495072d3868
-0.0966647737222497,0.1271786342934322,0.1703721001142495,1.8128414780087696,0.1572102555461784,-1.7430009092325391,-0.6829258118270322,-0.7175200458013004,-14.633609678633894,31.68942826126329,4.96331624725257,-7.7941005613360606,0.3247190745060982,0.541023411936702,5822.97998046875,11.987222222222222,0.3288888888888889,179.40619291597488,0.5644344532919832,84.07076082058455,1525.0,1033.0,1200.0,1528.0,1475.0,1021.7000000000002,135.0,293.35,1637168729.820197,1637168730.8796957,695ecc3e-4b7c-4f74-9ba3-0495072d3868
-0.1010082267547804,0.1246562761312517,0.1478856388129636,1.8039913070576648,0.1420098153406053,-1.7331459462836185,-0.6967401661492761,-0.7220514173679025,-14.75462091771112,30.941663391990588,4.724435855315058,-7.758167018574339,0.317883818635424,0.61154972614381,5819.0263671875,11.988111111111111,0.3222222222222222,179.41100288697038,0.545931719847732,84.10554166165808,1525.0,1033.0,1200.0,1528.0,1475.0,1021.7000000000002,135.0,293.35,1637168731.0144627,1637168732.058408,695ecc3e-4b7c-4f74-9ba3-0495072d3868
-0.0432635330767371,0.1027965690236106,0.0283694699433837,0.1707999806527315,-0.1001590398511282,-0.1374821644769116,-0.3257139904955082,-0.3412732843164645,-14.538268244089071,23.216211362794382,15.77677882245983,-0.5437112944877888,0.32978180110975,0.5779892610694204,5826.9384765625,12.036,0.2,179.40084715458448,1.003247960647386,84.08238807928166,1525.0,1435.0,1200.0,1528.0,1475.0,1021.7000000000002,135.0,293.35,1637168733.6428826,1637168734.6314175,f007ccee-9924-417c-bcfb-fad93b8c56cb
-0.0342648937673072,0.0950306204191228,0.0232332603947949,0.1756759553896648,-0.1075825750910464,-0.1371260538567924,-0.3320691947501067,-0.355873818242798,-14.306587490945324,23.57733915895515,15.33441271533792,-0.5517257534395866,0.302015851753892,0.6026430205637678,5854.357421875,12.033111111111111,0.2,179.38572056230262,1.04238176665632,84.18694461509621,1525.0,1435.0,1200.0,1528.0,1475.0,1021.7000000000002,135.0,293.35,1637168734.7404394,1637168735.8519242,f007ccee-9924-417c-bcfb-fad93b8c56cb
-0.0440853265893358,0.1014406097506697,0.0309718160640869,0.180195819541449,-0.1016930545347232,-0.1466177696804106,-0.3289463788996343,-0.3414239470486986,-14.35382563450221,23.71679350121859,15.509894721638773,-0.5819366299435713,0.3247727125601497,0.5805990254977376,5858.80078125,12.034,0.2088888888888888,179.40992523490132,1.0273649554358124,84.25206970992238,1525.0,1435.0,1200.0,1528.0,1475.0,1021.7000000000002,135.0,293.35,1637168735.9627123,1637168737.0893223,f007ccee-9924-417c-bcfb-fad93b8c56cb
0.0263971653750752,0.1287926366870058,0.2134921521735659,0.1519946062705824,0.0650351573497459,-0.1581776660330007,-0.1351263561759131,-0.1573421767847579,-13.145437947892557,23.26189343121449,15.432775566675758,-0.5376295477419236,0.4345255518114314,-0.1672592389742164,5858.80078125,12.030555555555557,0.21,179.3856507425911,1.0288074415850563,84.34978694964803,1525.0,1435.0,1200.0,1439.0,1475.0,1021.7000000000002,135.0,293.35,1637168739.1347778,1637168740.2453992,c11536a6-f015-4d4d-b0fb-2bd8487041dd
0.0190010236531757,0.1205336120693761,0.2084518188265708,0.1644310811347313,0.0645420812400113,-0.1583557212816279,-0.1430840572882845,-0.170230639420464,-13.58131795638826,23.3747298436685,15.835740900625538,-0.5657414466291796,0.4012139551389813,-0.1490601346092351,5854.7998046875,12.03288888888889,0.2022222222222222,179.39750643317043,1.0432495089880618,84.36945561772794,1525.0,1435.0,1200.0,1439.0,1475.0,1021.7000000000002,135.0,293.35,1637168740.3547738,1637168741.5702658,c11536a6-f015-4d4d-b0fb-2bd8487041dd
0.0248905438467742,0.1186023973605504,0.2084244257201724,0.1678278275381381,0.0572418155394338,-0.1610402470157629,-0.1398927588771371,-0.172339909234561,-12.476204013815112,23.62316767456377,15.633178203070669,-0.5772666051259733,0.3875285736541625,-0.1434420197124416,5874.86328125,12.032666666666666,0.21,179.39891648777908,1.034912184031036,84.39628308296794,1525.0,1435.0,1200.0,1439.0,1475.0,1021.7000000000002,135.0,293.35,1637168742.6808832,1637168743.856476,c11536a6-f015-4d4d-b0fb-2bd8487041dd
0.1004955470402029,0.155857035793474,0.4444845972388935,0.1411743253827375,0.2700863293736422,-0.1864747585511,0.1037416315029273,0.080799895344822,-10.927966379325648,23.45042860529805,15.558323451055807,-0.562921054404812,0.5352051519949076,-1.096681246837399,5882.031521267361,12.029,0.2177777777777777,179.39729090275665,1.0371862575696964,84.3865159124548,1525.0,1435.0,1200.0,1351.0,1475.0,1021.7000000000002,135.0,293.35,1637168745.636555,1637168746.7099724,ff1f7e04-487b-477b-b448-ee04281f8cb0
0.1001394366051098,0.1534464415526479,0.4368419182143213,0.1362161712877668,0.2584990414571749,-0.1835436947038925,0.1044538525750921,0.0814025446370269,-9.884390258740384,23.276349863275826,14.960379853366684,-0.5462547311258988,0.5242003392785889,-1.0718724394796455,5880.686469184027,12.03,0.21,179.41102110080817,1.0343690416964124,84.41036465630675,1525.0,1435.0,1200.0,1351.0,1475.0,1021.7000000000002,135.0,293.35,1637168746.8185368,1637168747.8581195,ff1f7e04-487b-477b-b448-ee04281f8cb0
0.1035087899991686,0.1595551064975441,0.4300347291624474,0.1346821567731537,0.2621971120766196,-0.182160342099092,0.0911407978146922,0.0691852138102342,-11.512713617205634,22.93833494770917,15.741926678666118,-0.5429605599104746,0.5514611875274501,-1.0478474405192575,5837.975694444444,12.027,0.22,179.40553721781458,1.0459858298083635,84.38429837770428,1525.0,1435.0,1200.0,1351.0,1475.0,1021.7000000000002,135.0,293.35,1637168747.967673,1637168749.01974,ff1f7e04-487b-477b-b448-ee04281f8cb0
0.1659240059502346,0.1995627526857264,0.6605340922718436,0.12661488394945,0.4576606854889505,-0.2299476399018893,0.3156136872995408,0.2912886004295599,-9.31159072917603,23.91063399228271,15.1937737440983,-0.6132037800380173,0.7064156181358081,-1.942736141869736,5762.094346788194,12.02511111111111,0.2288888888888889,179.37394835181317,1.0335805580181645,84.33570158175962,1525.0,1435.0,1200.0,1262.0,1475.0,1021.7000000000002,135.0,293.35,1637168749.6355336,1637168750.6006143,97068dd4-62a2-4713-884c-870d1415dfab
0.1668416753404799,0.1976863242242054,0.6585343949123322,0.1278612707538246,0.464550053850344,-0.2269207000888927,0.3132715759372907,0.2997667697868348,-10.217062107518688,23.515441410987663,15.51854651281876,-0.6123367568979053,0.7026211922650593,-1.946288315257236,5744.92333984375,12.024333333333333,0.23,179.38163610917894,1.0148797372300156,84.33094549336758,1525.0,1435.0,1200.0,1262.0,1475.0,1021.7000000000002,135.0,293.35,1637168750.7089088,1637168751.830496,97068dd4-62a2-4713-884c-870d1415dfab
0.1827981654735893,0.2046030860339741,0.6759975054121683,0.1307101548562931,0.4695766904111767,-0.2359878229119899,0.3310497077901786,0.2972055135813213,-8.884617486670043,23.965154650906204,15.689003702061834,-0.6345895368345155,0.7183857174858533,-2.0004016266743867,5766.835774739583,12.024333333333333,0.2233333333333333,179.38914021034708,1.0222665868173846,84.34216294071446,1525.0,1435.0,1200.0,1262.0,1475.0,1021.7000000000002,135.0,293.35,1637168751.9391675,1637168752.9456062,97068dd4-62a2-4713-884c-870d1415dfab
0.2342698304604608,0.2365160660507969,0.8687628530204824,0.1312443206121162,0.6431531611140694,-0.2774473110156952,0.5177063929565794,0.5007500548305727,-7.957947412605944,24.32321239084347,15.76180898436686,-0.7165093863636116,0.8430353814493818,-2.7608688586611465,5841.501302083333,12.014444444444443,0.2555555555555555,179.36653531983396,1.0156997749592729,84.31830584885353,1525.0,1435.0,1200.0,1182.888888888889,1475.0,1021.7000000000002,135.0,293.35,1637168754.6191466,1637168755.6084902,ade971b4-a096-4623-9f32-c1a86d073ade
0.2560199643868314,0.2479116022049185,0.8724472269487369,0.1110829868002695,0.6533981859420428,-0.2730507151377107,0.5205415803243354,0.4952440387859392,-9.146656492601451,23.75558634663102,15.373403253158846,-0.665390303256228,0.9003376261191741,-2.783825918806273,5835.315592447917,12.018111111111113,0.25,179.35286735239487,1.0181090767571257,84.2519649803551,1525.0,1435.0,1200.0,1173.0,1475.0,1021.7000000000002,135.0,293.35,1637168755.716781,1637168756.843743,ade971b4-a096-4623-9f32-c1a86d073ade
0.2310511394171728,0.2305991530285025,0.8703516536738336,0.1368051232824047,0.6476456318939047,-0.2799537815282385,0.5202813457368302,0.4992708265740357,-8.005966890357032,24.21785234289095,15.32708110340138,-0.7353983714368993,0.8244504932826594,-2.774090334809427,5826.9384765625,12.016,0.25,179.31574299752612,1.0367607106968766,84.19851495555021,1525.0,1435.0,1200.0,1173.0,1475.0,1021.7000000000002,135.0,293.35,1637168756.960458,1637168758.1747866,ade971b4-a096-4623-9f32-c1a86d073ade
-0.1220598385508361,0.0534889584721337,-0.2344675047848998,0.2160397118823339,-0.3445741548630596,-0.1181974086844716,-0.6009053113571543,-0.6185738797850195,-15.452423045866816,24.137573638532448,15.494793228228213,-0.6099104402448138,0.1316008607522032,1.6539963072549595,5825.62255859375,12.030444444444443,0.2077777777777777,179.39152166963763,1.031036822444929,84.4178998727811,1525.0,1435.0,1200.0,1617.0,1475.0,1021.7000000000002,135.0,293.35,1637168759.1815236,1637168760.230522,c3383302-8871-4974-9f1d-f92b4e9b83d7
-0.1266892756057515,0.0454079888745164,-0.2405213843160708,0.2159027463508442,-0.3439441129901171,-0.1102944938464107,-0.6054662667530902,-0.6377216745388994,-16.055792726361855,23.931741686378466,15.43959189615304,-0.5938210227110143,0.1056816507911829,1.666489770942711,5837.079698350694,12.03188888888889,0.21,179.3906033886493,1.034425272177392,84.3997733096338,1525.0,1435.0,1200.0,1617.0,1475.0,1021.7000000000002,135.0,293.35,1637168760.339021,1637168761.4627693,c3383302-8871-4974-9f1d-f92b4e9b83d7
-0.1183206778099955,0.0549544902094901,-0.2348647049770786,0.2105336955579217,-0.3445878514172897,-0.1181563190147323,-0.6009464009364657,-0.6240388079265667,-15.558178089441222,24.04549232140791,14.984297938175212,-0.5981626888151552,0.143021677326933,1.6539877713135125,5844.154622395833,12.032333333333334,0.2033333333333333,179.3882067511605,1.0415744643839528,84.38675952253521,1525.0,1435.0,1200.0,1617.0,1475.0,1021.7000000000002,135.0,293.35,1637168761.5718243,1637168762.7776384,c3383302-8871-4974-9f1d-f92b4e9b83d7
-0.2132515332697937,0.0139332969997857,-0.4987837408034325,0.2724832269665844,-0.5789771140667362,-0.1238129980088886,-0.886670431364899,-0.9180081776076952,-17.68145860599382,24.4874439391818,14.465948321455189,-0.7619800555256622,-0.0155614384136028,2.7329775348866163,5859.24609375,12.024888888888889,0.23,179.38828112433146,1.024096508332517,84.38089997913724,1525.0,1435.0,1200.0,1706.0,1475.0,1021.7000000000002,135.0,293.35,1637168763.687196,1637168764.7292233,b4c36db1-491a-4c47-82ab-6b6d5d7563e8
-0.2164888522737998,0.003331064802966,-0.5059706008578404,0.2770606165925859,-0.5722137513087102,-0.1062238764410976,-0.884455970529494,-0.8987617600436595,-18.33834321651581,23.641371092431896,16.08236963012043,-0.738819989206054,-0.0660368208231802,2.7313341036024226,5855.688910590277,12.027555555555557,0.2222222222222222,179.3790558154925,1.0159391043134716,84.28272739346693,1525.0,1435.0,1200.0,1706.0,1475.0,1021.7000000000002,135.0,293.35,1637168764.8370268,1637168766.049806,b4c36db1-491a-4c47-82ab-6b6d5d7563e8
-0.2158812728344795,0.0107146057136802,-0.4909082175770856,0.2762223872573087,-0.5713207354238964,-0.1187863606720154,-0.878205953650672,-0.8936008948021489,-17.661991576735552,24.60658114900384,15.282547577811377,-0.7577972664925919,-0.034967853136462,2.7005222348263707,5855.24609375,12.025111111111109,0.2344444444444444,179.40720378397202,1.0395265697137452,84.24202098383346,1525.0,1435.0,1200.0,1706.0,1475.0,1021.7000000000002,135.0,293.35,1637168766.1580307,1637168767.3969076,b4c36db1-491a-4c47-82ab-6b6d5d7563e8
-0.2923902587337701,-0.0246636058552978,-0.7215583399109132,0.3603466445202496,-0.7752625690981834,-0.1520279107098895,-1.140577398278671,-1.1614509706481249,-19.72798189841952,25.41403493529361,14.74488466971674,-1.0295169827293906,-0.1732355825099184,3.660183249100738,5850.802734375,12.009999999999998,0.2633333333333333,179.4267016973227,1.0200431823730358,84.18238887891981,1525.0,1435.0,1200.0,1795.0,1475.0,1021.7000000000002,135.0,293.35,1637168768.192831,1637168769.3304746,78a52545-34b6-4392-9246-72178761b96f
-0.2880895385825344,-0.0298819948218293,-0.71803832290072,0.3612369207639581,-0.7733724431407077,-0.1481380878539596,-1.1328662299670185,-1.164368340501517,-19.25193678151554,25.42847466067533,14.728061662363416,-1.0222763331481284,-0.1959141591743371,3.641511234442752,5846.8115234375,12.017,0.2522222222222222,179.42998170594413,1.0041864476120932,84.07901396583166,1525.0,1435.0,1200.0,1795.0,1475.0,1021.7000000000002,135.0,293.35,1637168769.4383004,1637168770.560234,78a52545-34b6-4392-9246-72178761b96f
-0.2860213580074064,-0.0275261866697679,-0.7154496724195872,0.3609218999433661,-0.7714823173732928,-0.1516444070197297,-1.1325238159857989,-1.16692959941827,-19.35171115479513,25.50091195941091,14.52758022816632,-1.0289179793558385,-0.1843912849732253,3.6348206999926416,5845.925889756944,12.016555555555556,0.24,179.45466904524417,1.0174511137250484,83.9874006384943,1525.0,1435.0,1200.0,1795.0,1475.0,1021.7000000000002,135.0,293.35,1637168770.6688662,1637168771.78819,78a52545-34b6-4392-9246-72178761b96f
-0.3486968197188285,-0.0636987991713859,-0.8915874990550451,0.4528942834855956,-0.9273629300238664,-0.192665603573307,-1.3366574997983105,-1.3500253553867871,-20.47518245147207,26.439937616307816,14.228024741654162,-1.331724100167082,-0.3319280109504771,4.372709818396877,5844.154622395833,11.976666666666668,0.3666666666666666,179.4530389067623,1.0077850205252727,83.84046505560951,1525.0,1435.0,1200.0,1883.0,1475.0,1021.7000000000002,135.0,293.35,1637168772.6986265,1637168773.836581,d701773e-1937-402a-8cf2-9953f31a419a
-0.3571612946859051,-0.0607540389641212,-0.898134457690845,0.4433888726412382,-0.9334852951982132,-0.1883511872226351,-1.34277986750263,-1.369447094588611,-20.69271190424753,26.34442999497761,13.960918831296246,-1.3016983559355235,-0.3162227393231659,4.398473190629533,5848.141927083333,11.977333333333334,0.3666666666666666,179.43804891826383,0.9864636601096276,83.55385893438718,1525.0,1435.0,1200.0,1883.0,1475.0,1021.7000000000002,135.0,293.35,1637168773.94504,1637168774.9688911,d701773e-1937-402a-8cf2-9953f31a419a
-0.335465941988453,-0.0390175996849682,-0.8662899421055025,0.4368008285127058,-0.9068454738279282,-0.2031571685440635,-1.3173042442802896,-1.3329731225692436,-20.83827850555889,26.369672457961343,14.242385568345734,-1.3183837869007249,-0.2333318945315198,4.285366524105243,5846.368706597223,11.976333333333336,0.36,179.44343414296944,1.0059070861005055,83.32437216737382,1525.0,1435.0,1200.0,1883.0,1475.0,1021.7000000000002,135.0,293.35,1637168775.0771587,1637168776.2016666,d701773e-1937-402a-8cf2-9953f31a419a
-0.046756155646429,0.0718697400693092,-0.0268550552697832,0.1811545786338863,-0.1268673307532223,-0.1177317256078696,-0.3455603071622099,-0.3647491898777084,-13.891171191297834,20.59973255515681,15.371377113096344,-0.5425205153848958,0.2079802736047021,0.7152041910364595,7899.9326171875,11.819222222222225,7.227777777777778,179.3288842814892,0.785701591602834,70.92697776715372,1525.0,1435.0,1350.0,1528.0,1475.0,1021.7000000000002,135.0,293.35,1637168781.1610603,1637168782.2336297,e84a4129-fcd4-4c78-bc1a-3f62d00dcb15
-0.0646027721514305,0.0633641772351277,-0.0325391272882685,0.1842910904395317,-0.1296203392630903,-0.1105273353221286,-0.3497103651689846,-0.3641602377263711,-14.057920005566402,20.612885204017903,15.584124323589554,-0.533652352961076,0.1746275870609475,0.7317870812175707,7907.22021484375,11.81988888888889,7.234444444444445,179.31987753870368,0.7158597471911659,65.77944212684919,1525.0,1435.0,1350.0,1528.0,1475.0,1021.7000000000002,135.0,293.35,1637168782.3418598,1637168783.4616797,e84a4129-fcd4-4c78-bc1a-3f62d00dcb15
-0.0526730691764335,0.0681990623778772,-0.0281425318258246,0.1826748965726506,-0.1263331649427497,-0.1164168559466088,-0.3475737016516148,-0.3749942177534368,-14.115728782405512,20.62892542883804,15.23424636414964,-0.5430007731382555,0.1967494425681235,0.7183050021723489,7907.22021484375,11.81611111111111,7.25,179.3244810862043,0.6702229014723081,60.9952900053172,1525.0,1435.0,1350.0,1528.0,1475.0,1021.7000000000002,135.0,293.35,1637168783.5697136,1637168784.6917346,e84a4129-fcd4-4c78-bc1a-3f62d00dcb15
0.1288063331409108,0.4004501650212878,-0.014185738251293,0.0146181248159187,-0.191131588811525,-0.2806249130379381,-0.4029899879810623,-0.4394913254951762,-13.603008939682708,19.75946292088311,16.018209197411654,-0.5375890584505179,1.453877363101779,0.9069891276162336,7899.9326171875,11.806333333333336,7.296666666666665,179.28498134332418,0.6883454684846311,54.97625068604058,1593.0,1435.0,1350.0,1528.0,1529.0,1021.7000000000002,135.0,293.35,1637168785.7181044,1637168786.7434664,79ceda51-76f7-45fc-9382-fb8d2a131ee7
0.1156439406759393,0.3878082424442471,-0.022513246072451,0.0180559611778931,-0.1958021157190712,-0.2722426179547347,-0.4097697858663182,-0.4423128171281416,-13.833281850772414,19.82383080918389,15.841351899336251,-0.5266398961132225,1.408709664847964,0.932418426080981,7895.891004774306,11.806111111111113,7.34,179.28932989709577,0.7208830133736419,52.30762064523573,1593.0,1435.0,1350.0,1528.0,1529.0,1021.7000000000002,135.0,293.35,1637168786.8527825,1637168787.9684422,79ceda51-76f7-45fc-9382-fb8d2a131ee7
0.1231770476891698,0.4001077510847137,-0.0126791167655131,0.0123034065038256,-0.1872691589195247,-0.2748586610209154,-0.4001547997941732,-0.4238772454528859,-13.857752964845965,19.622941474123973,16.506650193925193,-0.5202904516512529,1.450445265833725,0.8961430211527937,7899.9326171875,11.805333333333335,7.333333333333333,179.28711084452542,0.7616402818288909,49.65529312761483,1593.0,1435.0,1350.0,1528.0,1529.0,1021.7000000000002,135.0,293.35,1637168788.0759964,1637168789.2239292,79ceda51-76f7-45fc-9382-fb8d2a131ee7
0.3678660545957133,0.8514230113324096,-0.0034887257678032,-0.2087042752790104,-0.2870212066739964,-0.5128501102150417,-0.4947843445980616,-0.5186711507576197,-13.402474614546913,18.916507822760952,16.28425957502391,-0.5605815209475907,3.169682000542874,1.207179745834629,7899.9326171875,11.794333333333334,7.361111111111111,179.1952766744049,0.8265453164977333,46.88720870230543,1661.0,1435.0,1350.0,1528.0,1583.0,1021.7000000000002,135.0,293.35,1637168790.2217674,1637168791.247289,b23ad8a9-8332-4297-98bf-a424c838accf
0.3742349538727373,0.8476975477174683,-0.0014068488650711,-0.2020340506100575,-0.2836929425359071,-0.5179315348029018,-0.4926750741288566,-0.5117543859844537,-13.31903025772892,18.887423049516496,15.932392614982858,-0.5871497818877658,3.1575474754784536,1.1959872685774715,7899.9326171875,11.795,7.393333333333333,179.20330442340935,0.8684422956939406,45.46657944299669,1661.0,1435.0,1350.0,1528.0,1583.0,1021.7000000000002,135.0,293.35,1637168791.3558905,1637168792.4733226,b23ad8a9-8332-4297-98bf-a424c838accf
0.3632640112572201,0.8366170328099782,-0.0081318592274673,-0.1985277313412536,-0.2857885162282398,-0.507481057916096,-0.4953048140010721,-0.5201640753281699,-13.456758892627628,18.75806655238466,16.299653916585154,-0.5727787281482511,3.1128483628991432,1.2109173976801386,7908.031358506944,11.794333333333334,7.398888888888889,179.20086225132616,0.91708589503555,44.2606423815041,1661.0,1435.0,1350.0,1528.0,1583.0,1021.7000000000002,135.0,293.35,1637168792.5822563,1637168793.7024934,b23ad8a9-8332-4297-98bf-a424c838accf
0.6000637919585741,1.2495682515222597,0.0203706796232133,-0.390950710710551,-0.36184551818527,-0.7324745016274269,-0.5676500565913706,-0.5803604681693457,-12.907046174273836,18.658017389807664,16.475289746235358,-0.6432492333133067,4.681715717480425,1.4276150622187131,7914.5205078125,11.778888888888888,7.484444444444445,179.08588891811738,0.9570901114188703,42.71582586379629,1729.0,1435.0,1350.0,1528.0,1636.0,1021.7000000000002,135.0,293.35,1637168794.7258484,1637168795.7548916,82b8cfae-4a56-43f5-a3e1-b04eb6a2e87f
0.5972423011539439,1.2619773335403817,0.0264382551508687,-0.4029488983579022,-0.3583391985592642,-0.7329675779244225,-0.5622125212171384,-0.5860445422657323,-12.976647162074403,18.541912545460047,16.609019814074724,-0.6177735361361739,4.72942460875144,1.4084105543893493,7914.5205078125,11.78077777777778,7.46,179.1020521813333,1.0019531061911395,41.93638137173239,1729.0,1435.0,1350.0,1528.0,1636.0,1021.7000000000002,135.0,293.35,1637168795.893873,1637168796.979049,82b8cfae-4a56-43f5-a3e1-b04eb6a2e87f
0.5981325773922195,1.2475000711867794,0.0115637923684003,-0.3942241888047998,-0.3700634547898735,-0.7257083988526479,-0.5755392766938193,-0.6028228315485219,-13.004574847512572,18.67730152922504,16.65645158390129,-0.6209916348833558,4.672888487531082,1.461945956058332,7915.333279079861,11.780888888888889,7.474444444444446,179.15248478034485,1.038196840975643,41.3024468502915,1729.0,1435.0,1350.0,1528.0,1636.0,1021.7000000000002,135.0,293.35,1637168797.0882027,1637168798.209057,82b8cfae-4a56-43f5-a3e1-b04eb6a2e87f
0.7958149885216081,1.6184439908842254,0.0498593704494848,-0.5891947500580957,-0.4354645352926886,-0.9095984830450714,-0.6296680938803233,-0.6542534258392175,-12.513120216133098,19.340769667734392,16.589677562015304,-0.5878695731897601,6.087711176477875,1.6190433459262696,7914.5205078125,11.749444444444444,7.584444444444443,179.03056438584028,1.109523688278342,40.123219243548256,1796.0,1435.0,1350.0,1528.0,1690.0,1021.7000000000002,135.0,293.35,1637168800.1448734,1637168801.2790425,ba69a748-f5e0-418b-afab-92700ac571c1
0.8089773801293352,1.6208956752359842,0.0425454081521368,-0.5863047751897442,-0.441326663641485,-0.9111461948456272,-0.6358315473696022,-0.6696620607063618,-12.433899371928836,19.14622144382867,17.039222167836172,-0.5994088959237076,6.091538691865986,1.6468642407731748,7920.209906684027,11.751888888888889,7.604444444444444,179.0284470271976,1.1289631774240734,39.69442262363953,1796.0,1435.0,1350.0,1528.0,1690.0,1021.7000000000002,135.0,293.35,1637168801.3874476,1637168802.5091312,ba69a748-f5e0-418b-afab-92700ac571c1
0.7875422679193683,1.6119244280769862,0.0385460130327465,-0.5792373487589427,-0.4423265126502984,-0.9108174773080532,-0.6418443386782258,-0.6670186246544526,-12.749408429866454,19.291324864143583,16.723088325819187,-0.6140590540820869,6.0618048114336105,1.6604889916235834,7921.83544921875,11.755888888888888,7.52,179.02245467456578,1.149476761248658,39.32801598724934,1796.0,1435.0,1350.0,1528.0,1690.0,1021.7000000000002,135.0,293.35,1637168802.6175337,1637168803.6451166,ba69a748-f5e0-418b-afab-92700ac571c1
-0.3086617726099156,-0.3937037194149156,-0.0458247895156709,0.3910817196668869,-0.0396065517063909,0.1326276730167097,-0.2555191178005959,-0.2781869262531766,-13.952994737977267,21.537549505863737,13.856295105329012,-0.4484740133531612,-1.551370759849186,0.4369514253891109,7929.16455078125,11.809333333333331,7.413333333333333,179.596831084809,1.2249862100704418,38.66945142420642,1457.0,1435.0,1350.0,1528.0,1421.0,1021.7000000000002,135.0,293.35,1637168805.641055,1637168806.8152473,cdb04bbb-afed-4a80-b6c3-4409eb1b222e
-0.3058265845134391,-0.3905124206185453,-0.0454549824145876,0.3963959839461555,-0.0380862336611512,0.1240947172086417,-0.2581488573469851,-0.2719275979844058,-14.101152885540898,21.49859803746688,13.776053740731406,-0.4799635526455555,-1.5382731614048115,0.4383527441822163,7923.464138454861,11.809555555555557,7.415555555555557,179.6095731821606,1.2324934298839645,38.54187221797453,1457.0,1435.0,1350.0,1528.0,1421.0,1021.7000000000002,135.0,293.35,1637168806.923566,1637168808.0349834,cdb04bbb-afed-4a80-b6c3-4409eb1b222e
-0.3148115283356587,-0.3899645581908815,-0.0464548312197556,0.3984641641555845,-0.0417295183592131,0.1216293366956204,-0.2600937689022571,-0.2783923748611813,-13.84720149304504,21.66437631840781,13.757948794544504,-0.4889947745984761,-1.5381704968921908,0.447615519086515,7929.16455078125,11.813888888888888,7.346666666666668,179.59730160895182,1.2387436577308588,38.436696791130174,1457.0,1435.0,1350.0,1528.0,1421.0,1021.7000000000002,135.0,293.35,1637168808.1433835,1637168809.2677295,cdb04bbb-afed-4a80-b6c3-4409eb1b222e
-0.4776088561672211,-0.7104641228778327,-0.0515910409148341,0.5456336733290393,0.0245618265816319,0.2941511813798702,-0.1947337841068643,-0.2333991741388944,-14.135034861166522,22.66272816654816,13.127885130241625,-0.4271763877719562,-2.7510456678926105,0.2322770735065345,7937.323133680556,11.78622222222222,7.42,179.67976475953114,1.2434020957621212,38.28650738201582,1389.0,1435.0,1350.0,1528.0,1367.0,1021.7000000000002,135.0,293.35,1637168810.1777618,1637168811.2235982,704332f1-cd00-4a39-8fc4-600bc1e803fa
-0.4799372716078361,-0.7056840220388018,-0.0483860460719531,0.5499480888657798,0.0290542978505929,0.2856182258660621,-0.1943502803806933,-0.2168400332463212,-14.315994597471263,22.57329686314832,13.161294259248672,-0.4566023710468401,-2.732462233220043,0.2218168741686829,7951.23046875,11.785666666666666,7.470000000000001,179.70804781397422,1.26852061446947,38.220822591132666,1389.0,1435.0,1350.0,1528.0,1367.0,1021.7000000000002,135.0,293.35,1637168811.3328469,1637168812.382233,704332f1-cd00-4a39-8fc4-600bc1e803fa
-0.4756639443611616,-0.6972332420369908,-0.0501802952743425,0.5443735900350917,0.0233565294521822,0.2817284034358747,-0.197541578842406,-0.2231404507928126,-14.102873991603095,22.632991835327733,13.034730422096828,-0.4523751297939825,-2.700579746665339,0.2374866297374176,7951.23046875,11.782555555555556,7.482222222222223,179.70100209439042,1.267425602336283,38.21596822390755,1389.0,1435.0,1350.0,1528.0,1367.0,1021.7000000000002,135.0,293.35,1637168812.4949732,1637168813.5396996,704332f1-cd00-4a39-8fc4-600bc1e803fa
-0.7221609889854949,-1.1616153283814692,-0.0564396228569111,0.7665728386574696,0.1186845766724074,0.533361557968045,-0.1024463653098555,-0.1223063775603053,-14.278265171205389,24.28689425873212,13.53231575022131,-0.3775056219337438,-4.473189865296842,-0.0735584500107961,7951.23046875,11.775777777777778,7.52,179.83911307286752,1.247521861912435,38.22463421614448,1321.0,1435.0,1350.0,1528.0,1314.0,1021.7000000000002,135.0,293.35,1637168815.1151454,1637168816.2315018,f785bfa1-b9a0-4ca7-89d5-2a7ae7a630f3
-0.7172576189416965,-1.1601087057434032,-0.0584119273233805,0.762559747359799,0.116219196202804,0.5326082473289998,-0.1059800776256039,-0.1316885210620359,-14.42404824693432,24.341597390817515,13.08894007998614,-0.3700254948247393,-4.462207678656058,-0.063083419938964,7936.505859375,11.773555555555554,7.51111111111111,179.86575839972966,1.2559669757923002,38.16460709862383,1321.0,1435.0,1350.0,1528.0,1314.0,1021.7000000000002,135.0,293.35,1637168816.339793,1637168817.367974,f785bfa1-b9a0-4ca7-89d5-2a7ae7a630f3
-0.7198599662638684,-1.1569174051106763,-0.0569600920681018,0.7690382189617545,0.1186571835861343,0.526376313738775,-0.1059252913960375,-0.1248128477852111,-14.434526507708588,24.258713108192143,13.502205239271037,-0.3990598822569639,-4.45453396268383,-0.0674085469068835,7943.861328125,11.774333333333333,7.507777777777777,179.8572176276275,1.2341678934476754,38.182577326330126,1321.0,1435.0,1350.0,1528.0,1314.0,1021.7000000000002,135.0,293.35,1637168817.475982,1637168818.6884034,f785bfa1-b9a0-4ca7-89d5-2a7ae7a630f3
-0.9333399920135992,-1.541081831952861,-0.0647254455897447,0.950739727056874,0.1934463462641993,0.7335861691837707,-0.0324539704019892,-0.0730005506218723,-14.681234439745738,25.82639629714921,13.469519432429964,-0.3334294533952336,-5.91618534168533,-0.3090493598882063,7943.861328125,11.753,7.569999999999999,179.95523994913606,1.2348667190351,38.179377762158936,1254.0,1435.0,1350.0,1528.0,1260.0,1021.7000000000002,135.0,293.35,1637168819.633651,1637168820.5767047,72e72cf9-f4bf-44ea-a0e3-507f27867c78
-0.9243633818155662,-1.5315871281529752,-0.0637672820008,0.945052678173454,0.1923720596722805,0.7272226295825668,-0.0348401492208134,-0.0517280073322566,-14.802074452022891,25.838823208875507,13.1381445843651,-0.3348841488090312,-5.876021036228,-0.3049528009523159,7951.23046875,11.752,7.59,179.95918779847636,1.239621918079604,38.15292785459806,1254.0,1435.0,1350.0,1528.0,1260.0,1021.7000000000002,135.0,293.35,1637168820.6849887,1637168821.8803246,72e72cf9-f4bf-44ea-a0e3-507f27867c78
-0.9279792749343238,-1.534203173855626,-0.0671366355209833,0.9423544563455596,0.1896053549817198,0.7339476392003572,-0.0350866872461308,-0.0700266098527115,-14.718413938856376,25.753649762373254,13.363079908824636,-0.3143400546994518,-5.888301357479816,-0.2961701178385176,7943.861328125,11.754,7.62,179.95308160935832,1.2435154460716284,38.20600525463823,1254.0,1435.0,1350.0,1528.0,1260.0,1021.7000000000002,135.0,293.35,1637168821.993475,1637168823.3059394,72e72cf9-f4bf-44ea-a0e3-507f27867c78
-0.0479066665928982,0.0719519194301437,-0.0378670887106581,0.1609795485386513,-0.1330992653505165,-0.099131797931196,-0.3474915222850498,-0.3605306490789928,-14.15309514205004,19.97410067948849,15.345054066773557,-0.4600458263382888,0.2121508935258753,0.7413220858853483,7924.283203125,11.809,7.430000000000001,179.520307163168,1.2093638598913303,38.24481211277252,1525.0,1435.0,1350.0,1528.0,1475.0,1021.7000000000002,135.0,293.35,1637168824.2184076,1637168825.3545654,ea6e180f-bf45-4242-9fe1-04c5a4d231ee
-0.0535770420556872,0.0720067056636249,-0.0364974328049025,0.1612808727420916,-0.1308119399119814,-0.0992687635623033,-0.3450672309771065,-0.3782403026267035,-14.14581459656938,19.86644058469987,15.388497023825837,-0.4616682221336245,0.2119677150450102,0.7330078207108697,7899.9326171875,11.808,7.447777777777778,179.50616715376626,1.2045456001766766,38.33529845889685,1525.0,1435.0,1350.0,1528.0,1475.0,1021.7000000000002,135.0,293.35,1637168825.4630003,1637168826.5827987,ea6e180f-bf45-4242-9fe1-04c5a4d231ee
-0.0511938407728299,0.0661582751560477,-0.039825696643062,0.1646365295710749,-0.1324281338991415,-0.0958583202773556,-0.3477517569309745,-0.3740491547378812,-14.223571948784349,19.9016090686758,15.474752374801644,-0.4615320210265731,0.1891948623246479,0.7429427244836759,7892.65771484375,11.808333333333332,7.503333333333334,179.50303133802728,1.1979018775425985,38.43297585585234,1525.0,1435.0,1350.0,1528.0,1475.0,1021.7000000000002,135.0,293.35,1637168826.691169,1637168827.8126223,ea6e180f-bf45-4242-9fe1-04c5a4d231ee
-0.03567563936812,0.0617342867553024,-0.0647808273044605,-0.313633623987754,-0.204389858814918,0.3746595471928913,-0.2396721975544256,-0.2679555955609019,-14.16312569285094,18.820185917790024,19.46884604501529,1.6669003664376885,0.1940597712244557,0.7224821258429251,7892.65771484375,11.808444444444444,7.483333333333332,179.50355953932316,1.3046712523526305,38.5662343643791,1525.0,1523.888888888889,1350.0,1528.0,1475.0,1021.7000000000002,135.0,293.35,1637168828.6137989,1637168829.558587,a7fac746-bda0-4c16-9504-84d546d28f74
-0.0315392785291884,0.0641996672977852,-0.0584256238499951,-0.3131816374576882,-0.2001302286454395,0.3699479314059069,-0.2329197933716951,-0.2460821883057694,-13.874227555741834,18.81679250520993,19.25071807542048,1.6556977702501214,0.203542139138667,0.6986015791156158,7902.36181640625,11.806666666666665,7.489999999999999,179.5070110615837,1.34231167781663,38.635040172258,1525.0,1535.0,1350.0,1528.0,1475.0,1021.7000000000002,135.0,293.35,1637168829.667195,1637168830.7717426,a7fac746-bda0-4c16-9504-84d546d28f74
-0.0214312180305874,0.0705274773200892,-0.0516458271400395,-0.3197696832147097,-0.1976237582299012,0.3678386615309743,-0.2296600121284668,-0.2535468140177275,-13.910079416308813,19.068828573118083,19.00582184079581,1.6677702577225797,0.2309447405717568,0.681538816836469,7910.464789496527,11.808666666666666,7.447777777777778,179.5109027515908,1.3504154838234388,38.6180599425264,1525.0,1535.0,1350.0,1528.0,1475.0,1021.7000000000002,135.0,293.35,1637168830.879955,1637168831.908552,a7fac746-bda0-4c16-9504-84d546d28f74
-0.0173770365879808,0.0566117738618458,-0.100200129561626,-0.8845748570337778,-0.3050595769815974,0.9276032638791692,-0.122662487019266,-0.1567806174768215,-13.60857598441442,18.26549410526001,22.93747493175773,4.192733570315744,0.2082201806748971,0.7411632032494314,7931.611653645833,11.796333333333331,7.479999999999999,179.47337465665112,1.511379172472446,38.75955452082733,1525.0,1636.0,1350.0,1528.0,1475.0,1021.7000000000002,135.0,293.35,1637168833.842971,1637168834.9805114,a2198d50-d28a-4e2a-a01e-19e43b35c033
-0.0168428708110816,0.045901065045294,-0.0982278250023767,-0.8784387954162475,-0.2999370632818316,0.933588659501336,-0.1178139049377276,-0.1313324099585059,-13.63786863498705,18.23780302585524,23.12632881906381,4.192272101112117,0.1659511129460302,0.7236093847289965,7929.980251736111,11.79977777777778,7.470000000000001,179.50020667535057,1.5213008404416335,38.76523647930688,1525.0,1636.0,1350.0,1528.0,1475.0,1021.7000000000002,135.0,293.35,1637168835.0888665,1637168836.209585,a2198d50-d28a-4e2a-a01e-19e43b35c033
