raw_voltage_G-,raw_voltage_G0,raw_voltage_G1,raw_voltage_G2,raw_voltage_G3,raw_voltage_G4,raw_voltage_G5,raw_voltage_G6,load_x,load_y,load_z,load_l,load_m,load_n,rpm,voltage,current,roll,pitch,yaw,aileron1_pwm,elevator_pwm,throttle_pwm,rudder_pwm,aileron2_pwm,pbaro,pdiff,Tt,sample_start_time,sample_end_time,uid
-0.0347579699351541,0.0892095831190102,0.0262875930453998,0.0460517271858688,-0.1071168919896371,-0.0575079543788788,-0.2920067546636353,-0.3157155024927393,-14.42131983003676,22.20251457690376,9.060461475596371,-0.090432402749252,0.352731170798191,0.5305992332012167,3079.92333984375,12.047,0.39,179.35281726434096,6.004498273420488,71.16245005660971,1525.0,1435.0,1200.0,1528.0,1475.0,1018.02,58.0,292.45,1637147764.7010448,1637147765.7305765,3b4e034a-425b-4ef2-9383-63fd8239db0b
-0.0351688666558517,0.0837857459727321,0.0191242928295463,0.0480240316290396,-0.1133762196395205,-0.0543440492294643,-0.2991289661579019,-0.3107984364617973,-14.476513978522002,22.296077542904765,8.957163789901356,-0.0875524149313442,0.332999298069136,0.5581678597107153,3391.898763020833,12.043111111111113,0.38,179.36072814121962,6.001628787627307,70.6979933984993,1525.0,1435.0,1200.0,1528.0,1475.0,1018.02,58.0,292.45,1637147765.8395722,1637147766.959303,3b4e034a-425b-4ef2-9383-63fd8239db0b
-0.0348675423753531,0.0814299379188434,0.0173574367501887,0.0505305018533218,-0.1139240820211368,-0.0526593724612343,-0.300471229097304,-0.3351098318987016,-14.525898159869982,22.28102376171866,9.184959423296917,-0.0895970217976557,0.3220733030024962,0.5632634362415688,3425.525797526041,12.04,0.38,179.3586168538562,5.994005869626749,70.28846512169416,1525.0,1435.0,1200.0,1528.0,1475.0,1018.02,58.0,292.45,1637147767.067335,1637147768.106148,3b4e034a-425b-4ef2-9383-63fd8239db0b
0.0566254703087057,0.2702917777675166,0.0201652312945807,-0.0425650084219353,-0.1560136095014592,-0.1496584058234744,-0.34135546291072,-0.3693649306609348,-14.474020676918352,21.98783709916763,9.372229987620324,-0.0993139332034197,1.0400281559896587,0.6974307678544749,3431.620876736112,12.037222222222224,0.4022222222222222,179.37173688834187,6.022896810905994,69.61396345058789,1610.0,1435.0,1200.0,1528.0,1542.0,1018.02,58.0,292.45,1637147769.6791494,1637147770.8505738,844597ad-656a-4e38-9c4c-3c573e9583e7
0.063939432590944,0.2764004425458589,0.0266710966871383,-0.0450440856105501,-0.1511650273843717,-0.1557944645503207,-0.3358357488846315,-0.3582159303094672,-14.388030811072918,21.93600262116998,9.072938402955527,-0.1075343777588876,1.0657001471372551,0.6744764128921973,3432.68994140625,12.036,0.4055555555555555,179.39752768264785,6.043106154863332,69.37350208739814,1610.0,1435.0,1200.0,1528.0,1542.0,1018.02,58.0,292.45,1637147770.958458,1637147771.9736545,844597ad-656a-4e38-9c4c-3c573e9583e7
0.0656651989483788,0.2726064960369943,0.0238769987066099,-0.0440853264878399,-0.1525757730308518,-0.1530140629520218,-0.3372464946556174,-0.3756653491156069,-14.405647699369544,21.89322433759399,9.049675806073893,-0.1038844557267144,1.0515055046689403,0.6817369297780088,3428.570556640625,12.034666666666668,0.4,179.4233655293681,6.075782396466972,69.13621448544274,1610.0,1435.0,1200.0,1528.0,1542.0,1018.02,58.0,292.45,1637147772.1050322,1637147773.110918,844597ad-656a-4e38-9c4c-3c573e9583e7
0.180962826794772,0.4814926953490766,0.031903182111108,-0.1475628322120274,-0.1959116881633362,-0.2583953953901622,-0.3786238054621094,-0.4024284298235357,-14.349510984202167,21.741822263016928,9.491785724123284,-0.107775759303576,1.8438865682481589,0.8138268198206625,3425.829833984375,12.03411111111111,0.4111111111111111,179.48144794025006,6.216031556177375,68.54504947021958,1695.0,1435.0,1200.0,1528.0,1609.0,1018.02,58.0,292.45,1637147775.1996336,1637147776.3806942,ece9a15f-8020-443f-b0ed-28b2b43a9ff7
0.178813562903267,0.4781173157518985,0.0275246662263534,-0.1444076927398918,-0.1976336196788853,-0.2593010119565659,-0.380716092150845,-0.4141269367221298,-14.29784338594256,21.539150733640493,9.28328725383364,-0.1184968049065767,1.8320395917306789,0.8245640094724537,3423.093505859375,12.034,0.41,179.49361174825196,6.237267183489376,68.40763441212792,1695.0,1435.0,1200.0,1528.0,1609.0,1018.02,58.0,292.45,1637147776.4892452,1637147777.496877,ece9a15f-8020-443f-b0ed-28b2b43a9ff7
0.1792644535739855,0.477698748957985,0.0292734428387616,-0.1441249957502717,-0.1976648478383872,-0.2570257393774884,-0.3800756409544556,-0.4055238524994286,-14.26855048243367,21.73259944537472,9.591967440899827,-0.1125882357785527,1.827605896912356,0.821639190858089,3423.093505859375,12.039,0.42,179.50924225671258,6.262222655146225,68.24432003561347,1695.0,1435.0,1200.0,1528.0,1609.0,1018.02,58.0,292.45,1637147777.6051178,1637147778.7299254,ece9a15f-8020-443f-b0ed-28b2b43a9ff7
0.2699767568640599,0.6567264493553635,0.0339165762387314,-0.2312077233819829,-0.2356728019457457,-0.3513676489880397,-0.4195080410122271,-0.433533320771521,-14.400595009535968,21.579426939751603,9.586343681725165,-0.1290013715746147,2.511066543150998,0.9440830439980128,3423.093505859375,12.029,0.44,179.48899757601265,6.308084576942576,68.00338283591154,1779.0,1435.0,1200.0,1528.0,1677.0,1018.02,58.0,292.45,1637147779.7484462,1637147780.778638,8ef28320-4556-4600-b338-64b685428fca
0.2699767568794656,0.6546719657673562,0.0333550173262821,-0.2302763572579114,-0.2366726508490733,-0.3492994682522539,-0.4202750484600854,-0.442230637194904,-14.389078209998653,21.6813059505776,9.70962613269318,-0.1257819715170375,2.5020382751078007,0.9472020896840072,3423.093505859375,12.027666666666669,0.44,179.49236258254373,6.316466499714651,67.86237358049664,1779.0,1435.0,1200.0,1528.0,1677.0,1018.02,58.0,292.45,1637147780.8863256,1637147781.916613,8ef28320-4556-4600-b338-64b685428fca
0.2797560991207575,0.6574249737752699,0.0310266023527492,-0.2312762061541885,-0.2375766238126569,-0.3510663246214025,-0.4213707733699352,-0.4407788018409833,-14.39440272305912,21.459589596204307,9.700553863004808,-0.1290867699653625,2.5124535553865104,0.9535661230496992,3423.093505859375,12.029555555555556,0.44,179.48959407920017,6.332460810612313,67.76344587946808,1779.0,1435.0,1200.0,1528.0,1677.0,1018.02,58.0,292.45,1637147782.0539663,1637147783.0261853,8ef28320-4556-4600-b338-64b685428fca
0.2676330018571194,0.6514302645963345,0.0459196923724837,-0.2330825085121831,-0.2281517468474326,-0.3454512825279797,-0.4093539582278035,-0.4340077692683525,-14.327221624118955,22.08854811796638,9.523105050989964,-0.1074778957040288,2.49224418795246,0.9021161654680712,3424.461181640625,12.023666666666664,0.4577777777777778,179.49432208792564,6.354769821125128,67.5679552406836,1854.555555555556,1435.0,1200.0,1528.0,1736.5555555555557,1018.02,58.0,292.45,1637147784.6779902,1637147785.685464,2f68cda9-59b6-4fc3-92d4-50914fd644ce
0.2797971888203054,0.6849824469756624,0.0354368942364867,-0.2356454088866959,-0.2437126827892814,-0.3687759781141215,-0.4324102019846933,-0.443477024477854,-14.616983561869324,22.122200439750383,10.416775151421731,-0.1544126163712496,2.611867124751186,0.9755084486197134,3422.638020833333,12.021333333333336,0.47,179.47673510972274,6.3618933289744986,67.48904454738263,1864.0,1435.0,1200.0,1528.0,1744.0,1018.02,58.0,292.45,1637147785.794432,1637147787.0358002,2f68cda9-59b6-4fc3-92d4-50914fd644ce
0.2643474715935118,0.6458787760099168,0.0528726133808868,-0.2316460133680903,-0.2195108610304311,-0.3417252701173463,-0.4002643722503418,-0.4203846218871868,-14.36362187323285,22.037899856216622,9.530129860909195,-0.1023521769765585,2.471881157634715,0.8672738401558217,3420.361572265625,12.023,0.4600000000000001,179.4859376512645,6.349874472764999,67.4477560538499,1864.0,1435.0,1200.0,1528.0,1744.0,1018.02,58.0,292.45,1637147787.1730664,1637147788.2591689,2f68cda9-59b6-4fc3-92d4-50914fd644ce
-0.1371123574106668,-0.1118559015462433,0.0215485837269067,0.1428042158519094,-0.0681090911555464,0.0462434790185804,-0.253642688958587,-0.287979966523271,-14.43615255510112,22.91426695988677,8.589766095005524,-0.0711391651917817,-0.4093105591308705,0.4048597612970083,3413.3997938368057,12.025,0.461111111111111,179.66894725770564,6.370594657954009,67.23077308647713,1440.0,1435.0,1200.0,1528.0,1408.0,1018.02,58.0,292.45,1637147790.1937058,1637147791.187471,0c01c666-bdbd-4e6a-aacf-afc35485fe4e
-0.134003238337193,-0.1144719443932425,0.0218362114604482,0.143187719482003,-0.0666846490035129,0.0483527490424263,-0.2518484395615016,-0.278611519457061,-14.436145933432288,22.84685795173785,8.584259509496375,-0.067697859011364,-0.4191036791393763,0.3996796476199127,3418.239935980903,12.042777777777776,0.38,179.67626770267609,6.354564915450028,67.27682449859108,1440.0,1435.0,1200.0,1528.0,1408.0,1018.02,58.0,292.45,1637147791.2965214,1637147792.3550632,0c01c666-bdbd-4e6a-aacf-afc35485fe4e
-0.1364001362509821,-0.1168551457339971,0.020562431497834,0.1475569215494711,-0.0677666771787626,0.0463119618047126,-0.2542316410504961,-0.2880210560280101,-14.430954736525209,22.93560533233225,8.519002624779379,-0.0816225276666522,-0.4281176930868726,0.4059079921766541,3420.058403862847,12.042333333333334,0.38,179.67416704005134,6.358355101256955,67.33914769803772,1440.0,1435.0,1200.0,1528.0,1408.0,1018.02,58.0,292.45,1637147792.462762,1637147793.586399,0c01c666-bdbd-4e6a-aacf-afc35485fe4e
-0.2387271350358464,-0.3055800462034888,0.024041357416812,0.2357901485200033,-0.0241157434471557,0.1492826878799882,-0.2083892542788396,-0.2208942142223866,-14.370542884397546,23.60714496221065,8.60121190245742,-0.0445976410352098,-1.1477384771742292,0.2542623812604246,3423.093505859375,12.039444444444444,0.3888888888888889,179.7277309013424,6.380275644760726,67.41270048738977,1355.0,1435.0,1200.0,1528.0,1341.0,1018.02,58.0,292.45,1637147794.15987,1637147795.2222154,c9fa0558-3180-4b6e-940c-1e2e4a86e208
-0.2482561058812876,-0.3046903176289399,0.0232513399083861,0.2321446726635871,-0.0253199449103263,0.151135558275586,-0.2085864847415783,-0.2255614539755963,-14.371538580978925,23.5866491999039,8.507839442884528,-0.0324012852720409,-1.1431684434067242,0.2572119574489349,3425.829833984375,12.03488888888889,0.42,179.71827640171128,6.382161630745295,67.4328199479549,1355.0,1435.0,1200.0,1528.0,1341.0,1018.02,58.0,292.45,1637147795.3309066,1637147796.4463522,c9fa0558-3180-4b6e-940c-1e2e4a86e208
-0.244424904109227,-0.3049773975381398,0.0279859663244164,0.2365297626262811,-0.0214586110157115,0.1477897630098531,-0.2047459693351654,-0.2351112437253204,-14.256803009911414,23.669801999752668,8.597597740793292,-0.0489523768761603,-1.14609110145332,0.2402072067232916,3428.265869140625,12.03377777777778,0.4177777777777777,179.707868711236,6.37063184453949,67.43920845155859,1355.0,1435.0,1200.0,1528.0,1341.0,1018.02,58.0,292.45,1637147796.556117,1637147797.5652227,c9fa0558-3180-4b6e-940c-1e2e4a86e208
-0.33957610120235,-0.4829397958953036,0.028030033497274,0.327262907364847,0.0158960734706305,0.2444118339440775,-0.1667707684250074,-0.190938646637802,-14.164569895004798,24.46953922905249,9.557898345999352,-0.0309981728438994,-1.833877054396764,0.1155528943219232,3436.81884765625,12.033,0.42,179.7510172929527,6.380482257983118,67.54593319297967,1271.0,1435.0,1200.0,1528.0,1273.0,1018.02,58.0,292.45,1637147799.1566746,1637147800.1361678,bd7c2c2f-2257-4c51-8a97-b08abf330a17
-0.3331512230974898,-0.4823478662171587,0.028095538793386,0.3295293899225973,0.0166589122548612,0.2418303305547249,-0.1683816029136629,-0.1837354469627516,-14.300118595964014,24.48954126236802,9.564589832168911,-0.0418430924868552,-1.8310314449097755,0.1167160068407885,3439.5771484375,12.027333333333337,0.44,179.7437408647569,6.364650021782635,67.53103655039988,1271.0,1435.0,1200.0,1528.0,1273.0,1018.02,58.0,292.45,1637147800.245179,1637147801.2937698,bd7c2c2f-2257-4c51-8a97-b08abf330a17
-0.3463716914992516,-0.4763071345280286,0.0289447254259594,0.3249481653102164,0.0154804603323817,0.2402179717467617,-0.1682068348239569,-0.1929000888583459,-14.234280104408212,24.48458180033586,9.580730067245252,-0.0350870364763387,-1.80836627089463,0.1176763364103041,3439.5771484375,12.029666666666666,0.44,179.72173854871056,6.3526099635275886,67.51411361836631,1271.0,1435.0,1200.0,1528.0,1273.0,1018.02,58.0,292.45,1637147801.4064853,1637147802.4836214,bd7c2c2f-2257-4c51-8a97-b08abf330a17
-0.4015929389211903,-0.5892495360948732,0.0366421913994941,0.3826446402309406,0.0426001944106152,0.308655835977343,-0.1390435721578754,-0.1667654097371723,-14.16059690798994,25.45182051635447,11.259586537718548,-0.0043471948835477,-2.253969408230271,0.0175857932003351,3428.4185384114585,12.02288888888889,0.4566666666666667,179.7372628097841,6.352768623130185,67.51980771940435,1186.0,1435.0,1200.0,1528.0,1206.0,1018.02,58.0,292.45,1637147804.324376,1637147805.4633677,ce21b542-b568-4547-9923-48e8509ba90f
-0.4035159361746857,-0.5910163927052936,0.028602859299434,0.3856293940484959,0.0358083448924608,0.3082756195553753,-0.1483260045505586,-0.1696663409344677,-14.287173638608792,25.489250320834586,11.283669032245514,-0.0121465202778544,-2.260790261399661,0.0507537052304964,3425.829833984375,12.018666666666668,0.4722222222222222,179.7129245690416,6.348637591910926,67.49406018296314,1186.0,1435.0,1200.0,1528.0,1206.0,1018.02,58.0,292.45,1637147805.571923,1637147806.5744936,ce21b542-b568-4547-9923-48e8509ba90f
-0.3994699718908559,-0.5865513131782784,0.0318346992978391,0.3851511102206991,0.0382720818709016,0.3040127028791117,-0.1448783065781888,-0.1718742267798723,-14.153393487976771,25.38513857803308,11.263260730881504,-0.0211121290552288,-2.2445474804546994,0.0387274478328278,3425.829833984375,12.021555555555556,0.4722222222222222,179.6908964500584,6.334800624721733,67.44599386504404,1186.0,1435.0,1200.0,1528.0,1206.0,1018.02,58.0,292.45,1637147806.683699,1637147807.9265316,ce21b542-b568-4547-9923-48e8509ba90f
-0.027183772803132,0.0900724662995377,0.0200830519417405,0.0410798763990378,-0.11525264828058,-0.0544125320336325,-0.2983208690856911,-0.3112504229967516,-14.355278868138647,22.31045566578272,8.92008687188119,-0.071843821556791,0.3569648592695076,0.5589925657621905,3424.613254123264,12.024111111111113,0.4688888888888888,179.5101741980793,6.3381091873284365,67.43821579739921,1525.0,1435.0,1200.0,1528.0,1475.0,1018.02,58.0,292.45,1637147808.7181904,1637147809.7587593,b00b25de-82f3-4dce-935b-a6695dcd6848
-0.0309503265257815,0.0931678885036956,0.0232332604509197,0.0407785521048887,-0.1132803437245859,-0.056562891818317,-0.2960883297090368,-0.3252893978653406,-14.314941945691585,22.34062335346396,9.026194366742894,-0.0756021900046436,0.367585969180914,0.5493708611480891,3429.028076171875,12.041,0.3733333333333333,179.5183264083087,6.339369214934695,67.57381857863112,1525.0,1435.0,1200.0,1528.0,1475.0,1018.02,58.0,292.45,1637147809.866986,1637147810.998584,b00b25de-82f3-4dce-935b-a6695dcd6848
-0.0336896383036082,0.0910586185086258,0.0226169153077656,0.0425317116229729,-0.1130611987718608,-0.0566998573996323,-0.2965677093259676,-0.3126885620134328,-14.342813307672005,22.33298704522529,8.938495433417556,-0.0799739896341398,0.3603944103923875,0.5502151598426118,3428.570556640625,12.040444444444445,0.3788888888888889,179.51208968668658,6.330356353438041,67.6585440396455,1525.0,1435.0,1200.0,1528.0,1475.0,1018.02,58.0,292.45,1637147811.1356933,1637147812.105469,b00b25de-82f3-4dce-935b-a6695dcd6848
-0.0271015934575747,0.0881960377926245,0.0068658727251481,-0.1532332079059611,-0.1480969980304804,0.1369283923688763,-0.2584501816260706,-0.2936640392013989,-14.353051898088315,21.95419961645097,10.528758702368608,0.79368525596496,0.358733890909733,0.5654627220111229,3427.199462890625,12.042,0.38,179.51742482333825,6.376542804083706,67.81081931264137,1525.0,1535.0,1200.0,1528.0,1475.0,1018.02,58.0,292.45,1637147813.2233288,1637147814.3608036,5a41443f-72f4-4b95-b112-74f48c3a03a9
-0.0177057540093975,0.0876207823412019,0.007468521319365,-0.1523566280777308,-0.1471793285293355,0.1355587365462998,-0.2570394359080861,-0.2727767850182278,-14.273524429176348,21.89258136369826,10.376832846060408,0.7882674543996204,0.357289206334157,0.5611874519787988,3427.199462890625,12.041,0.38,179.51242967832525,6.380785489923145,67.81978052083244,1525.0,1535.0,1200.0,1528.0,1475.0,1018.02,58.0,292.45,1637147814.4695635,1637147815.4365208,5a41443f-72f4-4b95-b112-74f48c3a03a9
-0.0290875944782778,0.0882645205843762,0.0085642460236714,-0.1552739953188073,-0.1468369145365324,0.1380789032463349,-0.2558341386027065,-0.2801044449153854,-14.293444279332114,21.932833110308795,10.451299651938069,0.8008347079702901,0.3596139426137395,0.5576382828250704,3425.525689019097,12.041666666666666,0.3777777777777777,179.49195277119355,6.376505522634485,67.83653573377639,1525.0,1535.0,1200.0,1528.0,1475.0,1018.02,58.0,292.45,1637147815.5550969,1637147816.5108242,5a41443f-72f4-4b95-b112-74f48c3a03a9
-0.0106197022483514,0.0847477922393413,-0.0049526139517754,-0.3464111374927728,-0.1809873686739991,0.3285772052413047,-0.2186583871197031,-0.2448637421239189,-14.335144304467835,21.79493571634202,12.113499408727654,1.6587251778339709,0.3546610189837279,0.5699174422219656,3429.7899576822915,12.040777777777778,0.3811111111111111,179.46716525578566,6.423485081565649,67.91163062806105,1525.0,1636.0,1200.0,1528.0,1475.0,1018.02,58.0,292.45,1637147818.1711743,1637147819.2852886,d016a68c-4104-4567-af96-682adfbfc5f0
-0.0134872138577377,0.0832926698703377,-0.0035298154212478,-0.3472312875745471,-0.179722354411756,0.3299402866509285,-0.2152923205224465,-0.2523963030925113,-14.18742370969508,21.73985729585568,12.015597526224042,1.6634027384322752,0.3492158390274085,0.5612670211209737,3426.5907389322915,12.037444444444445,0.3844444444444444,179.47337769229074,6.4223651677011135,67.92137958473639,1525.0,1636.0,1200.0,1528.0,1475.0,1018.02,58.0,292.45,1637147819.3925972,1637147820.4124537,d016a68c-4104-4567-af96-682adfbfc5f0
-0.0080951525372904,0.0825125138993042,-0.0061754427282636,-0.3486727136315883,-0.1827755915239242,0.3325481112337208,-0.2185531975406834,-0.2330956577995445,-14.25890432306045,21.833032165381,12.06545249802261,1.6729722710466035,0.3463651705780608,0.5735497654800843,3425.829833984375,12.041666666666666,0.38,179.47431266929712,6.420366009276546,67.90799469069287,1525.0,1636.0,1200.0,1528.0,1475.0,1018.02,58.0,292.45,1637147820.5206912,1637147821.5296052,d016a68c-4104-4567-af96-682adfbfc5f0
-0.0192978420224713,0.0801194512033032,-0.0118951257222498,-0.5090605452937395,-0.208494443868644,0.4918314047031494,-0.1840904612769117,-0.2072058723092043,-14.269486121234385,21.97535714989252,13.4881192397964,2.393578894502664,0.3442425577734092,0.5675536130604261,3425.2217610677085,12.038555555555554,0.3944444444444445,179.4571005925887,6.46966375338476,67.90716444325376,1525.0,1737.0,1200.0,1528.0,1475.0,1018.02,58.0,292.45,1637147823.1593342,1637147824.307407,2602517c-ecb5-4744-a4ba-b02b8b4645be
-0.0038448364097993,0.0872509752621112,-0.0047214160459781,-0.5128364135146232,-0.2034310995800273,0.4865056353413181,-0.1778870154067651,-0.2009246303346477,-14.18061793375209,21.932286942228345,13.28176138897924,2.3902121378371404,0.3731090008598506,0.5426647969142212,3424.461181640625,12.035666666666666,0.3944444444444444,179.46315365801314,6.461981355820179,67.87235779924337,1525.0,1737.0,1200.0,1528.0,1475.0,1018.02,58.0,292.45,1637147824.4432352,1637147825.4811676,2602517c-ecb5-4744-a4ba-b02b8b4645be
-0.0148272851451945,0.078383823313988,-0.0151954485548888,-0.5100466977283138,-0.2122155252899359,0.4951580245538398,-0.1862468476663793,-0.2193289718910056,-14.179175888160698,22.00353893117115,13.568298209908304,2.403359499020787,0.3362957516652977,0.5801368158668448,3423.3975423177085,12.033444444444443,0.4,179.4508198541919,6.47198568567948,67.81350813044463,1525.0,1737.0,1200.0,1528.0,1475.0,1018.02,58.0,292.45,1637147825.5893228,1637147826.6581376,2602517c-ecb5-4744-a4ba-b02b8b4645be
-0.0093919427605857,0.0863880920816268,-0.0035435119981698,-0.5061524912698999,-0.2063895565430513,0.4858345040155764,-0.1831054047201129,-0.1955144888496687,-14.232801097735084,22.5402034330115,13.918143137921248,2.377790504001877,0.3638638173363336,0.5530843473549443,3425.829833984375,12.035111111111112,0.3966666666666666,179.4215593237876,6.477663565018268,67.72202988907085,1525.0,1837.0,1200.0,1528.0,1475.0,1018.02,58.0,292.45,1637147827.669901,1637147828.814556,4d0ddda0-bed6-4033-bb55-02796b5de6a8
-0.0082688249328711,0.0831146146114562,-0.0056116923702767,-0.4972086361230485,-0.2060334459700068,0.4763017000951648,-0.1854612129775522,-0.2150457833631272,-14.153121080184231,22.41146326963132,13.26229721377497,2.335173022383873,0.3556006019092381,0.5576385144853163,3424.917399088541,12.032333333333334,0.42,179.4328989556296,6.458977780132667,67.69456038604886,1525.0,1837.0,1200.0,1528.0,1475.0,1018.02,58.0,292.45,1637147828.9227848,1637147830.0387106,4d0ddda0-bed6-4033-bb55-02796b5de6a8
0.000702421143041,0.0832104905188174,-0.0028449874814469,-0.4893605061017121,-0.2028284509378461,0.4698643181170885,-0.1850503161994897,-0.2104437389197901,-14.17209519549712,22.472085381445265,13.39940783036088,2.303555846895009,0.3540894307037212,0.5491524896860476,3414.7618543836807,12.033666666666669,0.4099999999999999,179.42658634301674,6.459556686096694,67.64470076401768,1525.0,1837.0,1200.0,1528.0,1475.0,1018.02,58.0,292.45,1637147830.1469648,1637147831.2690604,4d0ddda0-bed6-4033-bb55-02796b5de6a8
-0.0489339085087924,0.0928802607746379,0.0384638337147028,0.2437204555444271,-0.0804496910057907,-0.2534783302398966,-0.3392598890951142,-0.3706113182682869,-14.359409097947688,23.106871304107603,7.443502228762654,-0.9703214286314812,0.3568413185014181,0.5445272628038461,3401.359619140625,12.032,0.4099999999999999,179.40326504155067,6.24709549368194,67.61711059432037,1525.0,1334.0,1200.0,1528.0,1475.0,1018.02,58.0,292.45,1637147832.1778786,1637147833.3186903,50d699fe-3799-4562-bdcf-aabfed86ac69
-0.0438387885671263,0.0900176800651402,0.0343000798803611,0.2450079319813756,-0.0831205200581597,-0.2524099985401828,-0.3431634089521105,-0.3566134327075452,-14.448347207978973,23.08156048768467,7.334967194625114,-0.9712621619587242,0.3472734208028809,0.5588584924034582,3397.315185546875,12.041,0.37,179.42805407477834,6.249075394767597,67.74895601259885,1525.0,1334.0,1200.0,1528.0,1475.0,1018.02,58.0,292.45,1637147833.450951,1637147834.4293587,50d699fe-3799-4562-bdcf-aabfed86ac69
-0.0427567603902583,0.0948251720733925,0.0398471861389349,0.2445696421370218,-0.0790252488434097,-0.2561354629406796,-0.3379861089362863,-0.3693101446108924,-14.322942831599995,23.047101136373897,7.458584771788549,-0.9785144990112296,0.3637262733596623,0.539201953251405,3397.315185546875,12.039222222222222,0.37,179.43822043190298,6.260072663377487,67.85983806249475,1525.0,1334.0,1200.0,1528.0,1475.0,1018.02,58.0,292.45,1637147834.5396025,1637147835.6564388,50d699fe-3799-4562-bdcf-aabfed86ac69
-0.0508678626634218,0.0921899542349475,0.0499826395202445,0.4552911810655336,-0.0509467547046653,-0.458793066951372,-0.390183155263875,-0.42543481716494,-14.487190363709862,24.014545415061374,5.694955473098893,-1.9026951870738111,0.3453507191032313,0.5599891642675039,3401.509657118056,12.043555555555557,0.3722222222222222,179.42649223818816,6.182366786986983,67.98841030234098,1525.0,1234.0,1200.0,1528.0,1475.0,1018.02,58.0,292.45,1637147836.6817768,1637147837.718335,895c6d37-24a4-40de-9368-24b493a01b8d
-0.0626096488058264,0.0936494595009695,0.0533487057639696,0.4614053242892009,-0.047133632654093,-0.4662483794938963,-0.3891970028460182,-0.4046335754171295,-14.528681128007586,24.03082921214515,5.655594666503356,-1.9329918837951667,0.3509281514040612,0.5489421605076457,3407.07017686632,12.036444444444443,0.39,179.43121721127395,6.187668626466466,68.05858366587368,1525.0,1234.0,1200.0,1528.0,1475.0,1018.02,58.0,292.45,1637147837.8491032,1637147838.9427958,895c6d37-24a4-40de-9368-24b493a01b8d
-0.0429759053346427,0.0939075026584393,0.0565706842031269,0.4677824414081103,-0.044345561094199,-0.4736505494120673,-0.3879648602005074,-0.4132624095305289,-14.443346065070166,24.09905046046339,5.490027596177161,-1.963381518710981,0.3521796599301245,0.5388837846302881,3424.4686686197915,12.037,0.3877777777777778,179.43331028479963,6.177740045302337,68.11575462595641,1525.0,1234.0,1200.0,1528.0,1475.0,1018.02,58.0,292.45,1637147839.0517304,1637147840.0789082,895c6d37-24a4-40de-9368-24b493a01b8d
-0.0562719770562132,0.0975414735325707,0.0636572835801686,0.5504351384535358,-0.0331960142052909,-0.5570533000356983,-0.4089331998981017,-0.4436589157167712,-14.504097806452544,24.70229669672064,4.899449518583612,-2.333015734907237,0.3617566918086881,0.5439337221302987,3447.878662109375,12.035666666666666,0.4,179.4019900729056,6.11799666522345,68.23497406009918,1525.0,1133.0,1200.0,1528.0,1475.0,1018.02,58.0,292.45,1637147842.21288,1637147843.354266,c020ec4a-9261-40f9-98a7-0165ce54d9bb
-0.050741854302185,0.0912777634421832,0.0637476808676828,0.5529339383645534,-0.0318816924065398,-0.551981189013739,-0.4080303225475541,-0.4293695661884116,-14.581060063423278,24.779745673644232,5.078318326541399,-2.3267470129022647,0.3369227693056812,0.54016551267704,3449.4203830295137,12.034,0.4,179.40739047580934,6.15428906510579,68.24053990536282,1525.0,1133.0,1200.0,1528.0,1475.0,1018.02,58.0,292.45,1637147843.4852889,1637147844.5793154,c020ec4a-9261-40f9-98a7-0165ce54d9bb
-0.0359084808512256,0.1004407610153173,0.0694043595572607,0.5414836164671722,-0.0299641741309208,-0.5516113817519496,-0.4011272556105301,-0.4281916617392072,-14.364645158697575,24.70159020304899,4.956515993209941,-2.30023380122096,0.3726044382813183,0.5210345665904691,3446.492431640625,12.033444444444443,0.4,179.4118179562113,6.152510891759995,68.30257016558507,1525.0,1133.0,1200.0,1528.0,1475.0,1018.02,58.0,292.45,1637147844.6878507,1637147845.9087324,c020ec4a-9261-40f9-98a7-0165ce54d9bb
-0.0570214527136549,0.0939255821180801,0.0614483026293135,0.5372338486709173,-0.0381793702245365,-0.5403544508836557,-0.4085650362941526,-0.4337447953258202,-14.508881697238555,24.920712229015688,5.0317834563113255,-2.2643557186255263,0.3485449153156477,0.5527485155471318,3440.957763671875,12.035555555555554,0.4022222222222222,179.3983715904653,6.117502946896571,68.32081284194825,1525.0,1033.0,1200.0,1528.0,1475.0,1018.02,58.0,292.45,1637147846.7185748,1637147847.6619408,fd75d20e-73a2-46ff-9c9d-02d1783ae033
-0.0539742422601938,0.099673753750169,0.0716505951448886,0.5408809679502583,-0.0295395808148726,-0.5500773666754356,-0.4009765934394412,-0.4141937759205016,-14.42670428852693,24.944019384851003,4.99548093146475,-2.29373332499117,0.3700422984309617,0.5169938456474253,3437.584771050347,12.032222222222222,0.4155555555555555,179.39886488190535,6.123843781471675,68.32666403733724,1525.0,1033.0,1200.0,1528.0,1475.0,1018.02,58.0,292.45,1637147847.7707996,1637147848.816337,fd75d20e-73a2-46ff-9c9d-02d1783ae033
-0.0600555145131327,0.0896204798729183,0.0631450323109264,0.5427573963029405,-0.0349771147202252,-0.5410650285160811,-0.4073865841403113,-0.4220556023619992,-14.592014918465123,24.963325732316505,5.065151201193224,-2.278081803886946,0.3321190428103265,0.5438951826830608,3434.5242513020835,12.031,0.4266666666666666,179.40398904160267,6.132359556978734,68.32748669567727,1525.0,1033.0,1200.0,1528.0,1475.0,1018.02,58.0,292.45,1637147848.9255288,1637147850.003623,fd75d20e-73a2-46ff-9c9d-02d1783ae033
-0.0390039031961041,0.086977044091866,0.0186312167165834,0.048571893961202,-0.1162661936794377,-0.0586858584960731,-0.3017450092290469,-0.3219200440636368,-14.355496254686985,22.432912866600542,8.841980787658061,-0.0976197808775772,0.3450365453138346,0.566757880260648,3442.33984375,12.03422222222222,0.4011111111111111,179.39308805968736,6.27116593409071,68.34055436537932,1525.0,1435.0,1200.0,1528.0,1475.0,1018.02,58.0,292.45,1637147852.2481291,1637147853.2816246,aade6558-d12c-4ef5-b702-8623cc82c8b0
-0.0308270574802123,0.0852923674041924,0.0249179371679769,0.0486951629968885,-0.1110751976609285,-0.0563300502997094,-0.294417349333255,-0.3191259456651079,-14.224540730331553,22.499282893392657,9.009173513198698,-0.0917584472551434,0.3366937806323957,0.5407824238964639,3443.722900390625,12.04211111111111,0.36,179.39180701976298,6.267878715825166,68.36561281162429,1525.0,1435.0,1200.0,1528.0,1475.0,1018.02,58.0,292.45,1637147853.4177334,1637147854.411338,aade6558-d12c-4ef5-b702-8623cc82c8b0
-0.0190611654216637,0.0869567731859296,0.0204112214894961,0.0502193160310736,-0.1147047859040212,-0.0598747198119332,-0.300719410772522,-0.3249787594998476,-14.362209386991305,22.479626112729648,8.896049551330776,-0.1036039518024428,0.3444396230227397,0.5608089948615128,3443.722900390625,12.042777777777776,0.36,179.39952513352512,6.264631387761647,68.37181614121045,1525.0,1435.0,1200.0,1528.0,1475.0,1018.02,58.0,292.45,1637147854.5201876,1637147855.6398652,aade6558-d12c-4ef5-b702-8623cc82c8b0
-0.0213753360492885,0.1006445658071035,0.0945304221274291,0.0405287268780601,-0.0483301640635004,-0.0677376404894226,-0.2234313643860198,-0.2414976756032095,-13.789240686269231,22.36640750626877,8.997477978517912,-0.0961687018574336,0.396712839177211,0.2614914910567301,3445.10693359375,12.041,0.37,179.37647096834658,6.260062370661863,68.36137354087943,1525.0,1435.0,1200.0,1439.0,1475.0,1018.02,58.0,292.45,1637147857.665264,1637147858.8173487,744c8723-cbf4-4de0-adfc-3d817afbd803
-0.0085427561102507,0.1018788996496314,0.0953182481762772,0.0378885782322812,-0.0480573286004861,-0.0666709524656644,-0.2223323523921912,-0.2446851389223732,-13.78337985050184,22.35582779181655,8.982807786939723,-0.0878464769824867,0.4018057048918468,0.2585951819325291,3445.10693359375,12.041,0.36,179.38839647863745,6.265302501279471,68.38134880856208,1525.0,1435.0,1200.0,1439.0,1475.0,1018.02,58.0,292.45,1637147858.9477108,1637147860.0489168,744c8723-cbf4-4de0-adfc-3d817afbd803
0.005879720395028,0.1057276325496218,0.097359035375169,0.0294651946493525,-0.0473588040888453,-0.0617264946129477,-0.2184562259034062,-0.237015065337716,-13.740751139787577,22.28015280053583,9.142497865033558,-0.0580876577236154,0.4156889390493112,0.2500211090199441,3444.184895833333,12.042222222222222,0.36,179.38900057092405,6.269592761283754,68.342153388555,1525.0,1435.0,1200.0,1439.0,1475.0,1018.02,58.0,292.45,1637147860.161176,1637147861.2724164,744c8723-cbf4-4de0-adfc-3d817afbd803
0.0305061329964385,0.1187804526507988,0.1742241202904174,0.0194256171051614,0.021096597285149,-0.0667257386955658,-0.1383587441586427,-0.1756133875218655,-13.16656355711387,22.24487401218181,9.537158210894928,-0.0427293562044208,0.4631914523200056,-0.0595709210855575,3376.973442925347,12.041777777777778,0.37,179.36602836801558,6.272227364460479,68.27890280120106,1525.0,1435.0,1200.0,1351.0,1475.0,1018.02,58.0,292.45,1637147862.1808767,1637147863.325986,cbcd9c83-8f94-4d8e-961a-ce7bb4d1b38d
0.0162754084665657,0.1179723557097561,0.1728955541519508,0.0169876296480915,0.0196310655011665,-0.0632605092463526,-0.1394270758052762,-0.1532195119601878,-13.224584511896571,22.28289288309129,9.588656860617546,-0.0292781396776641,0.4603314134986576,-0.054345456400963,3330.298611111112,12.041222222222224,0.3677777777777777,179.37423977321774,6.269234366079805,68.27999411364846,1525.0,1435.0,1200.0,1351.0,1475.0,1018.02,58.0,292.45,1637147863.462528,1637147864.5485432,cbcd9c83-8f94-4d8e-961a-ce7bb4d1b38d
0.0212883489851799,0.1203829499756529,0.1741693340590175,0.0157275462583962,0.020521341822326,-0.0632742057764463,-0.1382354751215676,-0.1566162590389239,-13.227848321684323,22.257742487496955,9.76723480586336,-0.026542954041953,0.4680484438005932,-0.0584503908363529,3311.988525390625,12.04,0.37,179.3855475308436,6.264145353397584,68.2816675099951,1525.0,1435.0,1200.0,1351.0,1475.0,1018.02,58.0,292.45,1637147864.6573536,1637147865.666938,cbcd9c83-8f94-4d8e-961a-ce7bb4d1b38d
0.0675361489532807,0.1296637378741694,0.2451355839054539,0.0177420361053084,0.0841429522137655,-0.0787036536434128,-0.0682504396660869,-0.0884862842969554,-12.705335989906452,22.38981921309961,9.668602088024455,-0.0611026843153202,0.5042861014859884,-0.3401711875501136,3298.8173828125,12.039333333333332,0.3733333333333333,179.35684707595124,6.241922194568086,68.2263133802316,1525.0,1435.0,1200.0,1262.0,1475.0,1018.02,58.0,292.45,1637147867.710781,1637147868.848384,abb13977-0ea9-4c3f-8a2f-bb0d1e9151f1
0.0392270058896521,0.1381577954447326,0.2567327333782769,0.0132977767260296,0.0934127829632737,-0.0830295749100456,-0.0577972257190161,-0.0754033308187787,-12.666121119703526,22.35246140849829,9.740093807529457,-0.0604374995195849,0.5365145465289116,-0.3823559696507639,3303.054443359375,12.038666666666666,0.38,179.3603077051307,6.243711988721845,68.19545913902093,1525.0,1435.0,1200.0,1262.0,1475.0,1018.02,58.0,292.45,1637147868.957723,1637147870.0787106,abb13977-0ea9-4c3f-8a2f-bb0d1e9151f1
0.0518316748272267,0.1317100036814156,0.2513905279494803,0.0170150227572303,0.0899902869375654,-0.0799840080111312,-0.0625071984885485,-0.0956665689190449,-12.740522112243598,22.38479862385621,9.722854325170507,-0.0620707388576865,0.5122150007544438,-0.3645436019029898,3303.3373752170137,12.037666666666668,0.38,179.36153562136153,6.260672391932109,68.1872143417828,1525.0,1435.0,1200.0,1262.0,1475.0,1018.02,58.0,292.45,1637147870.1863956,1637147871.400402,abb13977-0ea9-4c3f-8a2f-bb0d1e9151f1
0.0655556264999347,0.1413797738027521,0.3271187957749116,0.0346151007256165,0.1590483338638243,-0.1109108389464575,0.007482217856857,-0.0222667087209244,-12.194315480075076,22.616515877748885,9.53263597441441,-0.165717452810072,0.5489402538892846,-0.6601361888632953,3309.8573404947915,12.039666666666667,0.3722222222222222,179.3408553263745,6.248015956536337,68.14987142086062,1525.0,1435.0,1200.0,1173.0,1475.0,1018.02,58.0,292.45,1637147872.2164376,1637147873.357692,16f214eb-aba2-4293-97a2-3fa2523bd3e4
0.0731024302391976,0.1494333500317214,0.3329672258869433,0.0319442717641541,0.1624313837250998,-0.1161292281000694,0.0113994336549928,-0.0164593680981125,-12.134004498445044,22.63285476997241,9.599998217940112,-0.1709785120208437,0.5788220377062795,-0.6772118146209634,3322.68798828125,12.036333333333332,0.38,179.3557770129813,6.247024915060517,68.12529943586657,1525.0,1435.0,1200.0,1173.0,1475.0,1018.02,58.0,292.45,1637147873.489503,1637147874.4769905,16f214eb-aba2-4293-97a2-3fa2523bd3e4
0.067432055010636,0.1442834441442608,0.3262559126451791,0.0339302727726192,0.1575143193541723,-0.1135953646039588,0.0056194858635607,-0.012692813885214,-12.18640999919979,22.61757533335868,9.455312035931517,-0.1702494253530098,0.5604897829098912,-0.6539770926446337,3329.8587510850693,12.037222222222224,0.38,179.3708428924705,6.245651477854913,68.15017953828318,1525.0,1435.0,1200.0,1173.0,1475.0,1018.02,58.0,292.45,1637147874.6085684,1637147875.6024554,16f214eb-aba2-4293-97a2-3fa2523bd3e4
-0.0738890392494205,0.0734174512050825,-0.0734507492533503,0.0573239949154292,-0.2001302286263012,-0.045578251413123,-0.3981961914976097,-0.4187273375338793,-15.091974442584132,22.63364172901857,9.237711349208231,-0.0914698869654001,0.2889734170519185,0.9422242661572828,3344.29443359375,12.04,0.39,179.3762448131941,6.264890270903938,68.19950033427985,1525.0,1435.0,1200.0,1617.0,1475.0,1018.02,58.0,292.45,1637147877.1575124,1637147878.265173,e0d770b6-d67f-49dc-b2a1-6aa2a7f40571
-0.0670407596629418,0.0759644632214165,-0.0728130374432847,0.0610275443450204,-0.2005394818302428,-0.0526429365923709,-0.3992294600599398,-0.4117207247409267,-14.962041915643768,22.666792791076933,9.070481109946416,-0.1154092145498622,0.2986737911336483,0.9435656240979126,3376.6534559461807,12.041555555555554,0.36,179.38391435672213,6.2644087899993215,68.19303518077547,1525.0,1435.0,1200.0,1617.0,1475.0,1018.02,58.0,292.45,1637147878.3734944,1637147879.3845112,e0d770b6-d67f-49dc-b2a1-6aa2a7f40571
-0.0704785960243452,0.0731435200339787,-0.0727248316054781,0.0634189634735921,-0.1999521733419342,-0.0521525997716204,-0.3990453782774033,-0.422658251093727,-14.962951054251803,22.70364836469308,9.060920896197173,-0.1194550873742193,0.287896487600092,0.9420337491403608,3405.7168782552085,12.041,0.3611111111111111,179.39926710415648,6.264409691204837,68.19202355386841,1525.0,1435.0,1200.0,1617.0,1475.0,1018.02,58.0,292.45,1637147879.4922574,1637147880.6174622,e0d770b6-d67f-49dc-b2a1-6aa2a7f40571
-0.1078428097765042,0.0554338698416885,-0.1713537563839807,0.0860730712193538,-0.2884867386117236,-0.0506870679525059,-0.5055635389431882,-0.5324088024466977,-15.70838626895064,22.991078664994205,8.978743266222953,-0.1706579429669191,0.218441998634403,1.3460228655637956,3424.461181640625,12.041999999999998,0.37,179.39550594665354,6.2594180087182885,68.2099163727641,1525.0,1435.0,1200.0,1706.0,1475.0,1018.02,58.0,292.45,1637147881.1588523,1637147882.1605308,c4d1e0d6-32cb-4630-aaac-f25bc5c0294e
-0.1057335396428388,0.0541190002164723,-0.170436086892469,0.0870592234406594,-0.2870896894532656,-0.0507281576303008,-0.503988434314209,-0.5290120547621892,-15.679610105709347,22.95848909330266,8.928712156675575,-0.1731386312165677,0.2136863981666875,1.3404390182681476,3427.199462890625,12.03911111111111,0.3744444444444444,179.38905824807705,6.2517904423945465,68.19559422498452,1525.0,1435.0,1200.0,1706.0,1475.0,1018.02,58.0,292.45,1637147882.2698133,1637147883.3864875,c4d1e0d6-32cb-4630-aaac-f25bc5c0294e
-0.0943790920026322,0.056173484002935,-0.1727234123685235,0.0852238845933471,-0.2895276772172294,-0.0516458271054544,-0.506946891737234,-0.5305734636150636,-15.734254771485196,22.94437043114029,8.824500243381523,-0.1713122888472778,0.2227830763649695,1.3511428339915412,3427.199462890625,12.04,0.37,179.40123571645725,6.255403043283051,68.18468641288001,1525.0,1435.0,1200.0,1706.0,1475.0,1018.02,58.0,292.45,1637147883.5010898,1637147884.625418,c4d1e0d6-32cb-4630-aaac-f25bc5c0294e
-0.1308119399840271,0.0405457106282086,-0.2582584297821156,0.1240810207112815,-0.3658586105119446,-0.068629560417338,-0.6053840872581945,-0.6219432331272792,-16.314017798451413,23.37012073511629,8.60970828788256,-0.2988919839646429,0.1599771517600514,1.709422178496488,3431.3154296875,12.038333333333334,0.3744444444444444,179.40394047136857,6.252143667524749,68.16483864206185,1525.0,1435.0,1200.0,1795.0,1475.0,1018.02,58.0,292.45,1637147886.759339,1637147887.7888088,dd8d96fc-8d28-4b2a-9364-4f53a6efc5a8
-0.1362494741380592,0.0402717794563228,-0.2595048168149562,0.1257930904879957,-0.3670502113627547,-0.0700403060223007,-0.6072468198892583,-0.6332155048367043,-16.31298859321502,23.395954587440148,8.582851212910905,-0.3058186967837138,0.1588911238318709,1.7153303824325736,3429.9423828125,12.037,0.38,179.40386609819765,6.258706103792922,68.16567268405049,1525.0,1435.0,1200.0,1795.0,1475.0,1018.02,58.0,292.45,1637147887.9052875,1637147888.9733503,dd8d96fc-8d28-4b2a-9364-4f53a6efc5a8
-0.1433716850991212,0.0397376136674304,-0.2615045146072468,0.123505765254356,-0.3692416611204169,-0.0657943726601189,-0.6083836346256334,-0.6303803162537073,-16.318253855845644,23.40931899965911,8.800278659786711,-0.2910968407664136,0.1551529647807891,1.7228724119159493,3428.722981770833,12.037777777777778,0.38,179.41193634615695,6.256967014307377,68.17083403033331,1525.0,1435.0,1200.0,1795.0,1475.0,1018.02,58.0,292.45,1637147889.109628,1637147890.0574243,dd8d96fc-8d28-4b2a-9364-4f53a6efc5a8
-0.1643548145704177,0.0275750695657435,-0.3331375264502471,0.1614041418747645,-0.4335059269507486,-0.0842436379314581,-0.6948774331012997,-0.710518910251544,-16.970788766319874,23.95834299466792,8.832578865806793,-0.4182948756861468,0.104670294179291,2.029419606030165,3428.570556640625,12.035333333333332,0.3844444444444444,179.41993677440476,6.233054806614378,68.15637983222973,1525.0,1435.0,1200.0,1883.0,1475.0,1018.02,58.0,292.45,1637147892.1745346,1637147893.3074777,cfbcef40-858d-437d-90f5-0362c0bdd3dd
-0.1551507263977063,0.029300835957432,-0.3262207633152452,0.1584045956338129,-0.4292052066720142,-0.0848462865292272,-0.6872210540202112,-0.7018626815182,-16.73509317948371,24.01194163661697,8.648949991343388,-0.4120937739754698,0.1119109733065088,2.003298862549065,3426.286376953125,12.03,0.4099999999999999,179.42262635111794,6.244467293807562,68.0879519614849,1525.0,1435.0,1200.0,1883.0,1475.0,1018.02,58.0,292.45,1637147893.4164846,1637147894.540654,cfbcef40-858d-437d-90f5-0362c0bdd3dd
-0.151397869065552,0.0272052624769529,-0.3278232609294635,0.1607604036405872,-0.4282875370581274,-0.0856406869743423,-0.6881524203214443,-0.715312708113438,-16.84992598416814,23.87754122330233,8.545051614845947,-0.4202381397045675,0.1053909861726208,2.0051548180905585,3423.093505859375,12.033,0.4,179.43057213785238,6.241285990906021,68.04741934222035,1525.0,1435.0,1200.0,1883.0,1475.0,1018.02,58.0,292.45,1637147894.648937,1637147895.6836326,cfbcef40-858d-437d-90f5-0362c0bdd3dd
-0.0535359523624518,0.0762115491335296,-0.0373603160059507,0.0392719306311016,-0.1352496251509229,-0.046468527794806,-0.3197833796767515,-0.353586492614575,-14.549739340630332,18.656520863518967,7.624034003474475,-0.0773014568884589,0.3143602450840366,0.6929315056857811,7015.537217881944,11.807333333333332,8.605555555555556,178.58114400973272,5.957722197208349,58.628873826898094,1525.0,1435.0,1350.0,1528.0,1475.0,1018.02,58.0,292.45,1637147899.1586008,1637147900.39445,7ce0569d-c967-4e07-9122-d3488c74152e
-0.0339498729148996,0.0786495365477459,-0.0345525213989984,0.0342589901520698,-0.1328253341050453,-0.0429896017994869,-0.3159209495505292,-0.3412321943952947,-14.585821906460916,18.59464305199607,7.828455357937613,-0.0584318432812701,0.3227419324634767,0.680842446489438,7026.399685329861,11.805222222222222,8.664444444444444,178.3790356765524,5.848432387730843,54.47052223041541,1525.0,1435.0,1350.0,1528.0,1475.0,1018.02,58.0,292.45,1637147900.5272553,1637147901.6174214,7ce0569d-c967-4e07-9122-d3488c74152e
-0.0450824361049019,0.0714281630469842,-0.0398755520965719,0.041501730384281,-0.1356243630048107,-0.0395994294897083,-0.3195351979575036,-0.3455301760571544,-14.561562683517762,18.5707222496188,8.21815333268496,-0.0675008146147907,0.2908022133537736,0.6968227567715841,7033.447265625,11.809,8.58,178.30826277419257,5.787204769599818,51.30088718925143,1525.0,1435.0,1350.0,1528.0,1475.0,1018.02,58.0,292.45,1637147901.7255905,1637147902.8419845,7ce0569d-c967-4e07-9122-d3488c74152e
0.0600633064945265,0.2628134571991022,-0.039633944814545,-0.0506185851793267,-0.1784485743707035,-0.1397284001384805,-0.3635849814366926,-0.387581358291664,-14.659819799401314,18.12838355492468,8.420148090492573,-0.0876406660112156,1.0188683904024587,0.8402866963767531,7043.078125,11.806333333333336,8.663333333333334,178.33106649910152,5.7751591143842,45.59991915488359,1610.0,1435.0,1350.0,1528.0,1542.0,1018.02,58.0,292.45,1637147904.6676338,1637147905.8114212,5b4a3378-42e6-43a1-b985-3d64d38ad382
0.0514070814721365,0.262334077678283,-0.0396476413610929,-0.0538235800029622,-0.1800647684162566,-0.1384546200924969,-0.3642013266394313,-0.3955253639052076,-14.638898884162296,18.258183048892395,8.110991028633412,-0.0767276049122729,1.0200583403720345,0.8428234381718012,7052.737955729167,11.8,8.743333333333332,178.41421266859777,5.811814652657412,43.83334916212269,1610.0,1435.0,1350.0,1528.0,1542.0,1018.02,58.0,292.45,1637147905.9283073,1637147907.0296218,5b4a3378-42e6-43a1-b985-3d64d38ad382
0.0560228217454369,0.2610876909116696,-0.0409077247848601,-0.047057479816253,-0.1794073335376246,-0.1410158767317963,-0.3646944028417196,-0.3882661855982675,-14.579390168465046,18.135214530035046,8.453199652636565,-0.0985391665877106,1.0110144379493402,0.8448309083639644,7054.671875,11.79977777777778,8.776666666666666,178.51760959007328,5.838672426861849,42.48156517400805,1610.0,1435.0,1350.0,1528.0,1542.0,1018.02,58.0,292.45,1637147907.1387434,1637147908.1712124,5b4a3378-42e6-43a1-b985-3d64d38ad382
0.1616506798091283,0.4717407464980621,-0.0424554359738659,-0.1613141781260458,-0.2319884272866215,-0.2372752994999197,-0.4133171952937675,-0.4485721455322689,-14.645493790472836,17.863742887078754,8.964418314797893,-0.0589402916501914,1.81099314395518,1.0130599019331477,7054.671875,11.8,8.74,178.65702589359174,5.918713658766066,40.68839652734434,1695.0,1435.0,1350.0,1528.0,1609.0,1018.02,58.0,292.45,1637147909.1727283,1637147910.2201378,c833759d-550b-49fc-93a3-2a3489da6345
0.158801247853905,0.4635617102880702,-0.0463447108682294,-0.1603044678073735,-0.2343579321813884,-0.2307683377787469,-0.4158494155524593,-0.4411869590397421,-14.72902296083681,17.940640318372495,8.857214447474274,-0.0463389718719861,1.7814885573493011,1.023972118476968,7054.671875,11.797666666666666,8.778888888888888,178.78089972219888,5.962408276161408,39.863569981705176,1695.0,1435.0,1350.0,1528.0,1609.0,1018.02,58.0,292.45,1637147910.329909,1637147911.4541547,c833759d-550b-49fc-93a3-2a3489da6345
0.1621163627957262,0.4640843709168132,-0.0477423077679996,-0.1613415712974002,-0.2346044702688045,-0.2271946312994386,-0.4162756525356355,-0.4500650707535983,-14.824734720533082,17.852458631293093,9.296570004833084,-0.0366012259604526,1.7802698735115303,1.0274629400381112,7048.8701171875,11.795444444444444,8.765555555555556,178.87413180436957,6.011486695306273,39.086584737197455,1695.0,1435.0,1350.0,1528.0,1609.0,1018.02,58.0,292.45,1637147911.5685909,1637147912.6788013,c833759d-550b-49fc-93a3-2a3489da6345
0.2679222731916565,0.6460842243692144,-0.0490845705550503,-0.2578201400108538,-0.2813919202990946,-0.3130720650521616,-0.4606114225626465,-0.4993042112777976,-14.874855796536773,17.794628501628882,9.634553802756091,-0.0123688242526361,2.4720316854909474,1.1777849280659638,7054.671875,11.796333333333331,8.782222222222222,178.98839328008484,6.077497343131076,38.17278625015493,1779.0,1435.0,1350.0,1528.0,1677.0,1018.02,58.0,292.45,1637147913.6813176,1637147914.6201508,fcc7b439-c0a6-4212-b985-d0984c7eb14c
0.2593493237129227,0.6510489524426333,-0.0448983542349895,-0.2639162049696165,-0.2793527763687878,-0.3148016666262223,-0.4572941152717619,-0.4782005477009777,-14.857382336654052,17.819571979772256,9.3109011901197,-0.0021732383756773,2.4944136492759137,1.1646709085252085,7054.671875,11.790777777777777,8.82,179.07180355022902,6.109789908344465,37.76870998212724,1779.0,1435.0,1350.0,1528.0,1677.0,1018.02,58.0,292.45,1637147914.7540808,1637147915.746851,fcc7b439-c0a6-4212-b985-d0984c7eb14c
0.2695658601000967,0.6483666186699918,-0.0447668672776326,-0.2649286547341336,-0.2792870328732996,-0.3130923358453524,-0.4558214609354315,-0.4926641182202156,-14.773907830251115,17.81737222608426,9.05365147503988,0.0039446713276148,2.486175404983829,1.161668396909092,7054.671875,11.789,8.807777777777776,179.12215874042997,6.146849328984223,37.40053242946724,1779.0,1435.0,1350.0,1528.0,1677.0,1018.02,58.0,292.45,1637147915.857642,1637147916.9774675,fcc7b439-c0a6-4212-b985-d0984c7eb14c
0.3145042660902006,0.7588205872051134,-0.0483449563714846,-0.3310967390020236,-0.3127570440052189,-0.3454644313531497,-0.4858678827196662,-0.5181232879209423,-15.073179332414108,18.12591427864788,11.042338951747396,0.0824927973931859,2.892862533966292,1.2701665167364318,7060.48291015625,11.79022222222222,8.823333333333332,179.19464981482102,6.198371959782699,36.96277460136746,1864.0,1435.0,1350.0,1528.0,1744.0,1018.02,58.0,292.45,1637147917.6830034,1637147918.7144604,bc194fc3-f16a-4e55-8cec-66c6393865b8
0.3184214816106103,0.7603819947361563,-0.0496050397914765,-0.3312884907867046,-0.3149484937210028,-0.3478476328925963,-0.4875799529711926,-0.5022900625142739,-14.982583431467251,18.142842074312373,10.883900111743165,0.077639790633393,2.899425798725018,1.2773267996928264,7060.48291015625,11.781222222222222,8.855555555555556,179.2716169398482,6.223787852594225,36.723045586238726,1864.0,1435.0,1350.0,1528.0,1744.0,1018.02,58.0,292.45,1637147918.8483975,1637147920.0572064,bc194fc3-f16a-4e55-8cec-66c6393865b8
0.3235850838339383,0.760505263752783,-0.0461809000227429,-0.3303708212185822,-0.3111956360835785,-0.3477106672784079,-0.4841832055668796,-0.5119187448178913,-15.021105309734944,18.130683442928817,11.067170990371125,0.0759772547101072,2.898640336930067,1.2629710479931224,7060.48291015625,11.783,8.858888888888888,179.3441398884554,6.266195263922234,36.51096821250982,1864.0,1435.0,1350.0,1528.0,1744.0,1018.02,58.0,292.45,1637147920.1918032,1637147921.171096,bc194fc3-f16a-4e55-8cec-66c6393865b8
-0.1470012734123197,-0.1285520075305375,-0.0237733294894266,0.1210951709963276,-0.0755189296899438,0.0810601308337981,-0.252259336394072,-0.270147044793092,-14.582663551401868,18.94425129477532,8.251408861441277,0.0273666584783222,-0.4681629356898778,0.4736004954727562,7066.30322265625,11.783666666666669,8.854444444444445,179.62181895243253,6.290696006248715,36.04555836355525,1440.0,1435.0,1350.0,1528.0,1408.0,1018.02,58.0,292.45,1637147922.1900673,1637147923.2239258,757334a1-6051-4e70-8124-db11461c01fe
-0.1540686981889213,-0.1316063402990227,-0.0276768488010745,0.1216156401635848,-0.0791622144464075,0.0814436344283845,-0.255779352399852,-0.2867746698905278,-14.54482042876775,18.972370209630167,7.919699114663277,0.0270125986312812,-0.477257516118422,0.4880775259722321,7063.069715711806,11.803555555555556,8.753333333333332,179.68690761958314,6.322763412378841,35.92401059381543,1440.0,1435.0,1350.0,1528.0,1408.0,1018.02,58.0,292.45,1637147923.355642,1637147924.4409378,757334a1-6051-4e70-8124-db11461c01fe
-0.1577393761844693,-0.1295655529330957,-0.0272111658014967,0.123286620292667,-0.0795868077967837,0.0767868045571887,-0.2566833254030627,-0.2913082308534823,-14.478936311834165,19.00930723576861,7.75830791612116,0.0130542439513475,-0.4688148133431575,0.4893729986619496,7060.48291015625,11.802,8.720000000000002,179.73610015980535,6.341743559444922,35.77962494822081,1440.0,1435.0,1350.0,1528.0,1408.0,1018.02,58.0,292.45,1637147924.5574102,1637147925.6746132,757334a1-6051-4e70-8124-db11461c01fe
-0.2560532837830015,-0.324334472842222,-0.022992625622882,0.2009954126597599,-0.0354970361070121,0.1960778004736836,-0.2050231877257943,-0.2288091822133949,-14.393028653110614,19.683664834083725,7.966003534311283,0.1105818476917925,-1.211054261828325,0.3272083157496102,7060.48291015625,11.803777777777778,8.747777777777777,179.81152062644048,6.37753797213215,35.657864683706805,1355.0,1435.0,1350.0,1528.0,1341.0,1018.02,58.0,292.45,1637147926.6947289,1637147927.7158945,c817c0e6-b2df-4510-bf3c-11c139dca4f7
-0.2505508395365893,-0.3215252248632634,-0.0213776226809253,0.1980340976940721,-0.0348979128854649,0.1948755523062792,-0.2044732291634015,-0.2285410637645687,-14.43761674638995,19.71679178158086,7.807014887091015,0.1148124672506058,-1.198325632324318,0.3234527749677292,7060.48291015625,11.793,8.8,179.83082274103492,6.381278354476379,35.61493352967869,1355.0,1435.0,1350.0,1528.0,1341.0,1018.02,58.0,292.45,1637147927.8251064,1637147929.0589516,c817c0e6-b2df-4510-bf3c-11c139dca4f7
-0.2545055724414944,-0.3212215185201009,-0.0225269426312244,0.2007269601220195,-0.0349223284944366,0.1968234410887527,-0.2050883833540629,-0.2398091639331329,-14.4759239578144,19.65534380148032,8.472483657851164,0.1127374176998241,-1.203218904662293,0.3269259030428577,7060.48291015625,11.792777777777776,8.794444444444444,179.86460789230944,6.388990396959231,35.60745333417266,1355.0,1435.0,1350.0,1528.0,1341.0,1018.02,58.0,292.45,1637147929.171023,1637147930.296626,c817c0e6-b2df-4510-bf3c-11c139dca4f7
-0.3477391561973303,-0.5037221731338366,-0.0195213697259983,0.2904854346740959,0.0044881501143528,0.2948770989495575,-0.1633681142185299,-0.1923215463805954,-14.277029009184538,20.561411819033665,8.900865890737064,0.1369284486918014,-1.90375707519544,0.1888255388576323,7066.30322265625,11.78888888888889,8.801111111111112,179.89256461549223,6.386622266023875,35.621608521772565,1271.0,1435.0,1350.0,1528.0,1273.0,1018.02,58.0,292.45,1637147932.2245667,1637147933.4613438,ea458ae7-c741-4ec8-9cb9-653af2fe39bf
-0.3439917771928988,-0.5008557566083629,-0.0192583958074988,0.2847131573728801,0.0040410944213128,0.2973622023827099,-0.1620137984077667,-0.1966080220797665,-14.262062125063023,20.491666228076383,8.904771243409082,0.1550925501785652,-1.8924206362369929,0.1874885498994807,7060.48291015625,11.78788888888889,8.831111111111111,179.88478123547804,6.383219740884217,35.59731505671464,1271.0,1435.0,1350.0,1528.0,1273.0,1018.02,58.0,292.45,1637147933.5941646,1637147934.6028492,ea458ae7-c741-4ec8-9cb9-653af2fe39bf
-0.342547063872762,-0.5020435224723486,-0.0156238769206955,0.2888643100737341,0.0082492251595383,0.2948770989243316,-0.1593692666506726,-0.1864062760071607,-14.30756484590693,20.52589992639267,8.953432671773811,0.1405369735363458,-1.89726481437278,0.1729528639080522,7060.48291015625,11.785777777777778,8.821111111111112,179.89253122345627,6.389821782763203,35.64613952563161,1271.0,1435.0,1350.0,1528.0,1273.0,1018.02,58.0,292.45,1637147934.710078,1637147935.7138636,ea458ae7-c741-4ec8-9cb9-653af2fe39bf
-0.4068688542885029,-0.6146709049335634,-0.0068986210541617,0.3386885519285792,0.0365446718969891,0.3676156815854813,-0.1264465724248384,-0.1401343669515549,-14.222843566752196,21.348465266578792,10.2773640961079,0.1977400317445662,-2.3375869284188555,0.0640429355053397,7060.48291015625,11.783666666666669,8.826666666666666,179.89441483784742,6.38638098010507,35.72251318311088,1186.0,1435.0,1350.0,1528.0,1206.0,1018.02,58.0,292.45,1637147936.7310114,1637147937.8681457,7adb123c-4c7a-4a90-831a-eccf5296c1ce
-0.4090575648720471,-0.615218219592011,-0.0033517601746877,0.3360626478637099,0.0384638336870642,0.3675373372298611,-0.1214161000668982,-0.1365234057839492,-13.995986927360036,21.357379341349937,9.87819387195476,0.2037736440200361,-2.3371591828137728,0.0489346292733541,7060.48291015625,11.78,8.856666666666667,179.89241435133047,6.370907945450314,35.73313450672521,1186.0,1435.0,1350.0,1528.0,1206.0,1018.02,58.0,292.45,1637147937.97686,1637147939.0963876,7adb123c-4c7a-4a90-831a-eccf5296c1ce
-0.411906449602074,-0.6110681609485397,-0.0033106705122851,0.3363228825016174,0.0388473373308264,0.3654554605284715,-0.1221831074056807,-0.1582735426311318,-14.068177989741852,21.28067857224265,10.19269007192984,0.1980157442062838,-2.323901097362384,0.0503773316556602,7060.48291015625,11.779666666666666,8.866666666666667,179.86598303706236,6.36291472684663,35.70985911930856,1186.0,1435.0,1350.0,1528.0,1206.0,1018.02,58.0,292.45,1637147939.2046633,1637147940.333392,7adb123c-4c7a-4a90-831a-eccf5296c1ce
-0.0444140440305052,0.0780879776445743,-0.0322925891715689,0.0351218733871879,-0.1296203391705658,-0.0390039030962545,-0.3112504223387912,-0.3413828573822803,-14.521721337588858,18.47579377316772,8.45718180112832,-0.051964746753942,0.3146446831307897,0.6676667409338574,7061.776312934027,11.786111111111111,8.837777777777777,179.66396425525116,6.342567688172901,35.80795277834848,1525.0,1435.0,1350.0,1528.0,1475.0,1018.02,58.0,292.45,1637147941.2346213,1637147942.267328,657b9e7c-29d9-4c41-9cbf-20dd3521cd95
-0.0413460148288044,0.081183399858407,-0.0315529749962188,0.0313142300409283,-0.1298531806979202,-0.0411953525578757,-0.3111682429999418,-0.325220915972596,-14.52788746375012,18.463722628196376,8.081941048218686,-0.048406228437157,0.3301392753552329,0.6666712568470983,7066.30322265625,11.802666666666669,8.736666666666666,179.6455591721677,6.322636674424242,35.872248005190485,1525.0,1435.0,1350.0,1528.0,1475.0,1018.02,58.0,292.45,1637147942.4038515,1637147943.492184,657b9e7c-29d9-4c41-9cbf-20dd3521cd95
-0.0433594089549941,0.0789919505046221,-0.0326623962640308,0.0372311433988495,-0.1295929460528545,-0.0423047738295837,-0.3126337749770214,-0.3366986333149531,-14.55690044483768,18.461805198512263,8.383615500782701,-0.0642808214394619,0.3186527589838628,0.670108373573857,7061.129611545139,11.803777777777778,8.75111111111111,179.64881641349186,6.321190666458707,35.99152170139165,1525.0,1435.0,1350.0,1528.0,1475.0,1018.02,58.0,292.45,1637147943.6269057,1637147944.717564,657b9e7c-29d9-4c41-9cbf-20dd3521cd95
-0.0396651730692139,0.0720330030685791,-0.0549834046201915,-0.2427862475189012,-0.1775555586593783,0.2366809726272976,-0.2550802799617383,-0.2685445475805232,-14.534938809796664,17.73990693210403,10.561626946776192,1.1887492854199333,0.3061422340190072,0.684003543306281,7066.30322265625,11.801444444444446,8.763333333333332,179.5938652648894,6.396130505962834,35.9295885816376,1525.0,1535.0,1350.0,1528.0,1475.0,1018.02,58.0,292.45,1637147946.657327,1637147947.7924402,e9fa2235-f3f9-4561-870b-cfd704e1a1e5
-0.0241294401175854,0.075978707643332,-0.05075555074772,-0.248766713580561,-0.1762297316718823,0.2353518586429267,-0.2520264948794506,-0.2726261224435698,-14.47569390053709,17.847012781475872,10.166076720801511,1.2001403609411654,0.3250336191261961,0.6719513273431449,7066.30322265625,11.802333333333332,8.77,179.6066453077364,6.375503761556217,35.99654720280096,1525.0,1535.0,1350.0,1528.0,1475.0,1018.02,58.0,292.45,1637147947.924184,1637147949.0191767,e9fa2235-f3f9-4561-870b-cfd704e1a1e5
-0.0313612232665002,0.0728284991883413,-0.0514951649446835,-0.2415760195000162,-0.1744080892168307,0.2369269627824822,-0.2525880538531215,-0.2692978582195138,-14.594350651998289,17.80632049944808,10.888172069917816,1.187208181622923,0.3067254265045997,0.6719119466563303,7066.951063368056,11.800222222222224,8.76,179.58664347820698,6.374286896950963,36.02488869330697,1525.0,1535.0,1350.0,1528.0,1475.0,1018.02,58.0,292.45,1637147949.1276352,1637147950.368806,e9fa2235-f3f9-4561-870b-cfd704e1a1e5
-0.0217599354317247,0.0695139320232557,-0.0674242632138146,-0.5071523403151361,-0.2195382541503704,0.4963671566265994,-0.1975004891357011,-0.235193423134986,-14.476859694534651,17.522774398370796,12.69521273503416,2.3669544219814056,0.3091299572872766,0.6766785700850204,7067.598904079861,11.801444444444448,8.746666666666666,179.56684958999227,6.438411131904373,36.004897109061304,1525.0,1636.0,1350.0,1528.0,1475.0,1018.02,58.0,292.45,1637147951.1557877,1637147952.2117198,c53d834c-50d4-42de-a1df-c4a434f58c2c
-0.0202807070530213,0.0744994793230695,-0.0663011453724566,-0.5048102280800371,-0.2191958401458692,0.4919294720534506,-0.1992810419312855,-0.2245101057712967,-14.55966299079337,17.586188925205153,13.062317392245063,2.3521922646998243,0.3249451239140108,0.6782740078922213,7066.30322265625,11.800555555555556,8.742222222222221,179.54370587344465,6.423382960751184,36.07446789812723,1525.0,1636.0,1350.0,1528.0,1475.0,1018.02,58.0,292.45,1637147952.320819,1637147953.4388692,c53d834c-50d4-42de-a1df-c4a434f58c2c
-0.0182810095026839,0.0664595994757333,-0.0712319066691844,-0.5040158275871592,-0.2230582701000343,0.4944085489163095,-0.2011985603254473,-0.2266330726039387,-14.379653407566575,17.54838453518148,12.37239739702926,2.3554556146797627,0.2992203333977993,0.6911885535682357,7072.1337890625,11.799,8.79,179.52769742784994,6.426991577362674,36.10422285833649,1525.0,1636.0,1350.0,1528.0,1475.0,1018.02,58.0,292.45,1637147953.5517356,1637147954.5883996,c53d834c-50d4-42de-a1df-c4a434f58c2c
-0.0150760146675559,0.0720751884621492,-0.0778062550825124,-0.7596758785949312,-0.2617921423460863,0.7399741243949401,-0.145193327398015,-0.1718879228352216,-14.38821795469626,17.59556823379546,14.784896895412723,3.484346372213949,0.3300221479059258,0.6749826289339396,7066.30322265625,11.798444444444444,8.768888888888888,179.51121542247282,6.505706946226133,36.26121817150382,1525.0,1737.0,1350.0,1528.0,1475.0,1018.02,58.0,292.45,1637147955.661909,1637147956.809098,387385f0-175a-4a9d-937b-0d705b15f8d6
-0.0188288717964103,0.0674731448061533,-0.0814358432916544,-0.7515264226209796,-0.2632302811934002,0.7359473365509738,-0.1491242400201435,-0.1835847849171128,-14.38472566893291,17.56578689257007,14.609578144277782,3.45651012394886,0.3130568402334936,0.6867677371470694,7066.30322265625,11.792555555555555,8.792222222222222,179.4969949686208,6.48551097805592,36.251357275617096,1525.0,1737.0,1350.0,1528.0,1475.0,1018.02,58.0,292.45,1637147956.944739,1637147958.0367763,387385f0-175a-4a9d-937b-0d705b15f8d6
