raw_voltage_G-,raw_voltage_G0,raw_voltage_G1,raw_voltage_G2,raw_voltage_G3,raw_voltage_G4,raw_voltage_G5,raw_voltage_G6,load_x,load_y,load_z,load_l,load_m,load_n,rpm,voltage,current,roll,pitch,yaw,aileron1_pwm,elevator_pwm,throttle_pwm,rudder_pwm,aileron2_pwm,pbaro,pdiff,Tt,sample_start_time,sample_end_time,uid
0.0486951628364613,0.2036991130754861,-0.0338813902836931,-0.2368370114019216,-0.1698334385454174,0.2426658199471548,-0.2364808995974221,-0.2576146921434905,-13.75179233744918,16.245897911178364,30.685483024347377,1.1835268654908402,0.6166499914322477,0.6637673567751051,3065.0548095703125,12.04175,0.4275,178.85714019098938,-10.638095404705965,108.03580002681385,1525.0,1435.0,1200.0,1528.0,1475.0,1018.02,58.0,292.45,1637151538.6490486,1637151539.7415807,3ca2763c-98b7-4823-a115-fa8dc889208c
0.0504346257909279,0.2017405052798937,-0.0374561922339957,-0.2200313323563105,-0.1704908735663689,0.2337493604084116,-0.242931979401671,-0.2734890072257543,-13.815142221999588,16.2458580373972,31.30643035546737,1.1254697241278624,0.6019531928991189,0.679462486439852,3350.9137369791665,12.042,0.42,179.05221153204977,-10.716848268462057,107.42820005862784,1525.0,1435.0,1200.0,1528.0,1475.0,1018.02,58.0,292.45,1637151539.8506367,1637151540.9805653,3ca2763c-98b7-4823-a115-fa8dc889208c
0.0503387498407777,0.2010830705502699,-0.0303065883425139,-0.2191547526546025,-0.1640945800674937,0.2334206429416899,-0.2340566085300877,-0.2696676655156331,-13.602038328250703,16.209754231108537,31.343846960226063,1.1229836045881258,0.5979922022914407,0.648512924765747,3379.900146484375,12.042666666666667,0.42,179.18218396067587,-10.759353009985736,106.92784316732994,1525.0,1435.0,1200.0,1528.0,1475.0,1018.02,58.0,292.45,1637151541.0890348,1637151542.210501,3ca2763c-98b7-4823-a115-fa8dc889208c
0.1158904786669139,0.3318441081177007,-0.0103370059368337,-0.2805427355479836,-0.1744765729098973,0.1627053136987384,-0.2426169589791291,-0.2661476506539888,-13.462304869329026,15.852075216635598,31.51620408145485,1.1012741344478416,1.094727073003829,0.6633924054554908,3379.900146484375,12.039,0.42,179.2720980887297,-10.842200453569577,106.3223172999219,1610.0,1435.0,1200.0,1528.0,1542.0,1018.02,58.0,292.45,1637151543.1293497,1637151544.1339786,89c46ad3-30c8-4fea-8871-47f1f8a60ffa
0.1085080336284202,0.299670893882863,-0.0095015156270901,-0.3005534097004785,-0.1724768749763,0.2094927561485025,-0.2299339437786673,-0.2435894145373081,-13.618699426516852,16.217044390613935,31.115243081202465,1.25386932908921,0.9812414854955512,0.6365788696448428,3386.576904296875,12.04,0.4099999999999999,179.31489150060958,-10.870395474463388,106.03775795872085,1610.0,1435.0,1200.0,1528.0,1542.0,1018.02,58.0,292.45,1637151544.242939,1637151545.271143,89c46ad3-30c8-4fea-8871-47f1f8a60ffa
0.1260122352536052,0.3355010889208634,-0.0043516092126238,-0.2888428511541263,-0.1712167911725008,0.1654720186505425,-0.2361658786010023,-0.2739957785892352,-13.392157370590292,15.905435241952055,31.37931667759072,1.1268795698307712,1.1105619863700529,0.6418125535282961,3382.568766276041,12.040333333333333,0.4099999999999999,179.32340646977485,-10.928789322998764,105.8365246486642,1610.0,1435.0,1200.0,1528.0,1542.0,1018.02,58.0,292.45,1637151545.3800786,1637151546.602089,89c46ad3-30c8-4fea-8871-47f1f8a60ffa
0.2006995669108825,0.4639474052902526,0.0302458981854886,-0.3458890268582895,-0.1672721819332128,0.0861826425307379,-0.2311666345020665,-0.2453836641970279,-13.17189233136242,15.588186047875034,30.68688142865972,1.077008090073447,1.6061033441905963,0.5965112378475158,3345.318305121528,12.039222222222222,0.42,179.27667735111328,-11.020287675485118,105.36205569214049,1695.0,1435.0,1200.0,1528.0,1609.0,1018.02,58.0,292.45,1637151548.6391523,1637151549.7837346,c9861431-f1c5-4990-a971-d3120d82aac7
0.1900162516721853,0.4563869056338414,0.02887624221063,-0.3549698448375362,-0.1688883762316008,0.1004270642813986,-0.2293175986886935,-0.2610388326296143,-13.245371588546972,15.697241122321543,30.471070295945115,1.1300846586536433,1.5812127341530953,0.5965519424405182,3318.2583279079863,12.03977777777778,0.42,179.28255586725894,-11.076733497150965,105.22936864277423,1695.0,1435.0,1200.0,1528.0,1609.0,1018.02,58.0,292.45,1637151549.9216185,1637151551.005168,c9861431-f1c5-4990-a971-d3120d82aac7
0.1904134518207871,0.4363762352035151,0.0216170662130218,-0.3393831596615932,-0.171189398070727,0.1081382263267441,-0.2343442361731963,-0.2490817355129286,-13.302171471871622,15.838848063259547,30.7714750933462,1.1128494920502108,1.5015232430737828,0.6147791612231862,3306.737847222222,12.038555555555556,0.42,179.27775803882196,-11.068419639111244,105.1387024350018,1695.0,1435.0,1200.0,1528.0,1609.0,1018.02,58.0,292.45,1637151551.1137688,1637151552.2337248,c9861431-f1c5-4990-a971-d3120d82aac7
0.2324865386603596,0.513816022771421,0.0450650265673342,-0.4194127204628152,-0.1754386191397962,0.0941359574986104,-0.2241019485578281,-0.2487952032456186,-13.2765175221681,16.098211600238688,29.21866446318804,1.2645638968497637,1.816894704711892,0.5804116736382845,3292.341227213541,12.032777777777778,0.4577777777777778,179.19839579412584,-11.116395931342536,104.97388465796,1779.0,1435.0,1200.0,1528.0,1677.0,1018.02,58.0,292.45,1637151553.1443653,1637151554.283088,7276f7aa-5b72-4b98-bd8e-91ce4ccff380
0.2355107386511823,0.5447154560964669,0.0494829887196441,-0.4104321539399709,-0.1750573065589407,0.0618427622399077,-0.2291510484908174,-0.2500311809185523,-13.099843987062505,15.90985456763919,30.10586934485168,1.1709405194611655,1.9228438209187384,0.5863287444674655,3304.05322265625,12.03077777777778,0.4499999999999999,179.19065794870616,-11.140562658445855,104.83384756613697,1779.0,1435.0,1200.0,1528.0,1677.0,1018.02,58.0,292.45,1637151554.3916056,1637151555.5210023,7276f7aa-5b72-4b98-bd8e-91ce4ccff380
0.271248893115614,0.5817947760085977,0.0558864038985519,-0.4069477495679524,-0.174439317632836,0.028813237262173,-0.2337662412608505,-0.2574733433567907,-13.001697172753095,15.751891509012994,31.03906199574324,1.0883286561186452,2.052922551350967,0.5892963190552508,3340.825520833333,12.032555555555556,0.4499999999999999,179.16244016051508,-11.154809010098424,104.72039812402306,1779.0,1435.0,1200.0,1528.0,1677.0,1018.02,58.0,292.45,1637151555.6563904,1637151556.6357892,7276f7aa-5b72-4b98-bd8e-91ce4ccff380
0.3402400979310528,0.6881463517003809,0.0799917989593137,-0.4429976453274529,-0.1781198574137524,-0.0445784033330508,-0.2391243358053009,-0.2615456049586535,-12.676665842922729,15.84455935973638,30.769953284824123,1.0066628819761458,2.4578584721498444,0.5814420036334879,3370.30419921875,12.027888888888889,0.48,179.09777344727323,-11.132594009550436,104.5307123871232,1864.0,1435.0,1200.0,1528.0,1744.0,1018.02,58.0,292.45,1637151557.6498215,1637151558.6820035,daba8005-3fd9-444a-9e91-77038c4fa9f8
0.3116548342319692,0.6621333022959385,0.0764378159408844,-0.4558477594870541,-0.1798828785777955,-0.0121449516411098,-0.2361724529244977,-0.2608525591221012,-12.98903874547434,16.207436333231044,30.07053175066684,1.1104917460340982,2.370066549786121,0.5798708136093155,3380.6408420138887,12.026666666666667,0.48,179.07263227984834,-11.206846988156151,104.39090145045265,1864.0,1435.0,1200.0,1528.0,1744.0,1018.02,58.0,292.45,1637151558.8205807,1637151559.9015608,daba8005-3fd9-444a-9e91-77038c4fa9f8
0.3418562917126319,0.6967614862139411,0.0729791610940076,-0.440217245015884,-0.1838313225673902,-0.0508377316492743,-0.2480134036906879,-0.2856515518637214,-12.789565417795592,15.648730398558731,31.38547460084473,0.9847193640849282,2.484723978308462,0.6133727296090902,3377.8284776475693,12.028111111111109,0.48,179.06273457683105,-11.159708058144355,104.30025042087836,1864.0,1435.0,1200.0,1528.0,1744.0,1018.02,58.0,292.45,1637151560.0106688,1637151561.0446205,daba8005-3fd9-444a-9e91-77038c4fa9f8
-0.0619867293391314,0.0065097618802965,-0.0755189298202073,-0.1217311217692709,-0.162314027156767,0.3326111150502595,-0.2412199090160552,-0.2588747756750241,-14.089349262481251,16.828414650691816,30.889446435559137,1.1276461651177443,-0.1391502609187911,0.6939913984077021,3380.902069091797,12.0375,0.41125,179.21329528261782,-11.174221071765771,104.10536254628812,1440.0,1435.0,1200.0,1528.0,1408.0,1018.02,58.0,292.45,1637151562.642862,1637151563.70703,30c6e684-8824-4e23-a6d3-31d9b1170c1c
-0.0403461662002058,0.0478459759977505,-0.0734781428191861,-0.153753679100086,-0.1700662802998141,0.3183393011999194,-0.2449453737990609,-0.2779951744732382,-14.074905418239991,16.589152829842234,30.423006625894885,1.1662589770702334,0.0239854680222571,0.7112440337625369,3388.808919270833,12.041,0.4133333333333333,179.15481918722116,-11.177946655366798,104.07356175469496,1440.0,1435.0,1200.0,1528.0,1408.0,1018.02,58.0,292.45,1637151563.8412485,1637151564.9318848,30c6e684-8824-4e23-a6d3-31d9b1170c1c
-0.0452084445649989,0.0470652721808282,-0.0712319069124488,-0.1515348385036168,-0.1684226929421779,0.3176544723114129,-0.2419732199222685,-0.270872962948545,-13.90983797684477,16.60085753916596,30.526372131524223,1.1600039216404003,0.0188423325181987,0.7018932372214767,3391.0433213975693,12.042,0.4099999999999999,179.11762197700128,-11.103175720749022,104.10154048626508,1440.0,1435.0,1200.0,1528.0,1408.0,1018.02,58.0,292.45,1637151565.0404484,1637151566.183041,30c6e684-8824-4e23-a6d3-31d9b1170c1c
-0.1450152724089595,-0.1321131133474411,-0.0993783364336634,-0.0488380334232562,-0.1507130415095184,0.3994503161778798,-0.2368370103036554,-0.2536974762909019,-14.441898303930907,17.072968424992787,30.54860487986423,1.1136151672013492,-0.6640373105248537,0.6875112290712702,3392.832763671875,12.029666666666667,0.4600000000000001,179.11257674393437,-11.17159742535084,104.02651996515137,1355.0,1435.0,1200.0,1528.0,1341.0,1018.02,58.0,292.45,1637151568.2980795,1637151569.4372015,ff359a6e-9309-4e56-9f7e-364e78ec8343
-0.1287437595580983,-0.0858324389364122,-0.1018574134494085,-0.0920643739582756,-0.1674502371498257,0.3840142957261198,-0.2453699670372602,-0.268804781950927,-14.188836724541394,16.936509047242208,29.10091797976657,1.1753049698329652,-0.474254325037753,0.7292483582722951,3383.903076171875,12.025,0.48,179.1530478914964,-11.129196464757047,103.85706980203253,1355.0,1435.0,1200.0,1528.0,1341.0,1018.02,58.0,292.45,1637151569.5458708,1637151570.6747544,ff359a6e-9309-4e56-9f7e-364e78ec8343
-0.1102473778159993,-0.0585335528983984,-0.1022661188803859,-0.1040674919546307,-0.1745839533627327,0.3672606659814388,-0.2532131653209428,-0.2884253798461534,-14.18290492046497,16.94108843559076,28.918704530502666,1.164717366793318,-0.3688419268008179,0.753632087669681,3374.1344401041665,12.031,0.4600000000000001,179.15753304905138,-11.144251055461403,103.73326579313688,1355.0,1435.0,1200.0,1528.0,1341.0,1018.02,58.0,292.45,1637151570.8077023,1637151571.7845647,ff359a6e-9309-4e56-9f7e-364e78ec8343
-0.1848267884904651,-0.1998031549772133,-0.1187677338571016,-0.0489218584199231,-0.1633155199664712,0.4431023399791482,-0.2431281144056905,-0.2592089718957744,-14.454699727622344,17.774456132121685,27.20933688826748,1.2150422235338914,-0.8894366355291059,0.7268654991071953,3371.922119140625,12.025555555555554,0.47,179.1551030195267,-11.120152535386044,103.4213993556341,1271.0,1435.0,1200.0,1528.0,1273.0,1018.02,58.0,292.45,1637151573.829469,1637151574.966748,603b41e7-4983-406c-a83d-4c406ed70d5d
-0.2106376818219333,-0.2290590072279112,-0.1310223193387667,-0.0464499018318552,-0.1671549394240248,0.4717796443799104,-0.2436935082260612,-0.2658490641541341,-14.542706677113497,17.579405553660827,27.48787805818922,1.2720047173720186,-1.0020942147556624,0.7464973544620852,3364.863037109375,12.026111111111112,0.4788888888888888,179.15718546831363,-11.177792691519258,103.26031920988814,1271.0,1435.0,1200.0,1528.0,1273.0,1018.02,58.0,292.45,1637151575.075301,1637151576.196875,603b41e7-4983-406c-a83d-4c406ed70d5d
-0.197817701704419,-0.2148189679216628,-0.1364790288860506,-0.0102515398522388,-0.172230336744565,0.4306899719623686,-0.2629169045757692,-0.2910156730681201,-14.461793995016704,17.706433500299582,28.271234265590383,1.0987520778834527,-0.9610015209865042,0.791368086543515,3359.587158203125,12.024666666666668,0.4766666666666667,179.17532341510957,-11.127519937907024,103.14932787696551,1271.0,1435.0,1200.0,1528.0,1273.0,1018.02,58.0,292.45,1637151576.30492,1637151577.3121786,603b41e7-4983-406c-a83d-4c406ed70d5d
-0.294883032848231,-0.3742819961872194,-0.1365234056232429,0.0300952345442715,-0.1401529939659713,0.5417301541108647,-0.2247155544814213,-0.2568065954699144,-15.027194635978484,18.36976891987108,27.26901094347572,1.2612125079744363,-1.551159497952486,0.6723250239236426,3356.3731825086807,12.01611111111111,0.52,179.19195720246825,-11.100586035552466,102.80871089651644,1186.0,1435.0,1200.0,1528.0,1206.0,1018.02,58.0,292.45,1637151579.154568,1637151580.384075,5b5d45a4-4ca2-4e70-a6cd-552935adb2c0
-0.2662024349601895,-0.3257550803873691,-0.1349483011948401,0.0076465731657029,-0.1537399810312661,0.5081461951214181,-0.2388641013324074,-0.2528208963742798,-14.902442092922328,18.63938197220963,26.263746805334844,1.2381518275583432,-1.3582590603349571,0.713062148493702,3352.141845703125,12.017,0.53,179.20182910254866,-11.076171998682945,102.59644910767994,1186.0,1435.0,1200.0,1528.0,1206.0,1018.02,58.0,292.45,1637151580.4930942,1637151581.72575,5b5d45a4-4ca2-4e70-a6cd-552935adb2c0
-0.2865451144391892,-0.3687639254098109,-0.1511266779436155,0.0332969426398477,-0.1565307925864676,0.5379044318240287,-0.2432070066267914,-0.272370818792375,-15.013529510619872,18.53679105140455,27.78307321211156,1.2458622177339758,-1.5364333526986158,0.7422277400824396,3388.9830457899307,12.017444444444443,0.52,179.23064794738664,-11.037195144729315,102.40757009201204,1186.0,1435.0,1200.0,1528.0,1206.0,1018.02,58.0,292.45,1637151581.8347309,1637151582.9553387,5b5d45a4-4ca2-4e70-a6cd-552935adb2c0
0.0544663447372898,0.2073725298859298,-0.0381925191974477,-0.2169753547504312,-0.169311325719856,0.2310927765560549,-0.2402616977934629,-0.2557245670606908,-13.594201657029766,15.83545800928287,32.12401458235158,1.1100907767076458,0.6138368224614292,0.6772420282470505,3426.7667643229165,12.040666666666668,0.4066666666666666,179.09510512003743,-11.059324767912678,102.16581934088896,1525.0,1435.0,1200.0,1528.0,1475.0,1018.02,58.0,292.45,1637151583.6071308,1637151584.7989357,57c98930-47f9-4995-a058-8001489164f3
0.0398581432676917,0.2049531700309665,-0.0367198654977322,-0.2326880492265751,-0.1693244747524114,0.2457798692782396,-0.2343316357300955,-0.2504387902398886,-13.58630928248852,15.826335800004848,31.846777929684933,1.17851126000301,0.6091918059069755,0.6659971359963105,3443.108208550347,12.042555555555555,0.4,179.03640950995,-11.071492275600365,102.28592745853376,1525.0,1435.0,1200.0,1528.0,1475.0,1018.02,58.0,292.45,1637151584.907756,1637151585.9139965,57c98930-47f9-4995-a058-8001489164f3
0.0263971652744853,0.1431192365494219,-0.0370589921066001,-0.1936106686766582,-0.1546028644891776,0.2700589352062452,-0.2247703407094378,-0.2444249048905515,-13.757371775573484,16.088866808815887,31.834076964505726,1.1465558968543383,0.3737719588211538,0.6254102231462229,3446.492431640625,12.043,0.4,179.00354871094316,-11.023541122259768,102.3946579988411,1525.0,1435.0,1200.0,1528.0,1475.0,1018.02,58.0,292.45,1637151586.0219858,1637151587.142706,57c98930-47f9-4995-a058-8001489164f3
0.0649721529879353,0.1922252325102312,-0.0567321817540381,-0.39140598839577,-0.2028405044236661,0.4110195234429277,-0.2084287013239183,-0.2330956580023556,-13.683985670883422,15.571955072515188,32.8127716112313,1.9052776275743804,0.5718526407557354,0.7005127191890713,3410.68345811632,12.041111111111112,0.4099999999999999,178.93232046263864,-10.955024838510692,102.575859122972,1525.0,1535.0,1200.0,1528.0,1475.0,1018.02,58.0,292.45,1637151589.1892738,1637151590.215523,38414be2-b6d7-4b1f-b1fe-8056e2326fbb
0.0476816174006553,0.1917420179161908,-0.0426060985635323,-0.4080029320968805,-0.191775327630783,0.4233508084212764,-0.1895427886752433,-0.2270850598923742,-13.543719683755596,15.569259060658815,32.4524360049538,1.9711249893275649,0.5751800810842491,0.6386836102028354,3399.712863498264,12.035777777777778,0.42,178.9257892839723,-10.965798418425264,102.61227541489676,1525.0,1535.0,1200.0,1528.0,1475.0,1018.02,58.0,292.45,1637151590.324757,1637151591.3981044,38414be2-b6d7-4b1f-b1fe-8056e2326fbb
0.0653775710570294,0.1988368348423509,-0.0391545660771635,-0.3891975551753808,-0.1876526633865757,0.40143631578565,-0.1930628052763738,-0.2279890328024044,-13.555040951893632,15.600493926409063,32.78628736586281,1.8798863172857976,0.5968151652031816,0.6348488195577636,3397.315185546875,12.039222222222222,0.4177777777777777,178.9258757997018,-10.919315471165003,102.6213891639793,1525.0,1535.0,1200.0,1528.0,1475.0,1018.02,58.0,292.45,1637151591.5062954,1637151592.6689537,38414be2-b6d7-4b1f-b1fe-8056e2326fbb
0.0567410692600492,0.1964196665099738,-0.0521695842903119,-0.5898856070064573,-0.2221033467149032,0.589618249374857,-0.1533882546538831,-0.1705210065012965,-13.477356685579917,15.309374727117683,33.03570672866508,2.752960262412373,0.6088678614248947,0.6414981536578963,3373.7059733072915,12.036333333333332,0.43,178.94509139856677,-10.876760072404975,102.64875924980336,1525.0,1636.0,1200.0,1528.0,1475.0,1018.02,58.0,292.45,1637151594.7197075,1637151595.8637142,35b414a7-72d9-47e7-b73c-c69d02eab7ba
0.0547764348953668,0.1978917725704531,-0.0624798054682015,-0.5680746524238084,-0.2307968266897805,0.5696026484518789,-0.1717235637899705,-0.206101929480492,-13.570950534276372,15.481893286541796,33.1386112507723,2.659381921796774,0.6108034656614305,0.6938767734754361,3335.1923828125,12.035444444444444,0.43,178.96476234337638,-10.864091779041898,102.61118182571968,1525.0,1636.0,1200.0,1528.0,1475.0,1018.02,58.0,292.45,1637151595.999035,1637151596.9804952,35b414a7-72d9-47e7-b73c-c69d02eab7ba
0.0594058716944923,0.212944289643904,-0.055782188155003,-0.5679787769596861,-0.2277972801838017,0.556919636160829,-0.1698334387225908,-0.1854749101812619,-13.489506125838195,15.513663514920331,33.476878180087475,2.631304252213029,0.6640983894831698,0.6803137670707856,3317.115478515625,12.037,0.42,178.95826152110635,-10.85403527412644,102.61097616113466,1525.0,1636.0,1200.0,1528.0,1475.0,1018.02,58.0,292.45,1637151597.094998,1637151598.2018726,35b414a7-72d9-47e7-b73c-c69d02eab7ba
0.0699522217503465,0.2065753903548538,-0.0700676993865656,-0.7173808893025306,-0.2583406094286771,0.7071160835254481,-0.1438236719337849,-0.1795442998863781,-13.445593638201233,15.459055301197978,34.428905627613695,3.30493082129554,0.6489505943199158,0.7036705069684775,3305.31884765625,12.031222222222222,0.44,178.98830828217513,-10.8418348487215,102.55864401062394,1525.0,1737.0,1200.0,1528.0,1475.0,1018.02,58.0,292.45,1637151599.2252178,1637151600.2564027,33a51128-46d6-4e83-ab21-5365675af20d
0.0624875972346294,0.1845513246997898,-0.0775871110924008,-0.7052594326738366,-0.2599978939132761,0.7192649299409721,-0.1474121717785729,-0.1669708585713864,-13.569967948865644,15.534298280900032,34.631855063778275,3.3049819877062228,0.5634606873647776,0.7188965844555856,3311.135986328125,12.035,0.4366666666666667,179.00333925180863,-10.817035475346309,102.47994884773678,1525.0,1737.0,1200.0,1528.0,1475.0,1018.02,58.0,292.45,1637151600.3809612,1637151601.4804971,33a51128-46d6-4e83-ab21-5365675af20d
0.0393058980146946,0.1948023768084007,-0.0670933547340339,-0.723699943364318,-0.253476139257629,0.722341177032852,-0.134703955565619,-0.1585556918570811,-13.444227692758822,15.398510801045596,34.1736551009855,3.3531046219525704,0.6080127883433434,0.6781918841811652,3310.709228515625,12.03422222222222,0.4377777777777777,178.99060170791645,-10.803907756897807,102.43834996005177,1525.0,1737.0,1200.0,1528.0,1475.0,1018.02,58.0,292.45,1637151601.5896184,1637151602.820714,33a51128-46d6-4e83-ab21-5365675af20d
0.077142914971304,0.1977411103785148,-0.0649588835360411,-0.7813849406494809,-0.2642027381567837,0.7788175615897512,-0.1257579113872351,-0.1440154251841641,-13.607125240070966,16.090032621130486,35.094967034720845,3.614893147956832,0.6192715100393308,0.6779066170245128,3316.972900390625,12.027333333333331,0.4677777777777777,178.99979058907988,-10.86850379665451,102.34955142956233,1525.0,1837.0,1200.0,1528.0,1475.0,1018.02,58.0,292.45,1637151604.642051,1637151605.5849595,f8183f27-e76b-4543-a5c0-5b7a0f9f3749
0.0627615284628753,0.1948785296594581,-0.0594802597203946,-0.7823163022727484,-0.2580940720728429,0.7835017837148462,-0.1176084574645256,-0.1413856849407377,-13.54786397901501,16.018800205954303,35.29310880603318,3.6273821503130654,0.6068203077822121,0.6505109402958684,3318.6853841145835,12.030888888888889,0.4499999999999999,179.0098734661146,-10.85112504435758,102.26503770441224,1525.0,1837.0,1200.0,1528.0,1475.0,1018.02,58.0,292.45,1637151605.693795,1637151606.7110512,f8183f27-e76b-4543-a5c0-5b7a0f9f3749
0.0667883167291243,0.1943854536527918,-0.0541112083222266,-0.8055730810355275,-0.2562176430266132,0.8026221789127709,-0.1057198443597142,-0.12811371880813,-13.395299470978468,15.993023283503868,34.96425822985538,3.7229306672507785,0.610009092568361,0.6230995928737392,3328.571614583333,12.024888888888889,0.4544444444444444,178.98691188794484,-10.81890144508206,102.20225764120111,1525.0,1837.0,1200.0,1528.0,1475.0,1018.02,58.0,292.45,1637151606.819885,1637151607.940026,f8183f27-e76b-4543-a5c0-5b7a0f9f3749
0.0083451008664062,0.1593085681506525,-0.0293615256358644,-0.0303887684361917,-0.1370712677017674,0.0861963391264693,-0.272091956026596,-0.3056348333765403,-13.67133021711198,16.764548365545682,29.15855732683552,0.3696827513202074,0.4379992053348413,0.6578142874720229,3339.8059353298613,12.040444444444445,0.4,179.00488439238086,-10.969421454325005,102.07474939304558,1525.0,1334.0,1200.0,1528.0,1475.0,1018.02,58.0,292.45,1637151609.6699092,1637151610.9067852,5ca2d5e4-f6ba-4cee-9d50-ea0427a4dc9e
0.0474712383302167,0.2093974291149402,-0.0224140835638507,-0.0406118809158514,-0.1375703708008636,0.0519417932913956,-0.2737777292870475,-0.3032176641113255,-13.446027852971396,16.25075906008979,29.952383242277502,0.3129489669283823,0.618922995127909,0.658883307197345,3349.8184950086807,12.038666666666666,0.4,178.9745765663038,-11.010002454096202,102.17308438543616,1525.0,1334.0,1200.0,1528.0,1475.0,1018.02,58.0,292.45,1637151611.0390208,1637151612.0391028,5ca2d5e4-f6ba-4cee-9d50-ea0427a4dc9e
0.0393678063702159,0.2119033513259778,-0.0213216460000907,-0.0341964121210291,-0.1387696415530515,0.0440931186055693,-0.2769131462861711,-0.3102916643416729,-13.367326625294885,16.49286193439116,30.014260299621544,0.2825490261909673,0.6264997633641655,0.6638942249573643,3380.205268012153,12.04022222222222,0.4,178.93226885676495,-11.050418770417414,102.2918363310757,1525.0,1334.0,1200.0,1528.0,1475.0,1018.02,58.0,292.45,1637151612.1472542,1637151613.2729142,5ca2d5e4-f6ba-4cee-9d50-ea0427a4dc9e
0.0523757021332205,0.2267405586310573,-0.0041768411910447,0.1330429522870379,-0.1125089538555005,-0.1317060522839135,-0.3157746707983512,-0.3497114624407917,-13.413850639002655,17.401655446168494,28.88850126373966,-0.4830708888123488,0.6729667275719006,0.6613548623654993,3439.5782877604165,12.040333333333333,0.4,178.92588946008013,-11.034250858878346,102.50052137751683,1525.0,1234.0,1200.0,1528.0,1475.0,1018.02,58.0,292.45,1637151615.2002382,1637151616.3380196,8b591138-9d98-40b8-b5ef-d2c411830dd2
0.033783445489436,0.2037960847093209,-0.0105408102947472,0.1476248524884743,-0.1117331807650009,-0.1233303361652214,-0.3181282882772119,-0.344557171960117,-13.550784684967294,17.386805839794384,28.759505214078548,-0.4976475454546059,0.5868244369195126,0.6694040390624394,3444.030463324653,12.037444444444446,0.4177777777777777,178.91752171943693,-11.085480313293074,102.57846294286556,1525.0,1234.0,1200.0,1528.0,1475.0,1018.02,58.0,292.45,1637151616.4466977,1637151617.5671291,8b591138-9d98-40b8-b5ef-d2c411830dd2
0.0347383696075875,0.2134099727006162,-0.0073100660502005,0.1414619523855999,-0.11114368091664,-0.1264975251300015,-0.316715350511821,-0.3510663255735295,-13.54955341726577,17.385029466857386,28.85946244404405,-0.4906970019828076,0.622951295809071,0.6634373521299938,3441.42041015625,12.03711111111111,0.4088888888888888,178.90448820068073,-11.112973627113403,102.63726859488968,1525.0,1234.0,1200.0,1528.0,1475.0,1018.02,58.0,292.45,1637151617.6758225,1637151618.6822095,8b591138-9d98-40b8-b5ef-d2c411830dd2
0.0160014772950097,0.2080957082017288,-0.0008589867540988,0.26269018775614,-0.0955843894469103,-0.239891343427195,-0.3453411628020431,-0.3697758277751851,-13.507975662166093,18.075464393045547,27.77551265420622,-1.014222911654631,0.5978271982165163,0.6728453681327538,3401.359619140625,12.037,0.42,178.9221055352799,-11.093870726369742,102.7168585125581,1525.0,1133.0,1200.0,1528.0,1475.0,1018.02,58.0,292.45,1637151620.616676,1637151621.6199677,fb00e314-a256-49b1-a3f4-992ab43d4756
0.0003737037290169,0.159938610026512,0.0068658725594524,0.2904668066776936,-0.0754915368039917,-0.2185384064667043,-0.3301653729441554,-0.3510115395169013,-13.8595451407348,18.27771194690164,27.82687593895509,-1.027340671816823,0.4163151401911967,0.6075013620641173,3389.1067165798613,12.036222222222223,0.4144444444444444,178.93161771206405,-11.077133252944886,102.74201030472172,1525.0,1133.0,1200.0,1528.0,1475.0,1018.02,58.0,292.45,1637151621.728202,1637151622.897095,fb00e314-a256-49b1-a3f4-992ab43d4756
0.0181655334257078,0.1963166681844072,-0.0045844506941218,0.2814133813331587,-0.0935846916319225,-0.2473011840247525,-0.3510663252800001,-0.3651737837096131,-13.73977612352079,18.08442726163777,27.497310460867656,-1.0733958671369113,0.555213713834116,0.6815320761708893,3386.576904296875,12.037,0.4099999999999999,178.9263948940787,-11.10361313744712,102.75118021313742,1525.0,1133.0,1200.0,1528.0,1475.0,1018.02,58.0,292.45,1637151623.015734,1637151624.126529,fb00e314-a256-49b1-a3f4-992ab43d4756
0.0307252778445407,0.2251753158942099,0.005715361547419,0.2740857235053214,-0.0932696707772291,-0.2713386465821255,-0.3532029887511695,-0.3882250960725967,-13.723841966105526,18.44508931350312,27.16789148791138,-1.108022610502065,0.6678193039393951,0.6729315361271059,3373.6935221354165,12.03677777777778,0.42,178.97483459567243,-11.069841361959728,102.79672087888343,1525.0,1033.0,1200.0,1528.0,1475.0,1018.02,58.0,292.45,1637151626.1455495,1637151627.1986434,b99702b0-8641-42c7-a925-e97d33d2ef8b
0.0262054134942179,0.2092599155983457,0.0059482031919281,0.27220929491685,-0.0921054631189407,-0.252451090429828,-0.3474915223747398,-0.3713098435113355,-13.65080596947359,18.61271763367937,27.41075042348177,-1.060148686826403,0.6057061252065309,0.6612791346482924,3357.540283203125,12.036444444444443,0.4188888888888888,178.9632688086779,-11.050935682928348,102.78323808546185,1525.0,1033.0,1200.0,1528.0,1475.0,1018.02,58.0,292.45,1637151627.332497,1637151628.4272563,b99702b0-8641-42c7-a925-e97d33d2ef8b
0.0198091205757251,0.1935362669876846,0.0084820663566837,0.293890946243198,-0.0811893056031267,-0.256149161207523,-0.3412595874528885,-0.3635301962937327,-13.660091269909058,18.30398309489169,27.570543969228737,-1.1192669100546415,0.5428682780539231,0.6327171868933881,3347.633680555556,12.036555555555555,0.4211111111111111,178.9703919370723,-11.037529823998646,102.7753909570154,1525.0,1033.0,1200.0,1528.0,1475.0,1018.02,58.0,292.45,1637151628.560809,1637151629.537296,b99702b0-8641-42c7-a925-e97d33d2ef8b
0.0407511588245176,0.1854826908714453,-0.0383875581237656,-0.1909809281761293,-0.1661627606085156,0.2209019894233497,-0.243685289890471,-0.259628086811399,-13.5330520057012,16.23182753357865,31.010716048708264,1.031024844425538,0.5379648393068216,0.6739830193100788,3346.473578559028,12.041333333333334,0.3922222222222222,179.0006344968973,-10.956340408835826,102.6905471060554,1525.0,1435.0,1200.0,1528.0,1475.0,1018.02,58.0,292.45,1637151631.106003,1637151632.1963794,2248eb93-3802-4f13-87cc-b4c683239ecd
0.0378611848557181,0.1791685775441932,-0.0351825634277367,-0.1967060896474672,-0.1609032816072968,0.2316537873242536,-0.236439809738486,-0.2600526803044896,-13.660499828137864,16.12259816096908,30.95249144269292,1.067462188822885,0.5166073799849059,0.651194012935422,3346.471625434028,12.04022222222222,0.3955555555555556,178.9955998885691,-10.986227893687726,102.71547805543584,1525.0,1435.0,1200.0,1528.0,1475.0,1018.02,58.0,292.45,1637151632.309476,1637151633.4291508,2248eb93-3802-4f13-87cc-b4c683239ecd
0.0217129422254696,0.1785385358862202,-0.0368261503686813,-0.1650944292967487,-0.1567806170683141,0.2070821626989012,-0.2432333034361508,-0.2706949075097272,-13.682554769091624,15.946106388808149,31.47923982061232,0.939759346486032,0.5057326227354392,0.6584925552084169,3349.521728515625,12.040555555555557,0.3977777777777778,178.99757760778877,-11.025192510219094,102.73347863953848,1525.0,1435.0,1200.0,1528.0,1475.0,1018.02,58.0,292.45,1637151633.537809,1637151634.571452,2248eb93-3802-4f13-87cc-b4c683239ecd
0.0568172221131021,0.2112185234846416,0.0278626968736065,-0.2114024991267085,-0.1096644525220548,0.2067123550861428,-0.1768734706615463,-0.1949255366479134,-13.064827771561482,16.017465095670012,30.41775080980608,1.0472238581514028,0.6431419287246775,0.414112170016528,3357.393798828125,12.040666666666668,0.3966666666666666,179.02132997008243,-11.0048258347515,102.75588621347556,1525.0,1435.0,1200.0,1439.0,1475.0,1018.02,58.0,292.45,1637151635.6799514,1637151636.8169746,5bfbf5c3-e20f-490d-9559-0df2e6ff4369
0.0709657670868378,0.2236960878118204,0.0280133591194699,-0.2278109781576147,-0.1118969915852303,0.2107117499976571,-0.1765447532694144,-0.1897893269338827,-13.2029379027342,15.878134005713656,30.580509406204147,1.0922648240029178,0.6915027886646204,0.4180356486517855,3356.0791015625,12.038333333333334,0.3955555555555555,178.99140311677908,-10.969109352625429,102.75055790701305,1525.0,1435.0,1200.0,1439.0,1475.0,1018.02,58.0,292.45,1637151636.925534,1637151638.045936,5bfbf5c3-e20f-490d-9559-0df2e6ff4369
0.0690219513912915,0.2100680124511303,0.0294838217245093,-0.2069166024753525,-0.1089456568892418,0.2087005475823476,-0.1753860241936759,-0.1972391592522692,-12.948747849089116,16.13987947938085,31.1368001637609,1.0426377815993382,0.6311848482513476,0.409750778792353,3356.0791015625,12.040333333333333,0.4,178.98149023556363,-10.98291639030513,102.765938734114,1525.0,1435.0,1200.0,1439.0,1475.0,1018.02,58.0,292.45,1637151638.1547997,1637151639.2773745,5bfbf5c3-e20f-490d-9559-0df2e6ff4369
0.0804711786716296,0.2043154580844245,0.1166437892875727,-0.1919396868046188,-0.0224173705303928,0.1958235917996822,-0.0855311149570124,-0.117923478050598,-12.615856157725588,16.081345792481233,31.145964789949648,0.9840382779013456,0.6108524260433875,0.0448582572013643,3345.889973958333,12.040777777777777,0.3899999999999999,178.963457018335,-11.01032726753673,102.80012155418018,1525.0,1435.0,1200.0,1351.0,1475.0,1018.02,58.0,292.45,1637151641.2105875,1637151642.2421772,a317db0c-e3dd-4826-80c1-540801c3f799
0.0979616837600166,0.2268189029555317,0.1116993315105132,-0.2153197152888043,-0.0356482467320298,0.1951798528483098,-0.092790291733702,-0.1289218158374195,-12.443921559614983,16.12459524488682,31.080014429041565,1.0354478661325566,0.6971874950124306,0.0824819414425513,3348.794867621528,12.040555555555557,0.3955555555555555,178.97802201728507,-11.045235890065976,102.80388422950296,1525.0,1435.0,1200.0,1351.0,1475.0,1018.02,58.0,292.45,1637151642.3554752,1637151643.371928,a317db0c-e3dd-4826-80c1-540801c3f799
0.1080472815654132,0.2371543255898221,0.1177904652008957,-0.2291510485765005,-0.0333012040470866,0.1959726106139578,-0.0868426973823831,-0.1197275886803496,-12.407621178548755,16.093277146113305,30.868405440768832,1.068509625206078,0.739658721160535,0.063383287881141,3351.9962293836807,12.04011111111111,0.39,178.95244371775334,-11.0632618976505,102.8154773372542,1525.0,1435.0,1200.0,1351.0,1475.0,1018.02,58.0,292.45,1637151643.480315,1637151644.5998356,a317db0c-e3dd-4826-80c1-540801c3f799
0.1116993317561458,0.2345163684729227,0.1914269969375579,-0.2335087468803988,0.0346424934517023,0.1978780749517083,-0.0085427566795013,-0.0236363651105718,-11.940958645049925,16.231799313540616,30.782263644359727,1.087427420107571,0.7324323666178371,-0.2412250156737622,3356.663411458333,12.039888888888887,0.4,178.9492578139605,-11.059370966553317,102.85500136525134,1525.0,1435.0,1200.0,1262.0,1475.0,1018.02,58.0,292.45,1637151646.739735,1637151647.8499858,aa1f4350-6ad6-478b-ab41-e9a5b086c09e
0.0965372416623205,0.2136017244260086,0.1835103864837587,-0.2031023835511643,0.0343274727884828,0.1920707345106969,-0.0166511193424621,-0.0404009530580793,-11.9691849299111,16.282482490742517,30.9615771417752,1.005744410431551,0.6483555776691852,-0.2205118569112596,3354.911566840278,12.041444444444444,0.4011111111111111,178.95458991497253,-11.04379291774007,102.88042560607184,1525.0,1435.0,1200.0,1262.0,1475.0,1018.02,58.0,292.45,1637151647.9582777,1637151649.0012667,aa1f4350-6ad6-478b-ab41-e9a5b086c09e
0.1181778039050375,0.2252574953617362,0.1884685405298444,-0.2014998869919562,0.0380255436361096,0.1814285082447482,-0.0153225530387709,-0.0330185074528494,-12.00966056977356,16.211078966806,31.30707841958392,0.978023308292904,0.6894119207928036,-0.2322861690139869,3357.393798828125,12.04011111111111,0.3911111111111111,178.9594560453012,-11.043498081240898,102.87390656996403,1525.0,1435.0,1200.0,1262.0,1475.0,1018.02,58.0,292.45,1637151649.110809,1637151650.130082,aa1f4350-6ad6-478b-ab41-e9a5b086c09e
0.1433383814405879,0.2507056998639996,0.2743870482701424,-0.2120051485064967,0.1087682681347102,0.169183785375272,0.0678155580790217,0.0442848704514506,-11.278233734645871,16.552480451126687,32.37811130334383,0.9812853474702524,0.7769347510307693,-0.5592585480617097,3393.2802734375,12.037,0.4099999999999999,178.97166538789756,-11.09477316511383,102.87528475035656,1525.0,1435.0,1200.0,1173.0,1475.0,1018.02,58.0,292.45,1637151651.1328592,1637151652.1768816,6cad4fe2-28ae-430b-ab31-d2fa1462e7ec
0.1492289971949408,0.2359314967804791,0.2851207667049167,-0.2025906820098591,0.1238520139170092,0.1771568259052937,0.0823810265270433,0.056123080347741,-11.35261800632915,16.524649739892215,32.78393470640647,0.97834232607884,0.7179730440234882,-0.6163458699488447,3434.990234375,12.037,0.4,178.957153512641,-11.103203610688134,102.86730253594654,1525.0,1435.0,1200.0,1173.0,1475.0,1018.02,58.0,292.45,1637151652.285855,1637151653.298833,6cad4fe2-28ae-430b-ab31-d2fa1462e7ec
0.1197233235458309,0.2028625273152721,0.2685928562900139,-0.202511790045659,0.1139115994205002,0.2048085326979071,0.0740973477342466,0.0594628485365318,-11.574490937570022,16.661414127182283,32.02346570336338,1.0401521821291613,0.6011995071730906,-0.573767634422046,3453.126220703125,12.03788888888889,0.4,178.9782663862754,-11.068522755994964,102.859192824672,1525.0,1435.0,1200.0,1173.0,1475.0,1018.02,58.0,292.45,1637151653.4114869,1637151654.528352,6cad4fe2-28ae-430b-ab31-d2fa1462e7ec
0.0200825038650255,0.2230983699221165,-0.1399897307775131,-0.1770559119369142,-0.2668746623255092,0.1875179969817891,-0.3652400743733988,-0.3847790406850218,-14.110413455847048,16.18396534160337,32.470853025949616,0.9191608620182752,0.662035455880979,1.1290682008656716,3472.4013671875,12.041777777777778,0.38,179.00075288684292,-11.067229573512106,102.9363982474102,1525.0,1435.0,1200.0,1617.0,1475.0,1018.02,58.0,292.45,1637151656.6625097,1637151657.704859,b2ee7fae-5757-48c2-b98d-040cea757e07
0.0218707264678465,0.1919228123535133,-0.1299572750672912,-0.1780683601885349,-0.2512014146091692,0.2192720983825832,-0.3437945476574797,-0.3604670972024257,-14.1889327932736,16.219336989893883,32.631064141736644,0.993520449135866,0.5450052120347791,1.0598868819053449,3478.6630859375,12.039111111111108,0.3855555555555556,178.9569577138848,-11.064936811816969,102.96038055940592,1525.0,1435.0,1200.0,1617.0,1475.0,1018.02,58.0,292.45,1637151657.8132088,1637151658.8245964,b2ee7fae-5757-48c2-b98d-040cea757e07
0.0266831494590939,0.201994713355514,-0.1269856696484036,-0.206219722879389,-0.2530290838292104,0.2312111131145464,-0.3370361169052256,-0.3492512575893097,-14.126874067246806,16.106321625699106,32.08487641694106,1.0831945333768858,0.5908350786436806,1.0489943432281374,3474.432861328125,12.04,0.38,178.95494812044902,-11.055684751403756,102.98194422552557,1525.0,1435.0,1200.0,1617.0,1475.0,1018.02,58.0,292.45,1637151658.9321225,1637151660.052385,b2ee7fae-5757-48c2-b98d-040cea757e07
-0.0031600087300044,0.1844554487258238,-0.2123886502162792,-0.1777226593412026,-0.3297270831241117,0.2264080042548585,-0.4322595406055676,-0.4550780130402243,-14.772230100674,16.52694878434727,31.99244191725268,1.006315212536131,0.5215235300147977,1.4028246153831605,3471.7749294704863,12.038333333333334,0.39,178.9757179668051,-11.057488869982024,102.99608423492732,1525.0,1435.0,1200.0,1696.111111111111,1475.0,1018.02,58.0,292.45,1637151660.6066687,1637151661.598497,c14de0fb-dc4e-4054-b60c-8d46b7219271
-0.004200947044537,0.1871125813164891,-0.2211544486412879,-0.1650533399580526,-0.3330690439685257,0.2113554886880891,-0.4405596566835251,-0.4730615982770352,-14.72449045002918,16.031876826562314,31.82129492645329,0.9401896987279974,0.5305444093392806,1.4315706153539292,3463.6720377604165,12.039333333333332,0.39,178.9546491099453,-11.091854966790942,103.00836415614508,1525.0,1435.0,1200.0,1706.0,1475.0,1018.02,58.0,292.45,1637151661.706546,1637151662.8286445,c14de0fb-dc4e-4054-b60c-8d46b7219271
-0.0284301596750752,0.1541449659093905,-0.2107450629185668,-0.1516444074184698,-0.3199751318424386,0.2275585168938665,-0.4289038825086588,-0.4430113415250495,-14.912638222295431,16.6891040776581,31.3662419495382,0.9510607098620232,0.4112807132457973,1.378037115497985,3444.6486002604165,12.039,0.39,178.9669571108297,-11.092019175922236,103.00256077208029,1525.0,1435.0,1200.0,1706.0,1475.0,1018.02,58.0,292.45,1637151662.936858,1637151663.9824984,c14de0fb-dc4e-4054-b60c-8d46b7219271
-0.0338403005780717,0.1755937759069454,-0.2849804195610946,-0.1343045636204855,-0.3933886990218939,0.1953442121469759,-0.5206160612978553,-0.5341619628048634,-15.342710511757678,16.85314804665443,31.40557725965725,0.8367372514321202,0.4875838599865398,1.7122333498745814,3388.362060546875,12.034,0.4099999999999999,178.98945120049626,-11.0435202793557,102.9384389561522,1525.0,1435.0,1200.0,1795.0,1475.0,1018.02,58.0,292.45,1637151666.1957226,1637151667.3329115,245d0531-1045-4f3a-b77c-7176ce31d9f2
-0.0398804830858586,0.1471460245098536,-0.2926231008063818,-0.1248128478371505,-0.3927449610795845,0.2127662338211218,-0.5197805716990103,-0.5344495902515938,-15.416959591752688,16.72253910936193,31.138201550311567,0.8531495017794096,0.3821274034083397,1.7168504258732966,3386.8743760850693,12.03377777777778,0.4099999999999999,178.98687697808907,-11.107121198495827,102.91823829222696,1525.0,1435.0,1200.0,1795.0,1475.0,1018.02,58.0,292.45,1637151667.44092,1637151668.561885,245d0531-1045-4f3a-b77c-7176ce31d9f2
-0.0448112444454926,0.1574047466470228,-0.2580803755087613,-0.1227994553013146,-0.3612702635976461,0.1990559778884179,-0.4879086714420553,-0.5038377731631775,-15.294469076572618,16.70037476338921,31.13699723529604,0.819433539405666,0.4216891217138735,1.5828684368934975,3379.900146484375,12.034222222222224,0.4099999999999999,178.96265409165258,-11.100976779291232,102.86678495938943,1525.0,1435.0,1200.0,1795.0,1475.0,1018.02,58.0,292.45,1637151668.6699378,1637151669.6856103,245d0531-1045-4f3a-b77c-7176ce31d9f2
-0.0354291013692351,0.1859346773248719,-0.3109354023316383,-0.1271138697485312,-0.421357077652297,0.1721833324757734,-0.5576378702603703,-0.5716220614665409,-15.502076964326406,17.11400542609303,30.25069527730407,0.7686437730204235,0.5352058621044813,1.837884888930774,3358.71044921875,12.031,0.4366666666666666,179.0016863460295,-11.081914480227637,102.8160032618203,1525.0,1435.0,1200.0,1883.0,1475.0,1018.02,58.0,292.45,1637151670.701306,1637151671.83813,6cb947fa-120f-4287-9ae6-7891ed9e2403
-0.0249101441865884,0.1814969924819173,-0.3154004808725313,-0.1125681237564996,-0.4235622238733962,0.1621711485285468,-0.5655133936084503,-0.5796482469647112,-15.564882071221078,17.201790575861875,30.06524482977319,0.7136318505100037,0.5185775415388282,1.857436905396285,3350.2495388454863,12.02777777777778,0.4377777777777777,179.0085575163345,-11.112074888055115,102.71299186657798,1525.0,1435.0,1200.0,1883.0,1475.0,1018.02,58.0,292.45,1637151671.946844,1637151673.075425,6cb947fa-120f-4287-9ae6-7891ed9e2403
-0.0550699671134651,0.1559118219360757,-0.3255359359481889,-0.1182932880194015,-0.4288080072506454,0.1955907492586712,-0.5651846764644918,-0.5881538130387084,-15.669422790685966,17.216590474249266,30.465278493066325,0.8012493003745985,0.4198746290391553,1.8752685929396404,3354.328125,12.032666666666666,0.43,179.0044275286164,-11.11470223415585,102.6905076427402,1525.0,1435.0,1200.0,1883.0,1475.0,1018.02,58.0,292.45,1637151673.2087595,1637151674.3038769,6cb947fa-120f-4287-9ae6-7891ed9e2403
0.0191883925884386,0.1616413661435704,-0.1238036850946089,-0.1663134236978462,-0.199684817426753,0.2437549702413187,-0.2794185211029236,-0.3103837051669473,-13.48584828344758,11.524435490349385,33.75599206151772,0.99173704773151,0.4153481087418614,0.8901178291507003,7008.525390625,11.809555555555557,8.545555555555556,-178.60656293818388,-11.19778930354307,88.75384663296786,1525.0,1435.0,1350.0,1528.0,1475.0,1018.02,58.0,292.45,1637151678.233056,1637151679.17883,292a23bd-e901-41a4-9ced-d69550cacaee
0.0037518229202575,0.1495577146711023,-0.1191621954827765,-0.1444339908895933,-0.1920322757259188,0.2338540026612887,-0.2757894809308419,-0.3056107275482074,-13.310849331546985,11.623309961897462,33.55931884992498,0.9210769168370664,0.3681336751246916,0.8667350781586896,7037.2958984375,11.808555555555554,8.555555555555555,-177.95364997722422,-11.01188303284768,82.93449738045041,1525.0,1435.0,1350.0,1528.0,1475.0,1018.02,58.0,292.45,1637151679.289112,1637151680.5339975,292a23bd-e901-41a4-9ced-d69550cacaee
0.0030719256721304,0.1632942667993933,-0.1219913560054754,-0.1517539799699723,-0.1975415793066095,0.2388307840611881,-0.2808988446865321,-0.3132638177172209,-13.47947747709621,11.659572395816928,35.190865375858074,0.949047220698441,0.4071097588528148,0.889136337247634,7049.514756944444,11.81011111111111,8.58111111111111,-177.59512727641098,-10.85079159831685,77.25832027658504,1525.0,1435.0,1350.0,1528.0,1475.0,1018.02,58.0,292.45,1637151680.6425998,1637151681.6760542,292a23bd-e901-41a4-9ced-d69550cacaee
0.1072205572578132,0.3474718803847308,-0.1088152658920212,-0.2402748466682682,-0.2250442718509173,0.1396814001392493,-0.3060594267308537,-0.3341921635152583,-13.279611102497128,10.934684374830246,35.123839397836804,0.921867338284127,1.1087890469502304,0.9663109409726216,7062.423014322917,11.807666666666668,8.663333333333334,-177.7172829329869,-10.611989212185511,67.14624418312886,1610.0,1435.0,1350.0,1528.0,1542.0,1018.02,58.0,292.45,1637151683.6960971,1637151684.8342197,bd3b197c-9289-442b-a70c-4a925832d094
0.0930172262722872,0.3246671119085979,-0.1070210163208472,-0.210306773886047,-0.2164702249727876,0.1203418595918828,-0.3045938943011132,-0.3258098671368508,-13.06980385408181,10.915549601284155,33.133920390148056,0.8105590803915023,1.0358326479611926,0.9449517683103388,7066.30322265625,11.808666666666666,8.583333333333334,-177.86204196225617,-10.547420018866797,63.97100990466528,1610.0,1435.0,1350.0,1528.0,1542.0,1018.02,58.0,292.45,1637151684.9427612,1637151685.970691,bd3b197c-9289-442b-a70c-4a925832d094
0.0884836653449752,0.3242425185844103,-0.1086646036437034,-0.2226747681456337,-0.2215379525481311,0.1354628596749787,-0.3069360063105023,-0.32248160314267,-13.274299857316697,11.270213627422905,33.58652414755995,0.8746756320216683,1.0331007066166793,0.9576192238338552,7060.48291015625,11.80977777777778,8.675555555555555,-178.0897301127881,-10.565918258141435,60.95163902524156,1610.0,1435.0,1350.0,1528.0,1542.0,1018.02,58.0,292.45,1637151686.078824,1637151687.1440938,bd3b197c-9289-442b-a70c-4a925832d094
0.1837706211589049,0.471685960228307,-0.0827370166755486,-0.279488099433794,-0.2272220246589321,0.0436274357762081,-0.3169618887157756,-0.3361233777210564,-13.299726310276668,10.840308740917754,33.698112230413486,0.7949122465521686,1.593925534428959,0.9619522725936908,7052.737955729167,11.803666666666668,8.666666666666666,-178.80685292322514,-10.684460080600283,55.33636216474575,1695.0,1435.0,1350.0,1528.0,1609.0,1018.02,58.0,292.45,1637151689.3382702,1637151690.4756734,815f063b-6fbe-40bd-bbbb-dee89c162720
0.1869263081744646,0.4583022321981086,-0.090156168968753,-0.2792870338323541,-0.2318070852003194,0.0627500231995379,-0.319548347092075,-0.3417564986817994,-13.397264641354742,10.900114407404526,34.53941159698879,0.8375417434555562,1.5364682784385544,0.9814691304949852,7048.8701171875,11.802555555555555,8.687777777777777,-179.05274428680502,-10.731993548900387,53.81556476616419,1695.0,1435.0,1350.0,1528.0,1609.0,1018.02,58.0,292.45,1637151690.5844193,1637151691.6023448,815f063b-6fbe-40bd-bbbb-dee89c162720
0.1765114453527473,0.4609752523321751,-0.0978580180714279,-0.3209475882848602,-0.2507253218634598,0.0684729927091342,-0.3242073691063574,-0.3601745384716614,-12.856035460275772,11.181479332279316,30.22047480720781,0.9454437029397716,1.5855874913868655,1.0184980652308069,7054.671875,11.803,8.74,-179.34013132632248,-10.76345491803728,52.28273598935965,1695.0,1435.0,1350.0,1528.0,1609.0,1018.02,58.0,292.45,1637151691.7105043,1637151692.8205116,815f063b-6fbe-40bd-bbbb-dee89c162720
0.2248734439557876,0.5641886734259621,-0.0725895097041894,-0.3412962944731709,-0.2467308569317736,-0.0051892908992393,-0.3301593463961892,-0.3477391561825084,-13.03082979010906,11.136485930343229,31.53670029710617,0.8268981750840367,1.9663785386172168,1.001151112162198,7037.2958984375,11.7965,8.774999999999999,-89.98966842826394,-10.86659212631275,49.75029878224,1779.0,1435.0,1350.0,1528.0,1677.0,1018.02,58.0,292.45,1637151694.661834,1637151695.8008127,9f9591b6-aa24-47da-a414-d2006929ea22
0.2431238334015212,0.5662004237627162,-0.0781908545447842,-0.3526436210305597,-0.2536865180927123,0.0027525218731935,-0.3339330227865087,-0.3587709145276918,-13.048010758579116,11.115961436996134,31.424800542155047,0.8698998225414516,1.9760788481905616,1.0236156462344794,7037.2958984375,11.796,8.764444444444443,179.80300717509505,-10.88968468758941,49.01123626582399,1779.0,1435.0,1350.0,1528.0,1677.0,1018.02,58.0,292.45,1637151695.9088666,1637151697.0345483,9f9591b6-aa24-47da-a414-d2006929ea22
0.2224540839269572,0.5630052908689279,-0.0753507361374418,-0.3276610940868182,-0.24383814354076,-0.0039796106888738,-0.3315268111793601,-0.3559833916455517,-13.20609345027802,10.848062539917349,33.316183044025635,0.797004769040408,1.9455503734308548,1.0054039430436452,7041.793185763889,11.798222222222224,8.770000000000001,179.5298572854475,-10.93183682059719,48.23813664004409,1779.0,1435.0,1350.0,1528.0,1677.0,1018.02,58.0,292.45,1637151697.1427996,1637151698.258248,9f9591b6-aa24-47da-a414-d2006929ea22
0.306108276247242,0.6878587239963551,-0.0521526000387212,-0.3767473773201319,-0.2505061769450395,-0.077792558992918,-0.341286980654391,-0.3754599007895873,-13.247578505394342,10.830973479408792,33.84013775573328,0.7429683130481055,2.416990401957308,1.0121547134918143,7039.223307291667,11.791666666666666,8.836666666666666,179.1038113344995,-11.004746149211185,46.7879523932868,1864.0,1435.0,1350.0,1528.0,1744.0,1018.02,58.0,292.45,1637151700.194068,1637151701.3323224,88056b0a-ed57-4ec0-bb78-7e03c4a70812
0.3103131194251092,0.6902830146319064,-0.05837083772037,-0.3999082622716063,-0.2676679668635158,-0.0868322883099808,-0.3514361321142769,-0.3853351212316019,-12.785501129601016,11.3851244342354,29.79116732299103,0.7778511918613423,2.4611652141123,1.0529313181882811,7039.223307291667,11.791666666666666,8.776666666666667,178.93799255528938,-11.038832777446563,46.34432249977559,1864.0,1435.0,1350.0,1528.0,1744.0,1018.02,58.0,292.45,1637151701.4410894,1637151702.4462454,88056b0a-ed57-4ec0-bb78-7e03c4a70812
0.3032456956444118,0.6951589890171372,-0.054138601001694,-0.383047795161946,-0.257080525778959,-0.0791759113365111,-0.3471080187969462,-0.3767747710504943,-13.242467950720036,11.10612149132166,33.80220822632582,0.755793560826079,2.4453253122710263,1.0327695122029414,7043.7216796875,11.794444444444444,8.803333333333335,178.75715950246376,-11.078034079005423,45.91561163668644,1864.0,1435.0,1350.0,1528.0,1744.0,1018.02,58.0,292.45,1637151702.5548122,1637151703.6750405,88056b0a-ed57-4ec0-bb78-7e03c4a70812
-0.1110751977980139,-0.0333609207944643,-0.1473299908058914,-0.0403187729787093,-0.1684089961673249,0.3074505388538803,-0.2661202555396892,-0.3007999474670841,-13.833768463989122,11.506018369964812,32.10595829701112,0.8489247306614041,-0.3159467195015809,0.8356005363301392,7044.365234375,11.804222222222222,8.726666666666667,178.68075093512874,-11.106549454744057,45.06301733643153,1440.0,1435.0,1350.0,1528.0,1408.0,1018.02,58.0,292.45,1637151705.6097105,1637151706.7467134,6b83e0c0-2758-432f-8c22-d9f5db61babd
-0.0913110627458175,-0.0283205872087598,-0.1519594284103871,-0.0817645615939307,-0.1810509213608083,0.3617026033194014,-0.261572997933008,-0.2898426989402105,-13.883090255618384,11.810309240790312,35.08941938275098,1.0665653276870817,-0.3183211142744603,0.85695041319119,7048.8701171875,11.806111111111113,8.70111111111111,178.56212420962396,-11.11595728141584,44.84004353424674,1440.0,1435.0,1350.0,1528.0,1408.0,1018.02,58.0,292.45,1637151706.855961,1637151707.890709,6b83e0c0-2758-432f-8c22-d9f5db61babd
-0.0994057293298808,-0.0402639865570808,-0.142522498370812,-0.028676697874776,-0.1590816389828198,0.3183940883916176,-0.2576009949781682,-0.2889113326882838,-13.923558177672286,11.370869933734944,34.276252093580666,0.8468989038103554,-0.3615680740582705,0.8065340759526384,7053.382595486111,11.803999999999998,8.766666666666667,178.4609326803405,-11.145681505773828,44.63883754494678,1440.0,1435.0,1350.0,1528.0,1408.0,1018.02,58.0,292.45,1637151708.0177956,1637151709.0000818,6b83e0c0-2758-432f-8c22-d9f5db61babd
-0.1945283357611461,-0.2103341658596796,-0.1796538716733273,0.0054688235150772,-0.1708332872064414,0.4082708992648289,-0.2595869962508277,-0.2785293397069059,-13.658587792171128,12.482150199850786,27.67228414404261,0.9764387531545532,-0.949318371194156,0.8461178149017007,7060.48291015625,11.79377777777778,8.744444444444444,178.3978353927879,-11.136263149227071,44.32199797081832,1355.0,1435.0,1350.0,1528.0,1341.0,1018.02,58.0,292.45,1637151710.6247518,1637151711.7818449,3eaa326b-6f73-42a2-9d49-9b9608afa9e4
-0.1782020366023887,-0.1857625374425701,-0.1677926529918711,-0.0291560778316423,-0.1668749832529727,0.4446900454075211,-0.2441783681246636,-0.2707086051666373,-13.918171318852822,12.54153233105062,31.842717400179268,1.137901115855881,-0.8872689899824548,0.8109654109006446,7060.48291015625,11.793444444444445,8.78111111111111,178.39345041134078,-11.10419493675517,44.24270478692383,1355.0,1435.0,1350.0,1528.0,1341.0,1018.02,58.0,292.45,1637151711.9136994,1637151712.9022267,3eaa326b-6f73-42a2-9d49-9b9608afa9e4
-0.201445098588621,-0.2017738158567397,-0.1620263993827832,0.0434493808543332,-0.1418376704597391,0.4075723748488758,-0.242726530682568,-0.2647369034086058,-14.229001138500982,11.9057264295512,33.876213425197044,0.8869526017251014,-0.9717283848530144,0.7685474279098831,7060.48291015625,11.795,8.81,178.38504776084184,-11.169159901590792,44.17877687247719,1355.0,1435.0,1350.0,1528.0,1341.0,1018.02,58.0,292.45,1637151713.0368493,1637151714.1202023,3eaa326b-6f73-42a2-9d49-9b9608afa9e4
-0.2479668346916701,-0.3075304367558279,-0.202183069824913,0.0026078852031886,-0.180224744981367,0.5239273690304094,-0.2537785597450075,-0.2679923018104524,-14.11587884462728,13.404531598111795,30.126274827944247,1.2479416250296218,-1.3334368910600276,0.872326057602475,7060.48291015625,11.79,8.816666666666668,178.3792375465879,-11.135238905442783,44.002580759188085,1271.0,1435.0,1350.0,1528.0,1273.0,1018.02,58.0,292.45,1637151716.167798,1637151717.306619,d9438a84-f542-4083-88fa-3ffbdb9f0cfb
-0.2959990283337406,-0.3835299137514621,-0.1842087996718144,0.1236021885506831,-0.1256576507350815,0.4984714955744485,-0.2305053639086245,-0.253988938298203,-14.529274188632671,12.785413702491851,31.927668746086773,0.9146752251109288,-1.645288950766883,0.7347373740898192,7054.671875,11.792,8.725555555555555,178.3822337229038,-11.141774068386148,44.02230900169576,1271.0,1435.0,1350.0,1528.0,1273.0,1018.02,58.0,292.45,1637151717.4156926,1637151718.3862045,d9438a84-f542-4083-88fa-3ffbdb9f0cfb
-0.3101338788315229,-0.3836219546173746,-0.1789493206780321,0.1201835277133342,-0.1248950262634495,0.4935407349884382,-0.2258244274215766,-0.2522664588373464,-14.154323260858186,12.9937940389637,30.800824205522567,0.9129591895592176,-1.6375429084954294,0.7184110090768351,7054.027235243056,11.790777777777778,8.777777777777779,178.37200209952712,-11.13573551711369,44.05379503540467,1271.0,1435.0,1350.0,1528.0,1273.0,1018.02,58.0,292.45,1637151718.4943497,1637151719.558162,d9438a84-f542-4083-88fa-3ffbdb9f0cfb
-0.3698552672191011,-0.5245234162149758,-0.183709149078042,0.1935269532783652,-0.0989920930366597,0.5681727279757984,-0.2071664254446088,-0.2321489517730354,-14.704623108152449,13.90176374880462,31.43033933982461,0.9208278186497852,-2.1770100412660125,0.6467778090364518,7054.671875,11.780666666666663,8.886666666666668,178.4717926811208,-11.062520537534338,43.98156957948132,1186.0,1435.0,1350.0,1528.0,1206.0,1018.02,58.0,292.45,1637151721.6973388,1637151722.7228997,df5adc49-963a-4c11-a2c2-91c90c09f8a3
-0.3772952393032984,-0.5282039564594728,-0.1842285226597223,0.2088901085188216,-0.09598158931116,0.5605081345340911,-0.2090055995673974,-0.2257975825953797,-14.747744069822565,13.826278912594075,31.83102117169861,0.8684648451358186,-2.1959860772644864,0.6462592606438685,7057.254557291667,11.78111111111111,8.814444444444446,178.48498101749823,-11.072406382584283,43.97248732515997,1186.0,1435.0,1350.0,1528.0,1206.0,1018.02,58.0,292.45,1637151722.831232,1637151723.866702,df5adc49-963a-4c11-a2c2-91c90c09f8a3
-0.3785416262827605,-0.5310528414511605,-0.1802154306698518,0.1927007769007241,-0.0966664172972182,0.5662332954695928,-0.2045953072370037,-0.2208942144863757,-14.667800824893677,14.112218454566955,30.15838810153396,0.9197181788849532,-2.190159930807176,0.632535203342497,7054.671875,11.781222222222222,8.80888888888889,178.52354274773228,-11.04442584860316,43.98655637648533,1186.0,1435.0,1350.0,1528.0,1206.0,1018.02,58.0,292.45,1637151723.978593,1637151725.0949583,df5adc49-963a-4c11-a2c2-91c90c09f8a3
0.0048387818473719,0.135805274545206,-0.1232103503788517,-0.1240184471982276,-0.1882964018884828,0.2258738401377005,-0.2802825002955032,-0.3088809187206601,-13.555726764290696,11.473808981934829,33.1522589900324,0.8557111774820892,0.319121849503248,0.8713928118798698,7059.191569010417,11.805555555555555,8.754444444444443,178.39106288077087,-11.044198365358302,44.15384592309673,1525.0,1435.0,1350.0,1528.0,1475.0,1018.02,58.0,292.45,1637151727.226689,1637151728.249014,97e8960c-d674-47ae-b2b9-319e3ab7f926
-0.0049405611960428,0.1399005453981673,-0.1312091409333455,-0.1417007064946398,-0.1966786964587545,0.2377213619427326,-0.2856378558870418,-0.3005123202462846,-13.764282151861403,11.33374582495352,33.04366571702639,0.9207719118560072,0.3385877768501917,0.9014368813807108,7056.60888671875,11.808,8.693333333333333,178.39349442811542,-11.044854727564791,44.28529708767812,1525.0,1435.0,1350.0,1528.0,1475.0,1018.02,58.0,292.45,1637151728.3584769,1637151729.4806385,97e8960c-d674-47ae-b2b9-319e3ab7f926
0.0008119935440996,0.1375721305444127,-0.1277986976598566,-0.1226213983565378,-0.1902276167941838,0.2255862124193087,-0.2833094402205885,-0.3139349500448032,-13.61814469358402,11.21268497910242,33.51429392159579,0.8499802389266389,0.322514394176929,0.8853875136467605,7048.8701171875,11.807666666666668,8.656666666666666,178.4428463394183,-11.062305955757912,44.41757660242385,1525.0,1435.0,1350.0,1528.0,1475.0,1018.02,58.0,292.45,1637151729.5894864,1637151730.7099924,97e8960c-d674-47ae-b2b9-319e3ab7f926
0.0181233481526678,0.1406691962967178,-0.1565176433421336,-0.3752725319400767,-0.2427468018177343,0.4714509271567301,-0.2437986979246311,-0.2778669750673419,-13.749287857544331,10.555885766394908,35.87278986118777,1.9669160694883945,0.3434301781925489,0.9414765262975768,7054.671875,11.803111111111113,8.742222222222223,178.49136344982264,-10.974113414829846,44.61672025404941,1525.0,1535.0,1350.0,1528.0,1475.0,1018.02,58.0,292.45,1637151732.6438248,1637151733.6895864,28e2e78f-313e-4dc7-90c5-773d16783362
0.0091668944294952,0.1431877192902193,-0.1559451279215565,-0.395388397867692,-0.2509033780510992,0.4728775602508761,-0.2449864642277948,-0.2627509032333728,-13.462829550708651,11.009074072504836,33.78504599386917,2.0183425145074474,0.3718729842706658,0.9506949179839608,7057.254557291667,11.801333333333334,8.736666666666666,178.54880837638203,-10.98989826659296,44.62567159641168,1525.0,1535.0,1350.0,1528.0,1475.0,1018.02,58.0,292.45,1637151733.798278,1637151734.9171808,28e2e78f-313e-4dc7-90c5-773d16783362
-0.0001330689905106,0.1173012242581001,-0.1493981718541422,-0.3526825193857282,-0.2309200962058808,0.4781644318288463,-0.2357823752136684,-0.2476435963075215,-13.831587788912865,10.869759781325124,36.58389185168932,1.9335518141459296,0.2477414406867198,0.9024370838327288,7060.48291015625,11.804,8.72,178.58343743547402,-10.999483488455688,44.69314475849251,1525.0,1535.0,1350.0,1528.0,1475.0,1018.02,58.0,292.45,1637151735.0255272,1637151736.1460335,28e2e78f-313e-4dc7-90c5-773d16783362
0.0398449945672097,0.1406560475297314,-0.1851160605834403,-0.6324873949116647,-0.3007983039501511,0.7268248815920668,-0.2058647051729435,-0.236185601836105,-13.728636914158592,10.449999324375886,38.53923050884187,3.119298653009705,0.3494559759615258,1.0070794425263252,7054.671875,11.80188888888889,8.724444444444446,178.6527152853156,-10.912477692895912,44.81155405630872,1525.0,1636.0,1350.0,1528.0,1475.0,1018.02,58.0,292.45,1637151738.173159,1637151739.2190478,b7ce8143-1ea1-480d-89c3-c41dae7c1537
0.0178340768040238,0.1362380857138913,-0.1709812113157175,-0.6277801615255306,-0.2861769520315422,0.7211840914658473,-0.1920059791016273,-0.2071138318607795,-13.68989820827633,10.480101093607196,37.84579690873472,3.0968170113279605,0.3390746579138799,0.9467088134167502,7048.8701171875,11.80011111111111,8.754444444444443,178.64164127194124,-10.91221767138876,44.88545328803366,1525.0,1636.0,1350.0,1528.0,1475.0,1018.02,58.0,292.45,1637151739.327547,1637151740.339635,b7ce8143-1ea1-480d-89c3-c41dae7c1537
0.027748193902893,0.1601292660629665,-0.1777922361588995,-0.6625847721797604,-0.3058474040295962,0.7206318462632545,-0.2034058989813308,-0.2180798455112452,-13.483960288605829,10.819316005347943,36.46453949518422,3.175879753632429,0.4433247443110158,0.9996582342935182,7054.671875,11.801666666666668,8.677777777777777,178.63352397156763,-10.88323575578432,44.94422782475153,1525.0,1636.0,1350.0,1528.0,1475.0,1018.02,58.0,292.45,1637151740.4478886,1637151741.564057,b7ce8143-1ea1-480d-89c3-c41dae7c1537
0.0301774155875779,0.1300116304238313,-0.1820507699124814,-0.8229266160093962,-0.3146471698290428,0.9227409860397522,-0.1486585573360433,-0.1524525048702592,-13.97624264085836,10.128577266271591,40.2144224565678,3.98729680599303,0.3200742648054867,0.9396781115004256,7054.671875,11.79411111111111,8.711111111111112,178.7228901666681,-10.852150616234203,45.16351484260432,1525.0,1737.0,1350.0,1528.0,1475.0,1018.02,58.0,292.45,1637151743.6836607,1637151744.636295,b155799f-e3b4-49cd-99da-d0b475d4a619
