raw_voltage_G-,raw_voltage_G0,raw_voltage_G1,raw_voltage_G2,raw_voltage_G3,raw_voltage_G4,raw_voltage_G5,raw_voltage_G6,load_x,load_y,load_z,load_l,load_m,load_n,rpm,voltage,current,roll,pitch,yaw,aileron1_pwm,elevator_pwm,throttle_pwm,rudder_pwm,aileron2_pwm,pbaro,pdiff,Tt,sample_start_time,sample_end_time,uid
-0.0322788927109143,0.0858265331838106,0.0237537296828492,0.0436822225480299,-0.1111299838932153,-0.0784636899283257,-0.3018271885960069,-0.3290696485791218,-14.609555401583371,22.479060484686368,5.252442425393314,-0.1311724031465758,0.375261131881394,0.5474552118034501,3074.499565972222,12.04411111111111,0.4,179.2131368601746,8.06283464275355,69.57380800954746,1525.0,1435.0,1200.0,1528.0,1475.0,1018.02,58.0,292.45,1637149258.1744564,1637149259.1508582,bae1a103-21dc-4b36-a0fc-93c625b2096c
-0.0455645549538391,0.0827995937643496,0.0203158934357685,0.0449149128273806,-0.1134447024401053,-0.0790252488537728,-0.3033475068290741,-0.3260701016734059,-14.489555606159088,22.3695638067678,4.894158878053396,-0.1361087039211528,0.3658628296467059,0.5567267798177706,3341.7508951822915,12.045555555555556,0.4,179.25315569743157,8.1076553875883,68.56943324555654,1525.0,1435.0,1200.0,1528.0,1475.0,1018.02,58.0,292.45,1637149259.2634928,1637149260.280579,bae1a103-21dc-4b36-a0fc-93c625b2096c
-0.0341553213264285,0.0840322840248381,0.0208363626735292,0.0446135885220336,-0.1144171581557902,-0.0795046284468546,-0.3038405830024937,-0.3324800922981976,-14.439021041065638,22.475899172207374,4.956785923701779,-0.1357399732622318,0.3696453322626156,0.5582704197692094,3380.7899576822915,12.045,0.39,179.31861015915769,8.149884075633025,67.65107408942322,1525.0,1435.0,1200.0,1528.0,1475.0,1018.02,58.0,292.45,1637149260.3884652,1637149261.5108995,bae1a103-21dc-4b36-a0fc-93c625b2096c
0.0531191513417274,0.2593619246270421,0.0231921707705273,-0.0388943306207735,-0.1518224622540157,-0.17091546649691,-0.341738966629324,-0.3664749570681282,-14.470881345326314,22.078828781064487,5.319971627267351,-0.1552519935497131,1.0346689015877053,0.6811014187605559,3388.213216145833,12.037666666666668,0.4177777777777777,179.39915933894957,8.247008891311916,65.88533737974106,1610.0,1435.0,1200.0,1528.0,1542.0,1018.02,58.0,292.45,1637149263.1512413,1637149264.3770711,51d46d3c-d491-4bc5-bd47-d75289a9d3ef
0.0604468101795963,0.2553762262954286,0.0206720039681821,-0.0396202482291735,-0.1535893184405885,-0.1645602627611533,-0.341629394133542,-0.3602019318385001,-14.407016483524451,22.042177656027523,5.563892118962182,-0.1396309318569282,1.0170352178832474,0.6867022956962909,3389.255126953125,12.040333333333333,0.4133333333333333,179.4637941779753,8.282813881305984,65.25814767010554,1610.0,1435.0,1200.0,1528.0,1542.0,1018.02,58.0,292.45,1637149264.4874115,1637149265.5030675,51d46d3c-d491-4bc5-bd47-d75289a9d3ef
0.055324297238116,0.26007414563766,0.0220142667210868,-0.0384971303982982,-0.1530825457361775,-0.1693403621105011,-0.3427936018132063,-0.3646122249982684,-14.465747731528957,22.083337614747297,5.686187657752023,-0.152576311140417,1.03393456529127,0.6865328031603252,3386.8744845920137,12.038,0.42,179.5282089331278,8.316329714426976,64.84533862576907,1610.0,1435.0,1200.0,1528.0,1542.0,1018.02,58.0,292.45,1637149265.6381276,1637149266.630839,51d46d3c-d491-4bc5-bd47-d75289a9d3ef
0.152446592717306,0.4564964781196599,0.0240002677274384,-0.1367288535907207,-0.1975415788032942,-0.2694348230410547,-0.3868691353304134,-0.4096739105035045,-14.526189251148828,21.800390300509928,5.799235052571238,-0.1577044357207343,1.7822791208317952,0.8302737634540923,3389.255126953125,12.037666666666668,0.43,179.6811869566983,8.482349794490137,63.900649849295256,1695.0,1435.0,1200.0,1528.0,1609.0,1018.02,58.0,292.45,1637149268.7699502,1637149269.9142811,fa9c3a0d-8c7e-4177-94ba-a5924b1249da
0.1620204868891998,0.459797348454702,0.0296158568067657,-0.1373178056291984,-0.1929806243537732,-0.2703798856881254,-0.381363117707072,-0.4126049750015227,-14.46373462726288,21.790362258376945,6.089999602283789,-0.158208656811036,1.7920686550938694,0.8094196477774188,3389.255126953125,12.037666666666668,0.43,179.74639553161433,8.528145169373948,63.6584126369213,1695.0,1435.0,1200.0,1528.0,1609.0,1018.02,58.0,292.45,1637149270.0272171,1637149271.031005,fa9c3a0d-8c7e-4177-94ba-a5924b1249da
0.1583908989830234,0.457263485334473,0.0273011383867796,-0.1363864395856572,-0.1947611771354582,-0.2706812100208323,-0.3841846093056991,-0.4187547314833886,-14.52332211186708,21.8354803524354,5.796319915581942,-0.160879679717755,1.785329102312062,0.8182444149283131,3387.91552734375,12.036,0.43,179.79779042838894,8.568411695852113,63.440060596074886,1695.0,1435.0,1200.0,1528.0,1609.0,1018.02,58.0,292.45,1637149271.1634312,1637149272.1595862,fa9c3a0d-8c7e-4177-94ba-a5924b1249da
0.2572937443059274,0.6183623924824041,0.0281503250228167,-0.214539009741132,-0.23318002800694,-0.3494501304454429,-0.4213570768162551,-0.4381490619688025,-14.4893747988951,21.73076507981624,6.668313986264143,-0.1620867077847965,2.3912535314107384,0.9424447404918844,3389.553032769097,12.029666666666666,0.4677777777777778,179.81210650488927,8.650551740538162,63.04740288651965,1779.0,1435.0,1200.0,1528.0,1677.0,1018.02,58.0,292.45,1637149273.2752688,1637149274.2998078,c88b5282-a919-4565-a224-4ee01c7ee140
0.253376528757155,0.6159928880765121,0.0259588756367254,-0.2134158918300803,-0.2342072700105108,-0.3486694264614862,-0.424329230655688,-0.4596252710299972,-14.650410619602788,21.76634860053095,6.576876933037613,-0.1628347095498535,2.3840400229031165,0.9505297348245288,3392.832763671875,12.029333333333334,0.4566666666666667,179.84310645680222,8.679484516726076,62.84778529565668,1779.0,1435.0,1200.0,1528.0,1677.0,1018.02,58.0,292.45,1637149274.4085486,1637149275.529668,c88b5282-a919-4565-a224-4ee01c7ee140
0.2339197464877797,0.6130886700748818,0.0213447789313426,-0.2158577145491339,-0.2389073815987333,-0.3459377843405807,-0.4262894825406133,-0.4510353349225666,-14.463333019990516,21.70345753667149,6.215690643200104,-0.1517982599213375,2.375031600283572,0.9652863567424816,3391.6396755642363,12.027222222222225,0.4600000000000001,179.8521450738039,8.714600131932665,62.64905487047589,1779.0,1435.0,1200.0,1528.0,1677.0,1018.02,58.0,292.45,1637149275.63722,1637149276.7604516,c88b5282-a919-4565-a224-4ee01c7ee140
0.2902065726523611,0.6834758256739449,0.0220690528715466,-0.2763241930625941,-0.2629700466412792,-0.3440125959512493,-0.4412307877702006,-0.4721028391831497,-14.722300518943092,22.33448066029332,8.316028448080953,-0.0066509025175011,2.6297452307060927,1.0288554792221754,3386.576904296875,12.022333333333334,0.4844444444444444,179.82156707579966,8.751844109975622,62.34629535186647,1864.0,1435.0,1200.0,1528.0,1744.0,1018.02,58.0,292.45,1637149277.7811234,1637149278.919172,cbc55f88-3c6a-46af-bb0c-b68a8e81e956
0.2981368796311674,0.6820513837188047,0.0300952363130569,-0.2686130294382293,-0.2535331165407633,-0.351134807541788,-0.4340126997697138,-0.4651997715317382,-14.712228472134283,22.280383935641407,8.17394262638728,-0.0400265014884063,2.6251492133975844,0.994508549389601,3383.0127766927085,12.020333333333332,0.5,179.83985984021675,8.765509610957524,62.19706861997012,1864.0,1435.0,1200.0,1528.0,1744.0,1018.02,58.0,292.45,1637149279.0276978,1637149280.0353296,cbc55f88-3c6a-46af-bb0c-b68a8e81e956
0.2967672238310935,0.6890503244777926,0.0252466545378906,-0.2732835567272783,-0.2604361829293262,-0.3517511528130555,-0.4401350627749116,-0.4571872828888816,-14.68710125559476,22.30051012034654,8.40705565194753,-0.0309341464570819,2.6494235864121123,1.020380884659548,3382.567626953125,12.020777777777775,0.4822222222222222,179.83838148371643,8.78667039077987,62.04907283994417,1864.0,1435.0,1200.0,1528.0,1744.0,1018.02,58.0,292.45,1637149280.144318,1637149281.264898,cbc55f88-3c6a-46af-bb0c-b68a8e81e956
-0.1341128109171315,-0.1088015687955569,0.0229730258334068,0.1446258580934627,-0.0668627042768718,0.0166452156914405,-0.258792595636176,-0.2947734607901299,-14.49285985591851,22.879315299558623,5.034563301561413,-0.1425156294714403,-0.3660784951745788,0.403898770582805,3382.567626953125,12.043,0.4,179.9778751960455,8.796991660389406,61.766589117340885,1440.0,1435.0,1200.0,1528.0,1408.0,1018.02,58.0,292.45,1637149283.1712923,1637149284.110122,e33db321-67dc-4a1a-9ddc-347efbf27454
-0.1475080461330202,-0.1116367565902309,0.0253151373782698,0.1490498463946453,-0.0653834758794839,0.0153577391708252,-0.2573955464794658,-0.285144779052273,-14.401520659314729,23.035962019982303,5.047761560099215,-0.154185061586097,-0.3778691790384316,0.3964162837386706,3387.0231119791665,12.042,0.39,-179.99312928519188,8.811607696030801,61.73568023461687,1440.0,1435.0,1200.0,1528.0,1408.0,1018.02,58.0,292.45,1637149284.2190075,1637149285.4793575,e33db321-67dc-4a1a-9ddc-347efbf27454
-0.1382628684271013,-0.1123215845661038,0.0218499080165491,0.1478034596043747,-0.0690130640649263,0.0169328434306461,-0.2606416312762918,-0.2900344509956682,-14.395493892040577,23.057944996407013,4.987028003738175,-0.147867513810254,-0.3800079236746884,0.410520876643575,3392.385796440972,12.041444444444444,0.39,-179.99542726439262,8.819069203380346,61.72272184794153,1440.0,1435.0,1200.0,1528.0,1408.0,1018.02,58.0,292.45,1637149285.591651,1637149286.5885031,e33db321-67dc-4a1a-9ddc-347efbf27454
-0.2365219888986583,-0.2995946492152567,0.0255890685493383,0.2422001376184692,-0.024375978067695,0.1106310004392989,-0.2162921694064141,-0.2367411342354615,-14.298215957690198,23.67508619020505,4.75602036785688,-0.1459615904646068,-1.0924116140124032,0.259139025848291,3402.260498046875,12.03377777777778,0.4277777777777778,-179.9745086716946,8.802413502498057,61.70532004375615,1355.0,1435.0,1200.0,1528.0,1341.0,1018.02,58.0,292.45,1637149288.1703498,1637149289.2517424,a2ade721-12f4-4938-8147-d9791349912d
-0.2388367075987515,-0.2973621098407196,0.0267806691539466,0.2372693767735822,-0.0246499092474218,0.1145482161228277,-0.2152923205323278,-0.2443564220932086,-14.339648851040629,23.74816466830481,4.986034031633632,-0.1254769063055043,-1.085099724765243,0.2569566258040441,3410.2314724392363,12.034,0.42,-179.9858847312122,8.812610026291502,61.67905644857764,1355.0,1435.0,1200.0,1528.0,1341.0,1018.02,58.0,292.45,1637149289.359876,1637149290.5990078,a2ade721-12f4-4938-8147-d9791349912d
-0.2508211977239094,-0.3026900719110582,0.0235208881767754,0.2447340008254596,-0.0255675787037024,0.1127128773038175,-0.2192369298209995,-0.238220362879704,-14.436116548926314,23.766887498581685,4.932733656531134,-0.1465347759037659,-1.1050530375700298,0.2675366929174052,3415.818603515625,12.035333333333334,0.42,179.99605715961604,8.813760059393003,61.63707507029911,1355.0,1435.0,1200.0,1528.0,1341.0,1018.02,58.0,292.45,1637149290.712073,1637149291.822669,a2ade721-12f4-4938-8147-d9791349912d
-0.3237553824717433,-0.452859168523205,0.0325880100396807,0.3225030558442947,0.0133580415880896,0.1960153441718881,-0.1777226566839017,-0.2098410902040338,-14.21809754231729,24.53659171140833,6.221670845728139,-0.1289017911081872,-1.6902325290154383,0.1272175337769466,3423.093505859375,12.030777777777775,0.4499999999999999,179.9825364206991,8.807751579925638,61.610857009715055,1271.0,1435.0,1200.0,1528.0,1273.0,1018.02,58.0,292.45,1637149293.7555726,1637149294.7810094,852769c7-ae29-4929-a2cf-935d24263af2
-0.333656900170501,-0.4552429181311452,0.0280506140734367,0.3271702948245212,0.0106285913532789,0.1931850874132513,-0.1820787105741816,-0.1960820740315792,-14.21560966894294,24.458613297818765,6.065037843118692,-0.1465564798318903,-1.6986660197466208,0.1428875218320746,3424.917399088541,12.03,0.4499999999999999,179.97886785020486,8.805850415742912,61.60514393592929,1271.0,1435.0,1200.0,1528.0,1273.0,1018.02,58.0,292.45,1637149294.8888977,1637149296.1225843,852769c7-ae29-4929-a2cf-935d24263af2
-0.3320691948348819,-0.4493939384230268,0.0342179005254269,0.3188734680574499,0.0135087037381835,0.1951661575719396,-0.17655844910547,-0.203800907479453,-14.182663746261468,24.55205537555093,6.118937886184177,-0.1224374375852342,-1.676025612803444,0.1233940287904139,3426.286376953125,12.030666666666669,0.4433333333333333,179.95237582314414,8.808886719420197,61.58317121736937,1271.0,1435.0,1200.0,1528.0,1273.0,1018.02,58.0,292.45,1637149296.2312214,1637149297.3507252,852769c7-ae29-4929-a2cf-935d24263af2
-0.3903206689785133,-0.5823464683935015,0.0376283435725295,0.3480060461261543,0.0357108253624272,0.3116964717840713,-0.1384135304609282,-0.1765858429593749,-14.129726752935191,25.65437962708998,8.124518878394236,0.0815293855119966,-2.196180468724943,0.020776358989305,3425.829833984375,12.02,0.49,179.94207438005594,8.805534709221275,61.60257426698157,1186.0,1435.0,1200.0,1528.0,1206.0,1018.02,58.0,292.45,1637149298.2613738,1637149299.403105,1ddff7ab-1363-4cc7-bf80-da1717ab136a
-0.3873211220761261,-0.5812781364709841,0.0360258462407057,0.3498687779547955,0.0352862320750988,0.3103679056922104,-0.140550193754689,-0.1636425948849287,-14.228323115508864,25.5904062689138,8.315086356630326,0.0738189193482647,-2.19349674530032,0.0269528884741072,3423.093505859375,12.017,0.4988888888888889,179.9266002070363,8.815575656483624,61.55758456982859,1186.0,1435.0,1200.0,1528.0,1206.0,1018.02,58.0,292.45,1637149299.5118706,1637149300.6301644,1ddff7ab-1363-4cc7-bf80-da1717ab136a
-0.3981961916561318,-0.5837709109261723,0.0362175980258538,0.3490195914065328,0.0353410182834752,0.3122306375597803,-0.1391257516121994,-0.161875738074643,-14.147999482183543,25.596919078661344,8.127335905223502,0.0799835098966733,-2.2016338289845705,0.0240684088852185,3421.72705078125,12.020777777777775,0.49,179.91511486449195,8.820494720778372,61.52475185048834,1186.0,1435.0,1200.0,1528.0,1206.0,1018.02,58.0,292.45,1637149300.7384636,1637149301.7460976,1ddff7ab-1363-4cc7-bf80-da1717ab136a
-0.0380177510212801,0.0873194580551437,0.0224662531586225,0.0463941411446783,-0.1133762196413834,-0.0832574856692835,-0.3032790240287781,-0.3263029435109739,-14.396201798403624,22.46825869172103,5.122441445119278,-0.1481111664489823,0.3800869413304921,0.5545114466883319,3406.019721137153,12.042222222222222,0.3877777777777778,179.65849251481606,8.787403877205739,61.44011669975298,1525.0,1435.0,1200.0,1528.0,1475.0,1018.02,58.0,292.45,1637149303.7913065,1637149304.821378,88b39b68-1def-451e-8911-092b7ccd6fe3
-0.0384834339835579,0.09163387396085,0.0248083647040929,0.0418605802368924,-0.1125133363977662,-0.0824219955437256,-0.3017450092291966,-0.3281930688220236,-14.44182175699379,22.501977621772465,5.263379303720382,-0.1356674551370284,0.3960496099048962,0.5485948349492521,3400.010498046875,12.044666666666666,0.3833333333333333,179.6690322556153,8.795483326947695,61.51510610556046,1525.0,1435.0,1200.0,1528.0,1475.0,1018.02,58.0,292.45,1637149304.930034,1637149306.0460422,88b39b68-1def-451e-8911-092b7ccd6fe3
-0.0305805194462343,0.0861141609124166,0.0196036723871132,0.0477637970184394,-0.1155128829107142,-0.0805866566023292,-0.3057170118085088,-0.3406843322708403,-14.43096992943068,22.46488197595232,5.49312449056377,-0.1453223994428027,0.3721769064579692,0.5651609027495788,3398.662353515625,12.041444444444444,0.3822222222222222,179.6577715504037,8.79549660787108,61.581662504472696,1525.0,1435.0,1200.0,1528.0,1475.0,1018.02,58.0,292.45,1637149306.1549046,1637149307.2548685,88b39b68-1def-451e-8911-092b7ccd6fe3
-0.024567730058812,0.0839090150017263,0.0083177079586295,-0.1384409235269469,-0.1460151209658306,0.1000024711431611,-0.2663667935018254,-0.3026626796960214,-14.370910598629996,22.134155116037576,6.594101649448376,0.6779690528611694,0.3759279583565242,0.5658948244253822,3394.624267578125,12.0415,0.39,179.61266156603034,8.836025337722381,61.65367926017141,1525.0,1535.0,1200.0,1528.0,1475.0,1018.02,58.0,292.45,1637149309.2081382,1637149310.2503376,118132bb-579b-4723-ae20-5c96c12e1576
-0.0250197164873249,0.0851690983790158,0.0088518737567825,-0.1424403189252946,-0.1460973003196704,0.1035087900865383,-0.2650245305772868,-0.2789402365901688,-14.374936987459424,22.12454082503359,6.751796161401994,0.6948558500889224,0.3798110038427115,0.5637084799738808,3395.371337890625,12.04211111111111,0.39,179.6083923183441,8.841166098573941,61.66599712688456,1525.0,1535.0,1200.0,1528.0,1475.0,1018.02,58.0,292.45,1637149310.3592231,1637149311.4822333,118132bb-579b-4723-ae20-5c96c12e1576
-0.0333883140032504,0.0821695520738369,0.0048387820203064,-0.1385367994646918,-0.1474395631657843,0.1030841967702053,-0.2688458709311758,-0.2826930941840676,-14.51157690944739,22.0349836880457,6.756260854058016,0.6842347690628632,0.368751880565102,0.5760665291136097,3397.315185546875,12.041333333333334,0.38,179.61026075453705,8.837241206258383,61.69623361543032,1525.0,1535.0,1200.0,1528.0,1475.0,1018.02,58.0,292.45,1637149311.5916283,1637149312.7109184,118132bb-579b-4723-ae20-5c96c12e1576
-0.0202313994539374,0.0770295076077044,-0.0048474243835633,-0.3215469488377432,-0.1777790865082063,0.2853574434551106,-0.2283489773149605,-0.2493474480796362,-14.328631104336557,21.897180227814395,8.11347298958107,1.5055657646535077,0.3580658819831621,0.5728066021049527,3393.131103515625,12.04011111111111,0.3911111111111111,179.5922943213803,8.889116493004629,61.73150850685379,1525.0,1636.0,1200.0,1528.0,1475.0,1018.02,58.0,292.45,1637149313.7139206,1637149314.761844,b7f09eb5-39c3-43c5-9d39-757ee81c47c4
-0.0202182507581558,0.0826045547729921,-0.0022045363892891,-0.326556602891491,-0.1770822055413116,0.2831616113215981,-0.226771133590114,-0.2402091033446806,-14.31313589762328,21.90906821960596,7.938208746246746,1.512122255700252,0.3812039320151625,0.5663977830334088,3392.68359375,12.039222222222223,0.3944444444444444,179.57482421530324,8.913272785096716,61.68550870061358,1525.0,1636.0,1200.0,1528.0,1475.0,1018.02,58.0,292.45,1637149314.86981,1637149315.987921,b7f09eb5-39c3-43c5-9d39-757ee81c47c4
-0.0337170314360182,0.0741159756877103,-0.0073785484609809,-0.3227829264592408,-0.1807358998384974,0.2903983245784934,-0.2298243707679869,-0.2638740201339589,-14.281998855361214,21.971622217097167,8.245802678648904,1.5200933797695353,0.3456284575981305,0.5822100586067226,3397.4648708767363,12.038888888888888,0.3988888888888889,179.55401186999228,8.92243358659352,61.65658436729839,1525.0,1636.0,1200.0,1528.0,1475.0,1018.02,58.0,292.45,1637149316.096688,1637149317.2250726,b7f09eb5-39c3-43c5-9d39-757ee81c47c4
-0.0160484703609898,0.0814847241516571,-0.0070498310487364,-0.4897714028726376,-0.2032941339713582,0.4454570528368027,-0.19132334059664,-0.2099095732526253,-14.290493342737951,22.11969893527348,9.602374834173686,2.2464260922516,0.3818858074804357,0.5589439078975104,3395.968994140625,12.035,0.42,179.53548384350375,8.957120607429694,61.60064967145544,1525.0,1737.0,1200.0,1528.0,1475.0,1018.02,58.0,292.45,1637149318.219695,1637149319.357021,ccad7a96-0393-48e9-be01-8387207e0220
-0.0253758270492726,0.0797863509032367,-0.006625237724501,-0.4898398857325967,-0.202855844053167,0.4482237574293664,-0.1909398369308114,-0.2114983743127047,-14.343639592246795,22.1852306361756,9.752668411914506,2.2532504921138403,0.3745964431312976,0.5571639564011819,3395.968994140625,12.037,0.4099999999999999,179.52965086195258,8.970557012483184,61.54175295024241,1525.0,1737.0,1200.0,1528.0,1475.0,1018.02,58.0,292.45,1637149319.4659674,1637149320.698971,ccad7a96-0393-48e9-be01-8387207e0220
-0.0128982618191842,0.0766498390125288,-0.011350550537767,-0.4911821487813406,-0.2061978046852788,0.4520724900689967,-0.1928573553170965,-0.2260578173457957,-14.2825637558604,22.055649144149243,9.662914830440544,2.2638490612111064,0.3630593245887998,0.5704651043062647,3395.520751953125,12.036333333333332,0.4099999999999999,179.52247005640518,8.968079645952978,61.5213534519213,1525.0,1737.0,1200.0,1528.0,1475.0,1018.02,58.0,292.45,1637149320.807164,1637149321.8145874,ccad7a96-0393-48e9-be01-8387207e0220
-0.0133228552029606,0.0786632331064625,-0.0003933034611387,-0.4856350412011012,-0.2002124079973793,0.444429811022764,-0.1882279181060143,-0.2249073065108568,-14.207288803505302,22.56802563256089,9.636493963155525,2.2381379085278312,0.3703325193798578,0.5408828584663798,3399.111735026041,12.031,0.4366666666666666,179.5120062065967,8.973890998571797,61.43291160908853,1525.0,1837.0,1200.0,1528.0,1475.0,1018.02,58.0,292.45,1637149323.8616362,1637149324.8868606,57c3cc24-ae37-4864-9935-23ded25196f7
-0.0237322399568362,0.0747460173748253,-0.0065430583797068,-0.4807453685706169,-0.2056773354124127,0.4418548582140398,-0.1960075641044571,-0.2191821447767592,-14.2499957555399,22.68079222818089,9.310334607324444,2.221689579645393,0.3578436176079314,0.5668183614200654,3400.010498046875,12.03377777777778,0.43,179.5048739712834,8.980976845516993,61.3791261461044,1525.0,1837.0,1200.0,1528.0,1475.0,1018.02,58.0,292.45,1637149324.995035,1637149326.229193,57c3cc24-ae37-4864-9935-23ded25196f7
-0.0165552430755809,0.0789097711599453,-0.0052555818373958,-0.4863061727884721,-0.205567762924811,0.4442380592104886,-0.1939667766703232,-0.2126899752315513,-14.2221571778927,22.630595420228115,9.51430534704811,2.239366636783322,0.3722208255791184,0.5627913106320851,3398.662353515625,12.034333333333333,0.43,179.4783880155019,8.983289338869733,61.32487167679728,1525.0,1837.0,1200.0,1528.0,1475.0,1018.02,58.0,292.45,1637149326.3386123,1637149327.4566877,57c3cc24-ae37-4864-9935-23ded25196f7
-0.0430443881343156,0.0851422531242208,0.0390429242102534,0.2897754051371857,-0.0752323976668079,-0.320429309439291,-0.3561543230879913,-0.3791382491350506,-14.41187254313026,23.35239761553096,2.814179246522661,-1.223765792279864,0.3635905064676363,0.5534866358060672,3412.7961154513887,12.04022222222222,0.38,179.45998293241843,8.761109925630912,61.23190673091413,1525.0,1334.0,1200.0,1528.0,1475.0,1018.02,58.0,292.45,1637149329.1867082,1637149330.3245842,e7e09949-c041-4e21-ba22-a0b896a07e8c
-0.0441675059848518,0.0865661473416868,0.0402717794555959,0.2925212910225775,-0.0743821152685787,-0.3223035468276523,-0.3564353765187079,-0.383486085828806,-14.438953216432836,23.41794077031658,3.1083527672850173,-1.233642556237208,0.3662563304729276,0.5516190507258631,3415.6669108072915,12.04411111111111,0.3744444444444444,179.4863565695336,8.76438528592915,61.35600519685401,1525.0,1334.0,1200.0,1528.0,1475.0,1018.02,58.0,292.45,1637149330.4334571,1637149331.4410293,e7e09949-c041-4e21-ba22-a0b896a07e8c
-0.0473998939307096,0.0873194580569218,0.0405868003050704,0.2917268906861138,-0.0733822664451803,-0.3231390370158474,-0.3551342032153326,-0.3804591455992636,-14.418779213573302,23.30020265862174,2.998117359589051,-1.2345002730312808,0.3700317122339787,0.5479663568951914,3419.9071451822915,12.043,0.3711111111111111,179.49221838966128,8.758448238856854,61.45533967359313,1525.0,1334.0,1200.0,1528.0,1475.0,1018.02,58.0,292.45,1637149331.5487907,1637149332.667949,e7e09949-c041-4e21-ba22-a0b896a07e8c
-0.0529322080518548,0.0902965419958338,0.0563071624163028,0.4680585640061467,-0.0438727558742272,-0.4985284367737203,-0.3926945567305479,-0.4175061520588835,-14.487264966416342,24.074014514478502,1.4703508542850734,-2.020750273602918,0.3745223756632735,0.5392087526174459,3419.908610026041,12.038666666666666,0.4033333333333333,179.52739689952648,8.690313212472697,61.71301539022103,1525.0,1234.0,1200.0,1528.0,1475.0,1018.02,58.0,292.45,1637149334.7168386,1637149335.862271,b9cacbbd-89ad-43c1-b8c9-540ebd5aac23
-0.0570833611724933,0.0868811681853313,0.053256117026708,0.4704121804177343,-0.0469068176368201,-0.4962772699027417,-0.3966073903633447,-0.4183986213394421,-14.541139452220778,24.219201594932485,1.5943981473140976,-2.020197587229586,0.3605137913945233,0.552756277231422,3413.55078125,12.036666666666669,0.4033333333333333,179.51569906220797,8.679485370499721,61.76084037478946,1525.0,1234.0,1200.0,1528.0,1475.0,1018.02,58.0,292.45,1637149335.9738083,1637149336.9710033,b9cacbbd-89ad-43c1-b8c9-540ebd5aac23
-0.0483038668222875,0.0882371274703492,0.0527082546831591,0.4658238336965019,-0.0474820731168226,-0.4933462055733805,-0.3950322858231778,-0.4117010019049458,-14.478126618358807,24.095457634547405,1.6044088950195965,-2.004075186992038,0.3655928423001348,0.5522767920644873,3413.55078125,12.036,0.4,179.5149113137237,8.67181307592329,61.81391549809991,1525.0,1234.0,1200.0,1528.0,1475.0,1018.02,58.0,292.45,1637149337.0789316,1637149338.2069638,b9cacbbd-89ad-43c1-b8c9-540ebd5aac23
-0.0577270994792042,0.09183932233453,0.0571048499781337,0.5457432457850899,-0.0393189239363855,-0.5706496038189339,-0.4189327854359906,-0.4333278724209622,-14.670697058739222,24.78691866085767,1.4963809841479858,-2.353376313423389,0.3718743352468973,0.5697602487243656,3414.910888671875,12.034444444444444,0.41,179.5121610242179,8.651087436069316,61.94974063993478,1525.0,1133.0,1200.0,1528.0,1475.0,1018.02,58.0,292.45,1637149340.2458346,1637149341.2709448,5adba560-20d4-4d8a-9e34-290a79823624
-0.0539742422587653,0.0899902869492224,0.060665955204198,0.5374979182893803,-0.0361002325677323,-0.5626782043247406,-0.4119475390944356,-0.4475859928602145,-14.629189062978,24.71493774999713,1.334020950461141,-2.317168913637425,0.3673242484705537,0.5501101399344369,3413.85302734375,12.033,0.4077777777777778,179.50206904026425,8.648481054854788,62.01184223768836,1525.0,1133.0,1200.0,1528.0,1475.0,1018.02,58.0,292.45,1637149341.3794386,1637149342.6125157,5adba560-20d4-4d8a-9e34-290a79823624
-0.0486599773532772,0.0944416684307709,0.0570363671738446,0.5208292080414437,-0.0417980011334872,-0.5501732426665847,-0.4120023253644258,-0.4361493642871172,-14.607166898655272,24.62478845790341,1.536379135915675,-2.2522030659789407,0.3838909220940832,0.5636265114552016,3413.3997938368057,12.03611111111111,0.4099999999999999,179.49609793710982,8.662373564762854,62.036660109492544,1525.0,1133.0,1200.0,1528.0,1475.0,1018.02,58.0,292.45,1637149342.7213542,1637149343.840779,5adba560-20d4-4d8a-9e34-290a79823624
-0.0478655769188025,0.0952497653784822,0.0642818466628166,0.5071600438231618,-0.0383738613619517,-0.5370793288819147,-0.4022092839578202,-0.4157688806857555,-14.518029938098692,24.77794135245552,1.7841150653123208,-2.1904846025014355,0.3862400990070085,0.5354699346877437,3340.246039496528,12.034333333333333,0.4188888888888888,179.49009951319874,8.659637979136527,62.09037727058497,1525.0,1033.0,1200.0,1528.0,1475.0,1018.02,58.0,292.45,1637149345.7757638,1637149346.912722,0dc662de-f008-4808-b168-239276459cd5
-0.0602198732444208,0.0901546456482305,0.0607755276642162,0.5030099869493713,-0.0411816559747939,-0.5271493211284952,-0.4019901389801401,-0.4184260133809299,-14.46565069127523,24.732766198137995,1.9303027364674907,-2.159233430959819,0.3657518298980819,0.5433701929698983,3323.1197916666665,12.033666666666669,0.42,179.47519604042978,8.64564605203054,62.09469774468997,1525.0,1033.0,1200.0,1528.0,1475.0,1018.02,58.0,292.45,1637149347.021268,1637149348.0303142,0dc662de-f008-4808-b168-239276459cd5
-0.0525361035559211,0.0976740562215577,0.0639668258054329,0.4983805505700967,-0.0401818071671154,-0.5305734617321075,-0.4007437519115769,-0.4140568103713815,-14.484077380375089,24.756171626661622,1.9018166007668595,-2.15618481146719,0.3951097737213637,0.5366902711726748,3316.5453830295137,12.032222222222222,0.43,179.47498809911505,8.649767122557257,62.09652140519836,1525.0,1033.0,1200.0,1528.0,1475.0,1018.02,58.0,292.45,1637149348.13847,1637149349.3725402,0dc662de-f008-4808-b168-239276459cd5
-0.0406748834093779,0.0849225603223245,0.0221923219868498,0.0614603556036353,-0.1108012664708519,-0.0932422773779976,-0.3058128877390392,-0.3416430916071594,-14.4279616488438,22.42790304796649,5.331119015957743,-0.2047979002556726,0.3675993782418739,0.5551160984443567,3338.3713650173613,12.041777777777778,0.3722222222222222,179.4729921660576,8.758181671751746,62.04983782113123,1525.0,1435.0,1200.0,1528.0,1475.0,1018.02,58.0,292.45,1637149351.193135,1637149352.3318436,4bead5fd-cd43-43b6-a2a7-aa76d60696e8
-0.0450029960576489,0.0859908918863325,0.0266300070098221,0.059734589226935,-0.1088700515931637,-0.0927355046827396,-0.301649133314231,-0.3327951129230143,-14.27602493499182,22.559918242462988,5.356758463493677,-0.1985895283037463,0.3707997018979201,0.5407107319158578,3367.954644097222,12.041222222222222,0.3777777777777777,179.46660821591337,8.761494977545372,62.06342382630029,1525.0,1435.0,1200.0,1528.0,1475.0,1018.02,58.0,292.45,1637149352.4411323,1637149353.6784456,4bead5fd-cd43-43b6-a2a7-aa76d60696e8
-0.0363604673328781,0.0885110586388811,0.0280133594370885,0.0617753764470857,-0.1068566573650968,-0.0973512451644399,-0.3027311616011383,-0.3290559525002641,-14.456036784289992,22.565130157780743,5.320857474887913,-0.2135581335165114,0.3816806496121739,0.5377675056773246,3383.608289930556,12.041333333333332,0.3744444444444444,179.45086538878638,8.765972925456223,62.04064059195884,1525.0,1435.0,1200.0,1528.0,1475.0,1018.02,58.0,292.45,1637149353.7911396,1637149354.9005556,4bead5fd-cd43-43b6-a2a7-aa76d60696e8
-0.0153499458870475,0.101481699454958,0.0945512409034617,0.0550366696339583,-0.0475094662382106,-0.1086919963221572,-0.2344538080957887,-0.2722289228097053,-13.911552862006,22.48144319968218,5.150487749826954,-0.2208361512956584,0.4330311046284328,0.2707088150205277,3389.255126953125,12.042777777777776,0.3711111111111111,179.43939977789967,8.766000910259073,62.01210633833625,1525.0,1435.0,1200.0,1439.0,1475.0,1018.02,58.0,292.45,1637149355.6984203,1637149356.646181,a85cb5e6-fadd-4d12-b97b-db63e24d132a
-0.0136833486079722,0.0956743586950386,0.0893366871736706,0.0546898727599455,-0.0512097286469503,-0.1032917169026145,-0.2369350769529489,-0.258143926872583,-13.871761396154486,22.421228018316125,5.034830766435374,-0.2085759436568646,0.4117045786648793,0.2855732020861999,3390.595703125,12.044333333333334,0.3766666666666667,179.4180455709146,8.750075944754236,61.99927544852543,1525.0,1435.0,1200.0,1439.0,1475.0,1018.02,58.0,292.45,1637149356.7549562,1637149357.8611672,a85cb5e6-fadd-4d12-b97b-db63e24d132a
-0.0259921721649931,0.0943457925276444,0.0906340251849565,0.0585429886289682,-0.0497693984961252,-0.105281553040489,-0.2373026926271283,-0.2552451875799079,-13.93784450625148,22.52159014817361,5.073996077874777,-0.2210361664489544,0.4064517919692506,0.2822072752932105,3391.937744140625,12.040333333333333,0.3755555555555555,179.4122611595975,8.747673805168636,61.97863158121403,1525.0,1435.0,1200.0,1439.0,1475.0,1018.02,58.0,292.45,1637149357.9699771,1637149358.996513,a85cb5e6-fadd-4d12-b97b-db63e24d132a
0.0071945900424227,0.1117952079010424,0.185811408429852,0.0521056060965145,0.03520405274719,-0.1207038789561878,-0.1419883324626065,-0.1551233336502785,-13.333789707246757,22.56742539635336,5.198997166139292,-0.2358039968264277,0.4733415714002379,-0.0963393684119707,3402.560356987847,12.042,0.37,179.42278420437873,8.750475795411894,61.94033622835759,1525.0,1435.0,1200.0,1351.0,1475.0,1018.02,58.0,292.45,1637149359.7027953,1637149360.929487,b5ff8fea-6f50-4be6-b995-6db9239f0d7b
0.0151248975236336,0.1135483673725406,0.1853594220180643,0.0506400743128497,0.0335467691488641,-0.1226761835314961,-0.1427553397810596,-0.1741341595599826,-13.239117925127276,22.58783130290732,4.965667240883621,-0.2368069193681283,0.4814670498435555,-0.0924459034520636,3411.287434895833,12.042,0.37,179.41842199022884,8.742373009190274,61.89417780994663,1525.0,1435.0,1200.0,1351.0,1475.0,1018.02,58.0,292.45,1637149361.0412166,1637149362.068681,b5ff8fea-6f50-4be6-b995-6db9239f0d7b
0.0147824835798444,0.1141510159379082,0.1850307046260313,0.0500374257482139,0.0336015553867711,-0.1228268456648691,-0.1430566640959069,-0.168573355795821,-13.28118090369624,22.549384459472616,4.94757525529656,-0.236081343887469,0.4842381165789978,-0.0916149417239401,3415.364501953125,12.042333333333334,0.37,179.41627882864927,8.733830055222144,61.90094576850421,1525.0,1435.0,1200.0,1351.0,1475.0,1018.02,58.0,292.45,1637149362.1779225,1637149363.296799,b5ff8fea-6f50-4be6-b995-6db9239f0d7b
0.0476268313007899,0.1366544612079265,0.2786055883434699,0.0514344747288105,0.1161507134502302,-0.1512335101794196,-0.0538098834247793,-0.077641897303425,-12.638055084478196,22.666717022687425,4.925778764130015,-0.2973088373052845,0.570043145528935,-0.4555651212595963,3420.361572265625,12.040666666666668,0.3633333333333333,179.43017143342104,8.735815078949678,61.90695861170354,1525.0,1435.0,1200.0,1262.0,1475.0,1018.02,58.0,292.45,1637149365.2321308,1637149366.3782866,fce55eb1-e533-4517-80fb-54d3e9d140d7
0.0435041671674825,0.126464221860367,0.2723736545484531,0.0537354965546387,0.1119321734803443,-0.1435223471434255,-0.0578092787054891,-0.0759572203542161,-12.671344392329084,22.72665419530639,4.863900279944276,-0.2851109645537127,0.5319302334292814,-0.4369782167710077,3419.4520670572915,12.043666666666669,0.37,179.41589633805572,8.733977473471729,61.882085339476085,1525.0,1435.0,1200.0,1262.0,1475.0,1018.02,58.0,292.45,1637149366.5095203,1637149367.4860718,fce55eb1-e533-4517-80fb-54d3e9d140d7
0.0326701892777008,0.1327646386662651,0.2774550774872218,0.0540368208611936,0.1152056509208554,-0.1492475090434056,-0.0550699668659319,-0.0683830230556751,-12.642542585366575,22.76885168305057,4.996421926418411,-0.2980875055948991,0.5544679902426672,-0.4513088201977451,3414.6087782118057,12.04188888888889,0.37,179.41994436350382,8.735626015518903,61.87985945671657,1525.0,1435.0,1200.0,1262.0,1475.0,1018.02,58.0,292.45,1637149367.5939517,1637149368.7149498,fce55eb1-e533-4517-80fb-54d3e9d140d7
0.0543217091798987,0.144127303381569,0.345433832630916,0.0591472807845666,0.1757367681377559,-0.1708365743049644,0.0100500486699826,-0.0073851230543827,-12.106248963859436,22.908658260184662,4.687140051922326,-0.3535966252896083,0.5997129490185056,-0.7178328014738136,3406.76708984375,12.036444444444443,0.3977777777777778,179.42418666988831,8.732660669917992,61.88420876939805,1525.0,1435.0,1200.0,1173.0,1475.0,1018.02,58.0,292.45,1637149370.7622187,1637149371.7658925,15586a3a-594f-43af-8022-a98d882f9c3a
0.0712533948453347,0.1416674015258274,0.3450612862816255,0.0600222169462621,0.1764155695836868,-0.1673543609455288,0.0095093085618444,-0.015281463780901,-12.2607894869287,22.950556875053,4.950703635855327,-0.3475218460831635,0.5891140336410395,-0.7175231467346869,3406.76708984375,12.038333333333334,0.3899999999999999,179.41209419941774,8.72475814104829,61.84899762640681,1525.0,1435.0,1200.0,1173.0,1475.0,1018.02,58.0,292.45,1637149371.8738463,1637149373.0160482,15586a3a-594f-43af-8022-a98d882f9c3a
0.0632599641763772,0.1431097086566869,0.3438845733252459,0.061587793137632,0.1757956514489846,-0.1695005523101679,0.0087357507223366,-0.014417389625027,-12.208722082583394,22.852914449976087,5.044777436905751,-0.3565408515321194,0.5930522590666173,-0.7135760095143349,3406.9176161024307,12.03788888888889,0.39,179.4046052764478,8.728461241943299,61.82835375909541,1525.0,1435.0,1200.0,1173.0,1475.0,1018.02,58.0,292.45,1637149373.1246498,1637149374.2460692,15586a3a-594f-43af-8022-a98d882f9c3a
-0.0674790495610873,0.06587064746379,-0.0755189296852788,0.0814162413517835,-0.200157621742749,-0.091174096918621,-0.4114681594439771,-0.4295750143796027,-15.07282291279436,22.83428999461704,4.799596546305838,-0.2477467259538119,0.2967736843556766,0.9569467413840476,3406.76708984375,12.042,0.37,179.44991523358183,8.741792917429516,61.8673753887336,1525.0,1435.0,1200.0,1617.0,1475.0,1018.02,58.0,292.45,1637149375.1549714,1637149376.3139458,43ab7f77-1237-4cef-8d88-e12e81aee974
-0.0581390919798071,0.0693243716611346,-0.0719846695440871,0.0786204998325517,-0.1975415787940094,-0.0920101349035008,-0.4072501663884347,-0.4311150555290688,-14.982662839190793,22.76222899344025,4.826057232022197,-0.2435710232813582,0.3094216454761905,0.9430838217367986,3405.41357421875,12.041,0.3655555555555556,179.44378627716662,8.738614887326953,61.87403406426446,1525.0,1435.0,1200.0,1617.0,1475.0,1018.02,58.0,292.45,1637149376.4227211,1637149377.436985,43ab7f77-1237-4cef-8d88-e12e81aee974
-0.0700123651998391,0.0669050115627582,-0.0745092193501093,0.0797249903170572,-0.199895195665243,-0.0902219121118267,-0.410405854144509,-0.4375447694603469,-15.049640547283293,22.85705421591739,4.865181008104261,-0.2415686840178577,0.3001804516197445,0.953910164192292,3404.061279296875,12.043,0.37,179.44563194606235,8.738400020959311,61.88244809841199,1525.0,1435.0,1200.0,1617.0,1475.0,1018.02,58.0,292.45,1637149377.5455277,1637149378.7527115,43ab7f77-1237-4cef-8d88-e12e81aee974
-0.1092809485473245,0.0445724988688436,-0.1781609466020714,0.1105762142029884,-0.2915547681779675,-0.0913110625225335,-0.5226842417756457,-0.5447494046320074,-15.819230073487768,23.171595545073018,4.807230596407567,-0.3170816138454999,0.2120164510949949,1.3767222800036052,3406.01513671875,12.041222222222222,0.37,179.46201225751187,8.736995183856274,61.79857641104387,1525.0,1435.0,1200.0,1706.0,1475.0,1018.02,58.0,292.45,1637149379.8693068,1637149380.9281683,ba25d6da-fbdc-45a4-9c00-9725cdefa76c
-0.1075962717179103,0.0460517271999082,-0.1777774429306425,0.1080834405836165,-0.2910479954409817,-0.0904892689552003,-0.5213419786650931,-0.5428592797652424,-15.8076396036339,23.084406056428435,4.811410059376315,-0.310164240573808,0.2177751269275245,1.3738050971780844,3405.41357421875,12.042666666666666,0.3699999999999999,179.47225450562723,8.731086501041782,61.80861830694361,1525.0,1435.0,1200.0,1706.0,1475.0,1018.02,58.0,292.45,1637149381.0366783,1637149382.1461809,ba25d6da-fbdc-45a4-9c00-9725cdefa76c
-0.0962418239850394,0.0482431765756426,-0.1790101333240659,0.1062617983056727,-0.2925546171120792,-0.0911056141477103,-0.523437552721884,-0.5456259846083521,-15.8784986190227,23.08865283656199,4.778110090882542,-0.3075142760073321,0.2269372631284545,1.3806720442345557,3409.477294921875,12.041111111111112,0.37,179.47238200249174,8.729351158673907,61.84736065773573,1525.0,1435.0,1200.0,1706.0,1475.0,1018.02,58.0,292.45,1637149382.2792325,1637149383.3689086,ba25d6da-fbdc-45a4-9c00-9725cdefa76c
-0.1399064555219705,0.0373955021394291,-0.2584090919574562,0.1455161343693793,-0.3631603879924836,-0.1130338056779184,-0.6172864006261429,-0.6431318166903881,-16.507587205493156,23.475708522086027,4.620224393969347,-0.4470675492823329,0.1822438046258333,1.7169000805034116,3404.061279296875,12.038,0.39,179.47702653112734,8.732236344415806,61.85121288442762,1525.0,1435.0,1200.0,1795.0,1475.0,1018.02,58.0,292.45,1637149384.279013,1637149385.519128,f003b615-d21b-462f-8b63-4fb6be43c87d
-0.1344278317233107,0.0341631142925024,-0.2623263082084454,0.1436807955556552,-0.36759807377325,-0.1064183675018519,-0.6200668029467161,-0.6476516828045453,-16.47409797268742,23.572356430057965,4.842904523503703,-0.427563708120642,0.167889025951828,1.7321332791190844,3401.359619140625,12.03788888888889,0.39,179.47565897547355,8.729930776115973,61.87382156949028,1525.0,1435.0,1200.0,1795.0,1475.0,1018.02,58.0,292.45,1637149385.626923,1637149386.744666,f003b615-d21b-462f-8b63-4fb6be43c87d
-0.1435634369873458,0.0327386721904616,-0.2625591497552357,0.1456804930756023,-0.3678993981428649,-0.1057472360672112,-0.6202722514138245,-0.6466792275526492,-16.43669412795606,23.6181877908631,4.999137593278793,-0.4302304535812793,0.1606368878331498,1.7332264735342429,3400.4605305989585,12.037333333333333,0.3899999999999999,179.46827478207084,8.728468925906114,61.84867888424555,1525.0,1435.0,1200.0,1795.0,1475.0,1018.02,58.0,292.45,1637149386.8521106,1637149387.8798,f003b615-d21b-462f-8b63-4fb6be43c87d
-0.1575202312235424,0.0248357578090787,-0.3218926501586925,0.1814422063951457,-0.4207544282421813,-0.1305654018116693,-0.6927544658747401,-0.7202982573538833,-16.851335042158684,23.964332364102983,4.542439550043803,-0.567611147346032,0.1298199941607804,1.9875754007240711,3397.65234375,12.03375,0.41,179.48617670788545,8.718398487879067,61.829842645470734,1525.0,1435.0,1200.0,1883.0,1475.0,1018.02,58.0,292.45,1637149388.6716816,1637149389.8285491,c5e0a3ee-4632-4519-8dbf-fea9721df064
-0.1502851605623833,0.0278007888488575,-0.3209684061456566,0.1788924551518393,-0.4200044044711443,-0.1304569250400403,-0.6915645082443962,-0.7156266323721584,-16.867728856989714,23.894207328263214,4.646093704706914,-0.5620263467547147,0.140509342337582,1.984099672466224,3395.968994140625,12.032444444444444,0.4177777777777777,179.48382332826142,8.714264029707257,61.82300268533566,1525.0,1435.0,1200.0,1883.0,1475.0,1018.02,58.0,292.45,1637149389.936309,1637149391.0475569,c5e0a3ee-4632-4519-8dbf-fea9721df064
-0.1632316966151443,0.0279448766450832,-0.3138527689520089,0.1753883277201875,-0.4136048231154027,-0.1300449325283761,-0.6826737947701664,-0.6988357409745717,-16.747117792420934,23.82729355030327,4.328004135296928,-0.5532753526720939,0.1438967152713416,1.9526752146333064,3393.2802734375,12.033,0.42,179.48377931148676,8.727120532727467,61.81504930950213,1525.0,1435.0,1200.0,1883.0,1475.0,1018.02,58.0,292.45,1637149391.155718,1637149392.285016,c5e0a3ee-4632-4519-8dbf-fea9721df064
-0.0393463171677799,0.0689249800090009,-0.0316077612309216,0.0535163516000759,-0.1264427373764469,-0.0767242269513866,-0.3230294645762514,-0.3567503984152437,-14.910534265104411,18.816579871287896,4.184389570246858,-0.1768044013689159,0.3186838829673807,0.6717904758662433,7008.525390625,11.811,8.600000000000001,178.4722009746512,8.53507354251328,54.11631279406305,1525.0,1435.0,1350.0,1528.0,1475.0,1018.02,58.0,292.45,1637149395.6600049,1637149396.6911004,d71d60ca-c140-4a26-9559-6a56b5dc1177
-0.0496872193159654,0.0706918360582307,-0.0313886162691808,0.0474898658320828,-0.126456433926538,-0.0748067086231348,-0.319783379667754,-0.3444782799862675,-14.759462312278762,18.6300330401674,3.9291234525772745,-0.1600915809068524,0.327256552706548,0.6668718082519399,7013.627387152777,11.808333333333334,8.68,178.20336169327987,8.427759887003763,50.77282022049079,1525.0,1435.0,1350.0,1528.0,1475.0,1018.02,58.0,292.45,1637149396.798493,1637149397.924044,d71d60ca-c140-4a26-9559-6a56b5dc1177
-0.0457563068073852,0.071719077944174,-0.0295669739349958,0.0476131348543463,-0.1242786809803926,-0.0786417452123732,-0.3187561376279883,-0.3548465761681738,-14.810013981250586,18.58972041649344,3.555112942020982,-0.1692490823856555,0.3348815940209738,0.6595390186131408,7014.2607421875,11.810777777777778,8.622222222222224,178.11820593034776,8.375849690401758,48.32361531914194,1525.0,1435.0,1350.0,1528.0,1475.0,1018.02,58.0,292.45,1637149398.0315144,1637149399.0430062,d71d60ca-c140-4a26-9559-6a56b5dc1177
0.0437096155760957,0.2500482652858752,-0.0358947841965846,-0.0355660667944394,-0.169792348585837,-0.1669982504310662,-0.3663105970639724,-0.3864719359096806,-14.98841473331089,18.191398584092507,4.743023711368338,-0.1830220960701548,1.0042919586606864,0.8204258880548538,7031.52294921875,11.802,8.69,178.12619725167667,8.367345440838923,43.75167489839253,1610.0,1435.0,1350.0,1528.0,1542.0,1018.02,58.0,292.45,1637149400.677415,1637149401.7117264,9d341073-7310-42b2-8152-9cd72407ff45
0.0441342088742459,0.2424603722270838,-0.036428949981532,-0.0352373493625732,-0.1701073694567011,-0.1620948820202582,-0.3658723070941315,-0.3943611553644988,-14.985331405676863,18.328446964841035,4.42434696880046,-0.1719124129954039,0.978563336020724,0.8195402430849792,7025.75927734375,11.803,8.741111111111111,178.22892633243333,8.381148589105349,42.21056451721935,1610.0,1435.0,1350.0,1528.0,1542.0,1018.02,58.0,292.45,1637149401.8206956,1637149402.9261367,9d341073-7310-42b2-8152-9cd72407ff45
0.0389021234662767,0.2427343033826424,-0.034059445277485,-0.0339498728285098,-0.1681350648435651,-0.1627797100259816,-0.3649683340516118,-0.3848146521958411,-15.057959420949494,18.42190037674873,4.545479223496428,-0.1756352950291222,0.9790244784769978,0.8124630674076743,7031.52294921875,11.80211111111111,8.732222222222223,178.32831924523532,8.404953695637614,40.97854068655676,1610.0,1435.0,1350.0,1528.0,1542.0,1018.02,58.0,292.45,1637149403.033643,1637149404.0857897,9d341073-7310-42b2-8152-9cd72407ff45
0.1407743858525835,0.4491770378367695,-0.0444381498505168,-0.1494567924932885,-0.2282174903456602,-0.2592878632835707,-0.4197545791707608,-0.4444872830751836,-14.97584356755761,18.00253969608226,4.214989343498527,-0.1352548197531509,1.7692144839625847,1.010178988221402,7036.654459635417,11.801444444444444,8.76,178.60438334892874,8.518839890403452,38.3688578344738,1695.0,1435.0,1350.0,1528.0,1609.0,1018.02,58.0,292.45,1637149406.1719348,1637149407.2251046,aa467991-b705-495c-b3f6-3fff259e94a3
0.1255744934043751,0.4468891648864213,-0.0460159934510449,-0.1445128823728911,-0.2281385981676444,-0.2605632870342018,-0.4214902074444435,-0.4549142010514926,-15.026901803207265,17.969562086207603,4.3500123192256295,-0.1495744737946872,1.7590889544923254,1.014628255756948,7031.52294921875,11.796333333333331,8.756666666666668,178.71916240120106,8.547701423923773,37.72913396880142,1695.0,1435.0,1350.0,1528.0,1609.0,1018.02,58.0,292.45,1637149407.333285,1637149408.355243,aa467991-b705-495c-b3f6-3fff259e94a3
0.1493785637073129,0.4507439240063747,-0.040976207592984,-0.1504801994645229,-0.2256332233864435,-0.2594637271375753,-0.4177548812033652,-0.4425593561598056,-15.060152250764562,18.09388960481689,4.29460225689683,-0.1325932508153947,1.7753293898653275,0.999289427266934,7037.2958984375,11.8,8.775555555555554,178.82714769197898,8.58946366696643,37.06667240338206,1695.0,1435.0,1350.0,1528.0,1609.0,1018.02,58.0,292.45,1637149408.4633255,1637149409.5828278,aa467991-b705-495c-b3f6-3fff259e94a3
0.2378720252600976,0.6118565277833063,-0.0458521826183627,-0.2464793880465134,-0.2718043279930556,-0.3222350640900887,-0.4572968546077194,-0.4695278850408435,-15.091353440613688,18.02663340024714,5.075266342540609,-0.0576780808293673,2.38441074136799,1.1448817295106286,7043.078125,11.79022222222222,8.86888888888889,179.084270922194,8.678004262950953,35.93812669755508,1779.0,1435.0,1350.0,1528.0,1677.0,1018.02,58.0,292.45,1637149411.7222435,1637149412.8653996,f3ed82f3-fdd9-4138-b9da-5f8d8635663e
0.2480677428986106,0.6119973283919464,-0.0445827855096843,-0.2472436560449649,-0.2694781041648238,-0.3190618448506177,-0.4533889515687859,-0.4793181876940315,-15.02890901854737,17.859130883032922,5.467309486199594,-0.0497766921926153,2.381193924520465,1.135094672341753,7043.078125,11.791,8.772222222222222,179.1718460899121,8.712105595065793,35.56631093079719,1779.0,1435.0,1350.0,1528.0,1677.0,1018.02,58.0,292.45,1637149412.9779072,1637149414.0886505,f3ed82f3-fdd9-4138-b9da-5f8d8635663e
0.2179440813147806,0.6117738005769621,-0.047251970951974,-0.2466651133306614,-0.2722656281412961,-0.3195351979635475,-0.4573598587650991,-0.4894295384102735,-15.102226312153563,17.935582286373982,5.418553118833319,-0.0518162105906125,2.3810674609954283,1.1480101097471676,7043.078125,11.793,8.788888888888888,179.25253794476663,8.74798647605064,35.28407954573823,1779.0,1435.0,1350.0,1528.0,1677.0,1018.02,58.0,292.45,1637149414.1971226,1637149415.317674,f3ed82f3-fdd9-4138-b9da-5f8d8635663e
0.3253031800615653,0.7286525501439252,-0.0392707120704485,-0.3448727402140838,-0.3024287415960267,-0.3326970453196348,-0.47079782953679,-0.499724968852181,-15.126733782252618,18.392389147875345,6.944384562614159,0.1437962374496674,2.818689063115847,1.212575510559706,7045.0087890625,11.780333333333337,8.836666666666666,179.3688591019716,8.781008733140359,34.88069009117708,1864.0,1435.0,1350.0,1528.0,1744.0,1018.02,58.0,292.45,1637149416.227814,1637149417.3661337,69d563c8-5b49-44c4-90dc-a5ff05504c75
0.3044783858504848,0.7209222132219789,-0.0431676570674432,-0.3475737020121984,-0.3049500044614693,-0.3170851574800213,-0.4720891413887249,-0.489826189970778,-15.305453190514958,18.492176309567395,7.712725273395946,0.1854709164971053,2.7842379403562245,1.2231187653522364,7046.2958984375,11.783,8.893333333333333,179.4334119787273,8.816901377228778,34.70333056899936,1864.0,1435.0,1350.0,1528.0,1744.0,1018.02,58.0,292.45,1637149417.474337,1637149418.4818287,69d563c8-5b49-44c4-90dc-a5ff05504c75
0.3008624946208512,0.7324547144417514,-0.0422910772986011,-0.3626810084875673,-0.3078399787872085,-0.3154963562566672,-0.4714864927222525,-0.4902644800800577,-15.288956800237282,18.44863165251316,7.573544111757343,0.2228606496919322,2.830523498138923,1.2260981735144572,7048.8701171875,11.782888888888888,8.881111111111112,179.4992094677317,8.832915040329087,34.569674012225974,1864.0,1435.0,1350.0,1528.0,1744.0,1018.02,58.0,292.45,1637149418.589976,1637149419.7102177,69d563c8-5b49-44c4-90dc-a5ff05504c75
-0.1556711956872597,-0.132044630207823,-0.0217736318818135,0.1242042897095624,-0.0753134813064543,0.0469283069183394,-0.2592582787170882,-0.2842818960297433,-14.597144378440746,19.203155828915804,3.3005120003190385,-0.0553261271343769,-0.4375318665670472,0.4730653257893844,7048.8701171875,11.806666666666668,8.684444444444445,179.82535100059985,8.835281131694067,34.38719753999505,1440.0,1435.0,1350.0,1528.0,1408.0,1018.02,58.0,292.45,1637149420.7329867,1637149421.8718786,e8364b0b-ff49-4359-a48b-c7ddb921e586
-0.1463575351106517,-0.1324555269932804,-0.0118162335487252,0.1270668703926993,-0.0648767031958926,0.0484486249409617,-0.2492050034402506,-0.2689965339609083,-14.661599914798453,19.213103756239736,3.9110284504702015,-0.0577404176781257,-0.4437488010732465,0.4317506071081999,7054.671875,11.804444444444446,8.778888888888888,179.86239491101838,8.849231318755123,34.3229808603285,1440.0,1435.0,1350.0,1528.0,1408.0,1018.02,58.0,292.45,1637149421.980365,1637149423.1062806,e8364b0b-ff49-4359-a48b-c7ddb921e586
-0.1541234844329374,-0.1352907148172557,-0.0229378393954741,0.1285597952633589,-0.0735192320424322,0.0477090107808247,-0.2595732995940058,-0.2838436055236724,-14.729192170492553,19.084326381942404,3.5258088604701485,-0.0642729951341705,-0.4513809318085042,0.4725765589056077,7048.8701171875,11.805777777777775,8.763333333333332,179.87908789334986,8.843463508592265,34.205971751292154,1440.0,1435.0,1350.0,1528.0,1408.0,1018.02,58.0,292.45,1637149423.240074,1637149424.2167995,e8364b0b-ff49-4359-a48b-c7ddb921e586
-0.2589021682600336,-0.3257550801302017,-0.0178016297985149,0.2050961621158475,-0.0300874431798416,0.1614178384097998,-0.2088549373663286,-0.2213462007139041,-14.597274336769567,19.79350432503405,3.385512602351981,0.023599646351829,-1.1745139723453153,0.3114357203932182,7054.671875,11.797666666666666,8.753333333333334,179.98408156127132,8.85013148076949,34.235442879195894,1355.0,1435.0,1350.0,1528.0,1341.0,1018.02,58.0,292.45,1637149426.26316,1637149427.400813,ab475056-b507-4677-b8f6-83df83b4e11d
-0.2501363697010144,-0.3252209142734442,-0.0158841115505548,0.2061234039822106,-0.0265400343955472,0.1666499236395613,-0.2049103280830581,-0.2372205138601496,-14.651865684673368,19.652166229327616,4.362142901389943,0.0323263674047556,-1.1807873032025338,0.2998448725498072,7054.671875,11.799333333333331,8.763333333333334,179.97453295681163,8.849643596562524,34.21015903670832,1355.0,1435.0,1350.0,1528.0,1341.0,1018.02,58.0,292.45,1637149427.5090802,1637149428.6298964,ab475056-b507-4677-b8f6-83df83b4e11d
-0.2477120785482424,-0.3251387349013856,-0.0128571720321124,0.2087942327848,-0.0245129436682675,0.164458474307738,-0.2029243268653346,-0.2256743138495403,-14.5802873346892,19.74848558161157,4.429400427119321,0.0222131386869905,-1.1817171071654382,0.2902689551779577,7054.671875,11.797999999999998,8.743333333333332,179.97855366150304,8.848844179838418,34.187120808637864,1355.0,1435.0,1350.0,1528.0,1341.0,1018.02,58.0,292.45,1637149428.7385333,1637149429.8578975,ab475056-b507-4677-b8f6-83df83b4e11d
-0.3191933318369446,-0.4871153655251446,-0.0118293822490245,0.2728135879683848,0.006460454580488,0.2654503185016474,-0.1630919915679722,-0.1869437287835971,-14.285053010737892,20.538230437766,4.7509523693623095,0.1102296785934194,-1.8019710586339184,0.1712663160109482,7054.671875,11.788555555555554,8.818888888888889,-179.9544688966697,8.836453078319154,34.28473635443587,1271.0,1435.0,1350.0,1528.0,1273.0,1018.02,58.0,292.45,1637149430.7693708,1637149431.906141,e03be2a8-3362-48b4-b25d-68c7043513bf
-0.3421509593358531,-0.4808302871553476,-0.0037823799841289,0.2769159809265638,0.0144417133113845,0.2571797889782669,-0.1569778473275523,-0.1790676591170245,-14.291126763085208,20.45119971642101,5.043127936411339,0.0822579679583819,-1.7809411809352258,0.1419613892482069,7054.671875,11.791555555555554,8.77111111111111,-179.98477065146756,8.838783595782205,34.321819728169594,1271.0,1435.0,1350.0,1528.0,1273.0,1018.02,58.0,292.45,1637149432.013986,1637149433.13491,e03be2a8-3362-48b4-b25d-68c7043513bf
-0.3247004450712277,-0.4748558468425072,-0.0071731000966385,0.2713464126691101,0.010385888320887,0.2567869717106696,-0.1599171290452917,-0.1818727146738751,-14.270532642399326,20.32096761233174,5.067453784115341,0.0929209212048897,-1.7584261859933246,0.1570686396439112,7054.671875,11.788666666666666,8.83,-59.9990545500872,8.8433097344722,34.34010907749212,1271.0,1435.0,1350.0,1528.0,1273.0,1018.02,58.0,292.45,1637149433.2468417,1637149434.3703892,e03be2a8-3362-48b4-b25d-68c7043513bf
-0.3991686475153611,-0.6054251770060122,-0.0044748780421948,0.3030813368024248,0.0319716648739614,0.3642912529199201,-0.1261140200529424,-0.161533323631739,-14.355156954138511,21.4727979414334,6.44358802620093,0.2708579234355198,-2.2634549138227142,0.0617499892977971,7048.8701171875,11.781666666666666,8.856666666666667,-179.9704166294718,8.844681464130511,34.42541131003642,1186.0,1435.0,1350.0,1528.0,1206.0,1018.02,58.0,292.45,1637149435.2747595,1637149436.327543,222c7865-0419-42aa-b4e0-760e3119d355
-0.3977989914571777,-0.6052471216753771,-0.0107752951295312,0.2871522402845284,0.0225895221321868,0.3808777842343736,-0.1289902975156373,-0.152520987541748,-14.284232620363218,21.576952194890453,6.7039804859208045,0.3445161550519711,-2.264033368608424,0.0874681649223154,7048.8701171875,11.78077777777778,8.884444444444446,99.988576635182,8.83751156791303,34.43948112027168,1186.0,1435.0,1350.0,1528.0,1206.0,1018.02,58.0,292.45,1637149436.439788,1637149437.5357888,222c7865-0419-42aa-b4e0-760e3119d355
-0.403428278138127,-0.597111363242851,-0.0027491116312767,0.2992599973102549,0.0307800642330772,0.363346190581352,-0.1255935507664023,-0.1527401329542367,-14.256676382573152,21.51406574856981,6.974344611017892,0.2778479270402428,-2.2370935680045414,0.0620525300827288,7054.671875,11.782777777777778,8.866666666666667,179.96811257899182,8.852351956295912,34.44518318986378,1186.0,1435.0,1350.0,1528.0,1206.0,1018.02,58.0,292.45,1637149437.6445043,1637149438.7571929,222c7865-0419-42aa-b4e0-760e3119d355
-0.0502624747597204,0.0741707619098739,-0.0349223285047841,0.014440069706046,-0.1328116375548659,-0.0495228604623145,-0.3155511424306803,-0.3423964030038542,-14.79889559020694,18.4517417001375,3.6868176798284815,-0.0301395000810883,0.3465733838996972,0.6741538732416514,7048.8701171875,11.805333333333332,8.700000000000001,179.75799319282498,8.83042771310634,34.51114042940382,1525.0,1435.0,1350.0,1528.0,1475.0,1018.02,58.0,292.45,1637149440.8039143,1637149442.039766,74867a00-90a7-4581-b89e-f6279ec2c5c0
-0.0463452588518763,0.0756636867923154,-0.0364563431124453,0.0182751061613663,-0.1326335822818598,-0.0509199094760331,-0.3177425921514913,-0.3339045346033086,-14.92409737426752,18.36512233331609,4.185257006408086,-0.0425639216181975,0.3480703597463517,0.6799878120797272,7048.8701171875,11.804555555555558,8.713333333333333,179.73179410498864,8.81620374929605,34.638213442727235,1525.0,1435.0,1350.0,1528.0,1475.0,1018.02,58.0,292.45,1637149442.1482391,1637149443.2646668,74867a00-90a7-4581-b89e-f6279ec2c5c0
-0.0476053422924233,0.0762663353657061,-0.0343196798936967,0.0166041259882256,-0.1315378575033846,-0.0499337572386094,-0.3146608659424523,-0.3407391188720778,-14.797306920413163,18.36532145143233,4.210046949858076,-0.0364030977024119,0.3495547438533902,0.6713769858163355,7052.093315972223,11.805222222222222,8.767777777777777,179.72553613388908,8.810278085872373,34.70856932409277,1525.0,1435.0,1350.0,1528.0,1475.0,1018.02,58.0,292.45,1637149443.372506,1637149444.4193733,74867a00-90a7-4581-b89e-f6279ec2c5c0
-0.0377849094138864,0.0719519194417815,-0.0447427613141516,-0.2248662160633479,-0.1656696840936617,0.1904956312681431,-0.257916015797837,-0.2851858682852073,-14.826633665547314,17.89129139899164,6.361318478829034,1.0452385324562348,0.3435753237088461,0.6518499403975103,7048.8701171875,11.806,8.72,179.70387532730126,8.87280163753467,34.934733962984815,1525.0,1535.0,1350.0,1528.0,1475.0,1018.02,58.0,292.45,1637149446.1672676,1637149447.15948,c8b0e4f6-c220-4682-bf2a-ee042734f60e
-0.0370589918533127,0.0685003866944438,-0.0541249043209084,-0.2238389740382612,-0.1747094135717833,0.1903175760251977,-0.2661476486059542,-0.2906097069914442,-14.678245984075998,17.875444715285727,5.9215621365680535,1.0419535894286809,0.3327557531596745,0.6877527720310574,7048.8701171875,11.805333333333332,8.719999999999999,179.6684539662656,8.866334871346744,34.95399319916948,1525.0,1535.0,1350.0,1528.0,1475.0,1018.02,58.0,292.45,1637149447.271417,1637149448.500494,c8b0e4f6-c220-4682-bf2a-ee042734f60e
-0.0337088134679145,0.0664053611016202,-0.0538000219156084,-0.2247593829270147,-0.1740185590657273,0.1936189943451167,-0.2654414539159174,-0.2883596347727608,-14.750658376743797,17.908868108790372,5.98250034545397,1.0516595421949324,0.3250050414135518,0.6851235040893312,7048.8701171875,11.802333333333332,8.757777777777777,179.6653044901483,8.86236444443672,35.053840699006265,1525.0,1535.0,1350.0,1528.0,1475.0,1018.02,58.0,292.45,1637149448.6087534,1637149449.7259324,c8b0e4f6-c220-4682-bf2a-ee042734f60e
-0.0278138145094469,0.0646379571909261,-0.0633700817129746,-0.471746727326833,-0.2107724557293231,0.4387046500300262,-0.2085810061376577,-0.2440961870227705,-14.698450128017363,17.647657357683954,8.42882289685951,2.157750787163878,0.3261232978513851,0.6684860970993766,7044.365234375,11.799222222222223,8.766666666666667,179.6246663824065,8.890797763041576,35.19200366281205,1525.0,1636.0,1350.0,1528.0,1475.0,1018.02,58.0,292.45,1637149451.750734,1637149452.794897,b9cf1009-cb5b-4475-8499-3fcddbbc8eb5
-0.0245704693423716,0.0638019192584634,-0.0678822761497317,-0.4778060863803565,-0.2164231085278888,0.4421687833246442,-0.2125442427475507,-0.2392623966402944,-14.682277999020286,17.708575302929454,7.978446937666888,2.179319090055237,0.327325876563341,0.6871727150872624,7043.078125,11.802333333333332,8.766666666666666,179.58142369586125,8.90133702952212,35.11625990055624,1525.0,1636.0,1350.0,1528.0,1475.0,1018.02,58.0,292.45,1637149452.9060557,1637149454.0258362,b9cf1009-cb5b-4475-8499-3fcddbbc8eb5
-0.0171989812986763,0.0673224826623993,-0.0661915728944594,-0.4778416974027202,-0.2156621276643412,0.4423342377380395,-0.2116627321666192,-0.2431237319354262,-14.683110638967372,17.739250120854376,8.49691085166231,2.180140977780629,0.3360529767194409,0.6837202858882822,7048.8701171875,11.801,8.713333333333333,179.58239510054324,8.89718190291329,35.17992674999461,1525.0,1636.0,1350.0,1528.0,1475.0,1018.02,58.0,292.45,1637149454.1345313,1637149455.2501614,b9cf1009-cb5b-4475-8499-3fcddbbc8eb5
-0.017746843702885,0.0606796517699789,-0.0723002383017796,-0.7265849790042397,-0.2510403425419311,0.6908582700348189,-0.1517813726092474,-0.1772021884775168,-14.571666558786925,17.741124279164435,10.544782687335404,3.2998023566584926,0.322437708876852,0.6549559014216423,7045.0087890625,11.796333333333331,8.726666666666667,179.54133959235222,8.961464892333035,35.12829241714408,1525.0,1737.0,1350.0,1528.0,1475.0,1018.02,58.0,292.45,1637149456.256427,1637149457.3939734,8f4f3fdb-123b-47d7-ad95-5c0505e1376b
-0.0264578551545831,0.058789526689722,-0.0842710310519081,-0.7273793796458025,-0.2609429556114584,0.6952137752422415,-0.1635741104651626,-0.1965828202586022,-14.776354150589858,17.697128501527043,10.706718412795327,3.3104167917204705,0.3147002640016711,0.7014191117137019,7048.8701171875,11.796333333333331,8.793333333333333,179.51460167848128,8.969121818983835,35.08241062139452,1525.0,1737.0,1350.0,1528.0,1475.0,1018.02,58.0,292.45,1637149457.501704,1637149458.5317855,8f4f3fdb-123b-47d7-ad95-5c0505e1376b
