raw_voltage_G-,raw_voltage_G0,raw_voltage_G1,raw_voltage_G2,raw_voltage_G3,raw_voltage_G4,raw_voltage_G5,raw_voltage_G6,load_x,load_y,load_z,load_l,load_m,load_n,rpm,voltage,current,roll,pitch,yaw,aileron1_pwm,elevator_pwm,throttle_pwm,rudder_pwm,aileron2_pwm,pbaro,pdiff,Tt,sample_start_time,sample_end_time,uid
0.01704515512766,0.1401695459164719,0.0039096074725464,-0.0882496075747992,-0.1169400644025347,0.1446401025242586,-0.2329904676066918,-0.2620885364520027,-14.071646919281488,17.969133581151414,27.49395435249284,0.6407087329869731,0.3930564620516389,0.5234251921139349,3147.005316840278,12.04211111111111,0.3888888888888889,179.35830266515438,-6.208695221530743,98.39354608451606,1525.0,1435.0,1200.0,1528.0,1475.0,1018.02,58.0,292.45,1637148525.697312,1637148526.6789591,a4f0d150-0212-4ea3-afb9-3674a7a72011
0.0097284534364198,0.1430370573485635,0.0027979947614002,-0.0868870738581008,-0.1189644158901739,0.1437629749319374,-0.2360700021987061,-0.2613538527392651,-14.12002351198072,18.0662142187492,27.92973207192966,0.6362974902569285,0.4000549030938004,0.5329821510475091,3407.728759765625,12.04288888888889,0.38,179.35473123512836,-6.221432765422908,98.0162889337194,1525.0,1435.0,1200.0,1528.0,1475.0,1018.02,58.0,292.45,1637148526.786878,1637148527.9972122,a4f0d150-0212-4ea3-afb9-3674a7a72011
0.0159932594018469,0.1448636303488189,0.0032127265613115,-0.0894724363907025,-0.1184258671731952,0.1435093146747469,-0.2344105269612119,-0.2700303500211259,-14.066670487891706,17.944197197007913,27.81889563178918,0.6407804001254455,0.4078529192962747,0.5294499748786857,3438.0443250868057,12.041888888888888,0.38,179.34217582961406,-6.21785635505063,97.74056633948447,1525.0,1435.0,1200.0,1528.0,1475.0,1018.02,58.0,292.45,1637148528.105345,1637148529.1342928,a4f0d150-0212-4ea3-afb9-3674a7a72011
0.1116308490922634,0.3253108501729791,0.0217403355499666,-0.1723536052498237,-0.1430977537699854,0.0449970921834785,-0.2571353118351004,-0.293828397824013,-13.819416281086982,17.618127052252206,28.08583187190968,0.6052978990646967,1.091897318522881,0.5919447059176771,3444.799370659722,12.038222222222224,0.4,179.27646182069944,-6.211438823142973,97.14318812884638,1610.0,1435.0,1200.0,1528.0,1542.0,1018.02,58.0,292.45,1637148531.273481,1637148532.299834,8de28de6-5fc2-4bfa-8cd1-e5fe87728420
0.1041114385645789,0.3192706682414915,0.020548734940741,-0.1693403621051491,-0.1440017267083545,0.0490238804189386,-0.2566970219025743,-0.2735300952756792,-13.698018936133886,17.688954673489146,28.20690885054319,0.6080400914153571,1.0668653064475797,0.5936983543364295,3441.879150390625,12.038,0.4,179.26292742140413,-6.200678666447394,96.89655606919648,1610.0,1435.0,1200.0,1528.0,1542.0,1018.02,58.0,292.45,1637148532.4082725,1637148533.5294054,8de28de6-5fc2-4bfa-8cd1-e5fe87728420
0.1226428819838941,0.3246397188485904,0.0222334116619051,-0.1719153153338113,-0.1430566640987873,0.0453121130337717,-0.2564641803868331,-0.2886647949355655,-13.75867779161728,17.651892913122982,28.09825108940463,0.6052980620821603,1.088818072876852,0.5902298450697012,3444.9531521267363,12.036666666666669,0.4,179.2452949086068,-6.19386033524469,96.70509296529258,1610.0,1435.0,1200.0,1528.0,1542.0,1018.02,58.0,292.45,1637148533.6376705,1637148534.7561426,8de28de6-5fc2-4bfa-8cd1-e5fe87728420
0.2267931534472513,0.514802174959898,0.0403840912376245,-0.2670850411393038,-0.1715071578508907,-0.0561404899190809,-0.2819430698637392,-0.3068598534990073,-13.583655764813976,17.367766615412133,27.68003247750121,0.5910418120521398,1.8173740671840373,0.6623399487010835,3447.878662109375,12.03611111111111,0.4099999999999999,179.17348229967325,-6.189119946801355,96.44011122298252,1695.0,1435.0,1200.0,1528.0,1609.0,1018.02,58.0,292.45,1637148535.779245,1637148536.8035414,db2dc9c0-777d-41b9-85c5-84a691d13d40
0.2241617707163115,0.5155560334768738,0.0418468836998054,-0.2662846141625987,-0.1704223903196276,-0.0572340232176066,-0.280433161045275,-0.3151676399693222,-13.518650872171394,17.36315638939492,27.745476823807536,0.5868643591335954,1.8191554800871053,0.6569566107895399,3442.8026529947915,12.037333333333333,0.4099999999999999,179.14075810444982,-6.197176913837293,96.29024700676362,1695.0,1435.0,1200.0,1528.0,1609.0,1018.02,58.0,292.45,1637148536.9120443,1637148538.034505,db2dc9c0-777d-41b9-85c5-84a691d13d40
0.2213232960764539,0.5137765767482976,0.0413307973616413,-0.2684919518140354,-0.1700345037552713,-0.0525903417958623,-0.2801548469433153,-0.3147490725252599,-13.647675896799326,17.348685867559265,27.868674744492942,0.6021116103216544,1.8125415507758689,0.6565903176577216,3442.186279296875,12.033333333333331,0.4099999999999999,179.11953291214908,-6.187354912083338,96.1543178942714,1695.0,1435.0,1200.0,1528.0,1609.0,1018.02,58.0,292.45,1637148538.1430032,1637148539.2591362,db2dc9c0-777d-41b9-85c5-84a691d13d40
0.3091697307938374,0.6527319853979605,0.0604095556317988,-0.3455564721020294,-0.1886662079964701,-0.127708847345286,-0.2941582104079031,-0.3107387190288109,-13.427170627244577,17.362712606754947,26.47599885194169,0.6080809511037336,2.355189407957983,0.6902208416941175,3440.49755859375,12.028666666666666,0.4433333333333333,179.05816745700608,-6.170498764121654,95.96971078247437,1779.0,1435.0,1200.0,1528.0,1677.0,1018.02,58.0,292.45,1637148540.2848122,1637148541.419425,b89269d8-a217-4ca9-81d4-1810a5b949a8
0.2819124852212029,0.6513250750368629,0.0618822096135174,-0.3490145798006104,-0.1880613679069408,-0.1215289596956808,-0.2906212105971093,-0.3174971500754627,-13.329824088861358,17.383932708114557,26.724230237847586,0.6300711977698783,2.3475430606946945,0.6825626228775136,3431.773871527778,12.026333333333334,0.441111111111111,179.03716690203797,-6.173284058346942,95.80976065358112,1779.0,1435.0,1200.0,1528.0,1677.0,1018.02,58.0,292.45,1637148541.5275192,1637148542.6518457,b89269d8-a217-4ca9-81d4-1810a5b949a8
0.3047386204231047,0.6527056880079803,0.0622635217980476,-0.3503294496646646,-0.1886136132035374,-0.1214237701267923,-0.2898059913196762,-0.3050716300833195,-13.229912745703936,17.381681194057556,26.763443244741595,0.6333342018925336,2.351852530524268,0.6819159582712209,3430.857747395833,12.028333333333332,0.4466666666666666,179.0320488136199,-6.17335065269135,95.64764914927048,1779.0,1435.0,1200.0,1528.0,1677.0,1018.02,58.0,292.45,1637148542.761371,1637148543.8800528,b89269d8-a217-4ca9-81d4-1810a5b949a8
0.3241740358239578,0.7174432876774429,0.0699933115720463,-0.3801030341608693,-0.2010205050264188,-0.1665599605063115,-0.3052376322098788,-0.3224131199175317,-13.29204844286285,17.851605492347982,25.43259588055972,0.6023257220628194,2.611056699803322,0.7157082448496223,3427.199462890625,12.022555555555556,0.4755555555555555,179.02513362654022,-6.156713687397407,95.43037476049312,1864.0,1435.0,1200.0,1528.0,1744.0,1018.02,58.0,292.45,1637148544.7902038,1637148545.9354095,46c29255-6067-4883-8441-bd4a64531291
0.3317893218348428,0.7151559626139207,0.0712396983980024,-0.3808426484590039,-0.1990208072760017,-0.1641219728880953,-0.3022517819868169,-0.3255907220695136,-13.265536773284676,17.785781433106067,25.380731178279177,0.6091033782833521,2.602918832897402,0.7067235607643826,3416.877875434028,12.022888888888888,0.48,179.00588767127894,-6.159093012253902,95.29207557235888,1864.0,1435.0,1200.0,1528.0,1744.0,1018.02,58.0,292.45,1637148546.0483449,1637148547.1572654,46c29255-6067-4883-8441-bd4a64531291
0.3365420273449395,0.7131425686962984,0.0720477953442049,-0.3755009895621387,-0.1971032889004054,-0.1660120981189138,-0.3023887476152413,-0.321563933139653,-13.330707750938204,17.815109425455407,25.53332494659108,0.593032716314882,2.593870264891335,0.7031661391620014,3417.634033203125,12.020555555555555,0.4722222222222222,178.9972558299879,-6.165938142462725,95.13485751913362,1864.0,1435.0,1200.0,1528.0,1744.0,1018.02,58.0,292.45,1637148547.2656868,1637148548.280782,46c29255-6067-4883-8441-bd4a64531291
-0.1040674901405486,-0.0759292785970152,-0.0176148087176375,0.0209240206396872,-0.0883810945452536,0.2546420907852302,-0.2099013545044672,-0.2312153938832125,-14.33019231097914,18.65763052387957,27.32178313005378,0.6449636976917238,-0.4288841140687077,0.455096067193234,3419.457763671875,12.039333333333332,0.39,179.18840550409985,-6.152375568637065,94.83623178279186,1440.0,1435.0,1200.0,1528.0,1408.0,1018.02,58.0,292.45,1637148550.2077043,1637148551.2715251,28ae410e-f5a0-455a-b14f-b484d1d029a2
-0.1179097809975659,-0.084750410612033,-0.0193630374992294,0.0265615242024558,-0.086791197947645,0.2584990414789688,-0.2090192960436038,-0.2421923654056651,-14.355439854760084,18.56899092871536,27.377193553171093,0.6402354251114374,-0.4630875566077221,0.453136682424563,3436.829861111112,12.040555555555557,0.3899999999999999,179.17252151973003,-6.151268034490399,94.89424968633168,1440.0,1435.0,1200.0,1528.0,1408.0,1018.02,58.0,292.45,1637148551.3809116,1637148552.482628,28ae410e-f5a0-455a-b14f-b484d1d029a2
-0.1157172357395956,-0.0798212928679417,-0.0168127382288754,0.0270644618495496,-0.0859617343155672,0.2535638977582722,-0.2086785256326952,-0.227599502063742,-14.317194951080848,18.63443030746321,27.43813975270783,0.6286007542208669,-0.4453103580497849,0.4487320807273152,3453.591552734375,12.040777777777778,0.38,179.15577389588515,-6.1442971149643615,94.93346635581617,1440.0,1435.0,1200.0,1528.0,1408.0,1018.02,58.0,292.45,1637148552.5912294,1637148553.5988853,28ae410e-f5a0-455a-b14f-b484d1d029a2
-0.2179746550274565,-0.2714898549431278,-0.0312368583913236,0.1184873462925139,-0.0571660882693599,0.3558081532386111,-0.1829596732956032,-0.2185926443080232,-14.581494262538506,19.31246407567858,27.2799884637719,0.6557479107026238,-1.173070690085907,0.369478389276561,3471.61865234375,12.033,0.42,179.1858737806475,-6.123900225396065,94.97292663538104,1355.0,1435.0,1200.0,1528.0,1341.0,1018.02,58.0,292.45,1637148555.1866398,1637148556.1693883,04d330b4-0a1a-455b-b65a-673f92d3098b
-0.2110058452804011,-0.2705825947788006,-0.0348264525726833,0.1154499975207063,-0.06017713982516,0.3569126436442267,-0.1854053310181061,-0.2039581435189824,-14.589579113879228,19.200717581793462,27.14400296932532,0.664136097375797,-1.168260947895806,0.3818862180110771,3474.432861328125,12.032555555555556,0.4177777777777777,179.1730952556203,-6.124599750603561,94.90623211486562,1355.0,1435.0,1200.0,1528.0,1341.0,1018.02,58.0,292.45,1637148556.277686,1637148557.2848256,04d330b4-0a1a-455b-b65a-673f92d3098b
-0.2097567190525595,-0.2693203197855398,-0.0303953418055679,0.1162126218907221,-0.0562588281898978,0.3542829045858968,-0.1823548332138572,-0.2077844144779342,-14.63246940861807,19.25291679835794,27.074266096800507,0.657040397152072,-1.1624171074343232,0.366175631994904,3467.406494140625,12.033,0.4133333333333333,179.16050645807005,-6.118168985204387,94.85427941930875,1355.0,1435.0,1200.0,1528.0,1341.0,1018.02,58.0,292.45,1637148557.393904,1637148558.5141678,04d330b4-0a1a-455b-b65a-673f92d3098b
-0.3273586737095554,-0.462474702761871,-0.0456872760372889,0.2029151221867612,-0.0302112600681445,0.4592752356643313,-0.1572145238823529,-0.1809347742480794,-14.81473658234958,20.05747193533028,26.474631693437136,0.7017773085869216,-1.891889609563108,0.2918331641634349,3459.476019965278,12.02988888888889,0.44,179.21864047482578,-6.1156835552564095,94.78591377917638,1271.0,1435.0,1200.0,1528.0,1273.0,1018.02,58.0,292.45,1637148559.183932,1637148560.2658432,27a7a6f6-27e9-4248-8dff-8816e8a07620
-0.3275356332514578,-0.4615975749496988,-0.0482901701234804,0.2046030860445764,-0.0322514994982123,0.4563184228633415,-0.161053943484541,-0.1763666977527918,-14.88752729296089,20.04824718277419,26.37319225997265,0.6910817527440747,-1.887558587614404,0.3035573337377986,3453.435302734375,12.027,0.4433333333333333,179.21930527990494,-6.1065707548112735,94.6884173822339,1271.0,1435.0,1200.0,1528.0,1273.0,1018.02,58.0,292.45,1637148560.3750143,1637148561.3801816,27a7a6f6-27e9-4248-8dff-8816e8a07620
-0.3157483730269623,-0.460160531674795,-0.0488824093174467,0.2035857057092109,-0.033603623781493,0.4552911810536035,-0.161566742664297,-0.1931499142966381,-14.806768609562408,20.04207391139736,26.289586426272898,0.6910252757062844,-1.881911783538272,0.3070424332296394,3450.654541015625,12.029000000000002,0.4477777777777778,179.22590627828288,-6.115984368171106,94.60114198392938,1271.0,1435.0,1200.0,1528.0,1273.0,1018.02,58.0,292.45,1637148561.488458,1637148562.6147645,27a7a6f6-27e9-4248-8dff-8816e8a07620
-0.3624656986446497,-0.5408672501649623,-0.0568505195552472,0.2280948743802038,-0.0271607624572506,0.5093980612798019,-0.1542955130842375,-0.176622001661642,-15.13488316478986,20.69074732558243,25.939512711368938,0.7610063877591012,-2.182697776366577,0.2882356962315463,3449.26611328125,12.021222222222224,0.4844444444444444,179.24870393191253,-6.098132245819199,94.49661808124084,1195.4444444444443,1435.0,1200.0,1528.0,1213.4444444444443,1018.02,58.0,292.45,1637148563.1647885,1637148564.1517136,2e293221-b234-4eb9-b4dc-6dc3875acc85
-0.3624070773438134,-0.5465573501027748,-0.0570011816930742,0.2331741059586504,-0.0269509311615077,0.5075024577593559,-0.1552329056138476,-0.1897619333706713,-15.107883183602192,20.820197022484184,25.536711326709263,0.746089229466446,-2.201292909322022,0.2882435845658639,3446.031656901041,12.017555555555557,0.49,179.27963102847434,-6.107667711651099,94.317770336734,1186.0,1435.0,1200.0,1528.0,1206.0,1018.02,58.0,292.45,1637148564.2608616,1637148565.3648503,2e293221-b234-4eb9-b4dc-6dc3875acc85
-0.3639646503925239,-0.5404464917894934,-0.0519066095710962,0.2325128361394882,-0.0224272316676087,0.5035337433050802,-0.1504692421636125,-0.1838537855978628,-15.063358862772043,20.70676257080501,25.77608335838525,0.7382249355651486,-2.18040769435034,0.2695041600653216,3436.0538736979165,12.018999999999998,0.4822222222222222,179.27658931756395,-6.11191594701924,94.20539247540984,1186.0,1435.0,1200.0,1528.0,1206.0,1018.02,58.0,292.45,1637148565.4730394,1637148566.6098747,2e293221-b234-4eb9-b4dc-6dc3875acc85
0.0074000383409402,0.136161385109037,0.0032362846426396,-0.0861200665447103,-0.1155265794726973,0.1485019840724928,-0.2319199444661853,-0.256203946261367,-14.132692165981064,17.891021777830527,27.76605308195828,0.644044479574498,0.3757376792740853,0.5208004143577518,3434.06494140625,12.042,0.38,179.11306244627534,-6.128004979359766,94.06311508153904,1525.0,1435.0,1200.0,1528.0,1475.0,1018.02,58.0,292.45,1637148567.1857796,1637148568.2524135,3deda98f-930c-4125-aa4c-0b07e0c41bf3
0.004133135208551,0.1270208499864187,-0.0014682093909159,-0.0809257834234895,-0.118241785421832,0.1541466096319473,-0.2343973782741217,-0.254383399396312,-14.086047702247162,17.922196357875567,27.946868370573533,0.6450363870751303,0.3385851772109751,0.5336530913672041,3439.1182454427085,12.043888888888889,0.38,179.07689280007057,-6.115634700431096,94.23547642306411,1525.0,1435.0,1200.0,1528.0,1475.0,1018.02,58.0,292.45,1637148568.360594,1637148569.4820411,3deda98f-930c-4125-aa4c-0b07e0c41bf3
0.0086601217993724,0.1304225272023737,0.0023734014382786,-0.0786280486424416,-0.1144308547189982,0.1485841634191448,-0.2319199444663,-0.2481092791235194,-14.096082265232443,17.879258317085853,27.955620691156657,0.6272566901458235,0.3512968946552822,0.5201532892616885,3448.649739583333,12.044111111111112,0.38,179.06487014931153,-6.110333524997781,94.37885499521114,1525.0,1435.0,1200.0,1528.0,1475.0,1018.02,58.0,292.45,1637148569.5908709,1637148570.6025524,3deda98f-930c-4125-aa4c-0b07e0c41bf3
0.0192146900052744,0.1235627429526418,-0.0123027353080406,-0.2538048562340818,-0.1449467893177183,0.3242775818640324,-0.1963976421118133,-0.2237074874867324,-14.09344796401329,17.46468761793251,29.12937748762672,1.4139286365055317,0.3357775060273769,0.5306075645410844,3449.26611328125,12.041999999999998,0.37,179.02431248602002,-6.067151598677015,94.55040430313493,1525.0,1535.0,1200.0,1528.0,1475.0,1018.02,58.0,292.45,1637148571.1859543,1637148572.235099,239f931b-b536-4637-8353-b743822be1e7
0.0081670456781699,0.1228072407938727,-0.0143364003753096,-0.2519169223757668,-0.1471519354172064,0.3248040775394006,-0.1976100615973278,-0.2300024265110297,-13.96483196622882,17.45853186894106,29.332895403316623,1.4108081401522308,0.3298683540380585,0.5384140421167766,3453.590521918403,12.041555555555554,0.37,179.01818201178497,-6.051569755314231,94.65649307805326,1525.0,1535.0,1200.0,1528.0,1475.0,1018.02,58.0,292.45,1637148572.3439438,1637148573.434286,239f931b-b536-4637-8353-b743822be1e7
0.0146652410752874,0.1280201508791312,-0.0120134639917303,-0.2525951760512466,-0.1465114842958043,0.3189655089343338,-0.1979491884282957,-0.2266527955856865,-13.976753078256197,17.524702325207276,29.14723326018975,1.3997367933063376,0.3513817214036275,0.5351856121728987,3450.8089735243057,12.044555555555556,0.37,179.0167218691224,-6.030435110451835,94.77895002186258,1525.0,1535.0,1200.0,1528.0,1475.0,1018.02,58.0,292.45,1637148573.542779,1637148574.7006826,239f931b-b536-4637-8353-b743822be1e7
0.0285502644240765,0.1266921325887907,-0.0248860379223176,-0.4390305720033637,-0.1787652388104835,0.5000887852037278,-0.1602518729276261,-0.1863651862740489,-13.912606335854202,17.194899338388243,30.40352326754914,2.224702833036836,0.3569449057817423,0.5431469116713642,3430.70591905382,12.038777777777776,0.39,179.01497789415433,-5.987089354454725,94.91607821200913,1525.0,1636.0,1200.0,1528.0,1475.0,1018.02,58.0,292.45,1637148576.7403023,1637148577.7651854,5820fbd0-c73f-4766-ac03-a4e2aea43d80
0.0264727703778539,0.123102538589757,-0.0248334431381603,-0.4366243600885011,-0.1781735474283716,0.5023503607485021,-0.1599757502899305,-0.1831306066440151,-13.934287940233933,17.25797259644612,30.540553966896308,2.224788739337477,0.3421288509860812,0.5416151517999092,3424.917399088541,12.038666666666666,0.39,179.02421686337163,-5.970945680600838,94.9031790203066,1525.0,1636.0,1200.0,1528.0,1475.0,1018.02,58.0,292.45,1637148577.873273,1637148578.901898,5820fbd0-c73f-4766-ac03-a4e2aea43d80
0.0169925602845202,0.1277703256558364,-0.0247676996618881,-0.4378603377654618,-0.1788309823046562,0.4970382879527085,-0.1609093078018395,-0.1852606957048175,-13.894277020152588,17.19578267233779,30.27113744731448,2.21520806830125,0.3618958232262123,0.5439776550540665,3425.829833984375,12.039222222222222,0.38,179.03112749699187,-5.976160387736536,94.94294058710489,1525.0,1636.0,1200.0,1528.0,1475.0,1018.02,58.0,292.45,1637148579.0104606,1637148580.1311314,5820fbd0-c73f-4766-ac03-a4e2aea43d80
0.0323107915924235,0.1250748429820013,-0.0274237363713821,-0.5579737089821998,-0.1987512589749484,0.6181772150255175,-0.1345724672380468,-0.1600283453983214,-13.81979861296431,17.52605970919283,31.479198900118742,2.760657005690374,0.3551777159414002,0.5374732910679814,3420.361572265625,12.034,0.4099999999999999,179.04178410991688,-5.954080805175216,94.96453233289112,1525.0,1737.0,1200.0,1528.0,1475.0,1018.02,58.0,292.45,1637148580.6869786,1637148581.655985,8cca43be-299d-4af4-8304-d95a433cd541
0.020148247437659,0.1287038830706831,-0.0269109372100952,-0.5625757540731101,-0.1977914040584343,0.6190187315030403,-0.1332050027360604,-0.1564650484889303,-13.891350469411076,17.37706781037954,31.511281384071857,2.7719360372217285,0.369607495096422,0.5339750778721541,3420.2105305989585,12.03488888888889,0.4099999999999999,179.03098785756885,-5.947971627849462,94.92375686245605,1525.0,1737.0,1200.0,1528.0,1475.0,1018.02,58.0,292.45,1637148581.7639134,1637148582.8850791,8cca43be-299d-4af4-8304-d95a433cd541
0.0364920770089029,0.1304395109330145,-0.0245573205122369,-0.556474757238547,-0.1958585455148848,0.6101828084800409,-0.1341780063376925,-0.1598705611090761,-13.906585742012073,17.469916178597483,31.299997085017864,2.73900953275306,0.3774972118591534,0.5294363121311122,3421.72705078125,12.034444444444444,0.4099999999999999,179.03271968997836,-5.955304974288333,94.89343992946009,1525.0,1737.0,1200.0,1528.0,1475.0,1018.02,58.0,292.45,1637148582.9941542,1637148584.1109426,8cca43be-299d-4af4-8304-d95a433cd541
0.0277805177840228,0.1225743993029809,-0.0239650813218167,-0.5728958403374732,-0.1996782421707081,0.635126978560517,-0.1300449325553632,-0.160067791714818,-13.873430212349549,17.889627820390963,31.613654326919164,2.8349828509749098,0.3470501080357211,0.527144627422653,3420.361572265625,12.02588888888889,0.4355555555555555,179.0436479926504,-5.951589493675453,94.82554329565068,1525.0,1837.0,1200.0,1528.0,1475.0,1018.02,58.0,292.45,1637148585.6841705,1637148586.8893445,f3abf6fd-3261-4206-b434-8a5b167eb50e
0.0292871392759907,0.1266285805560218,-0.0248964473174722,-0.5765117328226957,-0.2004863391926813,0.6333327295621443,-0.1299216634869368,-0.1640671873209789,-13.82570016698566,17.712920203505927,31.44881679008728,2.8378874595334818,0.3637620353348221,0.5296715961739612,3417.9369845920137,12.03377777777778,0.4222222222222222,179.03704395863292,-5.975351200047366,94.74963181430527,1525.0,1837.0,1200.0,1528.0,1475.0,1018.02,58.0,292.45,1637148586.9972703,1637148588.117469,f3abf6fd-3261-4206-b434-8a5b167eb50e
0.0305883123845622,0.1231085650711714,-0.0229378393951158,-0.5694853960277176,-0.1978702962414429,0.6315247840039921,-0.1295655529616847,-0.1528907945755603,-13.881663430949168,17.839367062152338,31.62886160508022,2.818911356920785,0.3486214159905793,0.5227302174802115,3414.759765625,12.033666666666669,0.42,179.0323098786282,-5.958384440966624,94.72641068894704,1525.0,1837.0,1200.0,1528.0,1475.0,1018.02,58.0,292.45,1637148588.2266147,1637148589.234449,f3abf6fd-3261-4206-b434-8a5b167eb50e
0.0126403417655449,0.134568201454506,0.0192278388141426,0.1373031302052977,-0.0812939469194075,-0.0675930048083119,-0.27901091020009,-0.3128162135004977,-13.96766042887904,18.764104936174764,25.941665433334137,-0.3391615055814131,0.3582841280774234,0.5183737473140583,3430.858100043403,12.041999999999998,0.3655555555555556,179.05738729762086,-6.138977630829522,94.66192839081276,1525.0,1389.888888888889,1200.0,1528.0,1475.0,1018.02,58.0,292.45,1637148591.168452,1637148592.2148266,43f288b7-4799-4ab4-8c42-073b5cba19b9
-0.0078190299194183,0.1382761337035486,0.0197669353656723,0.1372505354175294,-0.0814254338904316,-0.0724317252471192,-0.2803783747994283,-0.3064390948523179,-14.00271265022572,18.776477991557577,25.76035420226575,-0.3498537960944733,0.3740870375173393,0.5199278521307226,3440.805013020833,12.04188888888889,0.37,179.03683601731817,-6.174745576533717,94.80783413295268,1525.0,1334.0,1200.0,1528.0,1475.0,1018.02,58.0,292.45,1637148592.3225377,1637148593.4382756,43f288b7-4799-4ab4-8c42-073b5cba19b9
0.0044355552225008,0.1371716432470077,0.0196617457921887,0.1359093684370692,-0.081609515644372,-0.0696310528112074,-0.2790240589047823,-0.3127767675054294,-13.932535177983684,18.75036100976793,25.83378690746936,-0.3406663062751833,0.3689550106469984,0.5184116689431763,3449.73193359375,12.043,0.37,179.0294169140597,-6.178119405392489,94.94306049487032,1525.0,1334.0,1200.0,1528.0,1475.0,1018.02,58.0,292.45,1637148593.5461912,1637148594.5554702,43f288b7-4799-4ab4-8c42-073b5cba19b9
-0.0087788847281971,0.1362380858395618,0.0365841180018441,0.3606468731059571,-0.0458450603826049,-0.2866634524847985,-0.3280555544733431,-0.3646089367249333,-14.052097412251184,19.72651324592549,24.13638253969745,-1.3283369448992552,0.3547632329276192,0.5154218102277778,3459.009765625,12.040666666666665,0.37,179.00635060632268,-6.2188679819577,95.19525081068478,1525.0,1234.0,1200.0,1528.0,1475.0,1018.02,58.0,292.45,1637148596.6981838,1637148597.8371685,eb58d66c-3e82-47e7-ab19-4dc78a26e9ec
-0.0024280643259756,0.1397619363444236,0.0389114372445088,0.3579513905703798,-0.0446353802948311,-0.2877679431199487,-0.3264908593880796,-0.3522491600663863,-14.06103415888393,19.73826571759168,24.13224938274744,-1.324549898491755,0.3685593095037826,0.5087598469626279,3461.803955078125,12.042666666666667,0.36,179.01205457318954,-6.235248245975337,95.29402521191196,1525.0,1234.0,1200.0,1528.0,1475.0,1018.02,58.0,292.45,1637148597.9450617,1637148599.0660973,eb58d66c-3e82-47e7-ab19-4dc78a26e9ec
-0.006911769822249,0.1397487876469146,0.0360318727518056,0.3608178061436268,-0.0453980046969898,-0.2895956121450188,-0.3277925805210791,-0.3511578180484186,-14.023727532082235,19.528433704919408,24.23199531965388,-1.336622551648925,0.3668228762809286,0.5158535391045569,3460.40625,12.043,0.36,179.0176189006334,-6.228496461685172,95.39784636402588,1525.0,1234.0,1200.0,1528.0,1475.0,1018.02,58.0,292.45,1637148599.1746778,1637148600.197605,eb58d66c-3e82-47e7-ab19-4dc78a26e9ec
-0.0136241794700728,0.1421467810597307,0.0478870660328583,0.4601808520042788,-0.030251801883989,-0.3885675091168301,-0.3509841452689657,-0.3751859690873932,-14.09972965908976,20.46487120025681,23.449432362251013,-1.7765292422875474,0.3718242893625119,0.5117039410287653,3456.22021484375,12.035666666666666,0.3966666666666667,179.02035097630142,-6.266511302466955,95.5644050803961,1525.0,1133.0,1200.0,1528.0,1475.0,1018.02,58.0,292.45,1637148602.2280204,1637148603.364859,a62c8d8d-9e52-4aab-a4ee-dd4b44737a27
-0.003650893116119,0.1418131329023494,0.0449203914261677,0.4630357624629336,-0.0332091629132307,-0.3902357501681842,-0.3544055462271659,-0.3918924875855619,-14.045047473344818,20.48732402218726,23.51433007028025,-1.7866789886451226,0.3690715009494494,0.5247524423372755,3455.136908637153,12.031666666666668,0.3977777777777778,179.03237514488026,-6.25323279810615,95.57130736600736,1525.0,1133.0,1200.0,1528.0,1475.0,1018.02,58.0,292.45,1637148603.4735892,1637148604.5947075,a62c8d8d-9e52-4aab-a4ee-dd4b44737a27
-0.0220196221967044,0.1476511538771644,0.0431584661170992,0.4446012918959888,-0.0369170953820249,-0.3784150700927002,-0.3537349626344436,-0.3797430889751175,-14.171040961871036,20.41000697048383,23.592105308881948,-1.7191839933491473,0.39332673003488,0.5318477935701396,3446.802978515625,12.034888888888888,0.4,179.05002587151537,-6.289380625651058,95.56489685401634,1525.0,1133.0,1200.0,1528.0,1475.0,1018.02,58.0,292.45,1637148604.7034123,1637148605.6835709,a62c8d8d-9e52-4aab-a4ee-dd4b44737a27
-0.0203628864252319,0.1353439745155163,0.046616573238292,0.4731602576728903,-0.0312631558258492,-0.3937333040710233,-0.3571273268384982,-0.3898807359130007,-14.226468021541708,20.83586191443067,23.43425479891167,-1.8150859685606529,0.3456688767269291,0.5225882098742116,3424.461181640625,12.035777777777778,0.3922222222222222,179.05195046704154,-6.284634877406499,95.55865557893476,1525.0,1033.0,1200.0,1528.0,1475.0,1018.02,58.0,292.45,1637148607.757677,1637148608.807479,6ee340ea-fbbb-454d-a2f0-09dc50592f6e
-0.0113297318845797,0.1375398067351553,0.0473397515345268,0.473909733298963,-0.0310659253609666,-0.3988875940376754,-0.3575349364785514,-0.3847395946372733,-14.184133949562169,20.82717431261065,23.10679005864832,-1.8284114513082697,0.3564606860023599,0.5217577305459371,3422.1825358072915,12.032666666666666,0.4066666666666667,179.07415009966385,-6.280363922172994,95.52827110295702,1525.0,1033.0,1200.0,1528.0,1475.0,1018.02,58.0,292.45,1637148608.9161825,1637148610.0350716,6ee340ea-fbbb-454d-a2f0-09dc50592f6e
-0.0168653331293034,0.1353308258209856,0.0478656994008867,0.4685845117971383,-0.0312763045017388,-0.3916689583222363,-0.3557598621524238,-0.3745230558270876,-14.218891313011197,20.90317365372012,23.136302776579715,-1.7996606119530163,0.3488503780616702,0.518472170013223,3417.634033203125,12.03477777777778,0.4099999999999999,179.09456325836334,-6.295689728305642,95.4985863419142,1525.0,1033.0,1200.0,1528.0,1475.0,1018.02,58.0,292.45,1637148610.1428216,1637148611.2620971,6ee340ea-fbbb-454d-a2f0-09dc50592f6e
0.0156250958116699,0.1266000917127931,0.0020424925786338,-0.0596117458658904,-0.1129823065889132,0.1304132135378316,-0.2374741735418434,-0.2597743656144778,-14.080400010555651,18.004476639941,27.305517399305376,0.5442458936569072,0.3402511233459468,0.5252863016014767,3412.19189453125,12.043,0.37,179.11441634155082,-6.163053431039518,95.45940002882604,1525.0,1435.0,1200.0,1528.0,1475.0,1018.02,58.0,292.45,1637148613.1946716,1637148614.2164495,ef623ac8-ef3a-4860-a29d-732fe06fa76d
0.0055920925580906,0.1310936585562983,0.0030582293797988,-0.0617264946014879,-0.1127050882306753,0.1295870371458408,-0.2369054923623827,-0.2745436408671469,-14.085679282688176,17.965841916838233,27.5435976319151,0.546989476601162,0.3553561052809802,0.5235876136771338,3419.1493326822915,12.04288888888889,0.3644444444444444,179.12047396043468,-6.161920663138419,95.4727310402661,1525.0,1435.0,1200.0,1528.0,1475.0,1018.02,58.0,292.45,1637148614.3256388,1637148615.4483426,ef623ac8-ef3a-4860-a29d-732fe06fa76d
0.0018847080191617,0.1336346440431874,0.0029760500247263,-0.0627542844007877,-0.1134556596857599,0.1264028612699325,-0.2377239987983498,-0.2690704949269442,-14.055677595398876,17.95230475704477,27.30701071658851,0.5420362075389941,0.3668919686660225,0.5258786169707549,3422.9416775173613,12.04188888888889,0.36,179.11659289516632,-6.166990892800421,95.49874723081469,1525.0,1435.0,1200.0,1528.0,1475.0,1018.02,58.0,292.45,1637148615.5564368,1637148616.6785383,ef623ac8-ef3a-4860-a29d-732fe06fa76d
0.0236589493080837,0.143772288590457,0.0717568804412804,-0.0682635883600153,-0.0525114496333283,0.1191184837059959,-0.1657480284254987,-0.1973312011694449,-13.371283699658685,17.933341135494114,27.50074333587032,0.541769381045322,0.4033916098004003,0.2485740998257195,3429.9423828125,12.041,0.3688888888888889,179.09966920422286,-6.176293088699418,95.53446987908374,1525.0,1435.0,1200.0,1439.0,1475.0,1018.02,58.0,292.45,1637148618.72464,1637148619.7576191,84cdeac0-c586-4e1a-aab0-560675adfb2b
0.038451232746878,0.1390913528517544,0.0659714541306105,-0.0662781351432185,-0.0562325307915056,0.1211170854874737,-0.1711652917190992,-0.18253891575524,-13.497467971532492,17.918473672582355,27.35057006653454,0.5413077198382941,0.3874478688407927,0.2683986154081856,3432.997395833333,12.042444444444444,0.36,179.0991091287109,-6.171710126630078,95.55315879447272,1525.0,1435.0,1200.0,1439.0,1475.0,1018.02,58.0,292.45,1637148619.8734722,1637148620.9813626,84cdeac0-c586-4e1a-aab0-560675adfb2b
0.016321976773433,0.1419051737762982,0.0706786873646179,-0.0686449005596472,-0.0526823826738018,0.1218271150833313,-0.1661293406388391,-0.1851818037160756,-13.44024330196,17.910922200145627,27.570787316994576,0.5484903325731005,0.3962342909174164,0.2506500224309775,3436.81884765625,12.04,0.36,179.09010086810557,-6.1723877383139865,95.54757094082171,1525.0,1435.0,1200.0,1439.0,1475.0,1018.02,58.0,292.45,1637148621.089421,1637148622.2079985,84cdeac0-c586-4e1a-aab0-560675adfb2b
0.0418304476891646,0.1551064644345106,0.1592220062267835,-0.0739569740722274,0.0262229452825123,0.10829710690086,-0.0775991631068623,-0.1022924163119577,-12.87442233413612,18.03851805325948,27.46807930268324,0.5355924960903375,0.4489220821906227,-0.1018150416686706,3454.363606770833,12.041999999999998,0.36,179.10227681866596,-6.170595382839289,95.54327702856352,1525.0,1435.0,1200.0,1351.0,1475.0,1018.02,58.0,292.45,1637148624.2540247,1637148625.392315,394addba-53f8-4c1c-985d-8f9f2a0e8e1c
0.0526649734282561,0.1566711592406236,0.1610891210294631,-0.0755611151155253,0.028011167984866,0.1080472816586087,-0.0754690742290752,-0.095441945442247,-12.8801855660512,17.989885706731453,27.456533951903616,0.5384154932818079,0.4552488003784435,-0.1096536328090602,3456.22021484375,12.041777777777778,0.36,179.09847164438835,-6.165538528964409,95.54581634111494,1525.0,1435.0,1200.0,1351.0,1475.0,1018.02,58.0,292.45,1637148625.500919,1637148626.6246789,394addba-53f8-4c1c-985d-8f9f2a0e8e1c
0.0567805152439984,0.1559874270533579,0.1604185375535965,-0.074496070655782,0.0284713723638304,0.1086784190804358,-0.0751929515798046,-0.09153678246267,-12.890331603889171,17.901943822849354,27.589950871421625,0.5368310561936253,0.451398596718025,-0.1096157313764797,3457.4595811631943,12.042,0.36,179.08746896854538,-6.171140232721205,95.55290228292388,1525.0,1435.0,1200.0,1351.0,1475.0,1018.02,58.0,292.45,1637148626.7326813,1637148627.7374165,394addba-53f8-4c1c-985d-8f9f2a0e8e1c
0.0798959232650364,0.1733612371324751,0.2475007055190478,-0.0762996335600125,0.104933232156252,0.0901957353261304,0.0098791156517678,-0.0175276990076994,-12.260518197517698,18.06933368208397,27.80370039790689,0.5051632571069756,0.5159542676943801,-0.4508269888132264,3456.22021484375,12.041,0.36,179.10992207707693,-6.159826593543509,95.57182494256443,1525.0,1435.0,1200.0,1262.0,1475.0,1018.02,58.0,292.45,1637148629.67126,1637148630.724414,70be230a-31a5-421a-8069-363a7f4222e7
0.0843533311500903,0.1708848994231191,0.2496981812672628,-0.0780067727026576,0.1058645981280652,0.0940702177690207,0.0129559106167915,-0.0088972233837989,-12.163671252633456,18.17686003018221,27.804581848074733,0.5185917397077088,0.5063245417340851,-0.4597614103985756,3451.73779296875,12.042666666666667,0.36,179.1082980098743,-6.164653450284463,95.55182842540438,1525.0,1435.0,1200.0,1262.0,1475.0,1018.02,58.0,292.45,1637148630.8374949,1637148631.912883,70be230a-31a5-421a-8069-363a7f4222e7
0.0767457147319226,0.1738543132252542,0.2478294229088506,-0.077176213360878,0.1048373562545633,0.0891684934430627,0.0097832397423216,0.0005243653816307,-12.25903418752972,18.09021754552612,27.61235454759749,0.504957311666799,0.5196181116579351,-0.4512334069367572,3450.6558430989585,12.040333333333333,0.36,179.1017212966135,-6.169757830892316,95.54810824903645,1525.0,1435.0,1200.0,1262.0,1475.0,1018.02,58.0,292.45,1637148632.0219877,1637148632.9706645,70be230a-31a5-421a-8069-363a7f4222e7
0.1039607763591089,0.1785796257688771,0.3177092606504679,-0.0652739034136547,0.1698001320003919,0.0705274773565683,0.0778003498857093,0.0489143076814289,-11.804373195373325,18.22779360935532,27.7054238400254,0.440855022652487,0.5362649703162694,-0.7307419577054758,3450.654541015625,12.036555555555555,0.38,179.10892942291758,-6.174679077053049,95.53875316660324,1525.0,1435.0,1200.0,1173.0,1475.0,1018.02,58.0,292.45,1637148633.7678518,1637148634.905208,8a3cb5a4-bbca-49e4-b12c-d82c2e6e2277
0.1091791651269175,0.1831405796093,0.3197774408580346,-0.0658491589054474,0.1691016075257715,0.0661308820730213,0.0768963770145042,0.0636655010920256,-11.759885764090392,18.399699252470608,27.642618161781403,0.433527868554498,0.5538179475617848,-0.730903826659603,3446.031195746528,12.039,0.3722222222222222,179.1098795781221,-6.167941617187392,95.51347008302558,1525.0,1435.0,1200.0,1173.0,1475.0,1018.02,58.0,292.45,1637148635.0136178,1637148636.134343,8a3cb5a4-bbca-49e4-b12c-d82c2e6e2277
0.1155288895531411,0.1824294543153916,0.3142582759846147,-0.0647528863038251,0.1650731758690976,0.0639597036112435,0.0714281630259546,0.0373861879674186,-11.811806356743464,18.30610180309992,27.33770767479752,0.425205991887037,0.5537342428974411,-0.7106125348258402,3445.108154296875,12.036666666666669,0.3766666666666667,179.10315108287972,-6.172090482789482,95.48540938918543,1525.0,1435.0,1200.0,1173.0,1475.0,1018.02,58.0,292.45,1637148636.244024,1637148637.365306,8a3cb5a4-bbca-49e4-b12c-d82c2e6e2277
-0.0312894533785222,0.1147662653396222,-0.0936931681056927,-0.0434519975837002,-0.2010785784332513,0.1332927779513899,-0.33935028639898,-0.3629653494669136,-14.595874536607823,18.211661942226826,27.4212864418684,0.5106296635780381,0.2904341958533096,0.919252291649824,3449.8835177951387,12.041222222222224,0.3522222222222222,179.11434196837985,-6.179655533909572,95.51928257400928,1525.0,1435.0,1200.0,1617.0,1475.0,1018.02,58.0,292.45,1637148638.2732077,1637148639.3197854,adce7ad1-b3dd-49fb-b35e-7914043be1d4
-0.0227953954545975,0.1199205541630671,-0.0918129044451779,-0.048330164072095,-0.2010654297452162,0.1333979675154354,-0.3374568738302275,-0.3615189927436825,-14.522068814000107,18.19688714902245,27.529852633518225,0.5219201257015338,0.3090008693699438,0.9147672585225608,3452.04443359375,12.042666666666667,0.35,179.11008600161702,-6.167101598783219,95.51511615861556,1525.0,1435.0,1200.0,1617.0,1475.0,1018.02,58.0,292.45,1637148639.4284308,1637148640.547764,adce7ad1-b3dd-49fb-b35e-7914043be1d4
-0.0265559225339122,0.1190921863172953,-0.0934959376490799,-0.0444512985367688,-0.2015650802417225,0.1305447004944746,-0.3403890335775834,-0.371354219511917,-14.620470430466362,18.1975210775716,27.49938404599709,0.5066246922459541,0.3062762351286074,0.9217384604097322,3459.009765625,12.044111111111112,0.3499999999999999,179.0986188729105,-6.165740446431747,95.52042017996102,1525.0,1435.0,1200.0,1617.0,1475.0,1018.02,58.0,292.45,1637148640.65648,1637148641.7762032,adce7ad1-b3dd-49fb-b35e-7914043be1d4
-0.0466076849624114,0.1010784727736724,-0.1775161125725195,-0.0302901522470854,-0.2779064195879312,0.1353965692878646,-0.4294057242349081,-0.4483004054707437,-15.16095660502838,18.47489377753806,26.86746516604064,0.4828657075990139,0.241074699241349,1.2635490972670518,3447.42431640625,12.041444444444444,0.37,179.09801629844372,-6.168709586582195,95.51411970990664,1525.0,1435.0,1200.0,1706.0,1475.0,1018.02,58.0,292.45,1637148643.7105224,1637148644.7359395,c9da7bbe-8c07-4cd3-a478-624536e6c2be
-0.063345976031351,0.1022355580300942,-0.1718490239962827,-0.0337614081444034,-0.2720815463580109,0.1340291049225511,-0.4233310252592733,-0.4481031754016233,-15.211647367290048,18.392754214442025,26.42656816003579,0.4872650075425199,0.250466164312544,1.2387274539395698,3399.16978624132,12.038333333333334,0.3755555555555555,179.11063393457047,-6.160267567631799,95.48111623583712,1525.0,1435.0,1200.0,1706.0,1475.0,1018.02,58.0,292.45,1637148644.8439686,1637148645.9656315,c9da7bbe-8c07-4cd3-a478-624536e6c2be
-0.0614525636788465,0.1026431676089612,-0.1694033662809815,-0.0364305935667728,-0.2704774052024805,0.1338581718768925,-0.4217531813671945,-0.4336396066503108,-15.26860206037253,18.464425391491105,26.124750075217538,0.493422039752745,0.2555579564561505,1.2304933258811603,3340.6792805989585,12.038444444444444,0.3777777777777778,179.1098613642843,-6.165445847091921,95.428820513002,1525.0,1435.0,1200.0,1706.0,1475.0,1018.02,58.0,292.45,1637148646.0738847,1637148647.3070517,c9da7bbe-8c07-4cd3-a478-624536e6c2be
-0.073628256850015,0.0914930733412006,-0.2440485224630023,-0.0077401376296291,-0.3368914798117713,0.1240492446914998,-0.5051553814120401,-0.5300327222794396,-15.75020895254933,18.68002983025544,26.3243110008198,0.4041632512336127,0.2071174579196433,1.5402067969109978,3304.32763671875,12.040333333333333,0.37,179.11111052999254,-6.16688175206931,95.37770413616352,1525.0,1435.0,1200.0,1795.0,1475.0,1018.02,58.0,292.45,1637148649.239876,1637148650.3772252,51b3d413-298e-4dfb-a0f6-b26727538d3a
-0.1106155411809971,0.0936100134109717,-0.2441405633400949,-0.0070038106187716,-0.3378644834873057,0.1204333533011428,-0.5062598721742395,-0.52884933938857,-15.684584061316196,18.70377810070096,26.19637480277623,0.3945423744043262,0.2156305989568753,1.5433483942044013,3315.123996310764,12.038444444444444,0.37,179.10805667652363,-6.166761844303881,95.35790038212002,1525.0,1435.0,1200.0,1795.0,1475.0,1018.02,58.0,292.45,1637148650.4859807,1637148651.6072855,51b3d413-298e-4dfb-a0f6-b26727538d3a
-0.0747984909259627,0.0948591395394477,-0.2476249682820394,-0.0066882418955032,-0.3418222417501427,0.1220111968234252,-0.5101781847444243,-0.5498346653143851,-15.681949730162971,18.74846731504464,26.6066771472553,0.3975656344705469,0.216401448867723,1.5597835813123309,3333.4576280381943,12.03788888888889,0.37,179.1033908984106,-6.16939051849695,95.34121802452722,1525.0,1435.0,1200.0,1795.0,1475.0,1018.02,58.0,292.45,1637148651.7149746,1637148652.73112,51b3d413-298e-4dfb-a0f6-b26727538d3a
-0.0936668709709522,0.0858813194170525,-0.2966498888412167,0.0230962948593698,-0.3869376182660191,0.1069466262413117,-0.5707043901991111,-0.5987823452355296,-16.027314533133296,19.258665642165152,26.687417918072708,0.2973069905639132,0.1776915888023885,1.7730729357981758,3364.425238715278,12.032222222222224,0.3977777777777778,179.11641075678847,-6.155295095052291,95.31921494957096,1525.0,1435.0,1200.0,1883.0,1475.0,1018.02,58.0,292.45,1637148654.770314,1637148655.795411,3c7804e9-44fa-4846-966d-fc91ffd4e1d0
-0.1002938142076639,0.0864176766438577,-0.2990495261512034,0.0237641390585273,-0.3883949322773152,0.1044313902654233,-0.574199205014425,-0.5997208336355822,-16.150717280009314,19.22802051804385,26.470454760174192,0.2897290874662184,0.1822647379598258,1.7829957180245617,3383.459716796875,12.034666666666668,0.3933333333333333,179.11429339814578,-6.158289800980256,95.25626792618014,1525.0,1435.0,1200.0,1883.0,1475.0,1018.02,58.0,292.45,1637148655.9038858,1637148657.0234537,3c7804e9-44fa-4846-966d-fc91ffd4e1d0
-0.0986935082028483,0.0883330033792054,-0.302005243939151,0.0240687505267176,-0.3918135939713987,0.1041936180129245,-0.5771280780075466,-0.5930434853950491,-16.080524650687597,19.21387207856188,26.72030278897845,0.2883418462999458,0.1865120538889823,1.79649282700492,3395.968994140625,12.033222222222223,0.4,179.1123369284035,-6.164964461051044,95.19401909990444,1525.0,1435.0,1200.0,1883.0,1475.0,1018.02,58.0,292.45,1637148657.132785,1637148658.2526562,3c7804e9-44fa-4846-966d-fc91ffd4e1d0
-0.0200473176952228,0.1191053350108363,-0.0962834614248676,-0.0482381232336871,-0.1720594031607235,0.140656047656286,-0.2983000503469411,-0.3049006975675511,-13.89703170287686,14.1251820306213,28.638686070826694,0.5112993324716818,0.2913280849775813,0.8291771736397862,7031.52294921875,11.812333333333337,8.568888888888889,-179.5793184797771,-6.3734712585275775,82.44471513980751,1525.0,1435.0,1350.0,1528.0,1475.0,1018.02,58.0,292.45,1637148662.6650984,1637148663.6901124,8869c1cb-5015-49a3-bfd2-e6ca80f3ded0
-0.0088851701053151,0.1199035704225128,-0.0937353535256879,-0.0457426101762467,-0.1686144444649588,0.1341479910402424,-0.2964307437828657,-0.3323705203112297,-13.90446644957963,14.032815467697963,28.16981687911513,0.4904816809657212,0.2983828691263389,0.8178400480128035,7040.508246527777,11.811555555555554,8.557777777777776,-179.1288599149157,-6.35514790055481,75.8832104335449,1525.0,1435.0,1350.0,1528.0,1475.0,1018.02,58.0,292.45,1637148663.797866,1637148664.919913,8869c1cb-5015-49a3-bfd2-e6ca80f3ded0
-0.0282915505017174,0.1159496479725409,-0.098505591203269,-0.0464236030870592,-0.1736766929288641,0.1389335684825415,-0.3013242509243017,-0.3251233951040468,-13.949734783431486,14.18117627738536,28.171486298413058,0.5034951205540055,0.2836428113650672,0.8376300952397636,7048.2265625,11.811777777777776,8.58,-178.9015269342206,-6.294799526983816,70.5308579105992,1525.0,1435.0,1350.0,1528.0,1475.0,1018.02,58.0,292.45,1637148665.0288246,1637148666.1482332,8869c1cb-5015-49a3-bfd2-e6ca80f3ded0
0.0880727686717468,0.312915465473089,-0.0870651291552753,-0.1412213251512441,-0.2092795307173567,0.039217144419695,-0.3334251542256299,-0.3623522915156023,-13.719380064724804,13.80921189487889,28.94512819847492,0.4916025762243795,1.026287803143677,0.9406392810783448,7048.8701171875,11.803111111111113,8.72888888888889,-179.01482307653316,-6.188564899067554,61.55866981099671,1610.0,1435.0,1350.0,1528.0,1542.0,1018.02,58.0,292.45,1637148667.682854,1637148668.810299,1221382a-62d5-44cf-a7e6-261d9cfc3b0a
0.0827623389643643,0.3105108978042232,-0.0928385028183264,-0.1472478114027269,-0.2158314171538919,0.0371758093110211,-0.3390084202910048,-0.3585605358653925,-13.667851355188343,13.834073113034163,27.48768886681455,0.5002806466951734,1.0301981628809234,0.9630087606677934,7058.5458984375,11.803666666666668,8.720000000000002,-179.14279350082248,-6.155619623901605,58.47986110759573,1610.0,1435.0,1350.0,1528.0,1542.0,1018.02,58.0,292.45,1637148668.9186423,1637148670.035138,1221382a-62d5-44cf-a7e6-261d9cfc3b0a
0.0974231351822114,0.3233177270983547,-0.0843970394094756,-0.1353350917430399,-0.2039581432355755,0.0308118402931311,-0.3343537810702275,-0.372616494249497,-14.080782481093284,13.58908496373541,29.98036605687764,0.4580935422875531,1.0581259273328731,0.9336846299734298,7065.656521267361,11.804,8.619999999999997,-179.30068015367652,-6.157637423050782,55.865565601093294,1610.0,1435.0,1350.0,1528.0,1542.0,1018.02,58.0,292.45,1637148670.143361,1637148671.2088327,1221382a-62d5-44cf-a7e6-261d9cfc3b0a
0.1968097444647293,0.5206922424728406,-0.0822576368477415,-0.2585323611020587,-0.2551082209336607,-0.0654519586954392,-0.3749942168143742,-0.3957855974238409,-13.704462346178834,13.421974985254112,27.51413849379017,0.5184738235446331,1.8328959873586104,1.0779554546409775,7066.30322265625,11.799666666666669,8.74,-179.75547057629151,-6.139093838909151,52.25253630794444,1695.0,1435.0,1350.0,1528.0,1609.0,1018.02,58.0,292.45,1637148672.270335,1637148673.3161652,4867a4a6-cf4a-4597-8e83-f46bae606d3c
0.1955496611127646,0.504338553018488,-0.079271786932804,-0.2481229752907327,-0.2447673179535502,-0.0538783662655863,-0.365995576193223,-0.3853488175894515,-13.870260611385502,13.18634135911303,28.29354251850727,0.5196276214884817,1.7647290226765886,1.046181096675977,7062.66552734375,11.798750000000002,8.7075,-179.9171326162093,-6.155385102953151,50.69301515186349,1695.0,1435.0,1350.0,1528.0,1609.0,1018.02,58.0,292.45,1637148673.4246836,1637148674.544901,4867a4a6-cf4a-4597-8e83-f46bae606d3c
0.1902134820857621,0.493987790699107,-0.077586014416124,-0.2423128944415546,-0.2413793368017919,-0.0467128743945219,-0.3622947653947051,-0.383280089876746,-13.862547496352768,13.28984609159929,28.65022085521809,0.5234541443257414,1.7220848271863127,1.0332639614018295,7054.671875,11.800222222222224,8.765555555555554,179.92989539385587,-6.142659434815244,49.31872720825348,1695.0,1435.0,1350.0,1528.0,1609.0,1018.02,58.0,292.45,1637148674.654885,1637148675.6612847,4867a4a6-cf4a-4597-8e83-f46bae606d3c
0.2729713722380453,0.6297875126842887,-0.0675798561364949,-0.3296728444901826,-0.2707666765844305,-0.1172819305666793,-0.3835562111309973,-0.4061325275662079,-13.526332917325938,13.36289570002734,26.053531956890723,0.5626765057629572,2.2634425498752866,1.1021313953286054,7040.508246527777,11.790444444444445,8.813333333333333,179.5420726993231,-6.16806161981656,47.1793142641745,1779.0,1435.0,1350.0,1528.0,1677.0,1018.02,58.0,292.45,1637148676.7757196,1637148677.9131362,5dc42054-754d-4848-a2a1-a51b748a0e8a
0.2666205523100042,0.6239231947287933,-0.0706303537865778,-0.316063941720018,-0.2690573458433057,-0.1128902657440351,-0.3860676126008415,-0.4139954496796686,-13.739181163366016,13.2941287429099,27.622075557607268,0.5413819462047487,2.227182218526056,1.1090384965758875,7041.150716145833,11.791,8.826666666666666,179.41327354541443,-6.172494033132945,46.370519690337154,1779.0,1435.0,1350.0,1528.0,1677.0,1018.02,58.0,292.45,1637148678.0214927,1637148679.0509515,5dc42054-754d-4848-a2a1-a51b748a0e8a
0.2692239940426265,0.6249224955467725,-0.067855978768702,-0.318733127465445,-0.2659016583488598,-0.1089982514343698,-0.3804662669528325,-0.4041865200593992,-13.650561737778668,13.137929727810462,27.998566590654555,0.5553561579362164,2.227468012572748,1.0937380347844383,7038.580837673611,11.791777777777778,8.827777777777778,179.2658917235039,-6.177025531624163,45.53694177509644,1779.0,1435.0,1350.0,1528.0,1677.0,1018.02,58.0,292.45,1637148679.1597297,1637148680.276253,5dc42054-754d-4848-a2a1-a51b748a0e8a
0.3123949961837348,0.7048287584375075,-0.0600692109402013,-0.3637904299933909,-0.2849256328927693,-0.1701210661239083,-0.4032913123463368,-0.4379162209908724,-13.772248780480304,13.832105059678408,24.477919045307583,0.5240103029405555,2.565282693020551,1.1454711907537112,7043.078125,11.784,8.86,179.02181263678378,-6.156319291404708,44.54869991792508,1864.0,1435.0,1350.0,1528.0,1744.0,1018.02,58.0,292.45,1637148681.189536,1637148682.2137375,9ac8e210-18b8-4d9c-8336-903160700674
0.2970203362344114,0.7001724768322891,-0.0577709283482426,-0.3556941187855769,-0.2813382298154962,-0.1620926906808686,-0.3992820549524427,-0.4194258621421916,-13.736007905055803,13.88849403652224,26.052950992948325,0.5245454004533715,2.5327526595625134,1.133475101032746,7046.2958984375,11.784555555555556,8.843333333333332,178.90416035160058,-6.1760608622676365,43.92662070760856,1864.0,1435.0,1350.0,1528.0,1744.0,1018.02,58.0,292.45,1637148682.3222897,1637148683.4433544,9ac8e210-18b8-4d9c-8336-903160700674
0.3162963237003009,0.7041696801021478,-0.0559564081971135,-0.3598096614298609,-0.2781167987958937,-0.1559522489584985,-0.3943381441751148,-0.4115366426205394,-13.782366811518688,13.623084115620554,26.97279702720328,0.5460816582216714,2.540537387965105,1.1213963768236923,7043.078125,11.779444444444444,8.872222222222222,178.78743090086527,-6.185071779057655,43.52778129739952,1864.0,1435.0,1350.0,1528.0,1744.0,1018.02,58.0,292.45,1637148683.5517845,1637148684.5785964,9ac8e210-18b8-4d9c-8336-903160700674
-0.1241324018686373,-0.088381094544169,-0.1060397945673391,0.0353875865823109,-0.1355060247385661,0.2473445647507146,-0.2606553278526406,-0.284888378750224,-14.023286506673244,14.56043642242417,25.9559596196214,0.5643119208686305,-0.4731088718973958,0.7106677230723375,7055.317545572917,11.804222222222222,8.763333333333332,178.80205205914854,-6.176547940132824,42.71353433532974,1440.0,1435.0,1350.0,1528.0,1408.0,1018.02,58.0,292.45,1637148686.183141,1637148687.2450607,c5275540-5b6f-4591-aae0-5962d12a9a08
-0.1381094669785516,-0.0923651497098904,-0.1064079580901341,0.0532698135381197,-0.1289185274805926,0.2522358795009196,-0.2586961718877861,-0.2739223652320745,-14.233712885908169,14.266102464041955,28.44651767155344,0.5332870139880238,-0.5108659242529199,0.7025688188023601,7060.48291015625,11.804333333333334,8.703333333333333,178.7421892456229,-6.1649897896692165,42.48716896476708,1440.0,1435.0,1350.0,1528.0,1408.0,1018.02,58.0,292.45,1637148687.3536637,1637148688.3587894,c5275540-5b6f-4591-aae0-5962d12a9a08
-0.1243690784401893,-0.095363052620636,-0.1031996760150552,0.0459985845156893,-0.1304437763443432,0.2515784447175613,-0.2581702239518315,-0.2834814680644161,-14.154327864615029,14.686369911486786,26.99341374180664,0.5509658634035465,-0.5086871677133659,0.6969312374176223,7066.30322265625,11.802777777777775,8.716666666666669,178.69138629857636,-6.150365927769396,42.22189807778213,1440.0,1435.0,1350.0,1528.0,1408.0,1018.02,58.0,292.45,1637148688.4680605,1637148689.5880573,c5275540-5b6f-4591-aae0-5962d12a9a08
-0.2447810146865995,-0.2801729263995621,-0.111020411442644,0.1364216196562008,-0.095872016786984,0.3524711239291645,-0.2244416226962454,-0.2486708384367784,-14.251385041693169,15.187941451468047,27.524663552022588,0.5766843576013733,-1.2174783623066758,0.5913878089842977,7066.30322265625,11.797,8.74,178.68303525395115,-6.113357828412152,42.031764963491625,1355.0,1435.0,1350.0,1528.0,1341.0,1018.02,58.0,292.45,1637148690.1825168,1637148691.2260292,eea01b8d-cf8f-4f1b-89dd-ab008b2108f0
-0.2348099188853468,-0.2831861696983014,-0.1103766731475392,0.1357230951925064,-0.0966527206592451,0.3503892471749868,-0.2255647406030009,-0.2636000889628303,-14.250901841770458,15.389735895916251,26.713765937915145,0.5748225576927116,-1.221466076399204,0.5915758409805684,7068.894585503473,11.795333333333335,8.76222222222222,178.65627760842267,-6.109564606965593,41.90605874691212,1355.0,1435.0,1350.0,1528.0,1341.0,1018.02,58.0,292.45,1637148691.3340995,1637148692.454717,eea01b8d-cf8f-4f1b-89dd-ab008b2108f0
-0.2422197579157242,-0.2857200333915963,-0.1136364542794244,0.1248069382797832,-0.1047747803429588,0.3478964737029199,-0.2303996263105805,-0.25657375372921,-14.059728220033108,15.70935777319559,24.54275648065272,0.5955517955563246,-1.2119383032770716,0.6105038519499043,7071.485948350694,11.794777777777776,8.788888888888888,178.63811992996915,-6.124014393905317,41.78909061901079,1355.0,1435.0,1350.0,1528.0,1341.0,1018.02,58.0,292.45,1637148692.5628748,1637148693.683356,eea01b8d-cf8f-4f1b-89dd-ab008b2108f0
-0.3518415501355719,-0.4856690085759432,-0.1238957251751974,0.2341827204401724,-0.0668698264985094,0.4492427813022402,-0.1993823964728273,-0.2159103095593683,-14.36781764233968,16.28175415533782,25.490968690698164,0.5798452210931637,-1.982199103337912,0.506350687420808,7072.1337890625,11.788,8.763333333333334,178.64125271006847,-6.051834614872046,41.62216724642989,1271.0,1435.0,1350.0,1528.0,1273.0,1018.02,58.0,292.45,1637148695.7303164,1637148696.7550638,42330069-0d1e-44d5-ad7a-a84f71a14f22
-0.3451631070643188,-0.4865390142003419,-0.1201149269028965,0.2237645706318757,-0.0665202903128616,0.4585783548416739,-0.1951994670770064,-0.225277113489551,-14.367053572168368,16.528982250279526,25.36088594255609,0.6261311069437957,-1.982788068666905,0.4942843410930737,7072.1337890625,11.790111111111113,8.814444444444446,178.64807075667997,-6.07772814660678,41.59415815846349,1271.0,1435.0,1350.0,1528.0,1273.0,1018.02,58.0,292.45,1637148696.8640225,1637148697.9839022,42330069-0d1e-44d5-ad7a-a84f71a14f22
-0.3452146061379417,-0.4841174620318802,-0.1194120194791718,0.2246236187283283,-0.0654892133600568,0.4577499870424257,-0.1924398842003464,-0.2166334880603254,-14.189589979059935,16.35012926900619,25.707205228425583,0.6213257498805155,-1.978095478377699,0.4889792810264278,7072.1337890625,11.789,8.79111111111111,178.6488949328398,-6.074115261127059,41.56371221078321,1271.0,1435.0,1350.0,1528.0,1273.0,1018.02,58.0,292.45,1637148698.0917065,1637148699.214022,42330069-0d1e-44d5-ad7a-a84f71a14f22
-0.3926216913114884,-0.5867978513732922,-0.1169784147991806,0.2778659741709293,-0.0393463170746469,0.5228289054026312,-0.1713948461075223,-0.1863925801721337,-14.7988975676517,16.980439758045577,27.710874291027825,0.6517773276519873,-2.383045612924693,0.4102744902392515,7072.1337890625,11.778333333333332,8.871111111111112,178.70018661786696,-6.08010894185122,41.48366656771514,1186.0,1435.0,1350.0,1528.0,1206.0,1018.02,58.0,292.45,1637148701.2600214,1637148702.2844508,a60551f4-bcc3-4c80-9a40-386c65eaf2d5
-0.3994529881231899,-0.581102272639741,-0.1204902126442995,0.2617949810900561,-0.0474360527227457,0.5180499026186167,-0.1744393174157275,-0.2087179719506252,-14.514995993716834,16.971001830934597,25.69563941630227,0.6768747327513022,-2.3440762455763724,0.4283230033571634,7072.1337890625,11.777333333333331,8.85,178.7178965394749,-6.082379932318381,41.53358576417409,1186.0,1435.0,1350.0,1528.0,1206.0,1018.02,58.0,292.45,1637148702.3933554,1637148703.4706695,a60551f4-bcc3-4c80-9a40-386c65eaf2d5
-0.3923751531626175,-0.5810726880533639,-0.1218269968404104,0.2587455794808653,-0.0506048886169128,0.5161038957614682,-0.1784074846946912,-0.2017875139700105,-14.592081287849922,17.17474048472246,25.001892226876475,0.680515153566898,-2.336976873899724,0.4389719284388881,7066.30322265625,11.780111111111111,8.856666666666667,178.72935152562292,-6.057238622597865,41.551559406974974,1186.0,1435.0,1350.0,1528.0,1206.0,1018.02,58.0,292.45,1637148703.5794666,1637148704.7437277,a60551f4-bcc3-4c80-9a40-386c65eaf2d5
-0.0240335642503708,0.1157124235852608,-0.0912836694056154,-0.0420308426756733,-0.1665736570426854,0.134175384159121,-0.2968553371370745,-0.3204408152828907,-14.066002577793943,14.305330358818404,28.081255252832403,0.4840035800998119,0.2842948001033948,0.81149873319755,7066.30322265625,11.80511111111111,8.687777777777777,178.6106443556679,-6.084005469908975,41.55873414124312,1525.0,1435.0,1350.0,1528.0,1475.0,1018.02,58.0,292.45,1637148705.765876,1637148706.9041736,ad4661e3-2813-4f7e-a949-0bc0d12ad3ef
-0.0094878186909874,0.1146166989221969,-0.0932422773797585,-0.0401407175203982,-0.1663682086527262,0.1351204466726303,-0.2960198469369572,-0.3317952643189814,-13.991211168314848,14.076650112301948,28.308298046569817,0.4803239679280809,0.2772827782273339,0.8130495151910649,7066.30322265625,11.802777777777775,8.757777777777777,178.6204373291179,-6.095168133446892,41.68266261136365,1525.0,1435.0,1350.0,1528.0,1475.0,1018.02,58.0,292.45,1637148707.0136578,1637148708.1320765,ad4661e3-2813-4f7e-a949-0bc0d12ad3ef
-0.0160210772329928,0.1106173038823263,-0.0903659999347455,-0.0272111657984125,-0.1602047567837146,0.1382158688415599,-0.2933627142084757,-0.3085385039408551,-14.1554966177824,14.077961356264574,29.905003739228388,0.4584376327406763,0.2478842833016113,0.7987168232991047,7072.1337890625,11.802333333333332,8.726666666666667,178.6599173403404,-6.098481676399864,41.83196030133638,1525.0,1435.0,1350.0,1528.0,1475.0,1018.02,58.0,292.45,1637148708.240352,1637148709.3610537,ad4661e3-2813-4f7e-a949-0bc0d12ad3ef
-0.0082003421623371,0.1207253639295269,-0.1194711886007205,-0.3244539069379621,-0.2214694691267447,0.3942730175908588,-0.2471642159858695,-0.2612442806838502,-13.83048523679931,13.29019063655808,28.87718650579821,1.6976673254964094,0.3273432914460314,0.8537761170316985,7077.97412109375,11.804777777777778,8.694444444444445,178.75265309543136,-6.03659570392384,41.93691905940206,1525.0,1535.0,1350.0,1528.0,1475.0,1018.02,58.0,292.45,1637148710.2710075,1637148711.2958992,eca4fd26-9608-4303-9ba1-ac3656a25577
-0.0036393880866397,0.1146166989202821,-0.1229638112817672,-0.3230979474241207,-0.2234006841086007,0.4019156966808184,-0.2484379960869942,-0.2838162121547816,-13.85769794541315,13.294997575931175,29.271777882274463,1.7116898918801986,0.3007391553011692,0.8627891953495709,7081.87353515625,11.800666666666666,8.706666666666665,178.75468393834458,-6.042375514349617,42.02399676167559,1525.0,1535.0,1350.0,1528.0,1475.0,1018.02,58.0,292.45,1637148711.404658,1637148712.52517,eca4fd26-9608-4303-9ba1-ac3656a25577
-0.0191849823175143,0.1164794308498186,-0.118170015474809,-0.3079084616080269,-0.2141144164084503,0.4056959465462533,-0.2451508216483854,-0.263367247776186,-14.24384197894049,13.207674487928005,32.0895319881395,1.6858354744717896,0.2839171508937331,0.8430248221923359,7089.031575520833,11.801333333333332,8.687777777777777,178.78185139522327,-6.04164814663488,42.08434413917733,1525.0,1535.0,1350.0,1528.0,1475.0,1018.02,58.0,292.45,1637148712.6343224,1637148713.6610453,eca4fd26-9608-4303-9ba1-ac3656a25577
0.0023186150864633,0.1116237269897376,-0.1413966410940377,-0.5942246756934906,-0.2724497099411443,0.6693519358315535,-0.196844697871664,-0.2197365806342689,-13.916746681296695,13.204136408211337,31.5090109686446,2.9230570452137887,0.30231450225608,0.8816758567765807,7083.8232421875,11.797666666666666,8.70111111111111,178.8230860061525,-5.947983675544249,42.24883179040921,1525.0,1636.0,1350.0,1528.0,1475.0,1018.02,58.0,292.45,1637148715.6881487,1637148716.828555,1ddd6a55-8f19-4e0d-b16c-23cb284db915
0.023632652010409,0.1194209037158769,-0.1376755597772332,-0.5883340579316091,-0.2673348664135621,0.666275141210244,-0.1937284565537207,-0.218842469240374,-13.977344437554434,13.005250788124314,32.95696679387055,2.901922443784358,0.3186616183120897,0.8682767194779325,7083.8232421875,11.800222222222224,8.706666666666669,178.82738447187023,-5.946378770816772,42.28577362744514,1525.0,1636.0,1350.0,1528.0,1475.0,1018.02,58.0,292.45,1637148716.937484,1637148717.9644709,1ddd6a55-8f19-4e0d-b16c-23cb284db915
0.003249981068837,0.1186434870614477,-0.1374547712349389,-0.5985084127067015,-0.2713112518095545,0.660739540630532,-0.1956377569892814,-0.2299202473759617,-13.856948539322095,13.253693140251718,30.72109444542165,2.913796203209435,0.3359810719155878,0.8727556304454674,7083.8232421875,11.802555555555555,8.685555555555556,178.83948301362005,-5.942201540956877,42.37091421217907,1525.0,1636.0,1350.0,1528.0,1475.0,1018.02,58.0,292.45,1637148718.0718718,1637148719.1912365,1ddd6a55-8f19-4e0d-b16c-23cb284db915
0.0210692040113285,0.1156713339127181,-0.1479874255632036,-0.826432935984246,-0.3067305573229634,0.8954163537621672,-0.1452618102263964,-0.1631084283558862,-13.99679108131238,13.147151671193775,33.98532098134602,3.954507430840432,0.3242855705644785,0.8658222985323206,7083.8232421875,11.789222222222223,8.8,178.8909613904845,-5.894872029694491,42.50273496588554,1525.0,1737.0,1350.0,1528.0,1475.0,1018.02,58.0,292.45,1637148721.2176578,1637148722.262543,c528697f-e98d-4e54-923e-e4aea409dc63
0.0239591779398347,0.1154795820932803,-0.1510554549172441,-0.8200503364931828,-0.308771344852167,0.8827470381284264,-0.1506582547181313,-0.1669982510439683,-13.95953494106277,13.097833543569465,32.96150429438797,3.911016054556976,0.3313955886066411,0.8791024270322323,7077.97412109375,11.79022222222222,8.775555555555556,178.9077773162211,-5.897545574435858,42.488602545582886,1525.0,1737.0,1350.0,1528.0,1475.0,1018.02,58.0,292.45,1637148722.3707335,1637148723.492576,c528697f-e98d-4e54-923e-e4aea409dc63
