raw_voltage_G-,raw_voltage_G0,raw_voltage_G1,raw_voltage_G2,raw_voltage_G3,raw_voltage_G4,raw_voltage_G5,raw_voltage_G6,load_x,load_y,load_z,load_l,load_m,load_n,rpm,voltage,current,roll,pitch,yaw,aileron1_pwm,elevator_pwm,throttle_pwm,rudder_pwm,aileron2_pwm,pbaro,pdiff,Tt,sample_start_time,sample_end_time,uid
-0.0197876308570485,0.0984821531674405,0.0199871760321949,-0.003803746619522,-0.1107875699070733,0.0554612629476476,-0.2592856717982741,-0.2819123900642291,-13.93631170448468,20.89880073116013,19.99341264169352,0.2689169677971479,0.2928944604772633,0.5145781954655836,3164.4879014756943,12.024666666666668,0.3477777777777777,179.1787521700729,-1.3478479967416832,91.46316790520802,1525.0,1435.0,1200.0,1528.0,1475.0,1018.02,58.0,292.45,1637145554.7437394,1637145555.8040287,56dfe9ab-93e8-43da-9a4a-14091d1ae742
-0.0152266767297728,0.1035224866512022,0.0230552051876058,-0.0043105192780756,-0.1096507554773246,0.0515577437572169,-0.2585323609824984,-0.2808714514013257,-13.926105013020914,20.987042592640915,20.08776454738886,0.262046305285593,0.3111486842997296,0.5084846317390891,3371.652750651041,12.027,0.3400000000000001,179.16119706608612,-1.388107657456775,90.65990957914794,1525.0,1435.0,1200.0,1528.0,1475.0,1018.02,58.0,292.45,1637145555.912099,1637145557.03238,56dfe9ab-93e8-43da-9a4a-14091d1ae742
-0.0153269355381914,0.1070742781696438,0.0245399121536492,-0.0079373680724535,-0.108051545204618,0.0509161969517482,-0.2552643616992773,-0.2743431226380675,-13.84354563077516,20.79552796963049,20.03671396974712,0.2676237217030353,0.3248756041922923,0.500091997019643,3394.624267578125,12.025,0.3400000000000001,179.15468713689722,-1.4179394810101251,89.97087174766806,1525.0,1435.0,1200.0,1528.0,1475.0,1018.02,58.0,292.45,1637145557.1401284,1637145558.2574434,56dfe9ab-93e8-43da-9a4a-14091d1ae742
0.0924830605449594,0.2985477764397342,0.0299445742167925,-0.0981867352955441,-0.146699948949495,-0.0503446539656831,-0.2940886318684004,-0.3190848555538964,-13.815458637138647,20.3992544853205,20.373691687658,0.2413675561151939,1.0512797547844466,0.6236774145254264,3398.213297526041,12.019,0.36,179.06664599849577,-1.4411742904626277,88.70891916642734,1610.0,1435.0,1200.0,1528.0,1542.0,1018.02,58.0,292.45,1637145560.2888916,1637145561.5383034,9eb580a0-5df5-4971-a283-9e3f9e93fd3d
0.096496152173386,0.3012733914278301,0.0329167274537032,-0.099323549721767,-0.1447002512393041,-0.0521389032096015,-0.2913493197605047,-0.3105929876974964,-13.752682710518306,20.38883758548698,20.371242747399624,0.2400101612446268,1.061408068660181,0.613366739146891,3398.662353515625,12.021,0.36,179.03271361869915,-1.4461545655846249,88.29459989137438,1610.0,1435.0,1200.0,1528.0,1542.0,1018.02,58.0,292.45,1637145561.6458652,1637145562.7672234,9eb580a0-5df5-4971-a283-9e3f9e93fd3d
0.0916475704943845,0.2996708941732764,0.0289173323129314,-0.1014328198564212,-0.1482476601812496,-0.0474820731214761,-0.293896880020299,-0.3206188702888437,-13.758213822717876,20.360379688605843,20.50900505716188,0.2548640587664927,1.0542215669694306,0.6272669537694716,3394.0269368489585,12.02,0.3499999999999999,179.02523380264807,-1.430261248994534,87.95788522567106,1610.0,1435.0,1200.0,1528.0,1542.0,1018.02,58.0,292.45,1637145562.876606,1637145564.001614,9eb580a0-5df5-4971-a283-9e3f9e93fd3d
0.2025206613635337,0.5111073916560107,0.0423826930729799,-0.1995007347486559,-0.1856025614783434,-0.1643411178083629,-0.32985692615237,-0.3551813195288777,-13.496320871132095,20.023992832557948,20.42608249797305,0.2120425191666062,1.859040497997736,0.7359185762541296,3389.7019856770835,12.016,0.3633333333333334,178.96924294747194,-1.4205654041547795,87.54779839117379,1695.0,1435.0,1200.0,1528.0,1609.0,1018.02,58.0,292.45,1637145564.7942076,1637145565.9325535,b99b4efd-cf54-4444-83b3-24e4bf14f1c6
0.2127634953045046,0.5116333394567643,0.0448677966621572,-0.2046024293922589,-0.1842087995528806,-0.1577010256631704,-0.3265171567765765,-0.35464222306746,-13.532929474526249,20.084148509246653,20.797121255662887,0.2390351047114893,1.8587704118953845,0.7263695671788067,3388.5109049479165,12.017555555555557,0.3644444444444444,178.95392966335277,-1.4129557907935428,87.37202271397359,1695.0,1435.0,1200.0,1528.0,1609.0,1018.02,58.0,292.45,1637145566.040843,1637145567.0730107,b99b4efd-cf54-4444-83b3-24e4bf14f1c6
0.2098214746247933,0.5135974257777134,0.0455723476449362,-0.2038009066943691,-0.1835163014850108,-0.1585063833633997,-0.3276725986363452,-0.3522853188934662,-13.678649059408755,20.14168526123085,21.05932543121488,0.2358022649435624,1.8647913441216355,0.726600061231251,3389.255126953125,12.016888888888888,0.3611111111111111,178.9553199863038,-1.4032039289162208,87.16156788962753,1695.0,1435.0,1200.0,1528.0,1609.0,1018.02,58.0,292.45,1637145567.181714,1637145568.2971342,b99b4efd-cf54-4444-83b3-24e4bf14f1c6
0.313653435996784,0.690850052098442,0.0518366056934768,-0.2941056156369491,-0.2218535206504922,-0.2519245924514438,-0.3624262523061969,-0.3804662669114977,-13.42565703070508,19.962647762958653,20.53881136213351,0.2287538081293555,2.543931675941851,0.839931714626939,3391.192165798612,12.004444444444443,0.3955555555555555,178.91411421395102,-1.3877096684999817,86.85175885688474,1779.0,1435.0,1200.0,1528.0,1677.0,1018.02,58.0,292.45,1637145569.4126005,1637145570.547468,6afb2fd2-d30e-46c8-8e87-865cc4d20ef7
0.3049851585433857,0.6946933060645956,0.0557078010104304,-0.2923080790093482,-0.2190999642192823,-0.2587652025153137,-0.3609689382107163,-0.3787059850489685,-13.414074517611583,20.010046169428964,20.35699011222181,0.2098110581380866,2.559900615717274,0.8290425001181648,3390.595703125,12.00188888888889,0.3922222222222222,178.8935841831258,-1.390263684930874,86.66988609748546,1779.0,1435.0,1200.0,1528.0,1677.0,1018.02,58.0,292.45,1637145570.6558087,1637145571.779603,6afb2fd2-d30e-46c8-8e87-865cc4d20ef7
0.3066835317080881,0.6907350010177288,0.0526397718766253,-0.291499981940269,-0.2214968622407457,-0.2544507860328481,-0.3633110501652303,-0.3817740147062158,-13.449481550953015,20.06186550661928,20.503397589328443,0.2178795235203365,2.5437144497534017,0.8395124880664117,3391.4903971354165,12.000666666666667,0.4000000000000001,178.89761247691624,-1.3848195735596158,86.5262274875825,1779.0,1435.0,1200.0,1528.0,1677.0,1018.02,58.0,292.45,1637145571.8884563,1637145572.8953311,6afb2fd2-d30e-46c8-8e87-865cc4d20ef7
0.3121758513443738,0.6937619401734804,0.0646790468514894,-0.3080728203429123,-0.2160593279150126,-0.2456438978064532,-0.3529153603777913,-0.3838969818974155,-13.48104525283946,20.48822737986177,20.08918925372555,0.2783980046676298,2.5617727578873417,0.8003339488281531,3383.7569173177085,11.993444444444444,0.42,178.8765830833717,-1.3578877700652692,86.25235132115323,1864.0,1435.0,1200.0,1528.0,1744.0,1018.02,58.0,292.45,1637145574.8293476,1637145575.8752153,e318ff79-8f54-48bc-8117-52c97b0aa3fe
0.3139153141574914,0.707595463008294,0.0635970187188606,-0.3127707406847432,-0.219784792269912,-0.2539987995809574,-0.3578050326548497,-0.3768021632281366,-13.527867880818954,20.45820441722789,20.19092271269973,0.2699605260693795,2.6135959277641727,0.8156006706270454,3376.7931315104165,11.992,0.42,178.86459078900896,-1.3455304044629983,86.16418420370708,1864.0,1435.0,1200.0,1528.0,1744.0,1018.02,58.0,292.45,1637145575.9836204,1637145577.1093786,e318ff79-8f54-48bc-8117-52c97b0aa3fe
0.3105733540888717,0.702431860923452,0.0631861219796865,-0.310154697561916,-0.219894364707646,-0.2519717087096869,-0.3569421492902356,-0.3861021281955055,-13.418896005096975,20.505850269092296,20.10294229251705,0.2689507368410346,2.593890441076867,0.8144121522907856,3375.90625,11.994,0.42,178.87465393438617,-1.3377569732833876,86.0848644579658,1864.0,1435.0,1200.0,1528.0,1744.0,1018.02,58.0,292.45,1637145577.2256231,1637145578.3321276,e318ff79-8f54-48bc-8117-52c97b0aa3fe
-0.1227309697704873,-0.0909412554122214,0.0153166494945427,0.0888260794611567,-0.0723687210673171,0.1546791318169854,-0.2230308769634251,-0.2555739042770111,-14.09957957013985,21.47305770053875,19.95451289183978,0.2864084457906805,-0.4277492145370655,0.394484880780352,3385.239501953125,12.021,0.35,179.06135943207815,-1.3203262593737106,85.93832806169252,1440.0,1435.0,1200.0,1528.0,1408.0,1018.02,58.0,292.45,1637145579.2430308,1637145580.2682066,cb7494e4-e5bd-4a5d-b850-1edc40e047d2
-0.1259496612506493,-0.0946256298584205,0.0133032553581815,0.0914695152446562,-0.0732042111769515,0.155459835623153,-0.2246333744836897,-0.243397662170629,-14.12532274038191,21.475835028106264,19.884562769123587,0.2820938967459011,-0.4412187436632732,0.4001085084077211,3401.0630154079863,12.023333333333332,0.3499999999999999,179.05560993061684,-1.3433376528641436,85.96119477612382,1440.0,1435.0,1200.0,1528.0,1408.0,1018.02,58.0,292.45,1637145580.3765898,1637145581.590695,cb7494e4-e5bd-4a5d-b850-1edc40e047d2
-0.128141110776957,-0.0999125017670769,0.0123581927976785,0.0951812825820593,-0.0719989139760371,0.1567473120956091,-0.2238252774468865,-0.2488488931448396,-14.116042442489482,21.394562166636707,19.81750934509283,0.2760223478990642,-0.4610374068407909,0.3979426223096167,3415.6682400173613,12.025333333333332,0.35,179.06032427896395,-1.355749731127578,86.00987808779796,1440.0,1435.0,1200.0,1528.0,1408.0,1018.02,58.0,292.45,1637145581.6994526,1637145582.8376586,cb7494e4-e5bd-4a5d-b850-1edc40e047d2
-0.2294134740271296,-0.2954445913645125,0.0098791156653945,0.1923583631771986,-0.033086989576638,0.2580196619502397,-0.1855159992193494,-0.2131556574454724,-14.083025576443356,22.22935200141892,19.82718405069768,0.2898157980600982,-1.206828638656806,0.2706649563383969,3424.765326605903,12.013555555555556,0.3777777777777778,179.1152056078549,-1.3585525988604183,86.10857204457493,1355.0,1435.0,1200.0,1528.0,1341.0,1018.02,58.0,292.45,1637145583.7400944,1637145584.886053,edb982a5-074a-4354-9be0-2a0aa08bba00
-0.2391654248137479,-0.3017587057986817,0.0051948925519229,0.1948511367359628,-0.0340868383877163,0.2621560224169922,-0.1875704831984057,-0.2189219091843042,-14.19138061988158,22.062901978255216,19.838653796252828,0.292098290731773,-1.2304518438704262,0.2806036100531586,3426.5907389322915,12.012999999999998,0.3744444444444444,179.1114004335773,-1.3672486629024447,86.0891462276655,1355.0,1435.0,1200.0,1528.0,1341.0,1018.02,58.0,292.45,1637145584.995087,1637145586.0032947,edb982a5-074a-4354-9be0-2a0aa08bba00
-0.2394201808895656,-0.3003249498332511,0.0054743023502941,0.1921068943758181,-0.0359177943963756,0.2640828541761743,-0.1875222713081377,-0.2038003589680929,-14.094469163521335,22.17479773526992,19.95237013322273,0.3034410704263196,-1.226410682031426,0.2829795866868317,3428.570556640625,12.006,0.38,179.1058376239533,-1.3715391244921724,86.06898275032569,1355.0,1435.0,1200.0,1528.0,1341.0,1018.02,58.0,292.45,1637145586.1114235,1637145587.232577,edb982a5-074a-4354-9be0-2a0aa08bba00
-0.3413691595001381,-0.4990028856817639,0.0054962168437376,0.2914803526360824,0.0061673482142114,0.3663183436667159,-0.149069453764933,-0.1750107380342011,-14.325787940037236,23.179359248304426,19.957846884201047,0.3155605746972019,-1.9822016332374028,0.1471445422702262,3431.162868923612,12.000111111111112,0.4,179.17661811541225,-1.3575714587873,86.12069031798234,1271.0,1435.0,1200.0,1528.0,1273.0,1018.02,58.0,292.45,1637145589.278785,1637145590.422434,2dbaecfc-9f3a-401f-8478-02f883fa9ad4
-0.3429168708966557,-0.4973592982328804,0.0055236099419789,0.2929047946410461,0.007098714204346,0.3632503147612992,-0.1484394120359882,-0.1742300341632488,-14.282944731787206,23.03710285302687,19.94112837949012,0.304530342239116,-1.9763682943201444,0.1452177330009965,3421.4256998697915,12.001111111111111,0.4099999999999999,179.18352419557297,-1.3750846685755451,86.09315023633894,1271.0,1435.0,1200.0,1528.0,1273.0,1018.02,58.0,292.45,1637145590.5339727,1637145591.531394,2dbaecfc-9f3a-401f-8478-02f883fa9ad4
-0.3498610273263831,-0.5050567661512777,0.0010037455539531,0.2968083135867074,0.003195194962874,0.3671401371029792,-0.1524798971156113,-0.1758325318789762,-14.25888350323926,23.18373086393981,19.898081152047325,0.305218115606343,-2.005791907324016,0.1614470952789481,3409.477294921875,12.0,0.4,179.1776775536435,-1.369964979331896,86.06039037234983,1271.0,1435.0,1200.0,1528.0,1273.0,1018.02,58.0,292.45,1637145591.6399677,1637145592.7611456,2dbaecfc-9f3a-401f-8478-02f883fa9ad4
-0.4049896859894433,-0.6064524192247892,-0.0007220208839154,0.35069057142659,0.0224936462557226,0.4249396097782101,-0.1357290047560181,-0.164820497667025,-14.465207094746804,23.86118877287516,21.094857022815223,0.3180480093947057,-2.401965915459574,0.1031337937100518,3412.19189453125,11.986333333333334,0.4333333333333333,179.22411828654012,-1.378335518455354,86.01504929990955,1186.0,1435.0,1200.0,1528.0,1206.0,1018.02,58.0,292.45,1637145593.7844856,1637145594.9210732,d6ff2c63-43e6-4d4a-952e-a1b7bae3fae3
-0.3991823439481375,-0.6045075072355494,0.001277676721376,0.3503755506096332,0.0240550539598892,0.4242136922415261,-0.1329349065836758,-0.1579585212731567,-14.357675089283925,23.79711810797146,21.239897127268254,0.3168794740619291,-2.396553415516053,0.0948417257687102,3407.6708984375,11.991333333333335,0.4222222222222222,179.21479735505278,-1.405532371234993,85.98320847581878,1186.0,1435.0,1200.0,1528.0,1206.0,1018.02,58.0,292.45,1637145595.0298278,1637145596.1503303,d6ff2c63-43e6-4d4a-952e-a1b7bae3fae3
-0.403483064250143,-0.6092328215088303,0.0009215661714079,0.3555391528172958,0.0265615241904444,0.424021940444448,-0.1327157616458926,-0.1577119832995334,-14.476486802837265,23.71839442611925,21.23144912806926,0.3042000065032137,-2.414020083068364,0.0910120429306659,3405.2633192274307,11.989666666666668,0.43,179.21684185834434,-1.454039461656941,85.94321468258872,1186.0,1435.0,1200.0,1528.0,1206.0,1018.02,58.0,292.45,1637145596.259307,1637145597.2663772,d6ff2c63-43e6-4d4a-952e-a1b7bae3fae3
-0.0092686736054242,0.1141099262635892,0.0220690529598373,-0.0060636788129409,-0.1121161361718632,0.0434630776139283,-0.2614908180114083,-0.2901303261282067,-13.865843268942696,20.87218590594657,20.16809563269128,0.2470438448448049,0.3498709165391997,0.5188673069860227,3412.49400499132,12.024,0.3400000000000001,179.06962092533425,-1.520570721678481,85.96009359784765,1525.0,1435.0,1200.0,1528.0,1475.0,1018.02,58.0,292.45,1637145599.3139088,1637145600.4522357,43afb152-2be9-4ada-98b3-663d19e9586f
-0.0093782460901484,0.1105077314193755,0.0217129424231553,-0.0041872502468261,-0.111896991237382,0.0474076865015771,-0.2618058389141613,-0.279323739886076,-13.943490075135244,20.96046796936616,20.46932335544889,0.2522515771442387,0.3339881802341007,0.5194176731885759,3420.5147569444443,12.025,0.3400000000000001,179.05368837073033,-1.5104245942461,86.17368575575246,1525.0,1435.0,1200.0,1528.0,1475.0,1018.02,58.0,292.45,1637145600.5607922,1637145601.6804934,43afb152-2be9-4ada-98b3-663d19e9586f
-0.0128571720624928,0.1126854841916994,0.0218499080190585,-0.0042009468140176,-0.1117737221864477,0.0442300848937175,-0.2622030391547357,-0.2958828815749827,-13.940744217278544,20.91164050294456,20.31881015338615,0.244802504469159,0.3434801785456455,0.5197016681701379,3423.093505859375,12.026000000000002,0.3400000000000001,179.03914765689728,-1.4933592243092155,86.33974131485382,1525.0,1435.0,1200.0,1528.0,1475.0,1018.02,58.0,292.45,1637145601.788911,1637145602.9094305,43afb152-2be9-4ada-98b3-663d19e9586f
-0.0070498310862906,0.1044538526223658,0.0039622022596134,-0.2059512666089487,-0.1463986246347163,0.2474459192916374,-0.2192369298174512,-0.2393297837441229,-13.816422562200684,20.205147527509205,21.754412036762403,1.151272218512171,0.3226967497875391,0.5297070591340846,3426.2875705295137,12.024444444444445,0.3400000000000001,179.04795252964735,-1.392361987820112,86.66421628156444,1525.0,1535.0,1200.0,1528.0,1475.0,1018.02,58.0,292.45,1637145604.8436797,1637145605.8956597,e5218d7e-8f93-4517-8bc4-1ab4e02b774c
-0.0037763534997879,0.1103844623924777,0.0063591000546217,-0.2072524398117036,-0.1461794796782974,0.2457612426731698,-0.2210448757437218,-0.2469861610873152,-14.003424914188685,20.41340791395003,22.171174744260355,1.1518938881010303,0.3428856262913237,0.5297932234895697,3429.9423828125,12.025444444444446,0.3322222222222222,179.04707674761377,-1.3786415488756665,86.71618870877887,1525.0,1535.0,1200.0,1528.0,1475.0,1018.02,58.0,292.45,1637145606.030532,1637145607.0975783,e5218d7e-8f93-4517-8bc4-1ab4e02b774c
-0.0056527820646816,0.1057550256690592,0.0050853200805637,-0.2052390454999309,-0.1463575349616735,0.2480211747168896,-0.2210722688741554,-0.245000159842136,-13.984713316232112,20.408540801440097,22.106159067623693,1.15233389752285,0.3256374947802294,0.5311919209739527,3431.162868923612,12.024333333333333,0.3400000000000001,179.05497851757357,-1.3783154666326347,86.7377500981688,1525.0,1535.0,1200.0,1528.0,1475.0,1018.02,58.0,292.45,1637145607.208008,1637145608.2335105,e5218d7e-8f93-4517-8bc4-1ab4e02b774c
0.00233231172737,0.1045360319739062,-0.0067074170730044,-0.4048801134694708,-0.1802702168042221,0.4421698790533375,-0.1794210300978828,-0.1975826686854179,-13.86255303349733,20.1674258239093,23.51852643202469,2.037054348329901,0.3315115332851308,0.5344329666337527,3438.197509765625,12.02425,0.35,179.07967116924297,-1.324936957228587,86.82590602169381,1525.0,1636.0,1200.0,1528.0,1475.0,1018.02,58.0,292.45,1637145609.3492048,1637145610.2858036,03bababb-1197-4d1f-8aa3-de6909d4ac1c
0.0047774214237153,0.1016833127899497,-0.0102515386488254,-0.4049885901861343,-0.1822101975373131,0.4440358980455216,-0.1813292348059364,-0.2120051463302748,-13.879808118442757,20.065608277971783,23.352666056379302,2.040605679776206,0.3221911961180582,0.5440728543041802,3438.197509765625,12.024111111111113,0.3455555555555556,179.07909971008243,-1.332325585511052,86.83474713239197,1525.0,1636.0,1200.0,1528.0,1475.0,1018.02,58.0,292.45,1637145610.401537,1637145611.5122864,03bababb-1197-4d1f-8aa3-de6909d4ac1c
0.002839084416164,0.1028787484090348,-0.0084331834936924,-0.402989987960374,-0.1806400239220845,0.44126590627152,-0.1801880374442508,-0.210964207798876,-13.845323645173806,20.07009866264012,23.398157550807344,2.030017700905915,0.3258968233792541,0.538079387347191,3440.957763671875,12.021222222222224,0.3422222222222222,179.0764162046485,-1.3418390192396912,86.8721067493321,1525.0,1636.0,1200.0,1528.0,1475.0,1018.02,58.0,292.45,1637145611.6209795,1637145612.6265593,03bababb-1197-4d1f-8aa3-de6909d4ac1c
0.014029172948214,0.1101790140151409,-0.0073237622284565,-0.5548300739296386,-0.2016916364644379,0.5839018543951114,-0.1452892033146617,-0.168806196591908,-13.838975076225395,20.33643955438377,24.94970762651535,2.695125123802672,0.3582505880613471,0.5171871154391862,3435.44140625,12.018,0.36,179.0814690268145,-1.3176079389477842,86.8737733154896,1525.0,1737.0,1200.0,1528.0,1475.0,1018.02,58.0,292.45,1637145613.2400482,1637145614.3775833,9b83eb0e-f27a-40bb-b91f-1531494568ee
0.0074959144139849,0.1016597547129441,-0.0126791167520452,-0.5517072577012718,-0.2047870590181131,0.5879697319049557,-0.1483298395436526,-0.1762982146416528,-13.81896795333858,20.3083562323792,24.718178195886907,2.6967422147120743,0.3274841573033422,0.5317278641088294,3436.2066514756943,12.01611111111111,0.36,179.092928566422,-1.3224402740696335,86.8647498766861,1525.0,1737.0,1200.0,1528.0,1475.0,1018.02,58.0,292.45,1637145614.4863026,1637145615.4954877,9b83eb0e-f27a-40bb-b91f-1531494568ee
0.0084683700733857,0.105549577289899,-0.0105287570085398,-0.5572680621208838,-0.2032804374197328,0.5905309881136498,-0.1447139478149723,-0.1666147470234907,-13.785481887086858,20.19822409156793,24.91938437637437,2.714467435516234,0.3408721731324748,0.5223706673613454,3438.197509765625,12.01688888888889,0.36,179.07897524885755,-1.3252442801673356,86.86183035027088,1525.0,1737.0,1200.0,1528.0,1475.0,1018.02,58.0,292.45,1637145615.6045563,1637145616.8355286,9b83eb0e-f27a-40bb-b91f-1531494568ee
0.008934053093201,0.1005092438043655,-0.0172126777720051,-0.5979057643509992,-0.2177987910413098,0.6333738192262585,-0.1443715338727235,-0.1623825100233075,-13.814597976747969,20.66563672522329,24.958185724736868,2.90516694648442,0.3264176122469629,0.5496449185381324,3439.7305501302085,12.00577777777778,0.38,179.08505563503866,-1.3343317757102335,86.8080008705121,1525.0,1837.0,1200.0,1528.0,1475.0,1018.02,58.0,292.45,1637145618.770244,1637145619.7954476,21a61a10-d42c-4769-9d21-75ace56f3b5d
0.0072888224567904,0.1039843345954011,-0.0127497910069557,-0.5914897463817648,-0.2135172463642177,0.6258429041859297,-0.1423696447099954,-0.1636047908756756,-13.804544038294434,20.683865379423164,25.23598867601728,2.874163416449333,0.3364112789268291,0.5357477391064895,3440.190755208333,12.00922222222222,0.38,179.08239186126238,-1.3325037870437724,86.75577041392903,1525.0,1837.0,1200.0,1528.0,1475.0,1018.02,58.0,292.45,1637145619.903527,1637145621.027753,21a61a10-d42c-4769-9d21-75ace56f3b5d
0.0122623168732884,0.1045360319690704,-0.0125421511762382,-0.5889482125085798,-0.2137993955213315,0.624169732741003,-0.1443715338500034,-0.1731753990912304,-13.88476736100966,20.810349574011315,25.39957830980829,2.865505011909748,0.3373007807957275,0.5389110191412833,3435.44140625,12.006999999999998,0.38,179.072642904587,-1.330564286052737,86.70496898470228,1525.0,1837.0,1200.0,1528.0,1475.0,1018.02,58.0,292.45,1637145621.1361687,1637145622.2577858,21a61a10-d42c-4769-9d21-75ace56f3b5d
-0.0140624692163508,0.1165342170852225,0.040011544840514,0.1965905996200314,-0.0769570684039447,-0.1541782705103311,-0.3029229134443512,-0.3289600756485711,-13.97270584339038,21.65163332733682,18.839460608082973,-0.648426172028061,0.3476950847594997,0.5053139472728857,3431.7740885416665,12.023666666666667,0.3400000000000001,179.07790215024795,-1.512207297335408,86.66500554786853,1525.0,1334.0,1200.0,1528.0,1475.0,1018.02,58.0,292.45,1637145623.2759216,1637145624.4223378,c2722b97-8e79-4232-ab1d-935ce643f6f3
-0.0180070781964443,0.1116719388718382,0.038929516708542,0.1970699791413048,-0.0764092060305452,-0.1511787239573877,-0.3027311615938719,-0.3268234121863695,-14.04438005093828,21.622075716818205,18.64878226705122,-0.643083446118084,0.331527736994854,0.5048785881728288,3429.9423828125,12.024666666666665,0.3400000000000001,179.0781040202834,-1.5152153434765967,86.79917930174409,1525.0,1334.0,1200.0,1528.0,1475.0,1018.02,58.0,292.45,1637145624.5346413,1637145625.6428573,c2722b97-8e79-4232-ab1d-935ce643f6f3
-0.0211709833069438,0.1110145040775566,0.0386692820922194,0.1983163659263767,-0.0777925585131507,-0.1508500065209763,-0.3037447070865617,-0.3339182305955998,-13.984668794513397,21.74582068152,18.760316329779595,-0.644301118692444,0.3274829558768249,0.5086402235208533,3432.68994140625,12.025777777777778,0.3400000000000001,179.06968012030703,-1.4988840291480114,86.91472257629357,1525.0,1334.0,1200.0,1528.0,1475.0,1018.02,58.0,292.45,1637145625.7511473,1637145626.87347,c2722b97-8e79-4232-ab1d-935ce643f6f3
-0.0277918999012987,0.1100064373816454,0.0515736317620839,0.4063780351126245,-0.0470415917880906,-0.3532221633408145,-0.3502374087538064,-0.3779943115717712,-13.943881625403703,22.52354198159948,16.94956162863666,-1.562864481150261,0.3146764963253715,0.5142196972462475,3432.68994140625,12.023,0.34,179.0798009428372,-1.545091563259552,87.01839953552499,1525.0,1234.0,1200.0,1528.0,1475.0,1018.02,58.0,292.45,1637145627.782711,1637145628.726743,3e49c531-6e93-4944-9ca6-c68a3200358b
-0.028142531814246,0.1149454163185628,0.0547627384673158,0.406627312455365,-0.0458110929260446,-0.356901059595001,-0.3499295100550648,-0.375761224891354,-13.97293118666788,22.651516891770864,17.15911155233958,-1.5706678228351707,0.331722691533296,0.5085807436893405,3425.829833984375,12.021,0.3466666666666667,179.10326947282536,-1.5356576846335888,87.08083884818751,1525.0,1234.0,1200.0,1528.0,1475.0,1018.02,58.0,292.45,1637145628.8361845,1637145629.9461558,3e49c531-6e93-4944-9ca6-c68a3200358b
-0.0239102951068158,0.1156713339116746,0.0561871805577611,0.4013130481536175,-0.0443455611001518,-0.3533810434316353,-0.3468477838423809,-0.3711043937960442,-13.991814848324124,22.56489090236672,17.083498431659752,-1.551295083419965,0.3359922675522752,0.5002121851132513,3427.199462890625,12.017111111111111,0.36,179.09158074242575,-1.5344387448840553,87.14116839130644,1525.0,1234.0,1200.0,1528.0,1475.0,1018.02,58.0,292.45,1637145630.0549982,1637145631.2693884,3e49c531-6e93-4944-9ca6-c68a3200358b
-0.0353058321698124,0.1168492379255493,0.0662267579312249,0.5162408613046569,-0.0277042419602217,-0.4649395362953927,-0.3746791959835767,-0.4000041381178166,-14.135507905490764,23.41490424781564,16.355721742561656,-2.055284499559352,0.3343782119641072,0.5031614687225695,3423.5493977864585,12.017,0.3566666666666667,179.11831865629662,-1.549024827300029,87.21489952448681,1525.0,1133.0,1200.0,1528.0,1475.0,1018.02,58.0,292.45,1637145633.3123963,1637145634.449292,63e79289-3aad-4679-bd18-ea2cac1e7ed7
-0.0377849093317737,0.1142879815147899,0.0655145369103912,0.5169804753858598,-0.0276631522585547,-0.4636520595599675,-0.375007913419745,-0.4065373976525845,-14.17455292415994,23.419198657669344,16.27500624465243,-2.054099272064038,0.3256275331495561,0.5040980252986077,3425.525689019097,12.015777777777778,0.3555555555555555,179.12200999408807,-1.5550017527163844,87.19621288582756,1525.0,1133.0,1200.0,1528.0,1475.0,1018.02,58.0,292.45,1637145634.557705,1637145635.67646,63e79289-3aad-4679-bd18-ea2cac1e7ed7
-0.0351003837900829,0.1211225641209889,0.069198911167308,0.5090775618157685,-0.0252251647317758,-0.4615975752184735,-0.3704606550786947,-0.3960458315906545,-14.183875783727194,23.303158680091617,16.517519798938743,-2.03220735525835,0.3503825862429341,0.4904217044577412,3423.093505859375,12.017,0.36,179.11256763701547,-1.5354798862717571,87.19859358620826,1525.0,1133.0,1200.0,1528.0,1475.0,1018.02,58.0,292.45,1637145635.7854412,1637145636.914631,63e79289-3aad-4679-bd18-ea2cac1e7ed7
-0.035045597545057,0.1183421627842559,0.0683223314173859,0.5258284514538466,-0.0284301595468287,-0.4756776406376035,-0.3803495722293772,-0.4093862827225136,-14.22377989536282,23.874758445660216,16.273449220163492,-2.0979464821763014,0.3402917440606914,0.5092653123408833,3422.48619249132,12.011222222222225,0.3744444444444444,179.12767601545954,-1.5425349736497531,87.21107917201104,1525.0,1033.0,1200.0,1528.0,1475.0,1018.02,58.0,292.45,1637145638.840882,1637145639.981027,07143d67-4fd0-4554-9e09-415cae3b9f84
-0.0284438561110106,0.1210951710047664,0.0659391302145564,0.5219660222789576,-0.0312790438320593,-0.4771705660239216,-0.3814179040216465,-0.41786445397005,-14.095517201824444,23.74293611269144,15.926895908660464,-2.0935718030496986,0.3531031099789512,0.5178695029070773,3422.638020833333,12.016666666666666,0.3633333333333333,179.12161536093603,-1.5504794085759284,87.19840917110068,1525.0,1033.0,1200.0,1528.0,1475.0,1018.02,58.0,292.45,1637145640.08972,1637145641.1008089,07143d67-4fd0-4554-9e09-415cae3b9f84
-0.0386477925503046,0.1179449625932205,0.0673361792089241,0.5256777893256125,-0.0288136631938941,-0.4730342041554126,-0.3809522208757276,-0.4052910109700667,-14.288871505031844,23.85859127093353,16.568433361361627,-2.0918084918258684,0.3366040260159086,0.5123177174688652,3426.438883463541,12.008555555555557,0.38,179.11694351154372,-1.5527410075329795,87.20041572889686,1525.0,1033.0,1200.0,1528.0,1475.0,1018.02,58.0,292.45,1637145641.2126596,1637145642.3262722,07143d67-4fd0-4554-9e09-415cae3b9f84
-0.0109396537877367,0.1065220329327093,0.0177683335150258,-0.0184727611794127,-0.1159648693723656,0.0657336818720184,-0.2611347074481718,-0.2788443603089959,-14.057083562548122,20.944762489200432,20.63739012387793,0.3253262303948174,0.3198623215125467,0.5289361821103676,3426.438883463541,12.028333333333332,0.3377777777777778,179.13086191925242,-1.418538924973532,87.19306265080039,1525.0,1435.0,1200.0,1528.0,1475.0,1018.02,58.0,292.45,1637145643.34696,1637145644.3735669,5ee92798-ba41-4d2f-ad0a-f77ec06a3a7a
-0.0137885380457871,0.1078642956563249,0.0185353408045913,-0.0182125265593412,-0.1147184824693989,0.0642407569878445,-0.2594911202112675,-0.2912397474716637,-13.99985076794058,20.830331403777706,20.65652981141301,0.320695878155908,0.3243365516407208,0.5241316041450308,3432.231770833333,12.025,0.3333333333333333,179.13454263230514,-1.4130070883601218,87.18024997482733,1525.0,1435.0,1200.0,1528.0,1475.0,1018.02,58.0,292.45,1637145644.4812386,1637145645.6010664,5ee92798-ba41-4d2f-ad0a-f77ec06a3a7a
-0.0100630740308059,0.1116034560847359,0.0231784742116615,-0.0207463899497856,-0.1120065637014372,0.0631039426302322,-0.256628539103409,-0.2735027017088098,-14.03178806503027,20.938206051504256,20.71179211180156,0.324796123339666,0.3387050848019754,0.5104746212225456,3436.81884765625,12.026,0.33,179.11630147376175,-1.424667003899176,87.17496113168002,1525.0,1435.0,1200.0,1528.0,1475.0,1018.02,58.0,292.45,1637145645.7093313,1637145646.74308,5ee92798-ba41-4d2f-ad0a-f77ec06a3a7a
0.0165455047265466,0.119342011542811,0.0919532777031922,-0.0293960408720483,-0.0499474537547866,0.057214422454435,-0.1816973983334587,-0.2035373850126496,-13.264837942531596,20.74661064489112,20.37187262652805,0.3335593734101128,0.3707354498085032,0.2265103432182601,3436.81884765625,12.024555555555557,0.3400000000000001,179.13514976023134,-1.4273521813064738,87.16370422101794,1525.0,1435.0,1200.0,1439.0,1475.0,1018.02,58.0,292.45,1637145648.7635891,1637145649.90899,5eecd2a2-dca5-4f69-a54d-45f9b7f0bebe
0.0121390478356013,0.1252452281706915,0.0961126485618121,-0.031717333678797,-0.0476190387135524,0.0545983797622439,-0.1802291271272562,-0.2036091552783384,-13.360419983271258,20.84049022010174,20.539318531828066,0.3337250702601702,0.3926196135408064,0.2164035035341856,3436.81884765625,12.02677777777778,0.34,179.13049460685704,-1.429444045319463,87.16873882934614,1525.0,1435.0,1200.0,1439.0,1475.0,1018.02,58.0,292.45,1637145650.0301445,1637145651.0476055,5eecd2a2-dca5-4f69-a54d-45f9b7f0bebe
0.0157823324743654,0.1230400822842576,0.0962770072635615,-0.0278686006250563,-0.0470163901107213,0.0535848344093402,-0.1807222032818226,-0.1989797177853155,-13.37296705022583,20.89833402170757,20.58997258447812,0.32315909588763,0.3835263742552546,0.215866522342202,3435.44140625,12.02422222222222,0.3377777777777778,179.12197811987193,-1.4266985582904317,87.18225197916405,1525.0,1435.0,1200.0,1439.0,1475.0,1018.02,58.0,292.45,1637145651.1604462,1637145652.3613768,5eecd2a2-dca5-4f69-a54d-45f9b7f0bebe
0.0367654603516735,0.1353121984983502,0.1831405796082069,-0.0346620938660675,0.0312731404021598,0.044819036922345,-0.0926122356482144,-0.1104862464687112,-12.893085095978952,20.96623488231354,20.83406826340089,0.3238414544465531,0.4303386343747015,-0.1325437172974755,3433.4539388020835,12.024,0.3400000000000001,179.15138587879835,-1.4247786703773253,87.16320941175806,1525.0,1435.0,1200.0,1351.0,1475.0,1018.02,58.0,292.45,1637145654.253976,1637145655.3393843,5aaa40b1-effe-43cf-b3b1-ad648c543c48
0.0477090106719219,0.1371475373066804,0.1823872689161647,-0.0354291011829503,0.0303143812976623,0.044175298652797,-0.0932148842585733,-0.1318528791538843,-12.861045087714478,20.923865541917248,20.892877868077097,0.3238321905860478,0.43652023201847,-0.1290148718615427,3428.570556640625,12.024111111111113,0.3400000000000001,179.1466275136766,-1.4296589946928746,87.14555109602387,1525.0,1435.0,1200.0,1351.0,1475.0,1018.02,58.0,292.45,1637145655.4486828,1637145656.4544592,5aaa40b1-effe-43cf-b3b1-ad648c543c48
0.0419016698312228,0.1327783352239717,0.1834692970008224,-0.0310051126156914,0.0330262999156081,0.0443396573670003,-0.0911193106903263,-0.1271275658925394,-12.848726770647588,20.88417366660664,20.89942012796924,0.3140200913768022,0.4195111318304397,-0.1376229285941686,3429.7899576822915,12.024333333333333,0.3311111111111111,179.14985288078464,-1.4301598040842047,87.15390593519861,1525.0,1435.0,1200.0,1351.0,1475.0,1018.02,58.0,292.45,1637145656.56238,1637145657.683406,5aaa40b1-effe-43cf-b3b1-ad648c543c48
0.0697604699850513,0.1503784125477284,0.2666758864937736,-0.0379766611449603,0.1061522258459417,0.027397014299254,-0.0079538039566987,-0.0227323914804922,-12.19219602860256,20.906072874210405,20.66671716402548,0.296255507425146,0.4890713721787185,-0.4668623682880535,3432.3844943576387,12.024333333333333,0.3422222222222222,179.1520931828324,-1.4349984239287283,87.15265069821113,1525.0,1435.0,1200.0,1262.0,1475.0,1018.02,58.0,292.45,1637145659.822959,1637145660.86921,5e872704-9674-49c6-a973-bd2fe08dcec1
0.0723080298600488,0.1528163999051672,0.2698808810336322,-0.0385108269482851,0.1091791652570279,0.0260684481021414,-0.0051870990474152,-0.0381136271200653,-12.222603327341051,20.87655083107811,20.77095978543121,0.2944401817249979,0.4977750688477764,-0.4788649378551885,3433.37744140625,12.023,0.345,179.1485399666442,-1.441145689045478,87.15268446970202,1525.0,1435.0,1200.0,1262.0,1475.0,1018.02,58.0,292.45,1637145660.9776566,1637145661.9814289,5e872704-9674-49c6-a973-bd2fe08dcec1
0.0633915702640347,0.1489813636099421,0.2692645359312993,-0.0377849093248358,0.1088915375315602,0.02860231146183,-0.005570602694953,-0.026909842030945,-12.254426132107383,20.950707276491222,20.6874908215523,0.2989281966535566,0.4842291770231066,-0.4777150949172295,3432.842719184028,12.019222222222222,0.3488888888888888,179.14374213820722,-1.4321692077925272,87.16125445983562,1525.0,1435.0,1200.0,1262.0,1475.0,1018.02,58.0,292.45,1637145662.08963,1637145663.2409446,5e872704-9674-49c6-a973-bd2fe08dcec1
0.0885658447703343,0.1648145848572391,0.3410892845556312,-0.0259647789220186,0.1727996782195635,-0.0023793044922817,0.0603509343238597,0.0419016693740928,-11.69432638907838,21.11637212355451,20.56135974158268,0.2075814898008286,0.5438678360909118,-0.7543582901758258,3428.570556640625,12.01911111111111,0.35,179.15402384963784,-1.435537012803905,87.11864546306336,1525.0,1435.0,1200.0,1173.0,1475.0,1018.02,58.0,292.45,1637145665.260718,1637145666.2852066,c915d14f-6f16-4e40-96cb-04fb471e874b
0.0872372785915843,0.1588976717324929,0.3355284821717927,-0.0246225161348949,0.1678278276311227,0.003674574520736,0.0556530147551873,0.03130053291655,-11.71294924779311,21.22416941561221,20.73271001037931,0.2186131986693447,0.5197729910004386,-0.7338373966949551,3427.961181640625,12.018999999999998,0.3544444444444444,179.14462399152006,-1.4437126069448027,87.10141972597658,1525.0,1435.0,1200.0,1173.0,1475.0,1018.02,58.0,292.45,1637145666.393398,1637145667.6271827,c915d14f-6f16-4e40-96cb-04fb471e874b
0.0924556673342169,0.1584319887575015,0.3342957919683907,-0.0234035224166615,0.1679100069645196,0.0024007945283556,0.0542011795235449,0.0402306892688061,-11.80883350750691,21.16243411485798,20.63731608013689,0.2124669912271469,0.5193212387333438,-0.7304238524771595,3422.638373480903,12.02,0.3588888888888888,179.1405289136577,-1.4483594004521674,87.09025540232325,1525.0,1435.0,1200.0,1173.0,1475.0,1018.02,58.0,292.45,1637145667.7361948,1637145668.742381,c915d14f-6f16-4e40-96cb-04fb471e874b
-0.0339498729087247,0.101002319910507,-0.0623291431979623,-0.0107752950679289,-0.1910494094104392,0.0665828684970266,-0.3487516058205855,-0.3819657670765454,-14.656856317681871,21.19443611447072,20.35155385262974,0.3071901912237895,0.299917204052279,0.8636080653501598,3414.6087782118057,12.024555555555557,0.3400000000000001,179.157355464133,-1.4529600071768636,87.13578544333056,1525.0,1435.0,1200.0,1617.0,1475.0,1018.02,58.0,292.45,1637145670.7900815,1637145671.927667,4ea2cd5f-c2c9-457c-aa52-4f9a23febf69
-0.0430838341918625,0.0943857864788837,-0.0681452500750059,-0.0074508662995071,-0.1944779322730109,0.0699160629837534,-0.3518284012666675,-0.3686718846641322,-14.594621891957232,21.093162711792623,20.305636280739524,0.3062442782624107,0.2742879311496241,0.8798354039599736,3416.271728515625,12.023999999999996,0.3400000000000001,179.15217362728265,-1.4523221196834402,87.13958758196853,1525.0,1435.0,1200.0,1617.0,1475.0,1018.02,58.0,292.45,1637145672.0359137,1637145673.249361,4ea2cd5f-c2c9-457c-aa52-4f9a23febf69
-0.0446879751667056,0.0915790877223942,-0.0681638773944823,-0.0057075682865405,-0.1924190653904643,0.0726915335945668,-0.3504773724847799,-0.3651326934109768,-14.682518030633313,20.99873528108252,20.54404434580441,0.3079155386885749,0.2620527873516409,0.8751221818078866,3417.331298828125,12.024444444444445,0.34,179.153240654613,-1.448579353887783,87.14059237868643,1525.0,1435.0,1200.0,1617.0,1475.0,1018.02,58.0,292.45,1637145673.3580332,1637145674.385419,4ea2cd5f-c2c9-457c-aa52-4f9a23febf69
-0.0845586588916605,0.0787043227777671,-0.1626290478375536,0.0132895587893403,-0.279364829330898,0.0729243750962731,-0.4534618172444002,-0.478553919342282,-15.31105979324267,21.34117343408465,20.50968582128959,0.2628303604848117,0.2101960403208099,1.266919951036726,3418.997314453125,12.022333333333332,0.35,179.16346317107076,-1.4443210985372668,87.13038048696734,1525.0,1435.0,1200.0,1706.0,1475.0,1018.02,58.0,292.45,1637145675.295807,1637145676.526212,2629773a-bbd2-4053-9eb6-a7fdb1f08419
-0.0793813595365544,0.0794439369383526,-0.1642315453307181,0.0142483178928779,-0.2808440578780769,0.0708698913050758,-0.4548862596915848,-0.4812932322294753,-15.24688230041007,21.29077937045866,20.434806573613503,0.2556574425639544,0.2129589752568929,1.2732050496340834,3421.423611111112,12.021555555555556,0.3422222222222222,179.15876551874163,-1.445444557934028,87.09726089968197,1525.0,1435.0,1200.0,1706.0,1475.0,1018.02,58.0,292.45,1637145676.635923,1637145677.662215,2629773a-bbd2-4053-9eb6-a7fdb1f08419
-0.0822576369679318,0.0745268724393942,-0.1663819051967335,0.0161932292449978,-0.2818165136491042,0.072924375090695,-0.4571461923631745,-0.4715275831259549,-15.35174315404713,21.35618347183916,20.279454572765687,0.25613584827991,0.196261381689213,1.27978121212526,3417.634033203125,12.019666666666666,0.3400000000000001,179.1793972434945,-1.4359669115507276,87.08183909144597,1525.0,1435.0,1200.0,1706.0,1475.0,1018.02,58.0,292.45,1637145677.7706158,1637145678.8912923,2629773a-bbd2-4053-9eb6-a7fdb1f08419
-0.1094847533160495,0.0631970792323006,-0.2424838274800149,0.0482075655067522,-0.3497246095938179,0.0590815373047502,-0.5459557971772804,-0.5632463385838381,-16.051020376338496,21.75536804779875,20.288284899681152,0.1513189287906871,0.1498794818288811,1.6007251440162815,3420.058403862847,12.02,0.36,179.1764329413947,-1.467145657894778,87.08140651279854,1525.0,1435.0,1200.0,1795.0,1475.0,1018.02,58.0,292.45,1637145680.8257256,1637145681.846906,2ce3cbae-f61f-48f7-8b3c-02bb058f7af0
-0.0986524184400302,0.0666239581763192,-0.2419321299954037,0.0463530514716137,-0.35013495850582,0.0570363671910995,-0.5446946176398022,-0.5737861174943554,-15.90047816772239,21.67402264721441,20.239297324709472,0.150462680348221,0.1623629617757103,1.5992043416762292,3414.4581705729165,12.018555555555556,0.3577777777777777,179.1807071219953,-1.4698411398756674,87.0518826406562,1525.0,1435.0,1200.0,1795.0,1475.0,1018.02,58.0,292.45,1637145681.9549344,1637145683.19254,2ce3cbae-f61f-48f7-8b3c-02bb058f7af0
-0.1049665323335574,0.0657610749928285,-0.2433839653913707,0.0469693966176448,-0.3529838432014764,0.0570637603058857,-0.5472558748344376,-0.5689649280068744,-15.84626166034245,21.828965272398005,20.186109977699378,0.1501075672015716,0.1590489960358093,1.6085106243230711,3415.0620930989585,12.023555555555554,0.3400000000000001,179.19790098486595,-1.465488625543011,87.05350898458859,1525.0,1435.0,1200.0,1795.0,1475.0,1018.02,58.0,292.45,1637145683.3011448,1637145684.4206474,2ce3cbae-f61f-48f7-8b3c-02bb058f7af0
-0.1270042964662758,0.059693499555095,-0.2861583233781805,0.0753075762479459,-0.3918546836694299,0.0383268680906241,-0.600562897142944,-0.6267233336452329,-16.105147064183324,22.18552629688817,20.01423372139181,0.0441553725185881,0.1334529056306561,1.7946026083418944,3413.55078125,12.013444444444444,0.37,179.17968411143963,-1.46553216799897,87.00121174393361,1525.0,1435.0,1200.0,1883.0,1475.0,1018.02,58.0,292.45,1637145686.2428665,1637145687.4303062,36da306d-9a23-4c72-85b3-89cecb227552
-0.1202518926351918,0.0603509343630873,-0.28033728534498,0.075649990214727,-0.3853488172269614,0.0359162737857108,-0.5952623274848674,-0.6224773995851121,-16.20387839318277,22.13832654675898,19.85195901714172,0.0378674328528969,0.1383817823691278,1.7700637899638565,3413.55078125,12.010777777777776,0.3755555555555556,179.185885923206,-1.4655280295683792,86.97779481981917,1525.0,1435.0,1200.0,1883.0,1475.0,1018.02,58.0,292.45,1637145687.5385978,1637145688.4820902,36da306d-9a23-4c72-85b3-89cecb227552
-0.1223178816735361,0.0596469312519887,-0.2878994302211787,0.0782786337301015,-0.3926814081589747,0.0359266831781625,-0.6035076583202508,-0.6344991470008953,-16.19838789389757,22.18508203271002,20.037915395049342,0.0319270581350471,0.1332521065834134,1.802283463166592,3409.1761610243057,12.013333333333334,0.3688888888888889,179.18379588532,-1.4593129013047197,86.95812008045999,1525.0,1435.0,1200.0,1883.0,1475.0,1018.02,58.0,292.45,1637145688.590852,1637145689.8392155,36da306d-9a23-4c72-85b3-89cecb227552
-0.0300737467616484,0.0941266475897979,-0.0569600920280734,-0.0143637935142198,-0.1511513308345719,0.0845664497820649,-0.2958965778955688,-0.3285217861738833,-14.077379141490011,17.08451673270439,21.75029328223292,0.329233324852182,0.2583433518410569,0.7298939412231672,7043.7216796875,11.769777777777778,8.523333333333333,179.57737567041315,-1.676846185082346,74.70667316242472,1525.0,1435.0,1350.0,1528.0,1475.0,1018.02,58.0,292.45,1637145694.240369,1637145695.2751331,3a8b16b9-15de-4964-8594-916a9147ec4a
-0.0190480167492391,0.0991395879637536,-0.0558095810601392,-0.0233076465114508,-0.1520553037747833,0.0804300891349901,-0.2958280950900233,-0.317386482527915,-14.083061060150795,17.072839636364126,20.695236753756028,0.3399223479255659,0.2877099986644755,0.7285003075793343,7048.8701171875,11.770555555555555,8.554444444444446,179.71718205362427,-1.720991677968679,68.83725786438117,1525.0,1435.0,1350.0,1528.0,1475.0,1018.02,58.0,292.45,1637145695.383846,1637145696.5045354,3a8b16b9-15de-4964-8594-916a9147ec4a
-0.0321693202560885,0.0951675860329585,-0.0618497636301118,-0.0146514212495093,-0.1542330567545194,0.0834707251232756,-0.3004027463249459,-0.3197422906635335,-14.179007427899956,16.929430209622524,21.668151455339444,0.3260840916686803,0.2634176287140948,0.747172504858006,7059.191569010417,11.768222222222224,8.555555555555555,179.78756487629153,-1.707289085265033,64.4017246693659,1525.0,1435.0,1350.0,1528.0,1475.0,1018.02,58.0,292.45,1637145696.6134472,1637145697.734651,3a8b16b9-15de-4964-8594-916a9147ec4a
0.0860456780284566,0.294027912384474,-0.051700613337594,-0.1181837120530242,-0.1923916722899077,-0.0129119582811607,-0.3333566714259223,-0.3505595526570315,-13.99802931582441,16.567413113916903,22.028337720052097,0.3412968357377456,1.0181758216698131,0.8561683684680409,7054.671875,11.762111111111112,8.600000000000001,179.7701190553315,-1.6341180750284636,55.169805725105256,1610.0,1435.0,1350.0,1528.0,1542.0,1018.02,58.0,292.45,1637145699.7597723,1637145700.8053725,5eb55892-3040-4a2e-8906-a2a92ecb6678
0.0868126852796455,0.2952879956993016,-0.0568094298843223,-0.1225803076250749,-0.1983907655222,-0.0235952742217097,-0.338821599176691,-0.3664886530493876,-13.817743160574558,16.46511881884987,20.07034101848365,0.3260537700629359,1.039195262951773,0.8766045229862002,7054.671875,11.761333333333331,8.606666666666664,179.7074482751471,-1.5709973679904503,52.64743583736724,1610.0,1435.0,1350.0,1528.0,1542.0,1018.02,58.0,292.45,1637145700.913449,1637145702.0343392,5eb55892-3040-4a2e-8906-a2a92ecb6678
0.0758828316279855,0.2939731261553405,-0.0604253214961626,-0.1226624869991599,-0.2011026844014828,-0.0190343201158413,-0.343656485215454,-0.3672556607686048,-14.073052884380246,16.557121468319092,20.49227597128276,0.3368568113376902,1.0321135734466178,0.892329938686362,7054.671875,11.762999999999998,8.600000000000001,179.65529902192412,-1.5466885468648657,50.45637641787923,1610.0,1435.0,1350.0,1528.0,1542.0,1018.02,58.0,292.45,1637145702.142786,1637145703.2692516,5eb55892-3040-4a2e-8906-a2a92ecb6678
0.2027504776525408,0.5111159668910716,-0.0481752381179158,-0.2326857608848147,-0.2416040080241529,-0.1251094070994614,-0.3795224190437846,-0.3955581162388594,-13.907461018006208,16.222290047345542,21.16792226745867,0.3452588686197181,1.8536881247397463,1.0083772159646558,7060.48291015625,11.756999999999998,8.616666666666665,179.5029903568923,-1.479004289249997,47.49529133719276,1695.0,1435.0,1350.0,1528.0,1609.0,1018.02,58.0,292.45,1637145704.3780124,1637145705.5154026,ef93a096-2d89-4f44-83f2-ac77fb81c361
0.19183789389016,0.513830267251989,-0.0471259625926382,-0.2275781349686485,-0.2397543768961854,-0.1272097447407703,-0.3788292539323027,-0.4034967619308389,-13.897689000277351,16.145143455612697,21.92315930106236,0.3286837177803456,1.856541942704252,1.0049176602480403,7060.48291015625,11.759,8.621111111111112,179.42346874111556,-1.4226804860677602,46.11494501578895,1695.0,1435.0,1350.0,1528.0,1609.0,1018.02,58.0,292.45,1637145705.6242287,1637145706.7456548,ef93a096-2d89-4f44-83f2-ac77fb81c361
0.2071095560994733,0.50875377524247,-0.0496055876564537,-0.2347523931341754,-0.2409717271636411,-0.1191095994371118,-0.3770607539501474,-0.3928260437896416,-13.882196048757644,16.00588394719033,21.427564392474515,0.361951355727643,1.842508549036892,1.0061296058119225,7066.30322265625,11.757222222222222,8.619999999999997,179.36320522315862,-1.388338401642642,45.17727046413778,1695.0,1435.0,1350.0,1528.0,1609.0,1018.02,58.0,292.45,1637145706.8547957,1637145707.86127,ef93a096-2d89-4f44-83f2-ac77fb81c361
0.2996298044305873,0.7019661779693159,-0.0350455975265848,-0.3271795225554033,-0.2738725086115243,-0.2143061682364183,-0.4094136752910333,-0.433067637758194,-13.96236497559349,15.971863588766096,22.639615096973884,0.3571772321140901,2.5692997792723875,1.101394156877012,7066.30322265625,11.746666666666666,8.663333333333334,179.19078696339045,-1.294244185958763,43.15444771082606,1779.0,1435.0,1350.0,1528.0,1677.0,1018.02,58.0,292.45,1637145709.7950394,1637145710.9327705,60b4022a-5e92-4615-b411-708cf1af67b6
0.3048438100174806,0.7023551601952568,-0.0350499804201876,-0.3303302793714019,-0.275710587010886,-0.2165545955821374,-0.4090646869012979,-0.4295503605975774,-13.77299984246668,16.006017399780735,21.962028890972583,0.3594455530167891,2.5758120756834875,1.1025889507556728,7066.30322265625,11.745111111111113,8.665555555555557,179.1444206036648,-1.2850791985995007,42.602703132397664,1779.0,1435.0,1350.0,1528.0,1677.0,1018.02,58.0,292.45,1637145711.040705,1637145712.070475,60b4022a-5e92-4615-b411-708cf1af67b6
0.3028758885803685,0.7057464277729407,-0.0383601648197562,-0.3278232608647602,-0.2782964976503715,-0.220483316810166,-0.4142485615110436,-0.4518182308007827,-13.887349809359122,15.966888543447045,22.172331859641805,0.3445137199668101,2.58695764274495,1.1186689639637042,7072.1337890625,11.739888888888888,8.678888888888888,179.10667394267165,-1.2585580127971314,42.0546935290804,1779.0,1435.0,1350.0,1528.0,1677.0,1018.02,58.0,292.45,1637145712.1795151,1637145713.299308,60b4022a-5e92-4615-b411-708cf1af67b6
0.343253340630449,0.7697367433759137,-0.0290738978252733,-0.3744052647222499,-0.2929929070575924,-0.2505746595524715,-0.4255619212825399,-0.4505170577769513,-13.914115444435472,16.626704158669906,20.695299482344968,0.3865595139005087,2.8465757048868827,1.1470972715608072,7072.1337890625,11.735555555555557,8.69,178.9922257751191,-1.1915284572733305,41.102347731092046,1864.0,1435.0,1350.0,1528.0,1744.0,1018.02,58.0,292.45,1637145715.325428,1637145716.4634478,ecc78133-3459-4847-9abb-4cbb94b4d392
0.3308031696953897,0.7514655359497183,-0.0327034859796475,-0.3638315196525825,-0.2894044082297312,-0.2337141939799375,-0.4220145119102249,-0.4476818697828261,-14.009200673092172,16.433152884147802,21.933080070925385,0.3992810948524711,2.7662149066079103,1.1417469951624382,7077.97412109375,11.733222222222222,8.687777777777777,178.9854441561832,-1.185595465625855,40.869825324447575,1864.0,1435.0,1350.0,1528.0,1744.0,1018.02,58.0,292.45,1637145716.5714843,1637145717.692464,ecc78133-3459-4847-9abb-4cbb94b4d392
0.3310497077515705,0.760203939515764,-0.0322104098915072,-0.3654066242397669,-0.290239898462657,-0.2413568745343427,-0.4240963893908898,-0.435108425356021,-14.028088160115187,16.38337462514328,21.85222737559525,0.3853321911623393,2.800063852550548,1.146113718938213,7077.97412109375,11.737222222222222,8.7,178.96234597423003,-1.1833332856284058,40.70999472386479,1864.0,1435.0,1350.0,1528.0,1744.0,1018.02,58.0,292.45,1637145717.8019235,1637145718.7454815,ecc78133-3459-4847-9abb-4cbb94b4d392
-0.1529044906163879,-0.1158142072208396,-0.0547686425791204,0.0687469247144189,-0.1024737583908388,0.2016857191936198,-0.24235672338391,-0.2632165852807917,-14.109944545838529,17.468925851910925,20.2476872153686,0.4073400405122693,-0.525601709859233,0.5574028177216052,7077.97412109375,11.76477777777778,8.62111111111111,179.13851628458227,-1.168081935672492,40.212098977397815,1440.0,1435.0,1350.0,1528.0,1408.0,1018.02,58.0,292.45,1637145720.7628033,1637145721.9004743,5d9fcf52-b56e-46cb-8c3c-37751abe80ac
-0.1347428525931983,-0.1150198067711996,-0.0513445027909055,0.0691167318029954,-0.0985565423984148,0.2040278306126104,-0.2380012172165236,-0.2638055379280382,-14.125612260033018,17.407352346673576,20.770160427516867,0.411606603024494,-0.5269715030599564,0.542049217276027,7077.97412109375,11.764555555555557,8.602222222222222,179.13372452742453,-1.161023314620238,40.065882461650666,1440.0,1435.0,1350.0,1528.0,1408.0,1018.02,58.0,292.45,1637145722.008929,1637145723.1298392,5d9fcf52-b56e-46cb-8c3c-37751abe80ac
-0.1390572688828174,-0.1164853386286817,-0.0515362546128254,0.0660350061276954,-0.1013369439447425,0.2039456512707923,-0.2386997417743866,-0.2751462902987593,-13.973187360081916,17.58938147859148,20.14487639072676,0.4195477512359434,-0.5276347304468514,0.5460377815671082,7077.97412109375,11.765222222222222,8.612222222222222,179.1448122011772,-1.1559019059713285,39.92226331506291,1440.0,1435.0,1350.0,1528.0,1408.0,1018.02,58.0,292.45,1637145723.2389212,1637145724.35842,5d9fcf52-b56e-46cb-8c3c-37751abe80ac
-0.236686347555349,-0.3122228781285024,-0.0520430273107195,0.1644036880935239,-0.0568916092308612,0.3079573115827935,-0.1960623503718051,-0.2269891833256111,-14.105747737673598,18.14439393519749,20.699514842365325,0.4350558895608878,-1.2778810321050982,0.4031258773103617,7081.87353515625,11.753,8.64,179.1860103844309,-1.1540354500589167,39.87395566379313,1355.0,1435.0,1350.0,1528.0,1341.0,1018.02,58.0,292.45,1637145725.2684257,1637145726.4063113,1bf0f29d-b878-402a-a27c-fc9e8efeabcf
-0.2353303881075441,-0.3129487958443085,-0.0531250554814178,0.1570212432416679,-0.0596583141760915,0.3129565551354468,-0.1951172877406997,-0.2119640569763456,-13.971538995549476,18.16745669630029,20.34138102654992,0.4630523209223106,-1.277538697116139,0.406450292908138,7081.2236328125,11.753111111111112,8.644444444444444,179.17997097938482,-1.1553193833272712,39.84427355893503,1355.0,1435.0,1350.0,1528.0,1341.0,1018.02,58.0,292.45,1637145726.514623,1637145727.6347125,1bf0f29d-b878-402a-a27c-fc9e8efeabcf
-0.2449042836823312,-0.3104012355578123,-0.0588091275043879,0.1632257840631368,-0.06165801181287,0.3094776294634629,-0.2014998846665797,-0.2346866501142903,-14.191609845147983,17.939772444141365,20.97095529675705,0.439435990915414,-1.2731342036468032,0.4271995883516594,7077.97412109375,11.752222222222224,8.65,179.20045699343535,-1.1526650247770098,39.821319569864336,1355.0,1435.0,1350.0,1528.0,1341.0,1018.02,58.0,292.45,1637145727.7430456,1637145728.7932603,1bf0f29d-b878-402a-a27c-fc9e8efeabcf
-0.3656668588708969,-0.5177671759047241,-0.0560835122403826,0.2683194734305225,-0.0158156287502652,0.4145302261244287,-0.1574928380013441,-0.1807632933350994,-14.21251588099859,18.95667688622945,20.94610005580041,0.4453000015667199,-2.063263545302892,0.2737517724334463,7077.97412109375,11.742111111111113,8.681111111111111,179.26142022632726,-1.1700110016522958,39.82605858278347,1271.0,1435.0,1350.0,1528.0,1273.0,1018.02,58.0,292.45,1637145730.7981222,1637145731.9356184,c255c9a4-b479-4342-8b0b-4275d8af541f
-0.3582707158458775,-0.5274095557696613,-0.0569053057996566,0.2696891291924095,-0.0161717392869323,0.417269537613631,-0.1569038859233014,-0.1942681015213067,-14.133584953489144,19.074494825527022,20.16945531116105,0.4490220320873148,-2.093322336393312,0.2722751956723576,7082.5234375,11.743777777777778,8.683333333333334,179.25705497653777,-1.1785661811847232,39.794609735660046,1271.0,1435.0,1350.0,1528.0,1273.0,1018.02,58.0,292.45,1637145732.0435092,1637145733.171445,c255c9a4-b479-4342-8b0b-4275d8af541f
-0.356680271254062,-0.5224853676746041,-0.0611632921206551,0.2600593533294731,-0.0229268821672554,0.4173966416685687,-0.1611854304917427,-0.1760960539435968,-14.05576735946226,19.07761781420432,19.579854864423844,0.4707839359604502,-2.0692630462120603,0.2931090067557249,7083.8232421875,11.742222222222225,8.67,179.2725139713592,-1.182941771121763,39.83304624575934,1271.0,1435.0,1350.0,1528.0,1273.0,1018.02,58.0,292.45,1637145733.2923405,1637145734.2804482,c255c9a4-b479-4342-8b0b-4275d8af541f
-0.4247675208628385,-0.6399679093958338,-0.0595487417188793,0.3031087301067885,0.0008393868087293,0.501160951686314,-0.1321815958601248,-0.1578626456208909,-14.196348810822236,19.77529099422248,20.868306045970915,0.5667446531911308,-2.5255046295571084,0.204837056798243,7080.167541503906,11.731,8.713750000000001,179.30394384573492,-1.2028187644180992,39.92514722014434,1186.0,1435.0,1350.0,1528.0,1206.0,1018.02,58.0,292.45,1637145736.3284428,1637145737.3593152,fb896c99-f928-42a1-8829-38ad74ee40c5
-0.4248907899571386,-0.6439399127726303,-0.0586721619185195,0.3088749808983643,0.0021405599215744,0.4999008684181986,-0.1318939680724555,-0.1672584856035517,-14.16368424700462,19.86932427163501,20.89390558474769,0.5515933577950554,-2.5415129206621376,0.2010507187491663,7083.8232421875,11.73,8.700000000000001,179.31811534989785,-1.197493844887494,39.97185618026151,1186.0,1435.0,1350.0,1528.0,1206.0,1018.02,58.0,292.45,1637145737.4673643,1637145738.5815022,fb896c99-f928-42a1-8829-38ad74ee40c5
-0.4218227600906698,-0.6412006000962106,-0.0591515414845695,0.3085325669789351,0.0021131668015255,0.4977505089283953,-0.1334553758673348,-0.1669571614524573,-14.276445074969686,19.82397195471432,20.91822612113669,0.5471562148261901,-2.530645292288793,0.2042671021381069,7083.8232421875,11.730666666666666,8.71,179.34000686509762,-1.200507393125514,39.97672344895505,1186.0,1435.0,1350.0,1528.0,1206.0,1018.02,58.0,292.45,1637145738.690375,1637145739.7237422,fb896c99-f928-42a1-8829-38ad74ee40c5
-0.0263619793018802,0.1028376587350618,-0.0576449199806563,-0.0234035224228483,-0.1516854966693581,0.0805396616065827,-0.2945817081039707,-0.3226733549504543,-14.015342191619364,16.717981707689052,21.214695081062217,0.3380579533727217,0.2963862044297122,0.7300960705908487,7083.8232421875,11.767777777777775,8.61,179.185219600307,-1.232604171440664,40.0525245089089,1525.0,1435.0,1350.0,1528.0,1475.0,1018.02,58.0,292.45,1637145741.8579383,1637145742.9015474,99bd075e-5586-4fb7-8360-51a765ce8b57
-0.0156923598642492,0.1081656199317806,-0.0564807124577028,-0.031183167909665,-0.1536167115751683,0.074636444891444,-0.29589657790129,-0.3196053255019853,-13.996461372529936,16.816803340192784,20.098048334723867,0.3428861858763041,0.3271657978084459,0.7319857915239075,7089.6826171875,11.767555555555557,8.604444444444445,179.19926246924055,-1.234816121088592,40.09773808448466,1525.0,1435.0,1350.0,1528.0,1475.0,1018.02,58.0,292.45,1637145743.0097494,1637145743.9530609,99bd075e-5586-4fb7-8360-51a765ce8b57
-0.0199930793455757,0.1052756461205014,-0.0544536217126728,-0.0243211918663875,-0.1489461847376415,0.0757595626870712,-0.2936777351113005,-0.3173727861723294,-14.135484867062337,16.76002569397417,20.770796681786454,0.3296928535637639,0.3106307491262898,0.720287469620772,7089.6826171875,11.767777777777775,8.618888888888888,179.20374003769643,-1.2406184735102237,40.197271775074576,1525.0,1435.0,1350.0,1528.0,1475.0,1018.02,58.0,292.45,1637145744.061139,1637145745.2507677,99bd075e-5586-4fb7-8360-51a765ce8b57
-0.0151171043560139,0.1020158652273694,-0.0739575219435824,-0.2852269572601646,-0.1937065420342245,0.3375007864716511,-0.2390695489164155,-0.2528071992466669,-14.0529992111602,16.140145986200356,23.512038219781328,1.5017978855570586,0.3044013491703612,0.731584529607319,7089.6826171875,11.767555555555557,8.619999999999997,179.20517741306176,-1.1947755244615677,40.25913241893243,1525.0,1535.0,1350.0,1528.0,1475.0,1018.02,58.0,292.45,1637145746.2504654,1637145747.2965405,f6e3d0a5-b381-4d33-b681-d76afaa74fee
-0.0145966351381233,0.0924830605797202,-0.0776008067006455,-0.2887469732885314,-0.1975689719242821,0.34123994670232,-0.2395352319390215,-0.2652299799930631,-13.838648326552285,16.188072331641546,22.238205672269043,1.518181712386033,0.2786235959960457,0.739623798508319,7083.8232421875,11.765,8.625,179.20196570633203,-1.189902623233554,40.29180330073485,1525.0,1535.0,1350.0,1528.0,1475.0,1018.02,58.0,292.45,1637145747.4045742,1637145748.5252802,f6e3d0a5-b381-4d33-b681-d76afaa74fee
-0.0139802900261144,0.1039196868417026,-0.0726289556996007,-0.2867198823804952,-0.1917616305284637,0.3364735446437234,-0.2376040169775742,-0.2624084886620997,-14.119750699895825,16.044849849255197,23.448059426575764,1.502247833847606,0.3128477496879793,0.725157369015458,7083.8232421875,11.764888888888889,8.617777777777777,179.2142069231445,-1.1889544720254897,40.3411645086841,1525.0,1535.0,1350.0,1528.0,1475.0,1018.02,58.0,292.45,1637145748.6354969,1637145749.7532036,f6e3d0a5-b381-4d33-b681-d76afaa74fee
0.0110887956233628,0.1019331380116816,-0.0863298978407629,-0.5574477610290538,-0.2364222777463073,0.5946279023248354,-0.1795673093991077,-0.202827355641229,-13.852944531853783,15.757029006791788,24.60250543609142,2.690779024628111,0.3257357180223229,0.7213495871619855,7089.031575520833,11.758111111111113,8.64,179.23787580534838,-1.1269320854935423,40.50908622724867,1525.0,1636.0,1350.0,1528.0,1475.0,1018.02,58.0,292.45,1637145751.7808423,1637145752.8254836,7f2dcab7-c862-4def-acae-5b4de94cb93e
-0.0014616351762344,0.1037142384690772,-0.0930094358724895,-0.5586103252035078,-0.2435072343899577,0.5913801746679693,-0.1878718075471907,-0.20088354024764,-13.89363575392902,15.787364428639847,24.17913681773322,2.685883937333331,0.3361764393959895,0.7514956249272101,7083.8232421875,11.76011111111111,8.630000000000003,179.25495127827335,-1.1188697112245118,40.54404806833521,1525.0,1636.0,1350.0,1528.0,1475.0,1018.02,58.0,292.45,1637145752.934275,1637145754.0543685,7f2dcab7-c862-4def-acae-5b4de94cb93e
0.0106680373013353,0.0988431944439447,-0.0911160235219233,-0.548887957232486,-0.2383551363211316,0.5957981361819961,-0.185549966738425,-0.2191974847865673,-14.070855539129218,15.772738851034172,25.418006025531994,2.6739860061647973,0.307104066885334,0.7397167791988706,7083.8232421875,11.760444444444444,8.631111111111112,179.26826862933507,-1.116367099081904,40.58485617189631,1525.0,1636.0,1350.0,1528.0,1475.0,1018.02,58.0,292.45,1637145754.1625493,1637145755.2834597,7f2dcab7-c862-4def-acae-5b4de94cb93e
0.0153303459259654,0.0987423877766314,-0.1019395925533238,-0.8016695460617406,-0.2804331610616192,0.8356993634595978,-0.1334553758817173,-0.1494255648965315,-13.957166911081003,15.804455402364896,26.57471611822309,3.78320235416324,0.3261066335052038,0.7370800041720065,7083.8232421875,11.744,8.68,179.26803640290328,-1.0535513433891777,40.64855034209135,1525.0,1737.0,1350.0,1528.0,1475.0,1018.02,58.0,292.45,1637145757.311938,1637145758.4486854,b4c1b1b2-a307-48da-8182-e6eb07c1ee2c
0.0117966337536424,0.100605119717218,-0.0976388729278034,-0.8078466969385137,-0.2792278637383379,0.841068413951272,-0.1287848490683363,-0.1504528069975638,-13.853753190223395,15.956509354757594,26.82082004974534,3.810514883842045,0.3312156218990938,0.723454407122067,7083.8232421875,11.752666666666666,8.653333333333332,179.28305371215845,-1.0552501395018068,40.628813372119744,1525.0,1737.0,1350.0,1528.0,1475.0,1018.02,58.0,292.45,1637145758.556882,1637145759.5911396,b4c1b1b2-a307-48da-8182-e6eb07c1ee2c
