raw_voltage_G-,raw_voltage_G0,raw_voltage_G1,raw_voltage_G2,raw_voltage_G3,raw_voltage_G4,raw_voltage_G5,raw_voltage_G6,load_x,load_y,load_z,load_l,load_m,load_n,rpm,voltage,current,roll,pitch,yaw,aileron1_pwm,elevator_pwm,throttle_pwm,rudder_pwm,aileron2_pwm,pbaro,pdiff,Tt,sample_start_time,sample_end_time,uid
0.0051264096354748,0.1306553686921437,0.0146044284385628,-0.0575216509427564,-0.113115985011197,0.1071383780617315,-0.2440277036637664,-0.2745436405163021,-14.228267488202734,19.38780758866512,24.844037272162627,0.4965584502087853,0.3788859682414746,0.5140420680196565,3388.3801540798613,12.042777777777776,0.4,179.02717964765162,-3.938513799764301,96.32942952530226,1525.0,1435.0,1200.0,1528.0,1475.0,1018.02,58.0,292.45,1637147032.175037,1637147033.1395462,f6313464-f7b4-4683-a845-67885112df78
0.008853517208432,0.1310837970308118,0.0112334313923398,-0.0619653625913221,-0.1161511425878235,0.1076133747026377,-0.2446928086380063,-0.2715818969317976,-14.086775335546236,19.20133887473406,24.37576617181493,0.5062423574907784,0.3839719136604857,0.5232459711521696,3473.497992621528,12.041666666666666,0.3899999999999999,179.0979737994889,-3.9456265405793545,95.84291666854207,1525.0,1435.0,1200.0,1528.0,1475.0,1018.02,58.0,292.45,1637147033.275358,1637147034.2804196,f6313464-f7b4-4683-a845-67885112df78
0.0057838444451344,0.1289432989079036,0.0122349237763452,-0.0597815831968951,-0.1147047859064575,0.1076451507199543,-0.2448358007158462,-0.2828437563631141,-14.196820681415591,19.288601001189093,24.37084636048488,0.5019598517027187,0.3765623215573399,0.5197548637313,3480.07568359375,12.044,0.39,179.15414527522304,-3.95217085787348,95.41783377426708,1525.0,1435.0,1200.0,1528.0,1475.0,1018.02,58.0,292.45,1637147034.392208,1637147035.5073617,f6313464-f7b4-4683-a845-67885112df78
0.1110966833219809,0.3127100171126188,0.0250138130839862,-0.1464534108725304,-0.1457822794514066,0.0098791156637466,-0.2723247972703247,-0.3043199633329355,-13.851920887870278,18.87382540599242,24.6700671762628,0.4758849426554312,1.0721803777863503,0.6061122726500253,3475.842041015625,12.044,0.39,179.13548064495114,-3.967603528007517,94.95951214385114,1610.0,1435.0,1200.0,1528.0,1542.0,1018.02,58.0,292.45,1637147036.173212,1637147037.2440574,2d913a69-bee0-462d-857b-e0dc73eb2688
0.1126033047431793,0.3148603766680447,0.0256438547828494,-0.1461931762424591,-0.1461520865624949,0.0072219832510839,-0.2741190466853183,-0.287966270029273,-13.931720397403671,18.98816916133407,24.62052176598941,0.4700682893443828,1.0812592945857824,0.6084016375188886,3474.432861328125,12.039444444444444,0.42,179.14762016783595,-3.965950669660242,94.59838410532451,1610.0,1435.0,1200.0,1528.0,1542.0,1018.02,58.0,292.45,1637147037.358533,1637147038.468631,2d913a69-bee0-462d-857b-e0dc73eb2688
0.1061522257662724,0.3169970396654589,0.0239454815024499,-0.1510828480332662,-0.1477271909117298,0.0093312533081316,-0.2748860540659834,-0.2893085328833315,-13.977759640203026,18.89377205899104,24.569826015715023,0.4850964087555739,1.0905410040377623,0.6141048188297136,3473.025146484375,12.04,0.4099999999999999,179.16168125060733,-3.949252944141808,94.31707821089807,1610.0,1435.0,1200.0,1528.0,1542.0,1018.02,58.0,292.45,1637147038.5768902,1637147039.6968734,2d913a69-bee0-462d-857b-e0dc73eb2688
0.2099173504700827,0.5088995066120113,0.0409292142691703,-0.2451234284926164,-0.1788868642604749,-0.0933244567323909,-0.3028544306462342,-0.3402734355822185,-13.728661495079068,18.72314923624513,24.35479089118935,0.4663535399422422,1.8230869189963224,0.6955523327735132,3448.824544270833,12.039666666666667,0.4233333333333333,179.1115658759372,-3.9259988536344608,93.7498583210852,1695.0,1435.0,1200.0,1528.0,1609.0,1018.02,58.0,292.45,1637147041.7434556,1637147042.889036,b7f10756-303b-4448-9ad5-83d50ad83ece
0.2053153069810242,0.4994488820456055,0.0382720818925054,-0.2421786680666414,-0.1785992365026469,-0.0884484816253309,-0.3026626787946982,-0.3252757016286641,-13.75668036666192,18.655800196628668,24.10867210663796,0.4700357398907758,1.78948883294633,0.6970527350742989,3410.0893825954863,12.03677777777778,0.4388888888888889,179.1147259767932,-3.900572241220488,93.51404224544098,1695.0,1435.0,1200.0,1528.0,1609.0,1018.02,58.0,292.45,1637147043.017112,1637147044.1183074,b7f10756-303b-4448-9ad5-83d50ad83ece
0.2139304419643352,0.5045850910510644,0.0414085938210901,-0.2458082565450749,-0.1771884908490314,-0.0895305098374172,-0.2990604833623897,-0.3151402463287809,-13.619389679626574,18.60152027543532,24.22094230945466,0.4756750947294942,1.807430779406629,0.6865933713494017,3388.810302734375,12.037,0.4366666666666666,179.1136604672827,-3.882091978624288,93.34934513507454,1695.0,1435.0,1200.0,1528.0,1609.0,1018.02,58.0,292.45,1637147044.242223,1637147045.3386903,b7f10756-303b-4448-9ad5-83d50ad83ece
0.2899989328567477,0.6589381694206139,0.0545189397260333,-0.3289891120670022,-0.2038529536143671,-0.1690746488477452,-0.322020301934823,-0.34280839439793,-13.495390205749104,18.51880368705536,23.48703061957833,0.4846143219495053,2.4030467390924657,0.7547633259056427,3374.282009548612,12.033555555555555,0.4366666666666666,179.0789737310377,-3.86061089138899,93.09449635785312,1779.0,1435.0,1200.0,1528.0,1677.0,1018.02,58.0,292.45,1637147046.2496789,1637147047.3865793,bf5350ef-1aac-4f91-b470-d40782586117
0.29656177547528,0.66035603702748,0.0541053036542614,-0.3274534536984613,-0.203883086048551,-0.1707237146462485,-0.3239471341053893,-0.3368629917967216,-13.613436265770574,18.53938056040781,23.64240050727319,0.4775257376156396,2.4076081205080926,0.7584247621948429,3369.565673828125,12.028333333333332,0.4544444444444444,179.0827591736577,-3.842265809620113,92.88312173469885,1779.0,1435.0,1200.0,1528.0,1677.0,1018.02,58.0,292.45,1637147047.4950209,1637147048.6226704,bf5350ef-1aac-4f91-b470-d40782586117
0.2939731260854673,0.6617667824245616,0.0559817321764309,-0.3280013161167484,-0.2033900098945374,-0.1712304873496841,-0.3232486095132172,-0.352463374796167,-13.60000986945665,18.644095737892112,23.70368854470001,0.4784269264238558,2.412449235464707,0.7544195961909521,3367.947509765625,12.033,0.4600000000000001,179.08425574399587,-3.824453767197712,92.73077891872116,1779.0,1435.0,1200.0,1528.0,1677.0,1018.02,58.0,292.45,1637147048.7586024,1637147049.8446252,bf5350ef-1aac-4f91-b470-d40782586117
0.3162574254653009,0.6809419625810943,0.0648023158923798,-0.3489981439550345,-0.2016231536601116,-0.1805852377434809,-0.3194409656388193,-0.3374245508403833,-13.671054412010406,18.73864921591598,22.34484310900042,0.5055828953506294,2.500060008544466,0.7346994493013588,3371.185492621528,12.029111111111112,0.4777777777777777,179.07718270365538,-3.796182380994429,92.46371472762412,1864.0,1435.0,1200.0,1528.0,1744.0,1018.02,58.0,292.45,1637147050.7544773,1637147051.984483,ab80002a-0827-403f-b9ff-61410fa943ae
0.3207225032571008,0.6968710586711925,0.0720067056696648,-0.3578872120256861,-0.2036091548598357,-0.187269158936861,-0.318619171993466,-0.3340415002676273,-13.470953382543527,19.170249075564023,22.474373151662963,0.5139560234384691,2.5587979903829896,0.7284089910452721,3366.184814453125,12.019444444444446,0.51,179.07872632640778,-3.7724290226315023,92.26570678467552,1864.0,1435.0,1200.0,1528.0,1744.0,1018.02,58.0,292.45,1637147052.0924833,1637147053.1275632,ab80002a-0827-403f-b9ff-61410fa943ae
0.3267489886619843,0.7036782476273172,0.069322180202544,-0.3617222491379145,-0.2056499422927047,-0.1871048002484618,-0.3210023735706345,-0.3468066954446201,-13.57320785751593,18.974980557997057,22.92699813492781,0.5215688121930732,2.5813398948618684,0.7396781573150326,3396.437744140625,12.021,0.51,179.093652566474,-3.738054245790513,92.03843831132264,1864.0,1435.0,1200.0,1528.0,1744.0,1018.02,58.0,292.45,1637147053.260684,1637147054.3574336,ab80002a-0827-403f-b9ff-61410fa943ae
-0.114280192702485,-0.0917493524074874,-0.000612448384447,0.0498730670363497,-0.0778473447504856,0.219751479176213,-0.2106765797991305,-0.2317829796771713,-14.269349496596725,19.98572083708885,23.99597189639337,0.5104090269802036,-0.4616369235223156,0.4118226959108584,3435.4512532552085,12.030666666666669,0.4600000000000001,179.29195117191725,-3.7213073334236793,91.78259763885174,1440.0,1435.0,1200.0,1528.0,1408.0,1018.02,58.0,292.45,1637147055.2607994,1637147056.405135,526b2d20-7ef3-4a05-b8ba-0063ecc9d0e7
-0.1315926438770751,-0.0982278249640517,-0.0053514577462065,0.0561460908743143,-0.0792306972360663,0.2191214375203015,-0.2150046927624724,-0.2488762865819025,-14.39701024935208,19.92004484655657,23.79187490262864,0.4940746938597957,-0.4842965618033931,0.4252498982849171,3455.7593044704863,12.041222222222222,0.3922222222222222,179.27616432801562,-3.7043610174785777,91.7858822009326,1440.0,1435.0,1200.0,1528.0,1408.0,1018.02,58.0,292.45,1637147056.5389109,1637147057.6266549,526b2d20-7ef3-4a05-b8ba-0063ecc9d0e7
-0.1170605942895588,-0.0915165108969074,-0.0025573597429013,0.0494758668446879,-0.07821715185313,0.2199295344409523,-0.2114709802767148,-0.241041854440844,-14.317309147506604,19.83297277987567,23.99327035880954,0.5105711260175265,-0.4604772196834386,0.4161586040176011,3466.9383951822915,12.041333333333334,0.3933333333333333,179.2796431710329,-3.678259212406028,91.7309272577806,1440.0,1435.0,1200.0,1528.0,1408.0,1018.02,58.0,292.45,1637147057.7354496,1637147058.85403,526b2d20-7ef3-4a05-b8ba-0063ecc9d0e7
-0.2307283439392956,-0.289253745996211,-0.0139802898409325,0.1437492783622029,-0.0460850240949839,0.3246945050724875,-0.181133100069997,-0.1988838427227709,-14.466036631670711,20.56324847911215,23.749445590861523,0.5374928516856831,-1.2112172478417778,0.3209222697790934,3479.4478624131943,12.038444444444444,0.4077777777777778,179.32961890627996,-3.651833163075379,91.60977791574234,1355.0,1435.0,1200.0,1528.0,1341.0,1018.02,58.0,292.45,1637147060.793013,1637147061.9332812,1a60ef77-b842-41cf-bbf7-578d8d3c7905
-0.230207874691267,-0.2853639228109583,-0.0127339029844143,0.146899486755251,-0.0454549823818057,0.318558447237374,-0.1827219010103854,-0.1945557296295336,-14.514226481837277,20.6182633689659,23.82957559763771,0.5170134898403208,-1.1973050710028668,0.3211823088992303,3480.07568359375,12.035,0.43,179.33188956472404,-3.653187342942074,91.47488926873366,1355.0,1435.0,1200.0,1528.0,1341.0,1018.02,58.0,292.45,1637147062.0423095,1637147063.1560402,1a60ef77-b842-41cf-bbf7-578d8d3c7905
-0.228413625284602,-0.2875005862487855,-0.0136241793267012,0.1425850709200982,-0.0454823755103017,0.322996131926214,-0.1814755140860956,-0.2052938327474948,-14.549999027208118,20.5290489122832,23.60080800719827,0.5360276078563245,-1.2025648621674403,0.3200511510290404,3478.6630859375,12.034333333333333,0.4222222222222222,179.32898293977723,-3.645910108404509,91.35786156640458,1355.0,1435.0,1200.0,1528.0,1341.0,1018.02,58.0,292.45,1637147063.264883,1637147064.2804687,1a60ef77-b842-41cf-bbf7-578d8d3c7905
-0.3322105433293988,-0.4925589271422509,-0.0230846664986156,0.2437812682620109,-0.0115664083149404,0.4292041699268554,-0.1495093872643966,-0.1744656151431096,-14.61068039673845,21.47296257043608,23.45931739331749,0.5521505710814497,-1.9830179535626573,0.2166849311771808,3463.980224609375,12.033,0.4488888888888889,179.38332392481385,-3.623029686163005,91.0622684340543,1271.0,1435.0,1200.0,1528.0,1273.0,1018.02,58.0,292.45,1637147066.3192852,1637147067.4066536,1466d592-c904-4cb0-8f37-1008860e3814
-0.3385613647797414,-0.4916615283945568,-0.0248964473198661,0.242939751726849,-0.013213282562892,0.431007184742338,-0.152493593677893,-0.176695416193317,-14.770228618495656,21.52646090034736,23.712060839512457,0.5583248498042175,-1.9807733195890893,0.2259707107899524,3463.20263671875,12.02888888888889,0.4600000000000001,179.39233370323902,-3.627676491528337,90.8641982604933,1271.0,1435.0,1200.0,1528.0,1273.0,1018.02,58.0,292.45,1637147067.519268,1637147068.6866047,1466d592-c904-4cb0-8f37-1008860e3814
-0.3327101938623126,-0.4931111725332054,-0.0245573205133136,0.2450172456280622,-0.0116715978829094,0.4297695638187895,-0.1515211379419282,-0.1898232940792256,-14.770069917327046,21.44860971220421,23.612202336055503,0.5503423962688198,-1.9855620517762105,0.2217580731023816,3461.493353949653,12.02588888888889,0.4600000000000001,179.39564558607654,-3.6181123768474186,90.70636928479227,1271.0,1435.0,1200.0,1528.0,1273.0,1018.02,58.0,292.45,1637147068.7957318,1637147069.9146798,1466d592-c904-4cb0-8f37-1008860e3814
-0.391905635006086,-0.5766580119229684,-0.0375613814768177,0.2731423053536219,-0.0086999924677363,0.4871373205602741,-0.1467481608455167,-0.1616982297961745,-14.977427532258467,21.98199197996725,23.774850928509743,0.6186220501348951,-2.303165558837136,0.2186438115631166,3462.8918185763887,12.027222222222225,0.4588888888888889,179.39128792538608,-3.623741021905941,90.43124774720437,1186.0,1435.0,1200.0,1528.0,1206.0,1018.02,58.0,292.45,1637147071.6724212,1637147072.789028,f954ff11-4508-4e9e-b1f9-18b1dcd03550
-0.3848962351935134,-0.5793254830177877,-0.0365272079106053,0.2771835283339937,-0.0072427738954043,0.4854045512287488,-0.147019138354358,-0.1702723245818297,-15.035649511052895,22.0766106583995,23.68815036737121,0.606247882703604,-2.312420086799114,0.2151459857677515,3457.615559895833,12.021333333333336,0.4933333333333333,179.41188018682377,-3.618212173500292,90.2314389110446,1186.0,1435.0,1200.0,1528.0,1206.0,1018.02,58.0,292.45,1637147072.8978505,1637147074.0116203,f954ff11-4508-4e9e-b1f9-18b1dcd03550
-0.3900604343668734,-0.5749366279147821,-0.0348812388393858,0.2761265113589702,-0.0073374588152698,0.4851633727171804,-0.1457137966831163,-0.1744765728783433,-14.928272808547922,22.101230982019985,24.13704216542405,0.6084610697268228,-2.3004628097251607,0.2123926772889522,3451.1178385416665,12.021666666666668,0.4933333333333333,179.41554116821888,-3.604635322681992,90.04311465851929,1186.0,1435.0,1200.0,1528.0,1206.0,1018.02,58.0,292.45,1637147074.1204317,1637147075.345368,f954ff11-4508-4e9e-b1f9-18b1dcd03550
0.0022775253975877,0.1234098893593089,0.0106735160741077,-0.0570970576149938,-0.1134994886744403,0.111932173486665,-0.2429730685253913,-0.2555739046083181,-14.161408779763292,19.11918283237277,24.563842977245013,0.5043854813085521,0.3534151298834553,0.5173099386708252,3453.435302734375,12.03077777777778,0.4455555555555555,179.2123521473299,-3.621876237966919,89.77445296206639,1525.0,1435.0,1200.0,1528.0,1475.0,1018.02,58.0,292.45,1637147077.369674,1637147078.4103243,235067e8-fdfa-4a83-8396-c257bb02fa81
-0.0124873650613418,0.1133840086719263,0.004414188704443,-0.0504679230131739,-0.1175262771463058,0.1152467405981697,-0.2488899825483472,-0.2809399346228995,-14.233998583342364,19.23285710971984,24.45851894921439,0.4972686113488309,0.3160481701132854,0.538350171378714,3459.63170030382,12.043111111111113,0.3888888888888889,179.19788884230744,-3.61021131836566,89.92177786573383,1525.0,1435.0,1200.0,1528.0,1475.0,1018.02,58.0,292.45,1637147078.5188358,1637147079.6427777,235067e8-fdfa-4a83-8396-c257bb02fa81
-0.0105972399565477,0.1157809063735677,0.0108378747800694,-0.0550836634232974,-0.1133214334001466,0.115753513258158,-0.2426032614000253,-0.261162101581542,-14.16270212261472,19.30438038490912,24.30798784254204,0.509625263090297,0.3268442652456962,0.5149736272045375,3468.1850314670137,12.043,0.3844444444444444,179.18814443909156,-3.6094839032190538,90.03679825135684,1525.0,1435.0,1200.0,1528.0,1475.0,1018.02,58.0,292.45,1637147079.7508404,1637147080.9650638,235067e8-fdfa-4a83-8396-c257bb02fa81
0.0108378746104584,0.1189311147946037,-0.0022012492145263,-0.2288382184531637,-0.1434127746472127,0.2850840601716856,-0.207389405400769,-0.2270713636743763,-14.107944454902714,18.8050970810878,26.163128452803743,1.2784455305189617,0.3423876627095925,0.5253132554296954,3477.251953125,12.046,0.38,179.17848351596552,-3.5595471095366213,90.15782085544046,1525.0,1535.0,1200.0,1528.0,1475.0,1018.02,58.0,292.45,1637147081.6816149,1637147082.7220066,a3f0beb0-4341-4734-907c-acbad17312a2
0.0036608777982943,0.1139866572352315,-0.0011055245042911,-0.2285505906924506,-0.1419883324452574,0.2912749042768609,-0.2056636388413998,-0.2423430275067209,-14.181406454704272,18.920262571118936,26.401869757649507,1.292527449647113,0.3222829315723301,0.5190647222314978,3476.625325520833,12.041444444444444,0.3899999999999999,179.17567099584733,-3.569882442695385,90.20567619640522,1525.0,1535.0,1200.0,1528.0,1475.0,1018.02,58.0,292.45,1637147082.8340504,1637147084.0351813,a3f0beb0-4341-4734-907c-acbad17312a2
0.0170320063732296,0.112452094837904,-0.0066093497137007,-0.2265081596553953,-0.1462090642470904,0.2891048216633318,-0.2100985849692581,-0.2355018695304838,-14.102664383996842,18.80347221439044,26.10988605267084,1.2819885819652117,0.3179555559327603,0.538153657350843,3486.209309895833,12.04,0.39,179.17786424548078,-3.569659489194041,90.29205228646904,1525.0,1535.0,1200.0,1528.0,1475.0,1018.02,58.0,292.45,1637147084.1427517,1637147085.3783703,a3f0beb0-4341-4734-907c-acbad17312a2
0.0117330817351634,0.1111372252409825,-0.0169047791004428,-0.4262500364477442,-0.177923722177785,0.4836792137676488,-0.1668393702904068,-0.1919533831878271,-14.055217210787127,18.524672260818857,27.56899740307663,2.1676875902877284,0.3236912057073992,0.5340871659231642,3478.6630859375,12.03911111111111,0.3988888888888888,179.156655749198,-3.51825607839889,90.35697854689934,1525.0,1636.0,1200.0,1528.0,1475.0,1018.02,58.0,292.45,1637147086.2893536,1637147087.4299982,8b3e5586-a52f-4991-a42d-f33e3eee1076
0.0041725812905396,0.1087573112609708,-0.01877189401502,-0.4271572966930936,-0.1799880676704472,0.4860459788789071,-0.1677466304104708,-0.1989879360198576,-13.992416658297053,18.55198264163836,27.443918732251166,2.175152332233735,0.3154229647301613,0.540296079397697,3477.408745659722,12.041000000000002,0.3911111111111111,179.1719037670651,-3.527380736811335,90.36641407378276,1525.0,1636.0,1200.0,1528.0,1475.0,1018.02,58.0,292.45,1637147087.5389173,1637147088.655423,8b3e5586-a52f-4991-a42d-f33e3eee1076
0.0200967483755423,0.1137949054229597,-0.0156512700290042,-0.4280136057303823,-0.1784074846690029,0.4810681020665754,-0.1675324162128834,-0.1923094934225725,-14.062165032700667,18.63617309060176,27.338128040334016,2.166559523465931,0.3360529764566387,0.5339540215693966,3475.842041015625,12.038222222222222,0.3988888888888888,179.16717575833965,-3.526168164790246,90.38558110241364,1525.0,1636.0,1200.0,1528.0,1475.0,1018.02,58.0,292.45,1637147088.7635014,1637147089.8825128,8b3e5586-a52f-4991-a42d-f33e3eee1076
0.0081670456628373,0.1113021318014121,-0.0177468435487513,-0.5570763101769772,-0.1984592483210199,0.6120893692555418,-0.1377697921120708,-0.1722440334493416,-13.994776955651522,18.9234198066358,28.823503128235853,2.754186192210028,0.3288241663097055,0.5223370764314285,3481.803412543403,12.039555555555555,0.4022222222222222,179.15735546413296,-3.5010523259835087,90.42194578846468,1525.0,1737.0,1200.0,1528.0,1475.0,1018.02,58.0,292.45,1637147091.68391,1637147092.7516756,364b702c-dffd-4d64-877d-f9a9104d0013
0.0211787765063552,0.1136579398363498,-0.0205683346860544,-0.5582542146694237,-0.2002124079878881,0.6107334100808575,-0.1397010070071985,-0.1631769110603918,-14.003738029837203,18.75088932036397,28.788536797784733,2.752501933368596,0.3379964405026667,0.531610535929078,3482.90380859375,12.037444444444445,0.4155555555555555,179.1632810326929,-3.502947371455104,90.3840359618414,1525.0,1737.0,1200.0,1528.0,1475.0,1018.02,58.0,292.45,1637147092.8599193,1637147093.9799645,364b702c-dffd-4d64-877d-f9a9104d0013
0.0177409402521064,0.1148084507372544,-0.0168291741048074,-0.5409828492032243,-0.1954733982660159,0.5913390849941693,-0.1409884836277834,-0.1738328345463081,-13.934672354264327,18.794314440027744,28.46138411754524,2.670416997814152,0.3428335765029516,0.5217517439672857,3480.07568359375,12.04,0.4099999999999999,179.1784015536955,-3.488402365037888,90.35690037917884,1525.0,1737.0,1200.0,1528.0,1475.0,1018.02,58.0,292.45,1637147094.0888302,1637147095.2078428,364b702c-dffd-4d64-877d-f9a9104d0013
0.0171656847498402,0.1150960784573521,-0.0140213795323092,-0.5589116502365784,-0.1995412765645767,0.6048986766637398,-0.1386189788142663,-0.1629303733942227,-13.882005575887291,19.269586022254803,28.09623758878276,2.7445889401637324,0.349169355944053,0.5192957036809585,3429.4911295572915,12.037,0.4266666666666666,179.174603968517,-3.494955646955299,90.32310687989532,1525.0,1837.0,1200.0,1528.0,1475.0,1018.02,58.0,292.45,1637147096.3232095,1637147097.3554685,ee8b5ae7-f72c-4a2c-b5d4-56079a24c4ea
0.0226202023682952,0.1103614521762186,-0.0214147820609912,-0.5685584126650982,-0.2053519051730059,0.6177959028694243,-0.1418831429156253,-0.1537564169654477,-14.008454790587612,19.15624908488072,27.968470638793388,2.7941279776406054,0.3341560989895435,0.5410558941755539,3403.6115451388887,12.034222222222224,0.43,179.1876678436695,-3.501038807900777,90.27104566022167,1525.0,1837.0,1200.0,1528.0,1475.0,1018.02,58.0,292.45,1637147097.4676564,1637147098.5787857,ee8b5ae7-f72c-4a2c-b5d4-56079a24c4ea
0.0247946680134554,0.114301678069342,-0.0155280010278064,-0.5642259162456548,-0.1997741180872617,0.6126920177611584,-0.1377013093187984,-0.1715455088306453,-14.004909641509782,19.151907495216605,28.3974312121991,2.773220320670878,0.344947077147665,0.5206044035870264,3395.9708251953125,12.03425,0.43,179.1983218004098,-3.490706913552532,90.24071886139694,1525.0,1837.0,1200.0,1528.0,1475.0,1018.02,58.0,292.45,1637147098.687445,1637147099.7223656,ee8b5ae7-f72c-4a2c-b5d4-56079a24c4ea
-0.0082003421348907,0.1242179863000455,0.0279859663252474,0.1519672132955346,-0.080271635731193,-0.0959678926761475,-0.2865692201357031,-0.298635890927585,-13.985466284271562,19.99085604676277,22.377968557602127,-0.4280109053253841,0.349946070315937,0.5091384387629797,3386.576904296875,12.040444444444445,0.4022222222222222,179.1970130602739,-3.6844983530534887,90.19600768418012,1525.0,1334.0,1200.0,1528.0,1475.0,1018.02,58.0,292.45,1637147101.741889,1637147102.9943016,86ca3739-6c99-4183-b8f9-df05ca67fdfc
-0.0116381783996798,0.1237523033164857,0.0282598974997591,0.1558433392564693,-0.0795320215363736,-0.0992276738094512,-0.2876649449764034,-0.3104560228916665,-14.029666134876672,20.0264299479002,22.3537618119356,-0.443856303438597,0.3482675904633733,0.509215724708918,3387.766791449653,12.042222222222222,0.3811111111111111,179.18457908034483,-3.691897961813682,90.32516352574542,1525.0,1334.0,1200.0,1528.0,1475.0,1018.02,58.0,292.45,1637147103.103134,1637147104.1123817,86ca3739-6c99-4183-b8f9-df05ca67fdfc
-0.0032421878186842,0.1180682316198834,0.0251918683463487,0.1566788293061051,-0.0810523396139444,-0.0940366778169511,-0.2888976354320247,-0.3246730526923633,-14.061208989433306,20.01353020609236,22.3930801916492,-0.4343239947945296,0.326526058309841,0.516581846020094,3395.523681640625,12.043666666666669,0.38,179.18148879920034,-3.693008152145024,90.45330622258386,1525.0,1334.0,1200.0,1528.0,1475.0,1018.02,58.0,292.45,1637147104.2211485,1637147105.3349524,86ca3739-6c99-4183-b8f9-df05ca67fdfc
-0.0277261565071583,0.1250090995074133,0.0482601603079805,0.3805145516297957,-0.041045786092313,-0.3168528635226176,-0.3345115653930935,-0.3471343165338015,-14.20656211451494,21.022477756936205,20.888692726152684,-1.432416157455403,0.3408412041425774,0.4957562824273369,3426.000542534722,12.040777777777778,0.3844444444444444,179.16056261740323,-3.76559940264392,90.6199764987105,1525.0,1234.0,1200.0,1528.0,1475.0,1018.02,58.0,292.45,1637147106.2462225,1637147107.2927043,fabb8d81-2551-45a9-adb4-2564617a8b0d
-0.0220338666371121,0.1243001656523892,0.0468598241585608,0.3879862976984631,-0.0422636841193621,-0.3207832285721456,-0.3364520941199286,-0.366885853298067,-14.061806482327398,21.04178940658024,21.19524704852968,-1.4579226163578325,0.3334323649559016,0.5025922202926502,3456.2314724392363,12.038444444444444,0.3955555555555556,179.15985834900883,-3.757011388400013,90.67528281714982,1525.0,1234.0,1200.0,1528.0,1475.0,1018.02,58.0,292.45,1637147107.4019127,1637147108.408947,fabb8d81-2551-45a9-adb4-2564617a8b0d
-0.0153773390042683,0.1246836692818113,0.0451614508869905,0.3899859950941636,-0.0437429125003213,-0.3244539068648813,-0.3399584137089884,-0.3642972040886012,-14.139681062094496,21.084529289473924,20.968618762269543,-1.4705585137366273,0.3370773661300212,0.5115866020259531,3476.6266818576387,12.037222222222224,0.4088888888888888,179.17036773341175,-3.7625418969210846,90.71596266493653,1525.0,1234.0,1200.0,1528.0,1475.0,1018.02,58.0,292.45,1637147108.5174286,1637147109.754346,fabb8d81-2551-45a9-adb4-2564617a8b0d
-0.0286766976990877,0.1287652436524878,0.0595154442704223,0.5024758211796404,-0.0256360615162709,-0.4357932529604295,-0.3642561129519461,-0.3833765131136211,-14.154221419231774,22.07143463189424,20.38509546890184,-1.967345666611645,0.3447372154865356,0.5021950612989085,3495.3711751302085,12.039666666666667,0.3922222222222222,179.14564700207575,-3.807620481397,90.85620466243466,1525.0,1133.0,1200.0,1528.0,1475.0,1018.02,58.0,292.45,1637147111.6841214,1637147112.7065456,aa6829fe-603e-4572-93a8-c6c520ee4f92
-0.0193219479455142,0.1296966096111981,0.0545162004092385,0.4915322718716493,-0.0305531261657415,-0.4272329018533467,-0.3666941007567799,-0.388786654791621,-14.248636481489989,21.962202667977405,20.27243671663468,-1.924461974071649,0.3509257496265238,0.5190146261362933,3487.4722764756943,12.035222222222224,0.4155555555555555,179.15927398837982,-3.81116577646306,90.8450972570244,1525.0,1133.0,1200.0,1528.0,1475.0,1018.02,58.0,292.45,1637147112.814737,1637147113.9513178,aa6829fe-603e-4572-93a8-c6c520ee4f92
-0.0263208895979326,0.1277653948973297,0.0568446153489093,0.4984901230095411,-0.0272659520454433,-0.4333826579365216,-0.3650642099837709,-0.3840065550193473,-14.183636071359786,21.94291896474972,20.05527330931011,-1.953990296634944,0.344437798808703,0.5086172839167867,3471.61865234375,12.038,0.4099999999999999,179.16407181681677,-3.801286714170413,90.88935460611636,1525.0,1133.0,1200.0,1528.0,1475.0,1018.02,58.0,292.45,1637147114.0603197,1637147115.1666243,aa6829fe-603e-4572-93a8-c6c520ee4f92
-0.0306353056720607,0.1193009218684233,0.0537081034242681,0.5061191054402454,-0.0304161606041099,-0.4314925325338983,-0.3708441588378747,-0.3891838554959588,-14.2865383052146,22.299084930499102,20.105526989392093,-1.964790945505284,0.3118417093927649,0.5243082372627583,3471.931342230903,12.038444444444444,0.4022222222222222,179.1577789358615,-3.849814354449708,90.8912883085614,1525.0,1033.0,1200.0,1528.0,1475.0,1018.02,58.0,292.45,1637147116.1894453,1637147117.3308165,6fbb9288-4293-412c-81e4-aa5369f67d92
-0.0360865361523618,0.1268203323672248,0.0573787811390664,0.5069956851010416,-0.0281836214855383,-0.4404774770499792,-0.3700497582584008,-0.3816507462899787,-14.270267037309146,22.290548716178137,20.007638851173294,-1.9868398902194908,0.3409211174982915,0.5159271984330678,3473.3379720052085,12.034222222222224,0.42,179.1569486884224,-3.812856627737592,90.89343526469048,1525.0,1033.0,1200.0,1528.0,1475.0,1018.02,58.0,292.45,1637147117.4389746,1637147118.551965,6fbb9288-4293-412c-81e4-aa5369f67d92
-0.0243759782395158,0.124752152069362,0.0571733327594609,0.5093514929898885,-0.0273755244998444,-0.4396967728515294,-0.369186874879059,-0.3995521520511082,-14.237688244677924,22.23623227038432,20.14186184817294,-1.990732174048328,0.3314399883389938,0.5138828190337331,3469.901068793403,12.034333333333334,0.4122222222222222,179.1749652096331,-3.808329350682736,90.89689665277986,1525.0,1033.0,1200.0,1528.0,1475.0,1018.02,58.0,292.45,1637147118.6618977,1637147119.7857912,6fbb9288-4293-412c-81e4-aa5369f67d92
-0.0090769219101408,0.1179723557115919,0.0127690895678862,-0.0327171824865057,-0.1101438316142668,0.0917708395433795,-0.2471916090740827,-0.2746806072979432,-14.073859598702612,19.363086035486827,24.12048902598985,0.4057798529815256,0.333466156184258,0.5147808520613902,3459.9411349826387,12.035666666666666,0.4055555555555555,179.16665362832308,-3.6460000866604494,90.8797801987198,1525.0,1435.0,1200.0,1528.0,1475.0,1018.02,58.0,292.45,1637147120.694885,1637147121.72701,5e7a8724-23a9-44b7-aea0-3f6c579b59a3
-0.0123093097863172,0.1172601346791119,0.0133306484742179,-0.0325665203474289,-0.1094863967688648,0.0935376955789615,-0.2468765881881495,-0.2779951744019425,-14.134725045662506,19.405887989815184,24.295258125556902,0.409719279834926,0.3296944868359317,0.5127729200321536,3453.4364420572915,12.041666666666666,0.37,179.16398985454677,-3.66730088536078,90.91986733786854,1525.0,1435.0,1200.0,1528.0,1475.0,1018.02,58.0,292.45,1637147121.834628,1637147122.825635,5e7a8724-23a9-44b7-aea0-3f6c579b59a3
-0.0082140387092046,0.1181504109633464,0.0134950071784914,-0.0334020104330393,-0.1094863967665655,0.0921817362937295,-0.2466711397913696,-0.2841586262509856,-14.109489780737311,19.376429461355738,24.1188846831718,0.408354406872134,0.3345309351341033,0.5121377429131259,3450.654541015625,12.041333333333332,0.37,179.16860250896625,-3.6573315127891086,90.96443204547312,1525.0,1435.0,1200.0,1528.0,1475.0,1018.02,58.0,292.45,1637147122.9344842,1637147124.0853546,5e7a8724-23a9-44b7-aea0-3f6c579b59a3
0.0269329747954805,0.1291640874270442,0.0781077006943238,-0.0414008009109287,-0.0536027914460352,0.0856287548728054,-0.1796330528443581,-0.1949381373006488,-13.44507012014812,19.42733752739982,24.177016147735035,0.4155707691673014,0.3757028873170947,0.2542883489678499,3452.04443359375,12.042,0.37,179.162391590281,-3.656842300489808,90.96358510201604,1525.0,1435.0,1200.0,1439.0,1475.0,1018.02,58.0,292.45,1637147125.6730196,1637147126.6367466,78669c6e-b1a5-49ca-b162-bf01d6663f30
0.0169662629429329,0.1257848725650973,0.076700790201126,-0.0395599833716498,-0.0522090295913359,0.0870225166639602,-0.1795541606635216,-0.2059041506893926,-13.558897246146705,19.28146101053724,24.14270268742346,0.4134504493995157,0.3638202281549361,0.2537345705368991,3449.26611328125,12.041666666666666,0.37,179.15070741334085,-3.661648050048949,90.97932868805292,1525.0,1435.0,1200.0,1439.0,1475.0,1018.02,58.0,292.45,1637147126.744908,1637147127.9769075,78669c6e-b1a5-49ca-b162-bf01d6663f30
0.0251644751142417,0.1277927880124722,0.0798685302484028,-0.0407433660710971,-0.0503446539709451,0.0856621744819682,-0.1775582979663218,-0.1951857710146241,-13.55759307890473,19.35776894536971,24.093076357227734,0.4137193329060878,0.3721295499217533,0.2441677441934246,3448.1869845920137,12.044,0.37,179.15538988747184,-3.674804607073948,90.98844547277508,1525.0,1435.0,1200.0,1439.0,1475.0,1018.02,58.0,292.45,1637147128.0861127,1637147129.0924847,78669c6e-b1a5-49ca-b162-bf01d6663f30
0.0408470348032977,0.1383117447562164,0.1656774679949407,-0.0454686789440048,0.0279174834937492,0.0778140464679332,-0.0897496547975256,-0.1262372897450211,-13.078422719469724,19.381565860983343,24.489385358091013,0.4114775304396287,0.4107001263220446,-0.1023002918086019,3453.435302734375,12.044000000000002,0.37,179.15638102381138,-3.670475784959975,90.98193099012671,1525.0,1435.0,1200.0,1351.0,1475.0,1018.02,58.0,292.45,1637147130.6692894,1637147131.6700013,fc7df3fa-1b60-40fa-9a37-e9e7039fd967
0.0554749594128619,0.1441464785649041,0.1704164771296205,-0.0474272868876451,0.0296569464787451,0.0721299747047042,-0.086544659886516,-0.1049665326093531,-12.90059972461439,19.445097040754693,24.26668379660176,0.4038339404296651,0.4338417883865142,-0.1152195134995407,3450.0376790364585,12.041444444444446,0.37,179.1579929484555,-3.6727292730673873,90.99933658886162,1525.0,1435.0,1200.0,1351.0,1475.0,1018.02,58.0,292.45,1637147131.8018692,1637147132.7789888,fc7df3fa-1b60-40fa-9a37-e9e7039fd967
0.0429152151549673,0.1454613481501035,0.1685948349049937,-0.0483997425805258,0.0287803667264369,0.0738831341872086,-0.0877773502111185,-0.1213613144617912,-12.977859099038866,19.35263355448216,24.561346385664223,0.4092715689390179,0.4367112641185992,-0.1092373051784187,3447.570610894097,12.042222222222222,0.37,179.15767572411403,-3.667912709042058,91.00238512996116,1525.0,1435.0,1200.0,1351.0,1475.0,1018.02,58.0,292.45,1637147132.8878877,1637147134.120838,fc7df3fa-1b60-40fa-9a37-e9e7039fd967
0.0773346668097216,0.1580347885698377,0.2567184889551984,-0.0487284600059959,0.106864446879963,0.0551736352236586,9.977265555546436e-05,-0.0346483978693311,-12.21268300079734,19.4881881474309,24.282040783396223,0.3735975572514348,0.4865584012944801,-0.459227143370724,3447.878662109375,12.041,0.37,179.15312985376644,-3.664840452007892,90.99406140609264,1525.0,1435.0,1200.0,1262.0,1475.0,1018.02,58.0,292.45,1637147134.6690829,1637147135.6470068,a657f1c3-6f6c-42e5-9189-d1c1953d37d8
0.0831146144856843,0.1607193139712182,0.2608137597475391,-0.0510705716105435,0.1099187793985364,0.0554338698307001,0.00301713968793,-0.022047563987355,-12.29178780922514,19.55174883261056,24.41294696179532,0.3800718855816855,0.4965757303061432,-0.4727157513636575,3451.272271050347,12.041555555555554,0.37,179.14979065017224,-3.661463966964444,90.9972169534892,1525.0,1435.0,1200.0,1262.0,1475.0,1018.02,58.0,292.45,1637147135.7557068,1637147136.8819268,a657f1c3-6f6c-42e5-9189-d1c1953d37d8
0.0816216896122744,0.1575828021507531,0.2557734264621982,-0.048249080437248,0.1074807920083706,0.0565158979645779,-0.0005165725055453,-0.0158019327434284,-12.342053185596868,19.410809587578672,24.46814816983405,0.3749369733064449,0.484009116614031,-0.4577475725094966,3450.8089735243057,12.042333333333334,0.37,179.1565783403874,-3.6651737083211455,90.99092255471407,1525.0,1435.0,1200.0,1262.0,1475.0,1018.02,58.0,292.45,1637147137.0134213,1637147138.0682063,a657f1c3-6f6c-42e5-9189-d1c1953d37d8
0.0981397390769134,0.1668553720190414,0.3238453184873434,-0.035497583974354,0.1683893865123259,0.0307389746120229,0.0607481345143453,0.0466406783075845,-11.978760026159804,19.77033805812053,24.256383887639583,0.2941705323555117,0.5208439633028288,-0.7196830351824977,3453.435302734375,12.045,0.37,179.15348502360328,-3.667773591369589,90.95333298807184,1525.0,1435.0,1200.0,1173.0,1475.0,1018.02,58.0,292.45,1637147138.6707666,1637147139.6551092,249b41be-0ec3-461d-ad97-4547250f9ef3
0.0907709906604691,0.167540199928648,0.3146275351741804,-0.0352373493565716,0.1597605548831772,0.0297254292654677,0.0514618678128251,0.0234250114948317,-11.971050476149292,19.71527358311664,24.17118621923016,0.2904722217548663,0.5234956902030774,-0.682150762946315,3452.817138671875,12.037555555555556,0.39,179.15223434007527,-3.664989862395986,90.89919387307071,1525.0,1435.0,1200.0,1173.0,1475.0,1018.02,58.0,292.45,1637147139.7631176,1637147141.0859869,249b41be-0ec3-461d-ad97-4547250f9ef3
0.0937415002400887,0.1680053350411136,0.3183869663331737,-0.0338140029367088,0.1629956819273553,0.0281952497296024,0.0544531962214735,0.0282872903303777,-11.959125722039984,19.766023914744725,24.23005180915891,0.2843619940092399,0.5246980491298282,-0.6958013591673747,3452.04443359375,12.03611111111111,0.39,179.14786909028575,-3.670607313533367,90.87431832411352,1525.0,1435.0,1200.0,1173.0,1475.0,1018.02,58.0,292.45,1637147141.1947126,1637147142.3200998,249b41be-0ec3-461d-ad97-4547250f9ef3
-0.0353524005731606,0.1047338102769169,-0.0836738610539677,-0.0181933513662074,-0.1982253110700486,0.0958978865284357,-0.3490408771763256,-0.3719196132275526,-14.637805896964371,19.52469781199415,24.002113751905203,0.3782580569836162,0.2809547697179343,0.9091228389766312,3453.435302734375,12.041666666666664,0.3766666666666667,179.1877406990206,-3.66573108021654,90.93162209343012,1525.0,1435.0,1200.0,1617.0,1475.0,1018.02,58.0,292.45,1637147143.2228544,1637147144.350659,378655bc-f3f0-44df-9318-2b2ceb25d662
-0.0392367447298667,0.0999339883555659,-0.0840792792092894,-0.0150075317659202,-0.1979113859160947,0.0989478361514307,-0.3494912201056639,-0.3812398498405926,-14.696276800203824,19.627491070753308,24.17983332557292,0.3785854111129403,0.2613750372024211,0.9095038175525532,3451.3494873046875,12.0425,0.37,179.19180238484708,-3.6654156820020543,90.90949683397872,1525.0,1435.0,1200.0,1617.0,1475.0,1018.02,58.0,292.45,1637147144.4597013,1637147145.4882214,378655bc-f3f0-44df-9318-2b2ceb25d662
-0.0417295184254119,0.1071246815010315,-0.0793950559572155,-0.0194178237441887,-0.1953364326664046,0.0965509384104775,-0.3472312875669552,-0.3785279300734732,-14.787148731722056,19.69161008494101,24.28974146477373,0.3837778731392438,0.2888546080632089,0.8972904197584706,3450.038140190972,12.042222222222222,0.37,179.19063062794945,-3.6696133787135214,90.92666792955214,1525.0,1435.0,1200.0,1617.0,1475.0,1018.02,58.0,292.45,1637147145.5975678,1637147146.7162502,378655bc-f3f0-44df-9318-2b2ceb25d662
-0.0706840444572823,0.0872646718183191,-0.1776267807609943,0.0004969728652896,-0.2838162114787511,0.1017282374993015,-0.4515990848571092,-0.4784032570135735,-15.452548332652103,19.97586866995989,24.08660070093725,0.3471148268828574,0.2122029788083728,1.2972042809642133,3441.879150390625,12.043666666666669,0.37,179.18999466144675,-3.673354709695136,90.94660752846912,1525.0,1435.0,1200.0,1706.0,1475.0,1018.02,58.0,292.45,1637147148.8551147,1637147149.8809595,5b1f97e8-c292-43d1-af8e-def991610956
-0.0722728453434954,0.0844979670124048,-0.1786540227621696,0.0038663263327793,-0.2831587765964008,0.1019062927598081,-0.4504759668092962,-0.4689115400489532,-15.352630696632607,19.83721054166667,24.169057538478828,0.3390076137123296,0.1999058355623166,1.29604784602866,3437.4318033854165,12.042555555555555,0.37,179.18953779768222,-3.67315264993219,90.94297993910996,1525.0,1435.0,1200.0,1706.0,1475.0,1018.02,58.0,292.45,1637147149.9894612,1637147151.109969,5b1f97e8-c292-43d1-af8e-def991610956
-0.0631783299840653,0.0857717469464911,-0.1783116087561092,0.00160639413992,-0.283350528443694,0.102015865229219,-0.4498870146347464,-0.470445555260319,-15.325286622902468,19.82075641664137,24.069920657365145,0.3442576258888639,0.2056680720064446,1.2950240924111889,3442.33984375,12.040666666666668,0.37,179.18261350368368,-3.6753568088955952,90.94890019530054,1525.0,1435.0,1200.0,1706.0,1475.0,1018.02,58.0,292.45,1637147151.2179673,1637147152.3481548,5b1f97e8-c292-43d1-af8e-def991610956
-0.0926944151961709,0.0761978525780943,-0.2528071988674709,0.0326838859460087,-0.349422737384682,0.0847992912894176,-0.5372162945669192,-0.5656777532234329,-16.029222749775887,20.13781514803546,23.73419450425443,0.2334510553596649,0.1691744160378013,1.6089189360009155,3443.722900390625,12.042333333333334,0.3733333333333333,179.19194809554935,-3.689334079553989,90.94064021986426,1525.0,1435.0,1200.0,1795.0,1475.0,1018.02,58.0,292.45,1637147153.2480285,1637147154.4997883,c97d5123-1596-47b4-b661-675884eb011f
-0.1016656615480703,0.0754993280959481,-0.2553684555816577,0.033176962063524,-0.3531071122295241,0.0873605477254117,-0.5400514829139398,-0.5771417758325452,-15.965058886247196,20.2588299394309,24.042783758964145,0.2388504591938397,0.1631443437885052,1.621815411029112,3443.722900390625,12.04188888888889,0.37,179.1901176048518,-3.6841572230499415,90.93458335989028,1525.0,1435.0,1200.0,1795.0,1475.0,1018.02,58.0,292.45,1637147154.6079311,1637147155.7292273,c97d5123-1596-47b4-b661-675884eb011f
-0.0948584716062124,0.0734859339948435,-0.2572311877960357,0.035998453151845,-0.3542850164882276,0.0855799951319286,-0.5429277610631756,-0.5621714331302721,-16.02879087636893,20.304280831407503,23.86022292664043,0.2286320926601081,0.157197300769447,1.6295144845344045,3441.572021484375,12.041333333333332,0.3744444444444444,179.1698759597915,-3.684380484858437,90.93483987143912,1525.0,1435.0,1200.0,1795.0,1475.0,1018.02,58.0,292.45,1637147155.8382845,1637147156.9571407,c97d5123-1596-47b4-b661-675884eb011f
-0.1090755001458319,0.0736228995795802,-0.2992796283890091,0.0570363671925192,-0.3943748509570698,0.0660076130406543,-0.5953992929286122,-0.6217240890245584,-16.221044640447968,20.60320238615864,23.484638188608347,0.1369251664556769,0.1571497330086335,1.8155573980217496,3438.197509765625,12.038444444444444,0.3766666666666667,179.16651247108024,-3.707542557539465,90.90995749229276,1525.0,1435.0,1200.0,1883.0,1475.0,1018.02,58.0,292.45,1637147158.779691,1637147159.822147,e8c369a1-a725-4632-b2e5-298eb5f147b5
-0.1066238160460888,0.0736228995797353,-0.2955541639592412,0.0565706841926237,-0.3906219931959426,0.0682675451886509,-0.591112268786356,-0.623463552061659,-16.23965914860496,20.597236308540147,23.775789842726827,0.1432369970931533,0.1549944211005326,1.799659834648142,3433.14990234375,12.033,0.4099999999999999,179.16166759022897,-3.710111372713559,90.85784694347508,1525.0,1435.0,1200.0,1883.0,1475.0,1018.02,58.0,292.45,1637147159.9300787,1637147161.0525234,e8c369a1-a725-4632-b2e5-298eb5f147b5
-0.1130475023867689,0.0700207046933429,-0.2980058483108254,0.0600770031473545,-0.3910876762902919,0.0673361791974508,-0.5941939954935084,-0.6245592774294301,-16.390946833128023,20.59325928858003,23.58030253086764,0.1329789390104552,0.143700182238639,1.8072387429901813,3431.3154296875,12.034,0.4099999999999999,179.15146328760898,-3.725262866726762,90.79373878792536,1525.0,1435.0,1200.0,1883.0,1475.0,1018.02,58.0,292.45,1637147161.1617303,1637147162.1276617,e8c369a1-a725-4632-b2e5-298eb5f147b5
-0.024156833280508,0.1076999369557757,-0.0793950559582131,-0.0258004202445948,-0.1636288967013829,0.0983999738035106,-0.3037036174355164,-0.3403282216585281,-14.052803223915724,15.60518440123808,24.010226109241984,0.3755661613968382,0.2890085174731638,0.7939395832195671,7043.078125,11.809,8.7,179.98667247969647,-3.942457332804468,77.81847623297631,1525.0,1435.0,1350.0,1528.0,1475.0,1018.02,58.0,292.45,1637147166.1854436,1637147167.197789,14e5b608-b30f-43c1-b71e-99a6401f680f
-0.0250334130703081,0.1114527939437407,-0.0755874124932474,-0.0231980740792975,-0.1588761904916621,0.1004270644434861,-0.3003342635385516,-0.3208928023384799,-14.196354695294175,15.54291969248662,25.19022418331956,0.3741437226645763,0.2935616655716072,0.7795451088770037,7045.65234375,11.80588888888889,8.684444444444445,-179.7579157840144,-3.95713450812531,71.93016104258942,1525.0,1435.0,1350.0,1528.0,1475.0,1018.02,58.0,292.45,1637147167.306574,1637147168.426811,14e5b608-b30f-43c1-b71e-99a6401f680f
-0.0231706809800325,0.1107679660255981,-0.0746012602282998,-0.0250608060708246,-0.1582187556233346,0.1000298642397134,-0.2988413384357651,-0.3333566722036449,-14.150302052840551,15.534013576250802,24.80416778508304,0.3774047339560173,0.294380511273124,0.7745719830727079,7053.383680555556,11.81111111111111,8.648888888888889,-179.61297158072767,-3.950648010279783,66.80861958444615,1525.0,1435.0,1350.0,1528.0,1475.0,1018.02,58.0,292.45,1637147168.5356429,1637147169.6543524,14e5b608-b30f-43c1-b71e-99a6401f680f
0.0847308083600016,0.3071492146861674,-0.0690815468792666,-0.1229090250503535,-0.2019244779909596,-0.0036804775854723,-0.3376710880860038,-0.3643930804836613,-13.737562502845927,15.273830301537524,24.478934839593403,0.363781334389069,1.043283572819771,0.9047029893573476,7055.963216145833,11.806555555555557,8.686666666666667,-179.65050422912677,-3.9162479522524896,61.220293132595394,1610.0,1435.0,1350.0,1528.0,1542.0,1018.02,58.0,292.45,1637147170.2107258,1637147171.2602146,d9ef27d0-22fa-4434-aed1-aa7d2f9c7daa
0.0925926329180816,0.3106829265700185,-0.0668900974101031,-0.1199642647908933,-0.1970621992204969,-0.005707568297767,-0.3366712391432016,-0.3518470295423368,-14.03236138182026,15.114431720180963,25.08387611390808,0.3515840172105339,1.053035735504188,0.8948355071451909,7060.48291015625,11.80511111111111,8.705555555555556,-179.73015789522748,-3.884530735612936,57.97389738989917,1610.0,1435.0,1350.0,1528.0,1542.0,1018.02,58.0,292.45,1637147171.3690157,1637147172.5317962,d9ef27d0-22fa-4434-aed1-aa7d2f9c7daa
0.0878399271806009,0.3030128542531627,-0.0699992163473331,-0.1107327837140158,-0.1953638257876967,0.004688119856616,-0.3365205769764185,-0.3585720408601966,-14.181809856106767,14.982268829348511,26.691814488011644,0.3532707059469007,1.009739007402914,0.8979162691053663,7060.48291015625,11.804333333333334,8.758888888888889,-179.81783323905336,-3.864441489148505,55.035145509978825,1610.0,1435.0,1350.0,1528.0,1542.0,1018.02,58.0,292.45,1637147172.669525,1637147173.7510774,d9ef27d0-22fa-4434-aed1-aa7d2f9c7daa
0.2021377055280864,0.5196102144448355,-0.0601513903007207,-0.2323308413319807,-0.2400557012216507,-0.1035557865832453,-0.3758023139147884,-0.3936489341923999,-14.096062274012551,14.731742595470068,25.446142215556165,0.383001804612022,1.848135634300996,1.0248413665654823,7066.30322265625,11.805222222222222,8.69111111111111,179.93646148237798,-3.837434162260367,51.25130988170593,1695.0,1435.0,1350.0,1528.0,1609.0,1018.02,58.0,292.45,1637147174.7646,1637147175.7999184,bfef7d6f-7028-4de6-8f99-877e4f0f89ea
0.1974945723428869,0.5187199382171753,-0.0615895290168719,-0.2378094653991586,-0.2431785169523502,-0.1049939253346943,-0.3754735964465638,-0.389183854903059,-13.839623128956369,14.704771061378535,24.39583233123123,0.3918398006394004,1.852873322082556,1.0291403458136936,7066.30322265625,11.801555555555556,8.72888888888889,179.76512846377793,-3.815593446592521,49.49296533398049,1695.0,1435.0,1350.0,1528.0,1609.0,1018.02,58.0,292.45,1637147175.9084675,1637147177.0276797,bfef7d6f-7028-4de6-8f99-877e4f0f89ea
0.2038360787140146,0.520788118373448,-0.0603568386874241,-0.229591529311466,-0.2411103363612834,-0.1065142434004926,-0.3759666726491392,-0.4044829145283424,-13.910659714533594,14.731820027409592,25.545758515935024,0.3702740300293321,1.85000806873654,1.027228548072242,7066.30322265625,11.800000000000002,8.8,179.6125283773415,-3.8107537832468745,47.96957967315845,1695.0,1435.0,1350.0,1528.0,1609.0,1018.02,58.0,292.45,1637147177.1348126,1637147178.2554207,bfef7d6f-7028-4de6-8f99-877e4f0f89ea
0.3105185677619343,0.7022127159997226,-0.0516321305676996,-0.3323431259311013,-0.2803920714239536,-0.1976785444239254,-0.4109339936356118,-0.4394228429988988,-13.855236711333069,14.775689381584009,24.30486924411433,0.3977534419327329,2.5542710797854618,1.1379470166100736,7066.30322265625,11.788444444444444,8.818888888888889,179.36998532427475,-3.768684845737735,46.04197051578663,1779.0,1435.0,1350.0,1528.0,1677.0,1018.02,58.0,292.45,1637147179.2602818,1637147180.294186,6a3d1e71-3547-47f3-9f7d-7da445cb17b8
0.3070807317837704,0.6990351147158059,-0.0503309574337563,-0.3298229587506873,-0.2776664558576831,-0.1897071465484323,-0.4068661148702742,-0.4335059288709238,-13.833698097767316,14.714413187296358,25.34602625538041,0.4098167484803154,2.532744111383508,1.127815473359192,7066.30322265625,11.79211111111111,8.804444444444446,179.26790587039918,-3.7594211170846896,45.14013889962492,1779.0,1435.0,1350.0,1528.0,1677.0,1018.02,58.0,292.45,1637147180.4033515,1637147181.5319436,6a3d1e71-3547-47f3-9f7d-7da445cb17b8
0.2989312799479197,0.6975421899746367,-0.0578777614937355,-0.3359042317480701,-0.2870075100874937,-0.2000617458609655,-0.4185355851734726,-0.4409842511756268,-13.927078018064726,14.910038896159891,22.795718987637027,0.4007339504203909,2.550682590422055,1.1634637508302887,7066.30322265625,11.79,8.8,179.13713355073028,-3.75341477205144,44.30024154158211,1779.0,1435.0,1350.0,1528.0,1677.0,1018.02,58.0,292.45,1637147181.6406307,1637147182.756889,6a3d1e71-3547-47f3-9f7d-7da445cb17b8
0.3375418760651175,0.7500958802179009,-0.0368535433339054,-0.3645163478114386,-0.2818576033779752,-0.2128954226871648,-0.4102080759223367,-0.4464491785364262,-14.033197560551264,15.203159229591757,24.65497363391086,0.4396698427161329,2.736924000575143,1.1244703982940556,7066.30322265625,11.783444444444443,8.836666666666666,178.89738783958356,-3.7138878507102766,42.83595067745902,1864.0,1435.0,1350.0,1528.0,1744.0,1018.02,58.0,292.45,1637147184.787797,1637147185.953521,76d04b03-8489-4935-9e91-bb9b1f462220
0.3276529614560751,0.755848434276877,-0.038565613205629,-0.3724329599068445,-0.2859528749448051,-0.2232500219658848,-0.4122899531593656,-0.4451069154646685,-13.804028880591147,15.088543860796248,22.934522628611543,0.4332556719352456,2.7729901145865874,1.1337536005350677,7066.30322265625,11.788666666666666,8.856666666666666,178.8189560184344,-3.69322885263258,42.40369266946092,1864.0,1435.0,1350.0,1528.0,1744.0,1018.02,58.0,292.45,1637147186.0655825,1637147187.0669963,76d04b03-8489-4935-9e91-bb9b1f462220
0.3251738845009052,0.7464936856541433,-0.0397024276008054,-0.3581063571715011,-0.2828026660142113,-0.2172235355764061,-0.4121392910211213,-0.4358206471079235,-13.923545501598262,15.09424031098215,24.35954663814552,0.4146288379223761,2.724284194225722,1.1317156378516808,7066.30322265625,11.78611111111111,8.844444444444443,178.74393625623065,-3.6716274781768994,42.06853149233885,1864.0,1435.0,1350.0,1528.0,1744.0,1018.02,58.0,292.45,1637147187.174773,1637147188.1265936,76d04b03-8489-4935-9e91-bb9b1f462220
-0.1266344893638912,-0.1044460629165846,-0.0776555929264489,0.0665006891098991,-0.113663847395677,0.2196419067156159,-0.2514923290256174,-0.2832546536626468,-14.229686846859485,16.071710053052964,23.98163852708987,0.4428899571529248,-0.5164087134372598,0.6239606771638142,7072.1337890625,11.808,8.74,178.8506890773183,-3.6458717360222974,41.38816989837966,1440.0,1435.0,1350.0,1528.0,1408.0,1018.02,58.0,292.45,1637147189.710138,1637147190.7530072,3b8750f4-c92e-4cc9-bdf9-154b1514fd05
-0.1406186766594797,-0.1075825750081488,-0.0761626679783341,0.078307122556696,-0.107089498882455,0.2247507228345084,-0.2488625894743751,-0.282336983820001,-14.49267123006674,15.90385482435395,25.83471027115694,0.4268623436640915,-0.544096757959588,0.611449542517884,7072.1337890625,11.804,8.75,178.82625521392742,-3.634273221037969,41.11270950751791,1440.0,1435.0,1350.0,1528.0,1408.0,1018.02,58.0,292.45,1637147190.8608904,1637147192.0712988,3b8750f4-c92e-4cc9-bdf9-154b1514fd05
-0.1428649124226969,-0.1043501870035942,-0.0763133301255969,0.064583170914684,-0.1137049370790921,0.2181763750122673,-0.2508075010107247,-0.2880073598214456,-14.173171066002537,16.15568980381472,23.54240089647076,0.4445041422151001,-0.5122335691587975,0.6205922797360114,7073.431640625,11.803,8.753333333333334,178.8067679253155,-3.6111034169622553,40.87479959943811,1440.0,1435.0,1350.0,1528.0,1408.0,1018.02,58.0,292.45,1637147192.1792877,1637147193.2977102,3b8750f4-c92e-4cc9-bdf9-154b1514fd05
-0.2447262284618838,-0.3059224602221658,-0.0826959267417216,0.1703890839842715,-0.0747930120655137,0.3212429725340177,-0.2147033684783334,-0.2509718604041253,-14.207149235081133,16.857034520065245,24.07349070706453,0.4418353744351004,-1.2861383959169477,0.5018633199990687,7083.8232421875,11.797888888888888,8.786666666666667,178.81864790101184,-3.587592862337948,40.53936900929879,1355.0,1435.0,1350.0,1528.0,1341.0,1018.02,58.0,292.45,1637147195.2323449,1637147196.4197438,ae0304b4-750b-40fb-90b1-102d192d5879
-0.2499583143928292,-0.3068675229108467,-0.0807236222067485,0.1674580205489006,-0.0726426522621693,0.3244890566996807,-0.212498222328019,-0.2287286465752335,-14.321068894560652,16.87794020659688,24.03608226443232,0.4559150065180619,-1.2880588453821018,0.4928252650927504,7083.8232421875,11.795666666666667,8.776666666666666,178.8082644956536,-3.580258235238608,40.46556957422671,1355.0,1435.0,1350.0,1528.0,1341.0,1018.02,58.0,292.45,1637147196.5288737,1637147197.514011,ae0304b4-750b-40fb-90b1-102d192d5879
-0.2478079544447521,-0.3061963914440668,-0.0788334970233001,0.1656774680036503,-0.0726152591410134,0.3269681336427768,-0.2113614078233927,-0.2437400766103486,-14.294903068886985,17.029684017543175,24.258455619217766,0.4666509762056878,-1.2873561575893138,0.4889281772085673,7083.8232421875,11.797,8.773333333333333,178.81217895295796,-3.570735552295468,40.43950709017376,1355.0,1435.0,1350.0,1528.0,1341.0,1018.02,58.0,292.45,1637147197.6220877,1637147198.650217,ae0304b4-750b-40fb-90b1-102d192d5879
-0.3525121338811884,-0.5168182780621006,-0.0896170720804623,0.2628468767754155,-0.0371932179973456,0.4388158660746644,-0.1756489975605055,-0.2077712656430242,-14.323598433303887,17.699104662961275,23.62937680646487,0.5025833825603687,-2.0841735833116646,0.3787190638126166,7083.8232421875,11.789875,8.811250000000001,178.8689239748549,-3.573386380135963,40.34105237974522,1271.0,1435.0,1350.0,1528.0,1273.0,1018.02,58.0,292.45,1637147200.7679665,1637147201.814211,d77d7be4-281c-4c60-ae17-801df217121f
-0.373037252346498,-0.5173705234484011,-0.0901035738458476,0.2710253653580738,-0.036351701390898,0.4341480792908165,-0.1778579787290907,-0.2018937981105909,-14.376588954024506,17.710370970810132,23.94907154627573,0.4737203241902805,-2.089740829351828,0.3817952695408943,7083.8232421875,11.788777777777778,8.81777777777778,178.87661799322748,-3.5765006588417823,40.36656066983802,1271.0,1435.0,1350.0,1528.0,1273.0,1018.02,58.0,292.45,1637147201.9223893,1637147203.1266162,d77d7be4-281c-4c60-ae17-801df217121f
-0.364475258074018,-0.5113434881927884,-0.0886813231404897,0.2642789888377047,-0.0370726882761897,0.428706163096783,-0.1784759675193064,-0.1953364333741468,-14.401233732439868,17.730421724164206,23.13531043350328,0.4767713981196729,-2.0588278823346124,0.3812153966758656,7083.8232421875,11.789222222222223,8.81,178.9116629349489,-3.5703785088997924,40.364752187527785,1271.0,1435.0,1350.0,1528.0,1273.0,1018.02,58.0,292.45,1637147203.2347765,1637147204.4710276,d77d7be4-281c-4c60-ae17-801df217121f
-0.4273972606198688,-0.6312431985624042,-0.0905851448862509,0.3073957526853305,-0.0177331470137721,0.5121592872485718,-0.1549726710042694,-0.1888442641868137,-14.605020451176449,18.62479024969247,24.01515098278053,0.5729126053859154,-2.520294467667357,0.3106072082329104,7083.8232421875,11.780666666666669,8.853333333333333,178.9501776127687,-3.5500247586165656,40.37027819002127,1186.0,1435.0,1350.0,1528.0,1206.0,1018.02,58.0,292.45,1637147206.2916298,1637147207.435414,01e60a0a-dc51-47e3-97d6-e70d954c2da4
-0.4123447396727461,-0.6182451600387912,-0.0861200665697228,0.2979588243972383,-0.0175413951808761,0.5056123328328407,-0.1517128898116849,-0.1759694986954296,-14.40422534203952,18.56265945212847,23.689220624645174,0.5793477012940759,-2.4686324900245,0.3008146527910229,7083.8232421875,11.78,8.863333333333333,178.9647623433764,-3.573099343214788,40.3968396573386,1186.0,1435.0,1350.0,1528.0,1206.0,1018.02,58.0,292.45,1637147207.5454636,1637147208.5512722,01e60a0a-dc51-47e3-97d6-e70d954c2da4
-0.4077289983988839,-0.6163961240111541,-0.0886676265751513,0.2964932927499502,-0.0201574379238945,0.5031606490818786,-0.1557533748904653,-0.1781746438314977,-14.50695642887718,18.575339436957773,23.381618264883127,0.5770007807543366,-2.4582249517459114,0.3133031833328228,7077.3251953125,11.777111111111113,8.853333333333333,178.98297921680273,-3.58129585481002,40.42362007016431,1186.0,1435.0,1350.0,1528.0,1206.0,1018.02,58.0,292.45,1637147208.660613,1637147209.902463,01e60a0a-dc51-47e3-97d6-e70d954c2da4
-0.0333883140477015,0.1056454532011316,-0.0761900610994094,-0.0327856653077759,-0.1618346473783091,0.097989077047189,-0.30036165663649,-0.327261702778982,-14.039109236902858,15.678599701192786,22.7762373270193,0.3908562774860716,0.293207300885889,0.7802979230215404,7072.1337890625,11.801444444444446,8.747777777777777,178.83467000698488,-3.60280468968882,40.52457671683131,1525.0,1435.0,1350.0,1528.0,1475.0,1018.02,58.0,292.45,1637147210.8077114,1637147211.8343518,6b28a8dd-0db2-4d20-bced-4f7bbad3a6ce
-0.0176920574637942,0.1115486698533696,-0.0792717869303867,-0.0302928915789134,-0.1640124003725853,0.0928117779801184,-0.3048541285172078,-0.3232486105086572,-14.112570990092683,15.54315804113846,23.161446496001656,0.3725722256918482,0.3119492217535959,0.7951448200621538,7072.1337890625,11.804666666666666,8.726666666666667,178.83369556666332,-3.6015904812682424,40.64138092019256,1525.0,1435.0,1350.0,1528.0,1475.0,1018.02,58.0,292.45,1637147211.9429166,1637147213.173838,6b28a8dd-0db2-4d20-bced-4f7bbad3a6ce
-0.0186667046101965,0.1084285938588909,-0.0762185499501251,-0.0205732655071576,-0.1593709102318187,0.0966342135000534,-0.30029865247763,-0.324387068483231,-14.02951647477441,15.52367241243438,24.57082128736538,0.3595259818388083,0.2861644815964277,0.7799365886038399,7077.97412109375,11.802,8.726666666666667,178.8659112922485,-3.602365850034648,40.702474685588605,1525.0,1435.0,1350.0,1528.0,1475.0,1018.02,58.0,292.45,1637147213.2815342,1637147214.4039097,6b28a8dd-0db2-4d20-bced-4f7bbad3a6ce
-0.008159252467885,0.1069055365683629,-0.098282611217887,-0.3071962404373073,-0.2089782063709531,0.3722489530855555,-0.2441920624139845,-0.2566285400445862,-14.050427665618784,14.826223237172046,26.15778965265832,1.6199406387640478,0.3004136853987557,0.7975079083330531,7077.97412109375,11.803444444444445,8.74,178.90580263264104,-3.5454135983009647,40.81470000602126,1525.0,1535.0,1350.0,1528.0,1475.0,1018.02,58.0,292.45,1637147215.3131645,1637147216.342682,1bb1b63f-c86a-4cf1-9ccd-6f58fee8c003
-0.0163771877963517,0.1059467774836472,-0.0944201814801659,-0.3031420584809924,-0.2036776376708121,0.370810814537096,-0.2397132872427327,-0.2615593021757349,-14.054836207770457,14.73474891567774,26.383615957949605,1.6071834159653633,0.2945916151723765,0.7789191090580695,7079.923828125,11.802333333333332,8.746666666666666,178.904765961707,-3.536395969901452,40.83430075166443,1525.0,1535.0,1350.0,1528.0,1475.0,1018.02,58.0,292.45,1637147216.458088,1637147217.6861017,1bb1b63f-c86a-4cf1-9ccd-6f58fee8c003
-0.0107615986910805,0.1070972883867955,-0.0945982367561251,-0.3007862500317317,-0.2032119546234451,0.3732761948989886,-0.2398776459504304,-0.2597102663005992,-14.115134320627684,14.716533789027304,27.2014599249384,1.607379728420377,0.29178332822293,0.7800402252318753,7077.97412109375,11.805111111111112,8.741111111111111,178.93202296995477,-3.530898877132257,40.95418347306659,1525.0,1535.0,1350.0,1528.0,1475.0,1018.02,58.0,292.45,1637147217.798495,1637147219.0096123,1bb1b63f-c86a-4cf1-9ccd-6f58fee8c003
-0.0059913610887885,0.1080078355831571,-0.1118252212636124,-0.5637196909159787,-0.2504387895977167,0.6219903365675767,-0.1888897358896608,-0.2058778532678209,-13.943428255397,14.433088791195532,28.39748578795958,2.75692734312746,0.3146586218394965,0.7949792877883314,7077.97412109375,11.79888888888889,8.765555555555556,178.9703843479732,-3.486848236126429,41.04598425115119,1525.0,1624.7777777777778,1350.0,1528.0,1475.0,1018.02,58.0,292.45,1637147219.6896162,1637147220.6480792,3c474d18-fa33-40c9-a4f5-ae62b31b7320
0.0111150929665939,0.1061012746604649,-0.1104446080790782,-0.5641667467388136,-0.2488083510630976,0.6247384138157018,-0.1877852452824096,-0.2148321164766927,-14.052203034355294,14.500433064636727,28.47335269246711,2.764583605854705,0.3077490416542315,0.7890727660570058,7077.97412109375,11.79622222222222,8.77,178.98070248707938,-3.480273609867861,41.074256301400645,1525.0,1636.0,1350.0,1528.0,1475.0,1018.02,58.0,292.45,1637147220.7789671,1637147221.7756398,3c474d18-fa33-40c9-a4f5-ae62b31b7320
-0.0058993202304329,0.1062891914414217,-0.112732481392588,-0.5636506602947308,-0.2521223708138123,0.6249641330799498,-0.1910357129050924,-0.2229350017168909,-14.02259337785602,14.60905823800764,28.57632275827997,2.7645641499566893,0.3071249148260215,0.8014817954395603,7077.97412109375,11.799444444444443,8.76,178.99082786306897,-3.475243056964473,41.11818048904309,1525.0,1636.0,1350.0,1528.0,1475.0,1018.02,58.0,292.45,1637147221.8845832,1637147223.0096958,3c474d18-fa33-40c9-a4f5-ae62b31b7320
0.0135224001223433,0.1066726950778049,-0.1216352449912229,-0.8126678878314323,-0.2902535949254512,0.8689956944844764,-0.1367014604789651,-0.1714085432784884,-14.088078302915072,14.569205818869632,30.8975587711828,3.874287078124396,0.3185480036674191,0.7893004070338284,7083.8232421875,11.792,8.78,179.0170041836081,-3.414958194666387,41.26708771986826,1525.0,1737.0,1350.0,1528.0,1475.0,1018.02,58.0,292.45,1637147224.7368069,1637147225.8775637,b0766e84-b033-4efc-ad87-015426f792f1
0.0054551270119042,0.0977699321300649,-0.1183617673128444,-0.809682036607886,-0.2859528749589468,0.8816650100815074,-0.1294422839570237,-0.1562464518706217,-13.991595032257772,14.629789791247886,31.888108880264863,3.8967924555257727,0.2755360505814725,0.7690336767854826,7083.8232421875,11.795111111111112,8.774444444444445,179.0327697780323,-3.4056051280876347,41.30000391929837,1525.0,1737.0,1350.0,1528.0,1475.0,1018.02,58.0,292.45,1637147226.0129025,1637147226.9944751,b0766e84-b033-4efc-ad87-015426f792f1
