raw_voltage_G-,raw_voltage_G0,raw_voltage_G1,raw_voltage_G2,raw_voltage_G3,raw_voltage_G4,raw_voltage_G5,raw_voltage_G6,load_x,load_y,load_z,load_l,load_m,load_n,rpm,voltage,current,roll,pitch,yaw,aileron1_pwm,elevator_pwm,throttle_pwm,rudder_pwm,aileron2_pwm,pbaro,pdiff,Tt,sample_start_time,sample_end_time,uid
-0.0248827508846026,0.0968522627157512,0.0232606535688644,0.0193708308745081,-0.1140062613688755,-0.0129804410517293,-0.2825150382320833,-0.3082097869516964,-14.146846781522164,22.00437288691055,12.9857324167187,0.0691120773780852,0.3477533731524135,0.537095012915561,3331.296630859375,12.038,0.39,179.25413469121264,3.2592294547032723,80.10363213301997,1525.0,1435.0,1200.0,1528.0,1475.0,1018.02,58.0,292.45,1637146294.1884725,1637146295.148779,4eaf19ef-1411-4268-99f7-4b69946dd4e2
-0.0275946695555811,0.0985917256353194,0.0241098402021242,0.0159603877465016,-0.1136638473985664,-0.0103507017512882,-0.2816110652479773,-0.3049500055796987,-14.20655308922872,22.01243378426162,13.162282247104717,0.0828083857648892,0.3536091157193295,0.5345685506153418,3422.490641276041,12.041777777777778,0.3877777777777778,179.2377285768262,3.260735321687784,79.37344013506105,1525.0,1435.0,1200.0,1528.0,1475.0,1018.02,58.0,292.45,1637146295.2847316,1637146296.2683322,4eaf19ef-1411-4268-99f7-4b69946dd4e2
-0.0132954620072651,0.1020021686756094,0.0247535784710491,0.0150975045426604,-0.1136775439447705,-0.0135419999688932,-0.2824328588673275,-0.3106066852585183,-14.245710242703264,22.021807243574937,13.0701652209503,0.0776433626230661,0.367641134170293,0.5351237232924614,3433.3010525173613,12.042555555555555,0.39,179.2108798621088,3.2766137090970324,78.68554749863202,1525.0,1435.0,1200.0,1528.0,1475.0,1018.02,58.0,292.45,1637146296.3863137,1637146297.4900403,4eaf19ef-1411-4268-99f7-4b69946dd4e2
0.0813888481271477,0.2856456190434875,0.0276572489142897,-0.073984915061796,-0.1532332078950373,-0.1083769754562262,-0.3206325664034566,-0.3425744578790338,-14.151638201554327,21.59758893623121,13.375522518143596,0.0629130416204594,1.064188369858129,0.6615405562537028,3432.68994140625,12.04022222222222,0.3944444444444445,179.18394918512138,3.326941934280337,77.45035483964949,1610.0,1435.0,1200.0,1528.0,1542.0,1018.02,58.0,292.45,1637146299.3327477,1637146300.3749132,8eac83e1-206a-4eb6-a593-c468d20dcbab
0.0765128733107514,0.2874398681116231,0.0305883124782882,-0.0749299776565335,-0.150493895958686,-0.111061501115556,-0.318098702665504,-0.3336306034387102,-14.159200365355076,21.56084943952388,13.14176780614004,0.0588737120732711,1.0733447281654,0.6500953877049497,3435.5948893229165,12.036888888888887,0.4099999999999999,179.1806737299594,3.333651077320059,77.10211233244702,1610.0,1435.0,1200.0,1528.0,1542.0,1018.02,58.0,292.45,1637146300.4834776,1637146301.4943972,8eac83e1-206a-4eb6-a593-c468d20dcbab
0.0693769663413107,0.283919852766374,0.0291501738169228,-0.0739164322840702,-0.1512882964160461,-0.1068292642660704,-0.3181671854682331,-0.3257413842682137,-14.137838191122128,21.57205137996916,13.379595853808611,0.0661491169844523,1.0576677007912785,0.6531639777970205,3435.7476399739585,12.038000000000002,0.4088888888888888,179.17580304617124,3.3449924641412574,76.71199241762343,1610.0,1435.0,1200.0,1528.0,1542.0,1018.02,58.0,292.45,1637146301.6026125,1637146302.7231977,8eac83e1-206a-4eb6-a593-c468d20dcbab
0.191769411110822,0.4948879284494752,0.032560616918419,-0.1761886420065294,-0.1988153588732882,-0.2160730244553136,-0.3648998512549816,-0.4020312295104076,-14.080282791963176,21.356514630088693,13.682852788675197,0.0501831606487738,1.8586355771817733,0.804972958233794,3447.4169921875,12.037999999999998,0.4099999999999999,179.14882683458933,3.4017250588885064,75.98747099449542,1695.0,1435.0,1200.0,1528.0,1609.0,1018.02,58.0,292.45,1637146304.8601406,1637146305.8869991,ea963981-0980-41fa-a0ca-94554f30594d
0.189728623964669,0.4997639028664574,0.0379844541552549,-0.1762845179066482,-0.1946105149848846,-0.2211270551114541,-0.3614072281729688,-0.3863897566785845,-14.089695205811884,21.377239745419818,13.665146918964972,0.0394422512697795,1.877502989459795,0.7874288624621277,3453.435302734375,12.03477777777778,0.42,179.1537384995125,3.4258484095474104,75.75963789217114,1695.0,1435.0,1200.0,1528.0,1609.0,1018.02,58.0,292.45,1637146305.9956582,1637146307.1168325,ea963981-0980-41fa-a0ca-94554f30594d
0.198576600468899,0.4943811558274635,0.0330810861556363,-0.1755586002363709,-0.1980894411941089,-0.2160319347634458,-0.3643519887866569,-0.3835682646121054,-14.088993401091138,21.35672647254788,13.704725122548242,0.0488806969006137,1.8565580962805843,0.8024636110714853,3454.363606770833,12.035666666666666,0.42,179.15159989139235,3.441109281451073,75.49735483349309,1695.0,1435.0,1200.0,1528.0,1609.0,1018.02,58.0,292.45,1637146307.2252808,1637146308.34523,ea963981-0980-41fa-a0ca-94554f30594d
0.2957947682533111,0.687584792848647,0.0461749962141231,-0.2660106829851596,-0.2322212688055346,-0.3222213675107561,-0.3987577505135302,-0.4297804627174565,-14.015073946881534,21.22081508013709,13.59902555570384,0.0140679769796256,2.593567197333869,0.9026333891891256,3460.40625,12.032333333333334,0.4233333333333333,179.13310829257944,3.473036004657044,75.21363788228966,1779.0,1435.0,1200.0,1528.0,1677.0,1018.02,58.0,292.45,1637146309.2552674,1637146310.403218,a3cbc811-1e98-430c-b114-e558272cc3e0
0.3037261708817629,0.685708912366875,0.0427114104794234,-0.2655992382657758,-0.2350022183606278,-0.320297822468518,-0.4019775381334169,-0.4280777067707652,-14.062744805856171,21.2287654946846,13.63944419846115,0.0173250085249814,2.586240582527151,0.9155237155655062,3462.8918185763887,12.029444444444444,0.4422222222222223,179.12393610743402,3.4938917501283315,75.04660181158746,1779.0,1435.0,1200.0,1528.0,1677.0,1018.02,58.0,292.45,1637146310.5103848,1637146311.74179,a3cbc811-1e98-430c-b114-e558272cc3e0
0.2953838715057428,0.6845578536950345,0.041641435310651,-0.2678049323758654,-0.2354399604395834,-0.3162222738819959,-0.4020586217812844,-0.4378888274642545,-14.136062178598806,21.20026878486044,13.76597528968481,0.0311998938264481,2.5815241472912454,0.9176741418491492,3462.7364095052085,12.028666666666666,0.4433333333333333,179.12540383919566,3.5007785966661467,74.87111300233242,1779.0,1435.0,1200.0,1528.0,1677.0,1018.02,58.0,292.45,1637146311.8753145,1637146312.963031,a3cbc811-1e98-430c-b114-e558272cc3e0
0.3059614491027922,0.6881940157161647,0.0535064901099036,-0.2741984867841877,-0.23011090281187,-0.3224147629398314,-0.3945616719927743,-0.425211291175987,-13.981365405771896,21.62704780590566,12.624470238576937,0.0350227145124462,2.6057307928708173,0.8822752874609353,3454.521185980903,12.02588888888889,0.4633333333333333,179.1376632698459,3.5558977726653915,74.52480419757497,1864.0,1435.0,1200.0,1528.0,1744.0,1018.02,58.0,292.45,1637146314.798908,1637146315.928857,738e812f-8bbc-4e60-881c-0fbbd89e2c8e
0.2974657483123137,0.6882285310403358,0.0532698135776139,-0.2800496573852283,-0.230550288464316,-0.3165783844775783,-0.3929778016516283,-0.4152210184334987,-14.000961414380894,21.58232179245597,12.698803998593382,0.0610303495755667,2.606044765598845,0.8810036352719589,3444.6460774739585,12.023666666666664,0.48,179.1297387325889,3.5486518905933933,74.3992698740896,1864.0,1435.0,1200.0,1528.0,1744.0,1018.02,58.0,292.45,1637146316.0418968,1637146317.0591495,738e812f-8bbc-4e60-881c-0fbbd89e2c8e
0.2824817141226347,0.6873930410491317,0.0472981140100466,-0.2760913514253005,-0.2354810501321204,-0.3177015024820696,-0.39951106141901,-0.4246442520665039,-14.027852991646526,21.5735865440164,12.89291576164898,0.049239733218422,2.600515020232204,0.905353733749264,3443.722900390625,12.021222222222224,0.4722222222222222,179.1376981797017,3.568661214358161,74.27607375203007,1864.0,1435.0,1200.0,1528.0,1744.0,1018.02,58.0,292.45,1637146317.1674106,1637146318.2882557,738e812f-8bbc-4e60-881c-0fbbd89e2c8e
-0.1380574199846939,-0.1062677053079378,0.0281366284676,0.1130005050306378,-0.0635207438453962,0.0973042491346903,-0.2314405648597498,-0.2503007290727953,-14.277808306825248,22.552278465932584,12.837183963080928,0.1095162172807191,-0.4230359221707464,0.3646837019165032,3440.8043619791665,12.024777777777778,0.461111111111111,179.36644728628465,3.5856454046508475,74.1348649033094,1440.0,1435.0,1200.0,1528.0,1408.0,1018.02,58.0,292.45,1637146319.1984522,1637146320.2292757,6299d7f5-1bbc-4139-b998-a3d36cae09fa
-0.1394133793667415,-0.1111162873326448,0.0209048454669136,0.1152878302682012,-0.0694787470765086,0.1007009956196803,-0.2376861962930887,-0.2567792019039077,-14.281626381952632,22.568393782131533,12.892025112417,0.1117430707758687,-0.4424198868715409,0.39105032343781,3443.2647298177085,12.039666666666667,0.3899999999999999,179.362247478855,3.579627652253047,74.15050755432857,1440.0,1435.0,1200.0,1528.0,1408.0,1018.02,58.0,292.45,1637146320.3363934,1637146321.372872,6299d7f5-1bbc-4139-b998-a3d36cae09fa
-0.1381395993739288,-0.1148691446141154,0.0193845274484113,0.1158493891575243,-0.0705470786902977,0.1032485554762465,-0.2379190378128299,-0.2684623680371769,-14.228161952506817,22.577074082714915,12.797873280946348,0.11619478401741,-0.4562046989389124,0.3943611684699232,3452.817138671875,12.038888888888888,0.39,179.35463257684034,3.5663843186232804,74.14865657306349,1440.0,1435.0,1200.0,1528.0,1408.0,1018.02,58.0,292.45,1637146321.4819934,1637146322.476142,6299d7f5-1bbc-4139-b998-a3d36cae09fa
-0.2479586165890377,-0.3076893165459086,0.0214390112575379,0.2141221938493035,-0.026238710086227,0.2004804220902926,-0.1959390812871927,-0.2266741630245254,-14.296600696689824,23.318546562073948,12.787603904146982,0.1179899234063751,-1.190778835010281,0.248604313213432,3456.22021484375,12.039222222222223,0.3988888888888888,179.39898478967078,3.5795409230801485,74.131379230103,1355.0,1435.0,1200.0,1528.0,1341.0,1018.02,58.0,292.45,1637146323.295355,1637146324.3201234,a300c3f2-e8bf-485f-a506-52d42628f302
-0.2465478709155549,-0.3114695672868606,0.0213020456630974,0.215669904910283,-0.0251703784957815,0.2024390298930245,-0.1958158122475103,-0.2118544846321359,-14.388608892108946,23.339084778186173,12.742306038354224,0.1189757147143878,-1.204103279363953,0.2465798955921877,3455.7559407552085,12.033333333333337,0.42,179.4019035571761,3.5778624040916185,74.09250786462653,1355.0,1435.0,1200.0,1528.0,1341.0,1018.02,58.0,292.45,1637146324.429427,1637146325.5109932,a300c3f2-e8bf-485f-a506-52d42628f302
-0.2345085944767129,-0.3083604480164403,0.0237400331203705,0.2145467871632843,-0.0243485849525695,0.2010556775365062,-0.1937476317022879,-0.2240033332136675,-14.280356448372638,23.368938429491777,12.848047283327162,0.1187912619820249,-1.193852216405881,0.2397716352826775,3456.22021484375,12.033,0.42,179.3967110955871,3.5933645619140853,74.08833537795356,1355.0,1435.0,1200.0,1528.0,1341.0,1018.02,58.0,292.45,1637146325.6191387,1637146326.6915848,a300c3f2-e8bf-485f-a506-52d42628f302
-0.3539453419163154,-0.5116639877450404,0.0195697049212992,0.3186236428333243,0.0147046872496925,0.3071185343769969,-0.1563730072242425,-0.179001915585508,-14.291475847742374,24.29495776695645,13.34819078411136,0.1283619437386498,-1.9737809172373983,0.1156811644188766,3459.009765625,12.032222222222224,0.4288888888888889,179.43998110288902,3.58352894721366,74.0601540174381,1271.0,1435.0,1200.0,1528.0,1273.0,1018.02,58.0,292.45,1637146328.8243246,1637146329.9619749,5caa2fb1-8184-49b1-a8de-4008e8c846de
-0.353130122618562,-0.5082584745217342,0.0191620953320798,0.3164015133268515,0.0141261446071329,0.3047912152937723,-0.1570435907929023,-0.180198447106373,-14.302321616958466,24.21713361355943,13.1977445340806,0.1275790833137115,-1.9593515755252,0.1181842934809256,3459.009765625,12.030111111111111,0.4422222222222222,179.42945654028796,3.5799612168734507,74.03868597396684,1271.0,1435.0,1200.0,1528.0,1273.0,1018.02,58.0,292.45,1637146330.0709727,1637146331.0997868,5caa2fb1-8184-49b1-a8de-4008e8c846de
-0.3569826913922582,-0.51141416245112,0.0202534371232653,0.3198859175918612,0.0160853003643019,0.3047123231212869,-0.1558076132503082,-0.1849451268500928,-14.309850145823134,24.23593026234641,13.211864821842491,0.1197192477070509,-1.9716186872962755,0.1119241139173205,3459.009765625,12.030666666666669,0.44,179.4356188887391,3.576083305824372,74.00780972436883,1271.0,1435.0,1200.0,1528.0,1273.0,1018.02,58.0,292.45,1637146331.2124484,1637146332.21684,5caa2fb1-8184-49b1-a8de-4008e8c846de
-0.4050855619976661,-0.6112873059535388,0.0278353041538114,0.3699205382604367,0.0405868002815151,0.3679619305382193,-0.1285794006957571,-0.15654777618164,-14.228156368080846,25.09762557355582,14.963900693529917,0.1553939310247556,-2.3679752250111217,0.0199787072002785,3454.827392578125,12.02811111111111,0.4544444444444444,179.4542516447949,3.5656778683628767,73.95921899970347,1186.0,1435.0,1200.0,1528.0,1206.0,1018.02,58.0,292.45,1637146333.21728,1637146334.2696648,70732908-f3f3-4343-ba34-e42494972604
-0.3964704249475406,-0.6122323688103544,0.0294788911202917,0.3633051009401713,0.0418605801714606,0.3730707465017018,-0.124922419402475,-0.1594925367183628,-14.224601855466467,25.05873605605809,14.713537101700192,0.1815828446327722,-2.368407940046904,0.0102895943162525,3454.827392578125,12.018555555555556,0.48,179.46044283182255,3.5516871033376867,73.89249564061151,1186.0,1435.0,1200.0,1528.0,1206.0,1018.02,58.0,292.45,1637146334.3819864,1637146335.4916775,70732908-f3f3-4343-ba34-e42494972604
-0.4060580179117417,-0.6109311953169004,0.024534433497912,0.3774536449139744,0.0382583852999047,0.3599357477991944,-0.1342223832131081,-0.1599719169479595,-14.243906685535762,25.101368101383827,14.824326006131647,0.1201954547749399,-2.3664277505969484,0.035583679408412,3450.654541015625,12.018999999999998,0.48,179.4470738748871,3.55927240786594,73.82702296504759,1186.0,1435.0,1200.0,1528.0,1206.0,1018.02,58.0,292.45,1637146335.6002948,1637146336.7204723,70732908-f3f3-4343-ba34-e42494972604
-0.0192945548560562,0.1042210111309507,0.0296569464877507,0.0169602365312447,-0.1091165896585679,-0.017472912381863,-0.2771048968505433,-0.3068675239302534,-14.103081994356907,21.94018726698381,13.103850071001224,0.0643884618651844,0.3747352277538519,0.5151073896517073,3452.04443359375,12.02,0.48,179.25209929483995,3.5402074289017302,73.81093103936304,1525.0,1435.0,1200.0,1528.0,1475.0,1018.02,58.0,292.45,1637146337.7229614,1637146338.665928,8fefbee7-cbe4-4d96-b477-d54f47af3ace
-0.0221160459898299,0.1003996713405017,0.0245344335318075,0.0183846786312217,-0.1130885918911857,-0.0143774900666287,-0.2816384583588002,-0.2943077775853734,-14.154442611861365,21.95824228325631,13.160926390398956,0.0679789633346962,0.359760718914148,0.5335420553417974,3459.941162109375,12.041,0.38,179.26837335890235,3.554708489692098,73.92111337432397,1525.0,1435.0,1200.0,1528.0,1475.0,1018.02,58.0,292.45,1637146338.7751625,1637146339.8847628,8fefbee7-cbe4-4d96-b477-d54f47af3ace
-0.0187466924566322,0.103837507495865,0.0278900904141041,0.0181381405943782,-0.111034107979057,-0.0179248988121516,-0.2796387605370083,-0.2961294200713409,-14.118868815440374,21.99609871673985,13.12321313415137,0.0609935310475608,0.3729808906186305,0.5236924669211188,3467.4052734375,12.040444444444445,0.38,179.26879227717143,3.5518612020137184,74.0565636146644,1525.0,1435.0,1200.0,1528.0,1475.0,1018.02,58.0,292.45,1637146339.993271,1637146341.0212042,8fefbee7-cbe4-4d96-b477-d54f47af3ace
-0.0098302326090954,0.0962359175908651,0.0142894075900511,-0.1730384332503704,-0.1425635879439195,0.1754294173950318,-0.2378779481370081,-0.2642301309888171,-14.041698031686591,21.56995531839736,14.63752975461346,0.9235120660792026,0.3531712512041524,0.5254861149080887,3465.380832248264,12.041555555555554,0.38,179.25531859066874,3.6157402142031776,74.29503663389575,1525.0,1535.0,1200.0,1528.0,1475.0,1018.02,58.0,292.45,1637146342.6853893,1637146343.7749538,012f310b-07b3-4dbc-a4c9-3ec6edcf2a2c
-0.0147336007362936,0.0972494629098211,0.0112624681036479,-0.1748052894754477,-0.1456727069712186,0.1763333902250237,-0.2420417024292349,-0.2676268777167582,-14.16938356754307,21.617885500010228,14.648336874145206,0.9296334711478996,0.3578070648475696,0.5397886226815185,3461.1827528211807,12.042555555555555,0.3855555555555556,179.25232393217266,3.610576164303825,74.36116045416055,1525.0,1535.0,1200.0,1528.0,1475.0,1018.02,58.0,292.45,1637146343.8835366,1637146344.91162,012f310b-07b3-4dbc-a4c9-3ec6edcf2a2c
-0.0238144192725975,0.0958935036297861,0.0100434743719315,-0.1744354823466717,-0.1466725558260002,0.1770867009235781,-0.2427813166798005,-0.2552725802938566,-14.144678329126624,21.61578375872137,14.607341195547091,0.9304233371850668,0.3527870346724378,0.5436646187689235,3463.0472276475693,12.04022222222222,0.3811111111111111,179.24195266937295,3.602596274055396,74.42117353184793,1525.0,1535.0,1200.0,1528.0,1475.0,1018.02,58.0,292.45,1637146345.0198822,1637146346.140939,012f310b-07b3-4dbc-a4c9-3ec6edcf2a2c
-0.0040776778984458,0.0949484410984266,-0.002406697594298,-0.3691457851776234,-0.1807632929554799,0.368715241232973,-0.2034037064473118,-0.2319062485936561,-14.079626856956065,21.42194819889401,16.333325671529984,1.798659975185371,0.3566651444050693,0.5517408672601186,3464.291259765625,12.043444444444445,0.3844444444444444,179.2337959056841,3.6580071323345087,74.5065827706892,1525.0,1636.0,1200.0,1528.0,1475.0,1018.02,58.0,292.45,1637146346.685918,1637146347.7223597,8821b96a-4296-4ca4-88a7-f48f883d6a64
-0.0005872468228601,0.0943726377843147,0.0003200133428585,-0.3692635756035514,-0.1782261422142523,0.3687464693881244,-0.2009339427551231,-0.2302818362641918,-14.10126563968887,21.457538743676736,16.261879396330126,1.7993452800220635,0.355479877459489,0.540850738546543,3463.20263671875,12.037555555555556,0.3899999999999999,179.23456544033058,3.653074028206468,74.51235048598834,1525.0,1636.0,1200.0,1528.0,1475.0,1018.02,58.0,292.45,1637146347.830774,1637146348.894111,8821b96a-4296-4ca4-88a7-f48f883d6a64
-0.0028449876068852,0.0902642181200531,-0.0014616350383887,-0.3690773023670307,-0.1785033605909712,0.3729474775196857,-0.2005000357451121,-0.2276740118644817,-14.0983015479564,21.38304072115152,16.30687305637043,1.8077914131481008,0.3395139043668205,0.5426397336104652,3464.602294921875,12.039,0.3933333333333333,179.23837516806765,3.649534140373501,74.53905652564306,1525.0,1636.0,1200.0,1528.0,1475.0,1018.02,58.0,292.45,1637146349.0031865,1637146350.0293667,8821b96a-4296-4ca4-88a7-f48f883d6a64
0.0004969727401214,0.0948251720726726,-0.0037215672533281,-0.5260946858745331,-0.2029654165356326,0.5208839942702655,-0.165546415080834,-0.1781061612509984,-13.939701191443037,21.557954958688068,17.540367059570226,2.4957407263437403,0.363757193643931,0.5302259586990865,3466.003173828125,12.038000000000002,0.38,179.2019110648187,3.694798942368037,74.55517577208428,1525.0,1737.0,1200.0,1528.0,1475.0,1018.02,58.0,292.45,1637146351.6836662,1637146352.6943514,0c8ed9f0-d65c-41eb-8a9f-43ccea857488
0.0002093450023545,0.0902642181160603,-0.0085153628517715,-0.5287929086190526,-0.2066634877226247,0.5288690871894235,-0.1679570095767757,-0.1894743062175242,-13.981800269008868,21.53592718245005,17.659686054506917,2.519383930491508,0.3459192232670258,0.5448018638255365,3464.602294921875,12.03677777777778,0.3955555555555556,179.2136301516146,3.6909559174587816,74.54379288237753,1525.0,1737.0,1200.0,1528.0,1475.0,1018.02,58.0,292.45,1637146352.8024657,1637146353.9308603,0c8ed9f0-d65c-41eb-8a9f-43ccea857488
-0.004447485032661,0.0880590722084753,-0.0100219843324284,-0.5255468234593068,-0.2067730602167871,0.527430948657492,-0.1694362380290881,-0.2062525920877865,-14.019684468862703,21.49624958224955,17.56225939811992,2.508457220751382,0.338284363210722,0.548724921056808,3462.1147732204863,12.037222222222224,0.3922222222222222,179.214663786909,3.7118125641355846,74.53147501566436,1525.0,1737.0,1200.0,1528.0,1475.0,1018.02,58.0,292.45,1637146354.0669596,1637146355.0482318,0c8ed9f0-d65c-41eb-8a9f-43ccea857488
-0.0041324641471339,0.0919762879175457,-0.0049268644444734,-0.5224377039065122,-0.2077592125566225,0.5203909181820724,-0.172257729345387,-0.2091288694928629,-14.006792452653515,22.11311504961793,17.515379866899238,2.48996591561156,0.3532512152497427,0.5473310571557369,3460.40625,12.036,0.39,179.197061630508,3.719589540847421,74.49781584343454,1525.0,1837.0,1200.0,1528.0,1475.0,1018.02,58.0,292.45,1637146356.6855133,1637146357.7725656,b4291ba4-3b2d-4f2b-a6b6-2d10db47ceff
-0.0020779803347905,0.0937020542829653,-0.0025573597487545,-0.5267247277683169,-0.2053075282940603,0.5237465747481028,-0.1682172442131184,-0.1866802076315106,-14.013331191054869,22.00775589475154,17.697475288350468,2.506622282051598,0.3588325123712021,0.5354758159958802,3460.40625,12.03077777777778,0.4244444444444444,179.20518500216087,3.6961320624847898,74.43319770042677,1525.0,1837.0,1200.0,1528.0,1475.0,1018.02,58.0,292.45,1637146357.8815162,1637146359.0491931,b4291ba4-3b2d-4f2b-a6b6-2d10db47ceff
-0.0043653056455597,0.0907983838964674,-0.0047351126104734,-0.5256016096768746,-0.2075537641393378,0.5242533473654073,-0.1699841004242333,-0.1831738881958679,-13.94185521141879,22.05436375052697,17.496078118735483,2.505431995407306,0.3489455242687502,0.5434247204462141,3452.9716796875,12.032666666666666,0.42,179.2049482222696,3.689785298926032,74.40940359808818,1525.0,1837.0,1200.0,1528.0,1475.0,1018.02,58.0,292.45,1637146359.157137,1637146360.3651917,b4291ba4-3b2d-4f2b-a6b6-2d10db47ceff
-0.031854299427758,0.1014132166630435,0.0422029942256644,0.2329412644795367,-0.0773405720582435,-0.2250168781755407,-0.3266453565766891,-0.3489570554167345,-14.203558684970943,22.79408370175878,11.330580915057752,-0.883238779110496,0.3548498271423018,0.523892957668768,3454.827392578125,12.032111111111112,0.4055555555555555,179.18433926481396,3.4827727476260466,74.29249428570468,1525.0,1334.0,1200.0,1528.0,1475.0,1018.02,58.0,292.45,1637146362.2068288,1637146363.2317898,a2a911ca-974d-445b-bd5e-a650b2c4ec16
-0.0380862337432648,0.1000846505008429,0.0431206636546053,0.2369543559458086,-0.0763407232356278,-0.2272768105888136,-0.326111190703825,-0.3599827866629022,-14.13799358778621,22.82682529077431,11.354421745540288,-0.8970701542025369,0.3487561751223182,0.5204601739949561,3452.817138671875,12.042444444444444,0.3744444444444444,179.19162631774847,3.4830773550902823,74.43401201075783,1525.0,1334.0,1200.0,1528.0,1475.0,1018.02,58.0,292.45,1637146363.3399646,1637146364.5744362,a2a911ca-974d-445b-bd5e-a650b2c4ec16
-0.0217599354472787,0.102782872502076,0.042381049487537,0.2317359673855558,-0.0775186273274277,-0.2251401472106581,-0.3258235629273231,-0.3623248985697234,-14.13345478454525,22.74681377854328,11.35008971724531,-0.8810630198819852,0.3594766690448766,0.5229738089883245,3454.827392578125,12.043111111111113,0.3722222222222223,179.20264720742924,3.481141873950164,74.56956470393581,1525.0,1334.0,1200.0,1528.0,1475.0,1018.02,58.0,292.45,1637146364.683181,1637146365.8018703,a2a911ca-974d-445b-bd5e-a650b2c4ec16
-0.0321178211743598,0.1000265770928805,0.0579638981415646,0.4434705041555037,-0.044083135020216,-0.428406423091289,-0.3724324119655642,-0.4081574268867766,-14.276715109474246,23.71305605267041,9.658021789256653,-1.8086113024471464,0.3400848050785962,0.5211931260517286,3461.804931640625,12.038666666666666,0.38,179.20033556785015,3.404393955306689,74.7543167675252,1525.0,1234.0,1200.0,1528.0,1475.0,1018.02,58.0,292.45,1637146367.7366126,1637146368.8777552,e6e51ee8-cf68-4a14-93f6-a8128f742297
-0.0356756393482024,0.1020295617910512,0.0608166173551655,0.4446900456272378,-0.0415925527268962,-0.4316294979669995,-0.37098112435456,-0.3899097726330552,-14.31013121769864,23.73882688522703,9.65491673518304,-1.8183094002630884,0.3478923791011914,0.5120606977848008,3466.003173828125,12.038777777777776,0.39,179.2109284323429,3.419369287357549,74.82569527999145,1525.0,1234.0,1200.0,1528.0,1475.0,1018.02,58.0,292.45,1637146368.9862957,1637146369.9898808,e6e51ee8-cf68-4a14-93f6-a8128f742297
-0.0458795758641287,0.1017419340647637,0.0576390157729901,0.4430738518488843,-0.0445236163612676,-0.4296161034318809,-0.3731177878808523,-0.4096602141812566,-14.285542299424222,23.6904416053144,9.669487254368947,-1.8106035718661453,0.346507152256806,0.5234351170971961,3459.009765625,12.034333333333333,0.3988888888888888,179.2113352080535,3.4153627647950366,74.86880288057313,1525.0,1234.0,1200.0,1528.0,1475.0,1018.02,58.0,292.45,1637146370.0980616,1637146371.2200844,e6e51ee8-cf68-4a14-93f6-a8128f742297
-0.052097813643335,0.1035087900901036,0.0712670914999441,0.5521395380259086,-0.0251566819482102,-0.5356411900895807,-0.3955801482920965,-0.4190971449965331,-14.405151783706872,24.521348582738565,9.07748973758422,-2.288849371323286,0.3466770807367054,0.5103721621986437,3454.5180392795137,12.038111111111112,0.3844444444444444,179.1930166406995,3.3862219761445886,75.01382904612993,1525.0,1133.0,1200.0,1528.0,1475.0,1018.02,58.0,292.45,1637146373.266662,1637146374.291844,abe33080-e237-44fe-9bff-98a9f15244c1
-0.0454549825180164,0.1054126117093163,0.0705959601425028,0.5475237982231458,-0.0271289864343403,-0.5332168985166774,-0.3952377342767544,-0.4131117477750255,-14.311621809366974,24.510554392280028,9.0814452862044,-2.27304694903929,0.3536460963821077,0.5137511217500969,3449.728922526041,12.034333333333333,0.4,179.197316624237,3.3759105723638547,75.06156372041931,1525.0,1133.0,1200.0,1528.0,1475.0,1018.02,58.0,292.45,1637146374.400835,1637146375.5203793,abe33080-e237-44fe-9bff-98a9f15244c1
-0.0407296696249994,0.1051660736525507,0.0690208558856143,0.5456199767676951,-0.0285123389141461,-0.5313130761909424,-0.3960047417320094,-0.4211653261474765,-14.314973874658785,24.47474057700657,9.05997357311095,-2.264795205150437,0.3530693977016232,0.5188099400111906,3446.492431640625,12.036888888888887,0.4,179.1854153990632,3.386806502785122,75.09877610883738,1525.0,1133.0,1200.0,1528.0,1475.0,1018.02,58.0,292.45,1637146375.628977,1637146376.7539375,abe33080-e237-44fe-9bff-98a9f15244c1
-0.0360454464424915,0.1070972883881771,0.0738557410749052,0.5223906155767901,-0.028156228346124,-0.5107819291742942,-0.3872252458967624,-0.4005383044364812,-14.324359231619924,24.611770666406755,9.257501726917546,-2.1650833320171032,0.361797228777831,0.4994800853473506,3445.10693359375,12.032333333333334,0.4166666666666667,179.18405239686882,3.375840562924862,75.12815730591703,1525.0,1033.0,1200.0,1528.0,1475.0,1018.02,58.0,292.45,1637146377.771947,1637146379.0010598,de931709-1dd5-47fb-8f4a-0075d48d7406
-0.0409762076763184,0.1010023199101931,0.0685825660411894,0.5303620119397253,-0.032525430662572,-0.5135760278688871,-0.393648933134709,-0.418521889730157,-14.2866528003132,24.73930683043136,9.00820431930181,-2.1887814373122656,0.339566453297528,0.5207197927171624,3439.270562065972,12.031555555555556,0.42,179.1868800951852,3.374458706562469,75.08791231350752,1525.0,1033.0,1200.0,1528.0,1475.0,1018.02,58.0,292.45,1637146379.109362,1637146380.351182,de931709-1dd5-47fb-8f4a-0075d48d7406
-0.0427978500703395,0.1061111361839892,0.0708424981914287,0.5307592120958451,-0.0310188091804491,-0.5182602521941303,-0.3931284638273093,-0.4173302893042312,-14.30414541977513,24.72542064151173,9.116806849603805,-2.200174518215171,0.3579830157388842,0.5156144365280956,3438.504096137153,12.031,0.4177777777777777,179.1746965555257,3.3762165790682324,75.09814773143373,1525.0,1033.0,1200.0,1528.0,1475.0,1018.02,58.0,292.45,1637146380.4864235,1637146381.5716927,de931709-1dd5-47fb-8f4a-0075d48d7406
-0.0172811607005003,0.0977151458986962,0.0284516493233007,0.0250822958681762,-0.1091713758977669,-0.0184042783739715,-0.2786800012970087,-0.2908014584336428,-14.06863053257628,22.043926977946985,13.11631881309705,0.0446211990784004,0.348905279071861,0.5183506830250214,3445.7228732638887,12.034,0.4011111111111111,179.17989205275438,3.5151521843079423,75.11928944364465,1525.0,1435.0,1200.0,1528.0,1475.0,1018.02,58.0,292.45,1637146382.1849663,1637146383.301268,bd853a8e-d87d-4273-8c27-d617fb4a33d5
-0.0166511189431382,0.1011666786123786,0.0285749183517506,0.0241235367618218,-0.109774024510038,-0.0211161970473291,-0.2796661536516982,-0.3070318827951155,-14.075971011974554,22.042321725033123,13.082812349957775,0.0406763417894976,0.362325377450891,0.5207650506620841,3449.1119520399307,12.04011111111111,0.37,179.17762594776974,3.501421891392663,75.12971610686762,1525.0,1435.0,1200.0,1528.0,1475.0,1018.02,58.0,292.45,1637146383.408763,1637146384.6400597,bd853a8e-d87d-4273-8c27-d617fb4a33d5
-0.0176646643105987,0.1015227891298632,0.0285064355576508,0.0220142667157513,-0.1102123144142699,-0.0198287205047813,-0.2795291880489406,-0.2930476938790533,-14.081974995746094,22.05058432827376,13.039548808386378,0.0483689150351478,0.3643424417771988,0.521216342974172,3453.435302734375,12.038,0.37,179.18426185600336,3.506020304393407,75.11920596355478,1525.0,1435.0,1200.0,1528.0,1475.0,1018.02,58.0,292.45,1637146384.7495832,1637146385.9659398,bd853a8e-d87d-4273-8c27-d617fb4a33d5
-0.0079899629529652,0.112386351361002,0.0964895778425432,0.016059002978573,-0.0486983275741701,-0.0276998589995202,-0.210361558928399,-0.2428388428007817,-13.706994575907418,22.04096658751049,13.180291613178726,0.0476475720661782,0.4062288120086642,0.2480105579692383,3450.9634060329863,12.042555555555554,0.37,179.16569740183928,3.4999256056457377,75.08896871609915,1525.0,1435.0,1200.0,1439.0,1475.0,1018.02,58.0,292.45,1637146386.781813,1637146387.809555,32180fce-a7ab-41d7-b6d7-0e2132206e36
-0.0017903525476767,0.1094393998687178,0.0943731856451767,0.0156590634407832,-0.0505501023571948,-0.0241294400238323,-0.2108272419562654,-0.2275918319809022,-13.635184275280604,22.032940182607728,13.21477121801608,0.0564559993612268,0.3942770416734504,0.2538227062610987,3450.654541015625,12.04225,0.3637499999999999,179.171953855119,3.5134560592024497,75.09628982511575,1525.0,1435.0,1200.0,1439.0,1475.0,1018.02,58.0,292.45,1637146387.9180596,1637146388.9951122,32180fce-a7ab-41d7-b6d7-0e2132206e36
0.0047292094228695,0.1124115530295815,0.0984547600504346,0.0151522907630352,-0.0472629281736713,-0.0273070417047937,-0.2071291707604755,-0.2308653096664187,-13.574708266800732,22.00310225894401,13.140735490831938,0.0504827354189078,0.4059732041264109,0.2388218604713579,3454.827392578125,12.040888888888889,0.36,179.18604225864703,3.507976928289237,75.11023792517456,1525.0,1435.0,1200.0,1439.0,1475.0,1018.02,58.0,292.45,1637146389.1059177,1637146390.1813486,32180fce-a7ab-41d7-b6d7-0e2132206e36
0.0303280777554482,0.1321482935439502,0.1915091765877664,0.0028801741119824,0.0346151007251737,-0.0395791585526952,-0.1134036127606837,-0.1418513676043399,-12.979566832533934,22.04103105235625,13.254229531628418,0.0557911326300194,0.4821905785931664,-0.1301463640004533,3453.435302734375,12.03877777777778,0.37,179.1657581146319,3.500987866073217,75.08441222101283,1525.0,1435.0,1200.0,1351.0,1475.0,1018.02,58.0,292.45,1637146391.2894683,1637146392.4324467,b311dc0b-22b0-4fe5-a4e7-2ae0f945e21f
0.0305335261204133,0.1233003168935005,0.1866879881524284,0.0115774889510606,0.0327249756335496,-0.0390860824191401,-0.1174988840288887,-0.1411939329566016,-13.008763660240056,22.050401859126065,13.196158736355905,0.0370782325695507,0.4483503102622355,-0.1162698560150569,3452.04443359375,12.040777777777778,0.37,179.16692835370972,3.509102130807192,75.12211258850158,1525.0,1435.0,1200.0,1351.0,1475.0,1018.02,58.0,292.45,1637146392.540952,1637146393.5420988,b311dc0b-22b0-4fe5-a4e7-2ae0f945e21f
0.0270956898910638,0.1245193105829227,0.1846882906754059,0.0093038601885306,0.0303280778633953,-0.0379081783505705,-0.1194985817092992,-0.1449878797830414,-13.022606374763974,22.052362995251727,13.22040938499517,0.0447642163821883,0.4529585156508804,-0.1072809624600885,3453.28076171875,12.04188888888889,0.3699999999999999,179.1752414528395,3.512085002483784,75.0821453571183,1525.0,1435.0,1200.0,1351.0,1475.0,1018.02,58.0,292.45,1637146393.650809,1637146394.6798296,b311dc0b-22b0-4fe5-a4e7-2ae0f945e21f
0.0574335672891437,0.1464338037870788,0.2759621526963429,0.0026199394913265,0.1092339514927145,-0.0572340231964457,-0.0300052638052097,-0.0505364065390233,-12.306577481505348,22.18791279730965,13.341046127612112,0.0222368159858743,0.5356256208589946,-0.4633810497759951,3439.117621527778,12.040888888888889,0.37,179.14369508579296,3.489810830678922,75.07368502946639,1525.0,1435.0,1200.0,1262.0,1475.0,1018.02,58.0,292.45,1637146396.706452,1637146397.7567642,d07613d0-d31f-4fee-93f2-02c5a5ebf51d
0.0565843806573301,0.14394103018972,0.2694699842959249,0.004332009330645,0.1048784459253566,-0.0557821879504358,-0.0358810876243196,-0.0617264952223074,-12.412085253164006,22.106953758747377,13.378232915032958,0.0207301375107164,0.5260696424747923,-0.4405079550501543,3430.857747395833,12.039333333333332,0.3633333333333333,179.1610847474198,3.478507199625636,75.10088284274136,1525.0,1435.0,1200.0,1262.0,1475.0,1018.02,58.0,292.45,1637146397.868638,1637146398.866038,d07613d0-d31f-4fee-93f2-02c5a5ebf51d
0.0646379570777544,0.1408456080298787,0.2679222732595616,0.0061125619720805,0.103673148785183,-0.0547412494494233,-0.0374424953564628,-0.0727933148910129,-12.419033683920226,22.16663240547817,13.315518414813246,0.0193578313554294,0.5147486150353703,-0.4350102243967197,3427.809000651041,12.039666666666667,0.3777777777777777,179.16947221972055,3.485754765528992,75.10548487242214,1525.0,1435.0,1200.0,1262.0,1475.0,1018.02,58.0,292.45,1637146398.990267,1637146400.1018944,d07613d0-d31f-4fee-93f2-02c5a5ebf51d
0.0816764758560062,0.1574869262423663,0.3504851230897901,0.0177546369395916,0.1770867009225861,-0.0865035702134977,0.0389432132432395,0.0127964820658567,-11.813831747456804,22.392873990839703,13.248281224284195,-0.0723732264197039,0.577280619881673,-0.7539501358596313,3423.093505859375,12.038,0.37,179.1665580056747,3.471843425168838,75.09721958461651,1525.0,1435.0,1200.0,1173.0,1475.0,1018.02,58.0,292.45,1637146400.6852417,1637146401.6417382,b19be1a6-11da-4bbb-b733-5e2b86866945
0.0794987230410153,0.1508851852038439,0.342445243767388,0.0203432865411419,0.1711286981380416,-0.0823261196349395,0.0316155543424606,-9.800415423916534e-06,-11.921603917073016,22.422270225032207,13.202531757020475,-0.0690923000865264,0.5528604333493389,-0.7253709270544223,3420.816731770833,12.036,0.39,179.15847106169744,3.4669102498929925,75.06571419870497,1525.0,1435.0,1200.0,1173.0,1475.0,1018.02,58.0,292.45,1637146401.7503293,1637146402.8708084,b19be1a6-11da-4bbb-b733-5e2b86866945
0.0852474425692453,0.1565922670650429,0.3494704821003928,0.0192409874992642,0.1765519872904898,-0.0866980613433291,0.0376754597699097,0.0077358775992735,-11.846079255755724,22.4008680751316,13.28185437301022,-0.0761715260789486,0.5736085971631669,-0.750107460187739,3422.030707465278,12.037444444444445,0.38,179.1659023075144,3.4662380928740464,75.06848194313865,1525.0,1435.0,1200.0,1173.0,1475.0,1018.02,58.0,292.45,1637146402.9797256,1637146404.1034515,b19be1a6-11da-4bbb-b733-5e2b86866945
-0.053289414369279,0.084402091102737,-0.0698622507305407,0.0392034478699031,-0.1993906143842466,-0.0125284546175735,-0.3848557407996989,-0.4057566940001664,-14.856220341966818,22.37083080325083,13.158702117030495,0.0228531129915447,0.2962063052177985,0.9243046096898082,3425.525689019097,12.03711111111111,0.3755555555555555,179.183343575015,3.470448525042405,75.08438565916607,1525.0,1435.0,1200.0,1617.0,1475.0,1018.02,58.0,292.45,1637146405.6868398,1637146406.7631938,46a2a9af-d1d9-4400-aa94-41e556b5ca40
-0.0633289921011779,0.0815942966144655,-0.0716017137498564,0.0408059452179275,-0.1997604215025535,-0.0113642471317075,-0.3855542654322248,-0.4199737249383949,-14.87149672382776,22.31287489594113,13.134287684863184,0.0213720093564601,0.2856913184362233,0.92782690622205,3426.5907389322915,12.04211111111111,0.36,179.1861044892595,3.464487833183296,75.06973869794592,1525.0,1435.0,1200.0,1617.0,1475.0,1018.02,58.0,292.45,1637146406.8712718,1637146407.9961853,46a2a9af-d1d9-4400-aa94-41e556b5ca40
-0.0578777616248615,0.0836487803897096,-0.0709990651508176,0.0379570610396046,-0.2003630701436457,-0.0101726464743692,-0.3845818095877291,-0.4098245725619329,-14.799610154489969,22.32225111075588,13.22243399337617,0.030618480701376,0.292495970076559,0.9268360490572212,3430.0949435763887,12.042777777777776,0.36,179.20166973146803,3.4704438292873507,75.10389192052571,1525.0,1435.0,1200.0,1617.0,1475.0,1018.02,58.0,292.45,1637146408.1046076,1637146409.230482,46a2a9af-d1d9-4400-aa94-41e556b5ca40
-0.0900646757554667,0.0664048132435372,-0.1679570095705569,0.0613370865713621,-0.2869390272779932,-0.0111451021656838,-0.4893057197275383,-0.5250126581188052,-15.516825274283562,22.553733415582773,12.967536624436365,-0.0280013606308105,0.2261347578472555,1.3231869135213925,3427.047281901041,12.042777777777776,0.3611111111111111,179.19228353372858,3.4597032382378328,75.12213687361863,1525.0,1435.0,1200.0,1706.0,1475.0,1018.02,58.0,292.45,1637146410.2230294,1637146411.271896,fa821315-5cff-493f-8ef6-bf58446b253a
-0.095502209812766,0.0653227851187652,-0.1684226925919596,0.0627615286667128,-0.2874868896872694,-0.0110081365725419,-0.4896618303305837,-0.5035638415505467,-15.471299845459493,22.580582379217617,13.01899670636655,-0.0307208565375349,0.2210937415200648,1.3250498865178355,3433.1529405381943,12.037333333333333,0.37,179.18000437142075,3.4611435543790594,75.10606467959168,1525.0,1435.0,1200.0,1706.0,1475.0,1018.02,58.0,292.45,1637146411.3804786,1637146412.498314,fa821315-5cff-493f-8ef6-bf58446b253a
-0.0880786746361955,0.0644872950481376,-0.1711209148726413,0.06169319709534,-0.289787911866509,-0.0093645495064522,-0.4921956943288738,-0.5180000185667032,-15.526382773960009,22.57924829499247,12.976612160294962,-0.0247952836084788,0.2186861213239317,1.3352614037618844,3438.3508029513887,12.041,0.37,179.1811548788409,3.4591616848708284,75.09730761816581,1525.0,1435.0,1200.0,1706.0,1475.0,1018.02,58.0,292.45,1637146412.6063592,1637146413.7262938,fa821315-5cff-493f-8ef6-bf58446b253a
-0.1225666111587908,0.0523932338315239,-0.2564230907113041,0.0997148434183976,-0.366091452057586,-0.0282794973782987,-0.5915368620983473,-0.6109174997878491,-16.177947989871054,22.984420107917447,12.868106818573912,-0.1549740394607939,0.1688172270499289,1.6950015076203977,3446.492431640625,12.039333333333332,0.3666666666666667,179.19127721919088,3.461673747813381,75.09005243944745,1525.0,1435.0,1200.0,1795.0,1475.0,1018.02,58.0,292.45,1637146415.7531707,1637146416.798246,531ae60f-80d8-4046-94a8-9ae15c180fe6
-0.1132255576061265,0.0543107520383267,-0.2542590342149241,0.0996737537384,-0.3642287197860113,-0.0316214577730451,-0.5903178680392706,-0.6133280949354458,-16.19300230287849,22.97678917350039,12.668050967130698,-0.1623734812803811,0.1780308461031887,1.6877210664215792,3444.6460774739585,12.035,0.38,179.18169370487544,3.4596432843551184,75.03908556786081,1525.0,1435.0,1200.0,1795.0,1475.0,1018.02,58.0,292.45,1637146416.9067848,1637146418.0268593,531ae60f-80d8-4046-94a8-9ae15c180fe6
-0.1250730815640094,0.0483664456036632,-0.2571353118476294,0.1025363344491422,-0.365420320570672,-0.0269646277181768,-0.5917970967870622,-0.6172727051812702,-16.232195762762103,22.98757393019649,12.859993986217075,-0.1584271012346957,0.1537776956855844,1.6949155805407976,3443.8766818576387,12.035333333333334,0.38,179.1807693526078,3.45939509709934,75.00877774178375,1525.0,1435.0,1200.0,1795.0,1475.0,1018.02,58.0,292.45,1637146418.1352425,1637146419.256127,531ae60f-80d8-4046-94a8-9ae15c180fe6
-0.1476587082642353,0.0377790057814308,-0.3284259095878775,0.1354217709547019,-0.4309309734279526,-0.044811244119906,-0.6762090166768893,-0.7042321876460033,-16.679018948549633,23.486185728642027,12.550192333400716,-0.2732310605328518,0.1114167394091322,1.999558177815837,3447.878662109375,12.034666666666668,0.3866666666666666,179.1964970015366,3.4455428568482542,74.96245539883272,1525.0,1435.0,1200.0,1883.0,1475.0,1018.02,58.0,292.45,1637146420.2589798,1637146421.3114498,a0746d90-a2a2-4e68-bed1-1a657d33d140
-0.1400291766983888,0.0432110609355053,-0.3222832762315717,0.134015956213388,-0.4265656055257242,-0.0485405432092671,-0.6713812522712052,-0.7055415787986058,-16.629521066550073,23.504145598414105,12.63435188687676,-0.277976868130342,0.1312568117313065,1.9791564921909803,3447.878662109375,12.028666666666668,0.4066666666666666,179.19100097598442,3.4444594180911605,74.90540965888478,1525.0,1435.0,1200.0,1883.0,1475.0,1018.02,58.0,292.45,1637146421.423701,1637146422.529399,a0746d90-a2a2-4e68-bed1-1a657d33d140
-0.1463027488758125,0.0352040527485596,-0.3291381307756034,0.1401333869918942,-0.43139665655659,-0.0459617550740454,-0.6773732246368337,-0.6996849290310158,-16.63109523850688,23.55257162691773,12.636414679860833,-0.2860021794971093,0.1000315953120746,2.0026784945459943,3449.4203830295137,12.029111111111112,0.4,179.19646360950065,3.44360277481682,74.83593904592665,1525.0,1435.0,1200.0,1883.0,1475.0,1018.02,58.0,292.45,1637146422.638564,1637146423.761233,a0746d90-a2a2-4e68-bed1-1a657d33d140
-0.0350236831443768,0.0840509113430006,-0.0420845331472448,0.0353744379191378,-0.1402264070230886,-0.0154321251014691,-0.316576740857449,-0.3487384580088062,-14.387331204544727,18.44511895561712,12.610673778584214,0.0004732807515115,0.2985934616456742,0.7097320650402692,7054.671875,11.807,8.61,178.763057750267,3.267990239530872,64.44247964923346,1525.0,1435.0,1350.0,1528.0,1475.0,1018.02,58.0,292.45,1637146428.1882012,1637146429.1804178,fd8f0a3e-43dd-479f-8e73-874f9415f0d9
-0.0395928552110877,0.0849773465571839,-0.0387436684680486,0.0304239537337731,-0.1377834886719034,-0.0131858894573459,-0.312483112818654,-0.3339045347188665,-14.379922047330568,18.441975692644025,12.439720102091073,0.0168099458758144,0.304352125156494,0.6958563503529769,7072.1337890625,11.8055,8.62625,178.66226806377972,3.1887464648216635,59.87094097641649,1525.0,1435.0,1350.0,1528.0,1475.0,1018.02,58.0,292.45,1637146429.2882392,1637146430.3416293,fd8f0a3e-43dd-479f-8e73-874f9415f0d9
-0.0394695862186278,0.0838268356477412,-0.0450577821740933,0.0351492664690358,-0.1415911322229119,-0.0158978081428209,-0.3183452407891046,-0.3457109702069174,-14.413393102359567,18.289117181478684,12.467632436663996,-0.0012833626701893,0.2990418626653088,0.7179766684948659,7072.1337890625,11.805,8.626666666666667,178.623703677361,3.175778914902096,56.121553881541246,1525.0,1435.0,1350.0,1528.0,1475.0,1018.02,58.0,292.45,1637146430.450551,1637146431.5461595,fd8f0a3e-43dd-479f-8e73-874f9415f0d9
0.0685688693676084,0.2875220474486001,-0.0430991742356164,-0.0651780275303197,-0.1877074488027879,-0.1201834097028479,-0.3633384433044681,-0.3846776867418823,-14.37392955052672,17.94847534193625,12.720033059085234,-0.011413770124479,1.072977244432711,0.866470549085749,7077.97412109375,11.802444444444443,8.668888888888889,178.58863748616213,3.1971701424611254,51.571530399473545,1610.0,1435.0,1350.0,1528.0,1542.0,1018.02,58.0,292.45,1637146432.184082,1637146433.2750618,1e836e5f-6dff-4bd4-a2f1-4bda71174a96
0.066473295915951,0.2850155773851671,-0.0477149146452714,-0.0648493101221969,-0.1916383614969913,-0.1175536703125573,-0.3672693563766613,-0.4020997128318959,-14.388195171429505,17.95214114405226,12.754881319807495,-0.0064530584698287,1.0630355437676606,0.8834504078724831,7077.97412109375,11.79888888888889,8.686666666666666,178.6287306965901,3.236446078066226,49.178809265285935,1610.0,1435.0,1350.0,1528.0,1542.0,1018.02,58.0,292.45,1637146433.382733,1637146434.6155748,1e836e5f-6dff-4bd4-a2f1-4bda71174a96
0.0675416274793553,0.2871933300687386,-0.0416473389808689,-0.0693554780643372,-0.1866528137023556,-0.1140199579460122,-0.3614894075804136,-0.3968950189343436,-14.487462097275111,18.009143209640243,13.015987514312643,0.0123241276411266,1.0705322740616128,0.8606591730890853,7083.8232421875,11.799333333333331,8.690000000000001,178.68555331702518,3.295627034755644,46.86171388286349,1610.0,1435.0,1350.0,1528.0,1542.0,1018.02,58.0,292.45,1637146434.7240417,1637146435.851677,1e836e5f-6dff-4bd4-a2f1-4bda71174a96
0.1753949020341608,0.5037046763439684,-0.04868517888195,-0.1838011899689912,-0.2458367453395136,-0.218540048857032,-0.4175981924990374,-0.4332319957850305,-14.468818503594504,17.696288441809077,13.094492138118689,0.0332125236195018,1.895392970510333,1.056196720199295,7083.17333984375,11.797777777777778,8.711111111111112,178.75086813932828,3.406750014831324,44.314452888515184,1695.0,1435.0,1350.0,1528.0,1609.0,1018.02,58.0,292.45,1637146436.755906,1637146437.8924286,ede8366e-3ce0-467b-9a86-38c7a22066c2
0.1795383847246168,0.5033797940030716,-0.0495776466742921,-0.1888853529745426,-0.2465889604321589,-0.2150046927812747,-0.415809969454661,-0.4416827753406354,-14.38658551562614,17.569787639824956,12.890931817209728,0.0517514841452809,1.8959638355374084,1.055630180280949,7073.431640625,11.795333333333332,8.73,178.83566721460372,3.4701176403226137,42.98511973220237,1695.0,1435.0,1350.0,1528.0,1609.0,1018.02,58.0,292.45,1637146438.000726,1637146439.1249695,ede8366e-3ce0-467b-9a86-38c7a22066c2
0.1955518526109724,0.5031787285411312,-0.046318413487866,-0.1859049815600689,-0.2438512919803482,-0.2139905994941413,-0.4139428541918768,-0.4346126096839783,-14.44257127844261,17.702904353120513,13.415349170990693,0.0484074476299148,1.8908000015630468,1.0454479708925186,7083.8232421875,11.796333333333331,8.720000000000002,178.90519854035443,3.524437873916444,41.93529878674895,1695.0,1435.0,1350.0,1528.0,1609.0,1018.02,58.0,292.45,1637146439.233594,1637146440.3586986,ede8366e-3ce0-467b-9a86-38c7a22066c2
0.2905215935081277,0.696323196378489,-0.040099627813888,-0.2855145850558394,-0.2844188601542298,-0.308059123763006,-0.4524756648420133,-0.4853337177470727,-14.496844460457533,17.495954467216308,13.784621057664223,0.0606870769077753,2.6249752739783934,1.1701530091527177,7082.5234375,11.795,8.733333333333334,179.01436621276864,3.67101451613076,40.14940429155131,1779.0,1435.0,1350.0,1528.0,1677.0,1018.02,58.0,292.45,1637146442.2850783,1637146443.3103223,54f1107f-1792-4988-98c1-d780145916a4
0.2755879626759747,0.6937690623811242,-0.0430706854048924,-0.2865451142815738,-0.2868606829724955,-0.3086349271325398,-0.4539148995437578,-0.4751894959681286,-14.39863508103389,17.420620333283896,13.195856948515273,0.0610260370945242,2.6198560715669803,1.1785290147879746,7077.97412109375,11.786666666666669,8.77,179.06466524363643,3.71508303895129,39.60000588310282,1779.0,1435.0,1350.0,1528.0,1677.0,1018.02,58.0,292.45,1637146443.4197474,1637146444.475032,54f1107f-1792-4988-98c1-d780145916a4
0.2856861607733927,0.6892327626176576,-0.0437281202279512,-0.2821403003974438,-0.2863347350359615,-0.3061498232059923,-0.4547169702114757,-0.4868392434603077,-14.47819219480624,17.497067597184436,13.487593805362678,0.0571547162978113,2.60023691046266,1.179664975064571,7077.97412109375,11.784,8.777777777777779,179.10676804750022,3.7425117505657215,39.215607769528894,1779.0,1435.0,1350.0,1528.0,1677.0,1018.02,58.0,292.45,1637146444.5839665,1637146445.53423,54f1107f-1792-4988-98c1-d780145916a4
0.3484032462653194,0.7974722719291422,-0.042838939627294,-0.348861178368502,-0.31653729476058,-0.3476284878721296,-0.4806357960098544,-0.4984276306832267,-14.56946054849952,17.823306735716923,13.833653716629732,0.1166687481764685,3.01205640443974,1.2692951307097655,7077.97412109375,11.78477777777778,8.79111111111111,179.19998495147274,3.8232880815793626,38.42640141932125,1864.0,1435.0,1350.0,1528.0,1744.0,1018.02,58.0,292.45,1637146447.1846595,1637146448.2422802,723c2e2b-3d79-45ab-9beb-3f26cb4d9bcb
0.3295430864286917,0.7931852494958936,-0.0395517654790707,-0.3478202398236001,-0.3125378990625052,-0.3503678000844375,-0.4758146062079664,-0.4967155609909755,-14.445861227626672,17.756118001541264,13.015224001257549,0.1078150769613027,3.002435468157614,1.2509527673850642,7072.1337890625,11.776333333333334,8.826666666666666,179.23755099190782,3.861049731043163,38.15227784826205,1864.0,1435.0,1350.0,1528.0,1744.0,1018.02,58.0,292.45,1637146448.3541086,1637146449.361293,723c2e2b-3d79-45ab-9beb-3f26cb4d9bcb
0.3209827378854721,0.7623542990084337,-0.0411405662958981,-0.3284122130712365,-0.3053609012415414,-0.3306173593203948,-0.4699661742608307,-0.4829642123740476,-14.54887487051977,17.77326594667529,14.08516528455545,0.1085704656301207,2.8755569272261856,1.2328858296434766,7072.1337890625,11.77822222222222,8.82,179.29201036689005,3.885566078454624,37.87714189138587,1864.0,1435.0,1350.0,1528.0,1744.0,1018.02,58.0,292.45,1637146449.4696,1637146450.5912857,723c2e2b-3d79-45ab-9beb-3f26cb4d9bcb
-0.1528497043409719,-0.1269221169499821,-0.0378670886837754,0.102659603431741,-0.0916123868171195,0.1217663023314805,-0.2541220685950853,-0.2821452324321183,-14.2312838460899,18.760733207955195,11.788600613163448,0.1592473704257506,-0.4945136440404312,0.5227293615564709,7072.78271484375,11.777888888888889,8.815555555555555,179.57708121336896,3.9073392511406784,37.4593103812797,1440.0,1435.0,1350.0,1528.0,1408.0,1018.02,58.0,292.45,1637146452.1864045,1637146453.14125,5be4b9a8-0468-4969-abd6-ea4fe076bd89
-0.1494392610267854,-0.1291683527069351,-0.0356619426811476,0.1095352757594363,-0.0874486327984076,0.1202185912639367,-0.2520127983137072,-0.2875690698867519,-14.286570284280934,18.71372470536141,12.173001571974488,0.1400912472375428,-0.5066615711756222,0.5113604553349115,7077.97412109375,11.8,8.723333333333336,179.59856291721857,3.919038321687787,37.31597810263708,1440.0,1435.0,1350.0,1528.0,1408.0,1018.02,58.0,292.45,1637146453.2495773,1637146454.376891,5be4b9a8-0468-4969-abd6-ea4fe076bd89
-0.1492612057201247,-0.1294011942190074,-0.0399763587861068,0.1092887376861588,-0.0912425797288845,0.1202596809202846,-0.2556149936820277,-0.289965967956281,-14.253825974075546,18.64949985694913,12.084309043170222,0.1401014718250482,-0.5072247910180835,0.5274315603966806,7077.97412109375,11.801111111111112,8.722222222222221,179.61832644903694,3.944794443297343,37.198425614106746,1440.0,1435.0,1350.0,1528.0,1408.0,1018.02,58.0,292.45,1637146454.4907005,1637146455.598071,5be4b9a8-0468-4969-abd6-ea4fe076bd89
-0.2552040970215407,-0.3235773269677499,-0.0304983399450384,0.1999188631783419,-0.0411405662862663,0.2277502689965283,-0.2032119546518127,-0.2372479071651508,-14.244081954628076,19.43397390353503,12.41063657786293,0.1829370556875153,-1.249008893678326,0.3491048909943822,7077.97412109375,11.802,8.73,179.66596777740767,3.949491573875935,37.10341806220683,1355.0,1435.0,1350.0,1528.0,1341.0,1018.02,58.0,292.45,1637146456.183242,1637146457.1447256,6a6726ec-a315-4a09-b0f1-74be9648051e
-0.2444522971853841,-0.3256318110869325,-0.0356619426812125,0.1957003233350946,-0.0459069688391059,0.2340232925454129,-0.2058006044761725,-0.2339196429756833,-14.201390512603558,19.36612426861528,12.434727491086235,0.2058678031731614,-1.2570392379456117,0.3661272469507734,7072.1337890625,11.791666666666666,8.76,179.66559439373307,3.950921075550976,37.00026626863158,1355.0,1435.0,1350.0,1528.0,1341.0,1018.02,58.0,292.45,1637146457.2522538,1637146458.3723366,6a6726ec-a315-4a09-b0f1-74be9648051e
-0.2512594876259575,-0.3163866325723019,-0.0307996642346865,0.19391977077151,-0.0424143462710052,0.226558668468436,-0.2044446450362577,-0.2240581197195256,-14.331857529629843,19.36130139251628,12.452934492709266,0.1932576526293306,-1.2210747673516835,0.3538512262299953,7072.1337890625,11.792222222222222,8.76,179.67925780771273,3.946367853263647,36.93658613826982,1355.0,1435.0,1350.0,1528.0,1341.0,1018.02,58.0,292.45,1637146458.4801917,1637146459.601689,6a6726ec-a315-4a09-b0f1-74be9648051e
-0.3515522787504542,-0.5168051293641951,-0.0262666511003173,0.291944939877703,0.0035677413406091,0.3339813190192133,-0.1563204124931386,-0.1805534621192195,-14.170240661588284,20.212901169187816,12.830989266153011,0.2195426160532227,-1.98902774313574,0.1934298697357484,7072.1337890625,11.792,8.74,179.74108619789948,3.941306445929321,36.96278788229085,1271.0,1435.0,1350.0,1528.0,1273.0,1018.02,58.0,292.45,1637146460.683356,1637146461.6384566,dca7d72e-6037-4741-ad26-23aab0dfc362
-0.3640566911247366,-0.5190535570284126,-0.0289884312945532,0.3021483274648944,0.0024369534531177,0.3285640564837389,-0.1618034192411527,-0.1857340488410577,-14.27886572261304,20.29661702962851,13.051221587541908,0.1847528245461786,-2.0000711879280155,0.2065044629441084,7070.190266927083,11.783333333333331,8.83,179.72767170636956,3.935274677414162,36.93913379883024,1271.0,1435.0,1350.0,1528.0,1273.0,1018.02,58.0,292.45,1637146461.7510483,1637146462.8788135,dca7d72e-6037-4741-ad26-23aab0dfc362
-0.3599937432426548,-0.521867378786284,-0.0359177944085979,0.2946667198096276,-0.0040322052127789,0.3370449650080339,-0.165511351886033,-0.1889817769517766,-14.26997052289958,20.21564567496708,12.845630763025795,0.2197771325925185,-2.008385053909936,0.2293838945110027,7072.1337890625,11.782666666666666,8.804444444444446,179.73993569047929,3.930970567304061,36.95245077043699,1271.0,1435.0,1350.0,1528.0,1273.0,1018.02,58.0,292.45,1637146462.987196,1637146464.115667,dca7d72e-6037-4741-ad26-23aab0dfc362
-0.4303009316548508,-0.633640097132941,-0.0293752221402456,0.3464583351365546,0.0214116180967018,0.402819669470829,-0.1357427013327144,-0.1614100545012268,-14.044266850015546,21.037419197201043,13.53526888253758,0.2567494389107165,-2.441258380776597,0.1311488715952073,7069.542426215277,11.78,8.837777777777777,179.76393242176326,3.931748307663927,36.98613612505863,1186.0,1435.0,1350.0,1528.0,1206.0,1018.02,58.0,292.45,1637146464.6823337,1637146465.9519255,1b4b2e9b-5baf-4c96-ad79-42094e709b13
-0.4179192400766777,-0.6288326034243849,-0.0225817288643951,0.3437738098532036,0.027780517926747,0.4066273124493233,-0.1288807249858762,-0.1537536780488549,-14.153630489651333,21.001611410018228,14.44781338831704,0.2715526628779248,-2.4297805799190813,0.1052273766181485,7071.485948350694,11.772777777777778,8.85222222222222,179.75038587990943,3.9404864437739655,36.99301640228256,1186.0,1435.0,1350.0,1528.0,1206.0,1018.02,58.0,292.45,1637146466.060367,1637146467.1855068,1b4b2e9b-5baf-4c96-ad79-42094e709b13
-0.4084686127359524,-0.6252988901025537,-0.0232665568092621,0.3437464167233002,0.0258493031506885,0.3970260256390765,-0.1322089889743453,-0.1496036202867787,-14.111939980426834,21.032163278966795,13.556036241199608,0.2500863452976777,-2.408957806922148,0.1127161781616522,7072.1337890625,11.776222222222222,8.850000000000001,179.74245071791367,3.91795512009004,37.03905832802266,1186.0,1435.0,1350.0,1528.0,1206.0,1018.02,58.0,292.45,1637146467.2937777,1637146468.302323,1b4b2e9b-5baf-4c96-ad79-42094e709b13
-0.0379903578874445,0.0828406834366873,-0.0500159365599079,0.0193160445852339,-0.1459466381679035,-0.0001330689007601,-0.3160305220105996,-0.3287820208523159,-14.339589934817054,17.998077230486903,12.491625968585533,0.0677227341151374,0.296238329664503,0.727318618516566,7072.1337890625,11.779555555555554,8.834444444444443,179.53533813280148,3.900064340764706,37.1412721089519,1525.0,1435.0,1350.0,1528.0,1475.0,1018.02,58.0,292.45,1637146470.2302806,1637146471.2759836,bcf22ca3-5ca7-476f-9829-e97be44be68c
-0.0363741639510876,0.0872920649356469,-0.0450303890513174,0.0203843762040422,-0.1421526911607371,-0.0022012492355384,-0.3139349482303228,-0.3349180812341576,-14.464956597967102,18.11657761794964,12.983709749657484,0.0617144973475362,0.3096462373168777,0.7134773438963641,7077.97412109375,11.79888888888889,8.735555555555557,179.5173109868521,3.8751693447411335,37.22448164742549,1525.0,1435.0,1350.0,1528.0,1475.0,1018.02,58.0,292.45,1637146471.3847077,1637146472.5042045,bcf22ca3-5ca7-476f-9829-e97be44be68c
-0.0404831315889803,0.0864017886297661,-0.0460576309822908,0.0187681822313001,-0.142947091622904,-0.0008589865288793,-0.3140993069908614,-0.3325622719137956,-14.45466085017263,18.082518408801903,12.834805919878804,0.0680809925871672,0.307687308789289,0.7158828701339494,7077.97412109375,11.798222222222222,8.722222222222221,179.5103092840429,3.8659537120034937,37.231473863860806,1525.0,1435.0,1350.0,1528.0,1475.0,1018.02,58.0,292.45,1637146472.6132145,1637146473.7333963,bcf22ca3-5ca7-476f-9829-e97be44be68c
-0.0389080273038099,0.0836761735067452,-0.0614525634285924,-0.2591350096901852,-0.1861049512964379,0.2714696817188937,-0.2516977774371249,-0.2741190471874562,-14.30801209482244,17.442512429133178,14.976582592138342,1.3023273753804687,0.3106731589137055,0.7074234723861682,7072.1337890625,11.8,8.74888888888889,179.49305319055986,3.924777909888452,37.30371829253185,1525.0,1535.0,1350.0,1528.0,1475.0,1018.02,58.0,292.45,1637146474.7362049,1637146475.9925902,d9c1945e-175f-4da4-8c08-259bb221c70a
-0.0323747686843778,0.0826489316204534,-0.0616580118147653,-0.2573955465283384,-0.1862967031408461,0.2721271165014794,-0.2513964531057751,-0.2692156787869021,-14.240270269653609,17.44945979549998,15.154478158637597,1.2999791984612807,0.3045371617230691,0.7077220560237046,7072.78271484375,11.796666666666663,8.747777777777777,179.47141818690886,3.905635356102106,37.38535233403689,1525.0,1535.0,1350.0,1528.0,1475.0,1018.02,58.0,292.45,1637146476.117131,1637146477.215888,d9c1945e-175f-4da4-8c08-259bb221c70a
-0.0211572868871237,0.0808546824624276,-0.0615210462271096,-0.2599431067496916,-0.1869404414500495,0.2726064960189298,-0.2522593363888888,-0.2875964629023991,-14.308426341047378,17.573576991191285,14.635605419148677,1.307515688460717,0.3032132314290691,0.7085708446288588,7077.97412109375,11.797555555555554,8.743333333333332,179.46162369563905,3.893203226015952,37.3517644993384,1525.0,1535.0,1350.0,1528.0,1475.0,1018.02,58.0,292.45,1637146477.3251038,1637146478.444318,d9c1945e-175f-4da4-8c08-259bb221c70a
-0.0240839675875898,0.0770032102179167,-0.0852122586234669,-0.523182248818502,-0.2377239988213676,0.5341176079528386,-0.2047602137919992,-0.2290195611647014,-14.328711741873317,17.207292473898693,16.91055362691525,2.485713705279984,0.2996508996142839,0.7429756100323334,7077.97412109375,11.796888888888889,8.722222222222221,179.46321133516616,3.980973481012209,37.4220202045961,1525.0,1636.0,1350.0,1528.0,1475.0,1018.02,58.0,292.45,1637146479.2414176,1637146480.2898147,e7b667d7-227a-4a5e-a72b-2ce2463bb2e7
-0.0129075755017578,0.0773976710971875,-0.0779015831452091,-0.5239448735216967,-0.2307814863966306,0.5369577260655416,-0.1958322481517859,-0.2177774247659243,-14.24849824956463,17.165882810007822,17.331748668640707,2.4940131559044105,0.2973862463194949,0.7115510729851711,7083.8232421875,11.796666666666663,8.754444444444443,179.4479101936055,3.961943815074645,37.47160699851544,1525.0,1636.0,1350.0,1528.0,1475.0,1018.02,58.0,292.45,1637146480.4022906,1637146481.4100354,e7b667d7-227a-4a5e-a72b-2ce2463bb2e7
-0.0200067758879551,0.0794302403794026,-0.0798196492861442,-0.5274095559141904,-0.2338648560138231,0.5366761248502477,-0.1987331795364189,-0.2345907743288821,-14.275801297273397,17.22486357658477,17.10231052471857,2.501441001312785,0.307542347330338,0.7223442370198295,7083.17333984375,11.798444444444444,8.74888888888889,179.43712304817632,3.958444576353614,37.50331235718769,1525.0,1636.0,1350.0,1528.0,1475.0,1018.02,58.0,292.45,1637146481.5227363,1637146482.7497015,e7b667d7-227a-4a5e-a72b-2ce2463bb2e7
-0.0079811971581473,0.0732941821763939,-0.0937353535214896,-0.7820149755019453,-0.2775705799186276,0.7903363655618362,-0.1463438384201338,-0.1595473225170572,-14.237813757729676,17.260485550853804,19.124639870267803,3.645661605526779,0.2968014773387247,0.7261397857953865,7077.97412109375,11.793,8.753333333333334,179.4333269808176,4.028233978904858,37.54395729511862,1525.0,1737.0,1350.0,1528.0,1475.0,1018.02,58.0,292.45,1637146484.8484266,1637146485.7927985,f2b5fa5b-6b53-4738-8ca8-3e96e2453293
0.0029486567983939,0.0817860484375761,-0.0872842740930691,-0.7870553113627287,-0.2734616117872825,0.7844194528018139,-0.1407008558618902,-0.1640945804793861,-14.122817497161565,17.183159288458178,18.85357519856062,3.643558567791656,0.3312678887744014,0.7044284520072733,7077.97412109375,11.789333333333332,8.77,179.42729364705076,4.032019753547945,37.561599673744766,1525.0,1737.0,1350.0,1528.0,1475.0,1018.02,58.0,292.45,1637146485.9007757,1637146487.0454323,f2b5fa5b-6b53-4738-8ca8-3e96e2453293
