raw_voltage_G-,raw_voltage_G0,raw_voltage_G1,raw_voltage_G2,raw_voltage_G3,raw_voltage_G4,raw_voltage_G5,raw_voltage_G6,load_x,load_y,load_z,load_l,load_m,load_n,rpm,voltage,current,roll,pitch,yaw,aileron1_pwm,elevator_pwm,throttle_pwm,rudder_pwm,aileron2_pwm,pbaro,pdiff,Tt,sample_start_time,sample_end_time,uid
0.054283358743147,0.2004804219087019,-0.0420171470056696,-0.311387390349954,-0.1820781638620252,0.3157232587683158,-0.2179631504240887,-0.2423841181402334,-13.485646792214242,15.627163098773266,30.90970583222234,1.511527014376936,0.6093594391680918,0.6648829001733821,3022.680447048612,12.041222222222222,0.42,179.88477212855912,-13.97545126675239,109.62861531945896,1525.0,1435.0,1200.0,1528.0,1475.0,1018.02,58.0,292.45,1637152273.0972335,1637152274.1644192,f05cee28-422c-4211-99a1-9909bf91a59b
0.0464719374193514,0.1998909221556198,-0.0410720846182742,-0.3242424399779476,-0.1816185073827206,0.3242118359149612,-0.2130175976562171,-0.2416423120244929,-13.458447045468096,15.493142668603037,30.375994697823227,1.558687058286705,0.6133265826543348,0.6550644235937227,3255.6783854166665,12.04011111111111,0.42,179.93190346947188,-13.90052855015306,109.3272370168817,1525.0,1435.0,1200.0,1528.0,1475.0,1018.02,58.0,292.45,1637152274.272754,1637152275.3939304,f05cee28-422c-4211-99a1-9909bf91a59b
0.0538998551144277,0.201904863896453,-0.0293615256897314,-0.3133323021557796,-0.1687103205781984,0.3112718773787338,-0.2051020805471795,-0.2241676925544554,-13.566388861087695,15.493117211271532,30.32136056714448,1.505518540491493,0.6215274102797158,0.6104370316438221,3265.305419921875,12.044555555555556,0.42,179.94864805767713,-13.8611161767761,109.0780398417435,1525.0,1435.0,1200.0,1528.0,1475.0,1018.02,58.0,292.45,1637152275.5017216,1637152276.622359,f05cee28-422c-4211-99a1-9909bf91a59b
0.1063116536321945,0.3059088542875682,-0.0025727005761015,-0.3642013284495423,-0.1674179138061582,0.2595991483403999,-0.1976993638988797,-0.2228922686429347,-13.198031224307428,15.154418994641311,30.936765595432345,1.5035232334390625,1.0114997346041514,0.575023771364205,3250.4462890625,12.042777777777776,0.42,179.86708042078897,-13.871583346815406,108.60858272625076,1610.0,1435.0,1200.0,1528.0,1542.0,1018.02,58.0,292.45,1637152277.7384217,1637152278.7627647,6de4fefa-74c0-404b-aa31-18632ebd597a
0.1054263080521586,0.2896176206738599,-0.01159708948447,-0.3663516944896347,-0.1746820214581304,0.2719079690532092,-0.2047596673113866,-0.241397967027952,-13.366961883479664,15.389921938320157,30.07252467195964,1.536922518781573,0.958949750669191,0.603847528517708,3248.39306640625,12.041333333333334,0.42,179.8270236380366,-13.822123765169358,108.42577650766488,1610.0,1435.0,1200.0,1528.0,1542.0,1018.02,58.0,292.45,1637152278.871299,1637152279.987609,6de4fefa-74c0-404b-aa31-18632ebd597a
0.1066179087092485,0.2882479647713694,-0.0154047329009193,-0.3590651188938418,-0.1770926159272849,0.2704287421201971,-0.2086220975735605,-0.2420690973780737,-13.326544881200247,15.356050976896803,30.595654630104253,1.516851373943539,0.9477510669284096,0.6184985155580401,3240.3426106770835,12.039222222222222,0.42,179.8099041483369,-13.716399646461689,108.24158907304688,1610.0,1435.0,1200.0,1528.0,1542.0,1018.02,58.0,292.45,1637152280.0992565,1637152281.2194557,6de4fefa-74c0-404b-aa31-18632ebd597a
0.1744569616404784,0.3978889086606338,0.0145907315407624,-0.4230280631267023,-0.1772843672145926,0.2228879887308738,-0.2006370018936822,-0.2139363619456314,-13.076529498847748,15.300232518915626,30.881581669936736,1.555600660881851,1.3644433694436255,0.5798102510973657,3259.097412109375,12.034,0.43,179.7150495167834,-13.709483985063308,107.95801100235656,1695.0,1435.0,1200.0,1528.0,1609.0,1018.02,58.0,292.45,1637152282.130731,1637152283.1772144,95a84559-7ee3-4086-b8e3-91a32e55374f
0.1827713202374827,0.3932293398276573,0.0082355279006529,-0.4325614165111052,-0.1828150386360716,0.2347612617875974,-0.2025643825004166,-0.2291641973782485,-13.088920333242744,15.20009030012883,30.6419957657476,1.6027616701471907,1.3499474719138278,0.5977973695263469,3281.2804904513887,12.036333333333332,0.43,179.67457836922136,-13.686712134370488,107.76207716018594,1695.0,1435.0,1200.0,1528.0,1609.0,1018.02,58.0,292.45,1637152283.286526,1637152284.405507,95a84559-7ee3-4086-b8e3-91a32e55374f
0.170227464488196,0.3861816392366221,0.0129690588668184,-0.4211746404591097,-0.1759777155454919,0.2330256343862727,-0.1997900066558757,-0.2319385725047412,-13.248986676084256,15.353463264998789,30.931912328445268,1.5743937738450944,1.3209784226496568,0.5775633286982236,3288.692274305556,12.038222222222224,0.4277777777777778,179.629452068285,-13.70741775797564,107.61063744699852,1695.0,1435.0,1200.0,1528.0,1609.0,1018.02,58.0,292.45,1637152284.5142405,1637152285.8402169,95a84559-7ee3-4086-b8e3-91a32e55374f
0.2283255242522943,0.4910528923349868,0.035751914627983,-0.4601046563446915,-0.1790512236580428,0.1618287326274908,-0.2054855841144388,-0.2305228961483156,-13.101696554691877,15.32743710134055,30.38773986350044,1.5031707085456305,1.7243268749073977,0.5704975746108146,3291.778727213541,12.029222222222224,0.4600000000000001,179.5168723369254,-13.630848776058858,107.44554342675032,1779.0,1435.0,1200.0,1528.0,1677.0,1018.02,58.0,292.45,1637152286.6358726,1637152287.6803677,b6ae4fa4-df76-441e-9929-567a0b1f0548
0.2280291307915515,0.4960258383506726,0.0407128080484651,-0.4621460053935803,-0.1768981249895564,0.1583147369930067,-0.2018412033613308,-0.2263635243543907,-12.960964423749234,15.410097964226056,30.34506738480351,1.5007381014293224,1.7429278134920632,0.5562020451866193,3292.3409016927085,12.029222222222224,0.4600000000000001,179.45977195546408,-13.60886799408116,107.24083582713588,1779.0,1435.0,1200.0,1528.0,1677.0,1018.02,58.0,292.45,1637152287.789113,1637152288.9107506,b6ae4fa4-df76-441e-9929-567a0b1f0548
0.2292914055580631,0.4945663331815952,0.0391481129050132,-0.4678525241163808,-0.1764773667697577,0.1632981004790294,-0.2006972673408036,-0.2292167922306012,-13.085270080469735,15.215796148675317,30.10471424141376,1.5233420451404411,1.7410639364990927,0.5555602705003239,3292.481852213541,12.029,0.4600000000000001,179.41053236282758,-13.686907174216785,107.08085913639584,1779.0,1435.0,1200.0,1528.0,1677.0,1018.02,58.0,292.45,1637152289.0192173,1637152290.139871,b6ae4fa4-df76-441e-9929-567a0b1f0548
0.2989449764499419,0.6067751050011209,0.0762937278670213,-0.5056183365655601,-0.1711346125700289,0.0881960340293664,-0.1971443795380374,-0.2221269055587442,-12.827213260047998,15.616291784084524,30.2645905943517,1.4444280162784542,2.1656830162741727,0.5060788536591335,3294.16845703125,12.026,0.4777777777777777,179.30533834269045,-13.5012115010208,106.65901602851714,1864.0,1435.0,1200.0,1528.0,1744.0,1018.02,58.0,292.45,1637152292.1187794,1637152293.2133462,511c5402-e3ee-4921-a0c3-fa14e18b14c0
0.2914529594373373,0.5898735533495648,0.0701713663531881,-0.5065770900866727,-0.172065978216435,0.1035909666192941,-0.1966786964137044,-0.2297421925481482,-12.953755773970132,15.470044723715318,29.954224455523605,1.4797976838231035,2.105665763338872,0.5125101147449154,3291.63818359375,12.025,0.4844444444444444,179.26958306129535,-13.543303110963436,106.51082976210436,1864.0,1435.0,1200.0,1528.0,1744.0,1018.02,58.0,292.45,1637152293.3219862,1637152294.3266246,511c5402-e3ee-4921-a0c3-fa14e18b14c0
0.2821940863652006,0.5915308367490003,0.0630354594123242,-0.5101108155384226,-0.1812974596242111,0.1056180516264777,-0.205334922846454,-0.2159634532531743,-12.951481669599554,15.641140464201603,29.947783057297727,1.4931030450876326,2.1119081785665377,0.5472272067126819,3287.8505859375,12.024666666666668,0.4711111111111111,179.24510518112982,-13.558820826439012,106.35157024122717,1864.0,1435.0,1200.0,1528.0,1744.0,1018.02,58.0,292.45,1637152294.4347992,1637152295.5560987,511c5402-e3ee-4921-a0c3-fa14e18b14c0
-0.0142816142905697,0.090716204331809,-0.071327783088527,-0.2515608169361871,-0.1815303009213243,0.3676469082434432,-0.2244553204933236,-0.249793956911743,-13.783789072488212,15.693168964463846,30.696675671600065,1.4920463470747258,0.192452195546196,0.7000408162923453,3289.112060546875,12.035777777777778,0.4355555555555555,179.28925400610498,-13.454210028566052,106.02869429769224,1440.0,1435.0,1200.0,1528.0,1408.0,1018.02,58.0,292.45,1637152297.6955786,1637152298.951218,d8e572e2-8c7d-4364-859c-e0ca2cb4441d
-0.0072004934711456,0.1169862032630224,-0.0638494617974888,-0.2647369099475039,-0.1807495970392557,0.3523341554440362,-0.2217434013507936,-0.2374944462539885,-13.625593256078249,15.587057631280487,30.49396845343045,1.4870748492820856,0.2937521266092446,0.68785392215653,3292.903076171875,12.036888888888887,0.43,179.2226915359135,-13.428646432913723,105.9671816140271,1440.0,1435.0,1200.0,1528.0,1408.0,1018.02,58.0,292.45,1637152299.0640008,1637152300.1049778,d8e572e2-8c7d-4364-859c-e0ca2cb4441d
-0.0186782098438639,0.0761704591701655,-0.0710949416697623,-0.2472600970137315,-0.1792155824114011,0.3783302234978243,-0.2207983390080103,-0.2426032628576215,-13.758572544176232,15.813172421676123,30.76565773743818,1.5071826133111583,0.1365942301629845,0.6897072835361153,3299.1004231770835,12.035333333333334,0.43,179.18977154193385,-13.44082466020386,105.95142436761188,1440.0,1435.0,1200.0,1528.0,1408.0,1018.02,58.0,292.45,1637152300.2152014,1637152301.1617634,d8e572e2-8c7d-4364-859c-e0ca2cb4441d
-0.0731083354496938,-0.0108574746744573,-0.0995426948599303,-0.1906522111643593,-0.1847489921943372,0.4069834223376282,-0.236330237114498,-0.2596006940078066,-13.983634684968218,16.07669732903434,29.956253929820928,1.4439647715442063,-0.1898153832935555,0.7466943348821138,3315.4051920572915,12.024333333333333,0.4877777777777778,179.11152337698235,-13.389976842609006,105.84928344203378,1355.0,1435.0,1200.0,1528.0,1341.0,1018.02,58.0,292.45,1637152303.14305,1637152304.1640136,7ba9afad-2f19-4799-9836-47cb7180e228
-0.0670013137520567,0.015611946988321,-0.0786247619203288,-0.1947146128846675,-0.1721777419170733,0.3832757761258989,-0.2221822393572622,-0.2482561067627509,-13.612343250765075,16.11128930508876,29.8738199100751,1.4012989539844474,-0.0906094169770505,0.6842110312704949,3311.989501953125,12.021333333333336,0.48,179.12180205277335,-13.414628133688442,105.73390105638474,1355.0,1435.0,1200.0,1528.0,1341.0,1018.02,58.0,292.45,1637152304.2760916,1637152305.499673,7ba9afad-2f19-4799-9836-47cb7180e228
-0.0792580905807627,-0.0325939137612747,-0.0929409534097581,-0.1891045027197678,-0.1742437309845786,0.4253915947682943,-0.220949000557436,-0.2347003471726464,-13.854581019740325,16.02539142687282,29.832695905687046,1.4818730179245,-0.270931474926158,0.6988077841177839,3317.115478515625,12.025,0.48,179.1374477394321,-13.34366502953295,105.59036007751747,1355.0,1435.0,1200.0,1528.0,1341.0,1018.02,58.0,292.45,1637152305.6083567,1637152306.7363825,7ba9afad-2f19-4799-9836-47cb7180e228
-0.1314956723545801,-0.1214369190076169,-0.1071574343799912,-0.132771103420906,-0.1700739504720719,0.4480856938792535,-0.2277441385123506,-0.259537689261449,-14.118994971896829,16.79856507391859,27.970547256057834,1.409782980904188,-0.5935951110212299,0.7087971407460789,3289.5346408420137,12.024,0.48,179.14834265006817,-13.33780899609331,105.3733156384422,1271.0,1435.0,1200.0,1528.0,1273.0,1018.02,58.0,292.45,1637152307.6391156,1637152308.6655989,fb347a54-90e3-4a36-b6f8-bfd192232bec
-0.1450974516771862,-0.1344689215975515,-0.1265660079160589,-0.1287574692992769,-0.1845846347599432,0.4610437313228162,-0.2442742438377861,-0.2750504146859882,-14.354985482266477,16.783855561383,28.38563030052426,1.4287310924966776,-0.6462064456569865,0.7774373468669292,3267.7986653645835,12.023666666666664,0.48,179.13781201618784,-13.355744219080115,105.23451177521927,1271.0,1435.0,1200.0,1528.0,1273.0,1018.02,58.0,292.45,1637152308.7735565,1637152309.8004818,fb347a54-90e3-4a36-b6f8-bfd192232bec
-0.1384118869765573,-0.124579457891859,-0.1152307353091499,-0.1281296091564241,-0.1756489991694871,0.4480988437244095,-0.2347786924130776,-0.2541072778542775,-14.133916681764198,16.683217470105642,28.08551783366041,1.398186622551289,-0.6073801393584844,0.7372705734219486,3252.9146118164062,12.02525,0.48,179.1449677777083,-13.285835311934331,105.11706382652876,1271.0,1435.0,1200.0,1528.0,1273.0,1018.02,58.0,292.45,1637152309.9081843,1637152311.1247623,fb347a54-90e3-4a36-b6f8-bfd192232bec
-0.2153745003372968,-0.2392749977039459,-0.132017238084454,-0.0732316064678647,-0.1685733557075395,0.5066258774493891,-0.2334539608851823,-0.2584227904304448,-14.542199734572028,17.481840112020006,27.549435079437654,1.410035574243624,-1.037726882766021,0.7338627963889487,3244.9772135416665,12.015666666666668,0.51,179.14506415926658,-13.268482955472637,104.82860805213366,1186.0,1435.0,1200.0,1528.0,1206.0,1018.02,58.0,292.45,1637152313.1686754,1637152314.192838,126638b7-1005-49ff-a4f3-a4ef12c50133
-0.1978571477335562,-0.2114529013806862,-0.1245926064532697,-0.0857382081490211,-0.1676808873508504,0.4874397401136152,-0.2313863268604044,-0.2583674549205899,-14.37758224606082,17.326647373717147,27.09794602482423,1.3944853910921606,-0.9285328114314292,0.7223816086535075,3248.1197916666665,12.018,0.5055555555555556,179.15389938841292,-13.261513885789498,104.68380576499966,1186.0,1435.0,1200.0,1528.0,1206.0,1018.02,58.0,292.45,1637152314.3005629,1637152315.4189565,126638b7-1005-49ff-a4f3-a4ef12c50133
-0.2081525781908134,-0.239314991823275,-0.1245663096811275,-0.0815437867444281,-0.16059374021599,0.5155253504332635,-0.2220244557198267,-0.2373295392080677,-14.575003522556417,17.310175256948263,27.795675161347308,1.4480398794506366,-1.0383342824040238,0.6968817486166528,3266.2754991319443,12.018111111111113,0.5,179.1525227258402,-13.298607409943235,104.55027632563582,1186.0,1435.0,1200.0,1528.0,1206.0,1018.02,58.0,292.45,1637152315.5278175,1637152316.7635186,126638b7-1005-49ff-a4f3-a4ef12c50133
0.0500922117937614,0.1990559798999917,-0.0351140810991061,-0.3225090038808308,-0.1728877720101733,0.3251053989909424,-0.2037461220026065,-0.2386723502758677,-13.440551953598083,15.199418305997764,30.675531752931104,1.5551910970708611,0.6075728963259861,0.6223205317603527,3295.716498480903,12.037444444444445,0.42,178.98027142625176,-13.190974158498806,104.28795304473267,1525.0,1435.0,1200.0,1528.0,1475.0,1018.02,58.0,292.45,1637152318.6978903,1637152319.7300408,db051e81-478b-4770-8a03-0b7609cf6b57
0.0314101057091777,0.1909339208630268,-0.0540975126388874,-0.3193176986555298,-0.1904193691534809,0.3341999154219444,-0.2226062855104914,-0.2422471523228479,-13.551817337946453,15.380520593508365,31.1072769118969,1.5686970024034863,0.5724779044169579,0.6984305737859807,3296.2798665364585,12.039333333333332,0.4133333333333333,178.95222666951972,-13.23467598553827,104.4274976040256,1525.0,1435.0,1200.0,1528.0,1475.0,1018.02,58.0,292.45,1637152319.8381605,1637152320.8848069,db051e81-478b-4770-8a03-0b7609cf6b57
0.0313553194220475,0.176141638034361,-0.048851729927786,-0.3065114210888699,-0.1827082055480033,0.3357202301207913,-0.2154840741297461,-0.234987975587343,-13.420554338710843,15.499115754889354,30.98495188526753,1.5443194896370631,0.5159108056356317,0.6688296114000473,3301.499565972222,12.04,0.4099999999999999,178.92359148087937,-13.20968403877398,104.55308201556488,1525.0,1435.0,1200.0,1528.0,1475.0,1018.02,58.0,292.45,1637152320.995715,1637152322.0894191,db051e81-478b-4770-8a03-0b7609cf6b57
0.0543655381068642,0.1861675188136906,-0.0540016359076299,-0.5084672136408627,-0.2076907305132085,0.5236643948409714,-0.1671078237003897,-0.1873102494131581,-13.500276496268055,14.835797169679363,32.8359468838286,2.4178191902500643,0.5622002407931068,0.6432686465770994,3303.4792209201387,12.035999999999998,0.42,178.88461690365546,-13.10372797822574,104.81541668011666,1525.0,1535.0,1200.0,1528.0,1475.0,1018.02,58.0,292.45,1637152324.1202004,1637152325.161136,be827960-aa79-4226-9cce-4bc90a55e327
0.0819076736723082,0.2138811341826951,-0.0509862013285576,-0.5177649890163709,-0.2122286746206698,0.5051510321336483,-0.171743835115141,-0.1968972932603243,-13.37387920621892,14.882378964134608,32.83975373073787,2.3977138724452467,0.6665515068566746,0.6552862840972358,3304.7528483072915,12.034666666666668,0.4266666666666666,178.89796764675313,-12.98854015810432,104.8714280258603,1525.0,1535.0,1200.0,1528.0,1475.0,1018.02,58.0,292.45,1637152325.2699673,1637152326.2776978,be827960-aa79-4226-9cce-4bc90a55e327
0.0598715546125705,0.2099995296517098,-0.0515499515715216,-0.5096862093931672,-0.2125667055235417,0.5033934900453965,-0.1743396069387462,-0.1974867940190172,-13.394586010310364,15.066875692695511,33.09236072298509,2.376765517027982,0.6488735576345609,0.6600782132210574,3306.4523111979165,12.037666666666668,0.42,178.86696314138072,-13.046337503452186,104.89000158694328,1525.0,1535.0,1200.0,1528.0,1475.0,1018.02,58.0,292.45,1637152326.3851118,1637152327.506422,be827960-aa79-4226-9cce-4bc90a55e327
0.059831012791261,0.1845989888420322,-0.0728787816760267,-0.7013734413186552,-0.2480720248827496,0.7132422796852588,-0.1356769586203194,-0.1526913730165681,-13.4830225642319,14.709437254681998,34.36395588602263,3.2774498453827614,0.565204507636794,0.6795880385516161,3327.4169921875,12.034,0.43,178.87658915465096,-12.939498071771292,104.95749903414116,1525.0,1636.0,1200.0,1528.0,1475.0,1018.02,58.0,292.45,1637152329.1144793,1637152330.28144,0897f38e-5931-4920-b64a-ed2d0da5adb5
0.0487636456282937,0.1633079632662167,-0.0845860523974509,-0.6942063185589378,-0.2543001245324476,0.733824370812994,-0.1409063055728664,-0.1514800494356659,-13.55082411063088,14.7313234194718,35.19683574534583,3.307194057725155,0.4768240728123672,0.7100796415243069,3331.011962890625,12.032555555555554,0.4255555555555556,178.8947771895008,-12.971758667904815,104.9664018062693,1525.0,1636.0,1200.0,1528.0,1475.0,1018.02,58.0,292.45,1637152330.390135,1637152331.329522,0897f38e-5931-4920-b64a-ed2d0da5adb5
0.0412519049072538,0.1574074860176729,-0.0851728130046853,-0.7027014732154443,-0.2542124665098623,0.7429714797954778,-0.1384644830159432,-0.1619612043905622,-13.640075300107132,14.711838422551256,34.571466710877786,3.346608821155503,0.461876431044937,0.705558541342006,3332.8799913194443,12.032888888888888,0.43,178.90946209621632,-12.936811246106537,104.9944867852265,1525.0,1636.0,1200.0,1528.0,1475.0,1018.02,58.0,292.45,1637152331.4389565,1637152332.5339444,0897f38e-5931-4920-b64a-ed2d0da5adb5
0.0773209701868345,0.2173271881825683,-0.06163061971574,-0.8418278929569921,-0.2631344066800148,0.8221397735949884,-0.0993509443473272,-0.1265797043112081,-13.17584170117887,14.851459737064204,36.19585826330124,3.840936096209588,0.6875533299316879,0.6385194247655882,3331.296630859375,12.033,0.44,178.88725791013454,-12.90749256423052,104.96743999502316,1525.0,1737.0,1200.0,1528.0,1475.0,1018.02,58.0,292.45,1637152333.113137,1637152334.0669477,34c159a1-c245-42c9-85b0-9e4108aff45b
0.0810190409549321,0.2062466727914488,-0.0802990295904638,-0.8365547101493256,-0.2775020978574726,0.8231807111593872,-0.1184439484523246,-0.151918339527224,-13.435638560926222,14.875518099064706,35.34694020212296,3.83034403946952,0.6535250666876933,0.7080368188053567,3325.266655815972,12.032555555555554,0.44,178.898676468607,-12.949245226035591,104.97637312354762,1525.0,1737.0,1200.0,1528.0,1475.0,1018.02,58.0,292.45,1637152334.179816,1637152335.4065278,34c159a1-c245-42c9-85b0-9e4108aff45b
0.070760318651085,0.208602480845527,-0.0676708017884762,-0.8544561136217759,-0.2680377746003512,0.8352062877347647,-0.1020217726473201,-0.1324007415860947,-13.387349173117656,14.86692529376452,35.15304217317234,3.898313533952393,0.6667419746368783,0.65444263693323,3318.399658203125,12.032888888888888,0.4311111111111111,178.9521295290515,-12.921499100352232,104.94950923063206,1525.0,1737.0,1200.0,1528.0,1475.0,1018.02,58.0,292.45,1637152335.519605,1637152336.6297398,34c159a1-c245-42c9-85b0-9e4108aff45b
0.0791700056350062,0.1934266944423859,-0.0783267249512004,-0.9158578238327164,-0.2853365306712271,0.914933949586414,-0.0958446242386035,-0.1165401257939776,-13.610268067665013,15.272794967127853,36.31370984006648,4.218212220990034,0.608005565054451,0.682674323929386,3314.550048828125,12.023333333333332,0.47,178.92050423537455,-12.87815974765747,104.86037450305348,1525.0,1837.0,1200.0,1528.0,1475.0,1018.02,58.0,292.45,1637152337.6321087,1637152338.6776905,9c487b2a-e787-4c1a-8859-77e1db39a909
0.0827858970637611,0.209479060522256,-0.0717660728391181,-0.9097491551134276,-0.2835148876388509,0.8925263817750073,-0.0959268038091133,-0.1322363828787886,-13.320963441100863,15.354152729526604,36.18637976894681,4.1550711027542535,0.666957776057029,0.6733525338955827,3312.5575358072915,12.025555555555554,0.4644444444444444,178.97577412613828,-12.859760735853271,104.76563143125642,1525.0,1837.0,1200.0,1528.0,1475.0,1018.02,58.0,292.45,1637152338.7854338,1637152339.9115422,9c487b2a-e787-4c1a-8859-77e1db39a909
0.0742118514245648,0.2132593105877049,-0.0698896443692185,-0.8905191839773993,-0.2807481825717772,0.8680506340932453,-0.101241069363731,-0.1216078529477035,-13.309289343481003,15.41854494181811,35.73700229248934,4.05714726658534,0.6827886335829335,0.6745667345829837,3314.550048828125,12.024666666666668,0.4677777777777778,178.99390144819552,-12.795199131633632,104.71451353659812,1525.0,1837.0,1200.0,1528.0,1475.0,1018.02,58.0,292.45,1637152340.0195897,1637152341.231578,9c487b2a-e787-4c1a-8859-77e1db39a909
0.0253836199475358,0.1774839008555388,-0.0391956555597473,-0.1326061911547482,-0.1581228804108889,0.1565281657453536,-0.2564915743583444,-0.2710236250382769,-13.306802038785795,16.043735506493604,28.337100210296416,0.7530897384745323,0.5228177630340725,0.6783758578186116,3260.3457845052085,12.040333333333333,0.4,178.97957930041585,-13.14397989568818,104.6164069760898,1525.0,1334.0,1200.0,1528.0,1475.0,1018.02,58.0,292.45,1637152343.162159,1637152344.412989,baedbc28-4b45-4312-bc4c-e48cde8edb4d
0.0694454490003494,0.2256136057919019,-0.0152814634136996,-0.1254154973902741,-0.1400434215781122,0.1074123077881765,-0.2457808641432294,-0.2754887038125428,-13.171709564481182,15.631380361483885,29.137241660449643,0.6251521685053824,0.6959093450306361,0.6131825243450915,3238.166259765625,12.039,0.4,178.94825149942275,-13.13843065157876,104.70142461741868,1525.0,1334.0,1200.0,1528.0,1475.0,1018.02,58.0,292.45,1637152344.5214584,1637152345.6405296,baedbc28-4b45-4312-bc4c-e48cde8edb4d
0.0493909480405734,0.2039933150971941,-0.0291856622135128,-0.1400949213584136,-0.1536249300660357,0.1370927500163347,-0.2513197529135734,-0.2726732383438328,-13.110182297513491,15.849822129619344,28.3461168782116,0.7256218711771091,0.6223259578691998,0.6546129760306999,3234.3653700086807,12.038333333333334,0.4,178.93467156553297,-13.129562409851406,104.8448358226917,1525.0,1334.0,1200.0,1528.0,1475.0,1018.02,58.0,292.45,1637152345.7488172,1637152346.871204,baedbc28-4b45-4312-bc4c-e48cde8edb4d
0.0403539586092937,0.2164916982214787,-0.0106383301774205,0.009536699943932,-0.124210199017742,-0.0180618665921353,-0.2814056177677031,-0.3014299894941712,-13.332431047104592,16.475474203472274,27.56775577735445,0.0442715602486225,0.6604376676604057,0.6334171317014587,3236.2647298177085,12.038777777777778,0.4077777777777778,178.90603182343318,-13.220914008134342,105.0681807318214,1525.0,1234.0,1200.0,1528.0,1475.0,1018.02,58.0,292.45,1637152349.1012318,1637152350.1548748,80951399-788f-4b20-90e1-10b55bf93ce7
0.0503113567106117,0.2031780959470596,-0.0142355941356878,0.0083801605866424,-0.1259995172158477,-0.0044135209804411,-0.2814828666031008,-0.3035726794084743,-13.402732166696344,16.591322713796462,27.487011022886527,0.0780906797002195,0.6116330894041476,0.6390360195128467,3240.0704752604165,12.039444444444444,0.4,178.92071824796852,-13.218324607529,105.15670377801432,1525.0,1234.0,1200.0,1528.0,1475.0,1018.02,58.0,292.45,1637152350.264876,1637152351.3764553,80951399-788f-4b20-90e1-10b55bf93ce7
0.0353958044343486,0.2145330904174879,-0.0176509679993083,0.0007708993074777,-0.1317706994696705,-0.00991241641236,-0.2864048622333382,-0.3118119820541912,-13.354177046897908,16.48872742484926,27.25986026602517,0.0820366094904835,0.6566093991644285,0.6596229053866692,3241.4318033854165,12.036666666666669,0.4066666666666666,178.9289949194227,-13.181936395270805,105.22414582478892,1525.0,1234.0,1200.0,1528.0,1475.0,1018.02,58.0,292.45,1637152351.484761,1637152352.60419,80951399-788f-4b20-90e1-10b55bf93ce7
0.0231855962431151,0.2062811882038345,-0.0057678336093903,0.1460470122114245,-0.1087615753387251,-0.1378464943458981,-0.3166556339245647,-0.3409675776260718,-13.488259963578413,17.43960855801853,26.859744827836256,-0.5263917314905789,0.6130378223996447,0.6543832388438753,3264.614800347222,12.03622222222222,0.42,178.94762615765876,-13.268789460211638,105.369317701048,1525.0,1133.0,1200.0,1528.0,1475.0,1018.02,58.0,292.45,1637152354.6313317,1637152355.8818111,60c03fc6-f0b0-4b68-b0d4-209deb4875cd
0.066651351027323,0.2540476597775367,0.0059892914006453,0.1388596053879819,-0.1075825766171257,-0.174202643507199,-0.3163455452565946,-0.3443824044639803,-13.14739891370017,17.28238529710239,27.45013051454704,-0.5920669581359859,0.7861736246572146,0.6431619589588985,3266.549560546875,12.03477777777778,0.42,178.93776032885762,-13.28985357388448,105.41916290379092,1525.0,1133.0,1200.0,1528.0,1475.0,1018.02,58.0,292.45,1637152355.9903488,1637152356.9994342,60c03fc6-f0b0-4b68-b0d4-209deb4875cd
0.0349164247262499,0.213382579507166,0.0007435095748179,0.1446121599736996,-0.1031038013725817,-0.1419198518234205,-0.3114558731062896,-0.3473956484561286,-13.526690782021191,17.371224862855264,27.12796382616716,-0.5324141263125998,0.6381554287837119,0.6316242949355896,3271.53662109375,12.032444444444444,0.42,178.93042774132866,-13.23921863051876,105.45352558550528,1525.0,1133.0,1200.0,1528.0,1475.0,1018.02,58.0,292.45,1637152357.1075797,1637152358.2236004,60c03fc6-f0b0-4b68-b0d4-209deb4875cd
0.0189599339085438,0.18670168454359,-0.0079264115373458,0.1828118607273745,-0.1072812515001978,-0.1503843263738583,-0.3273164891972314,-0.3371369234059311,-13.690187441105287,18.07849030708555,27.106742773734045,-0.633432935663075,0.534190288838719,0.6683863327765763,3287.8514811197915,12.033333333333331,0.4266666666666666,178.96585062018414,-13.3068764922984,105.50571354313352,1525.0,1033.0,1200.0,1528.0,1475.0,1018.02,58.0,292.45,1637152360.1608417,1637152361.2976396,8d6d9314-fdb5-49a9-95cf-32164731019b
0.0286817513836395,0.1888065716502119,-0.0186009619181958,0.176907000651467,-0.1185705039976698,-0.1470900294250544,-0.3358921800497251,-0.3481862129450224,-13.548978386641265,17.96959417489001,27.021760549181565,-0.6139061655016259,0.5418871058691507,0.7107497476492878,3291.63818359375,12.035111111111112,0.42,178.97838932968045,-13.249258629143725,105.5207558964156,1525.0,1033.0,1200.0,1528.0,1475.0,1018.02,58.0,292.45,1637152361.4061863,1637152362.4362457,8d6d9314-fdb5-49a9-95cf-32164731019b
0.0440525772840084,0.2040590584646179,-0.000942261814414,0.188043944935124,-0.1038702598571372,-0.1731638993744464,-0.3281738936233763,-0.3547079668902307,-13.636041052359356,18.12703392206819,26.993842371434404,-0.6957451534253498,0.5997077923910704,0.6574458612423071,3291.778727213541,12.033111111111111,0.42,178.97868530454448,-13.313914433055666,105.52636272281428,1525.0,1033.0,1200.0,1528.0,1475.0,1018.02,58.0,292.45,1637152362.5439043,1637152363.5876017,8d6d9314-fdb5-49a9-95cf-32164731019b
0.069541324905115,0.2205047896096159,-0.0363193779243062,-0.3201121001170746,-0.1788457750604848,0.3060808819196748,-0.2130049960048485,-0.2227980367340398,-13.368076751857949,15.27629871358623,31.230480725156813,1.507608217392022,0.6822172973964381,0.6486793248791792,3299.522650824653,12.03711111111111,0.4,178.99608255527042,-13.185393419628214,105.53031208997436,1525.0,1435.0,1200.0,1528.0,1475.0,1018.02,58.0,292.45,1637152365.6335518,1637152366.6237338,11b0f676-68de-497f-aabc-60ffcd2c5f2c
0.0519001575993523,0.2003845461221832,-0.0367850610456661,-0.3174960588347772,-0.1775172090084842,0.3241740342835326,-0.2066908816456281,-0.2202504764494622,-13.155604097218523,15.416539623068225,31.36208522604565,1.5433992162551715,0.6037346806162269,0.6363796262275456,3303.620307074653,12.03788888888889,0.3955555555555555,178.98527416036384,-13.13468362877284,105.5542640455738,1525.0,1435.0,1200.0,1528.0,1475.0,1018.02,58.0,292.45,1637152366.7326443,1637152367.964593,11b0f676-68de-497f-aabc-60ffcd2c5f2c
0.0579403398603877,0.2020418295394469,-0.0367302754253691,-0.3140856125498565,-0.1758873189439884,0.3221743376020661,-0.2091699593595544,-0.2377272873705901,-13.444119171136007,15.42603857481472,31.746959495313074,1.5311943172545064,0.6081651441577388,0.6381822583714852,3306.452907986112,12.038777777777778,0.4,178.94408660184888,-13.169858533815976,105.59325911336522,1525.0,1435.0,1200.0,1528.0,1475.0,1018.02,58.0,292.45,1637152368.0728114,1637152369.1943705,11b0f676-68de-497f-aabc-60ffcd2c5f2c
0.075266486500203,0.2027129609806658,0.0189325405421995,-0.3278780524683178,-0.1249361164119707,0.3292554571727425,-0.1470423637465516,-0.1601910610349551,-13.07587719517641,15.36508904950204,31.49400870094489,1.5807315403665865,0.6155437020556301,0.4043399188573116,3309.430908203125,12.039555555555555,0.4,178.9731331196592,-13.173969548786417,105.5810748147958,1525.0,1435.0,1200.0,1439.0,1475.0,1018.02,58.0,292.45,1637152371.2203395,1637152372.2663183,bb1f4e9e-5044-445f-a5c8-b8d06d0fa16c
0.0858402295142719,0.2346807271777091,0.0263286818963999,-0.3318500516210877,-0.1257031241685686,0.298643651700147,-0.1485215925200985,-0.1833108543247118,-12.72900407734196,15.314321387193887,31.096912598204227,1.5210456242297032,0.7374636846662055,0.4009455827397336,3310.9935167100693,12.037444444444445,0.4,178.97073344653077,-13.140432940506695,105.60479757960309,1525.0,1435.0,1200.0,1439.0,1475.0,1018.02,58.0,292.45,1637152372.375447,1637152373.494174,bb1f4e9e-5044-445f-a5c8-b8d06d0fa16c
0.0735818098257167,0.2092462190649005,0.0147276969005965,-0.3358905379141013,-0.1320857206998241,0.325461511685601,-0.1518909456599099,-0.1911178933207463,-12.917612179757011,15.357132408845294,30.78063825272845,1.5899840749070542,0.6459696243232986,0.4265410192901663,3309.430908203125,12.04,0.4,178.97095504822389,-13.1391051327593,105.62803540097929,1525.0,1435.0,1200.0,1439.0,1475.0,1018.02,58.0,292.45,1637152373.6028664,1637152374.6112597,bb1f4e9e-5044-445f-a5c8-b8d06d0fa16c
0.079019343376167,0.2182859472256428,0.0856484770327744,-0.308922009913016,-0.0657258909047162,0.2896587090853952,-0.0885580554207973,-0.1118422059506901,-12.462676771945874,15.566973904743111,30.992248748607057,1.4538811859809824,0.6759578365987912,0.1511719138914002,3284.0712890625,12.036666666666669,0.3966666666666667,178.9989360565237,-13.193662976302068,105.58651468101478,1525.0,1435.0,1200.0,1351.0,1475.0,1018.02,58.0,292.45,1637152376.657317,1637152377.7968504,a0d52887-f221-41c3-ab23-ae4895990f73
0.0992354637275406,0.2246959364194973,0.0974686073242191,-0.3228651092582686,-0.0556589195544248,0.296411111936449,-0.0737109846726693,-0.097721053356177,-12.459908558575906,15.401512715857118,31.124353723312552,1.500021105934266,0.7012719786098639,0.1011186526318408,3276.122260199653,12.04022222222222,0.4,179.02662564341892,-13.124116472353183,105.58047982942811,1525.0,1435.0,1200.0,1351.0,1475.0,1018.02,58.0,292.45,1637152377.9054928,1637152379.0249884,a0d52887-f221-41c3-ab23-ae4895990f73
0.0787317157252323,0.2070958594490602,0.0828406830783086,-0.3153593941952046,-0.066602470220186,0.3071492136388176,-0.0872705779968763,-0.1017341451070925,-12.661222472326791,15.62698519294031,31.07174775881844,1.5078765892951829,0.635304462235521,0.1528982887704091,3270.151909722222,12.037777777777778,0.4,179.00659345749318,-13.144831677195922,105.5842053181654,1525.0,1435.0,1200.0,1351.0,1475.0,1018.02,58.0,292.45,1637152379.133395,1637152380.251516,a0d52887-f221-41c3-ab23-ae4895990f73
0.0945595777191918,0.2156990843704021,0.1515134392976969,-0.3156654827704006,-0.0028979884742073,0.2950200180938834,-0.0160181011526708,-0.0440734182002706,-12.130334376462503,15.478430550044251,31.043459362187416,1.4840085125412343,0.6684536635412527,-0.1274957480114269,3272.091851128472,12.037666666666668,0.4,179.02770025984833,-13.112736713149772,105.55345277088236,1525.0,1435.0,1200.0,1262.0,1475.0,1018.02,58.0,292.45,1637152382.187225,1637152383.3247178,68c2c18f-9458-451c-bccd-0734cab872d4
0.1161507132426624,0.2276133033300948,0.1434205605260709,-0.3173727978800527,-0.0143637940598695,0.2865221942133196,-0.0280603540551921,-0.0604527160518992,-12.022005892956985,15.541809814794348,31.19250806327568,1.4688595187217122,0.710749727715496,-0.0820152028815226,3274.4532063802085,12.037,0.4066666666666666,179.01922171835864,-13.170574944768918,105.54546296737328,1525.0,1435.0,1200.0,1262.0,1475.0,1018.02,58.0,292.45,1637152383.4327233,1637152384.441553,68c2c18f-9458-451c-bccd-0734cab872d4
0.1192598319771451,0.2416659717073108,0.1619793965306557,-0.3175782355217906,0.0013872483604638,0.2713190186249358,-0.0133365530235445,-0.0509336070710988,-11.964095906444204,15.464053253641724,31.09058925356415,1.435580922656481,0.7651497155823962,-0.1481027477571987,3274.314236111112,12.03611111111111,0.4,179.03935863385166,-13.140574761795714,105.5278866139091,1525.0,1435.0,1200.0,1262.0,1475.0,1018.02,58.0,292.45,1637152384.5494976,1637152385.67053,68c2c18f-9458-451c-bccd-0734cab872d4
0.1226702749691773,0.221778569592532,0.2133688812909927,-0.3250154686827798,0.0496676164307907,0.2901928747660183,0.044942303598568,0.0105776382845416,-11.745206758076025,15.843224485059528,30.446864373185075,1.4998495682726125,0.6988958723947722,-0.3702706028680618,3276.9567057291665,12.034666666666666,0.4099999999999999,179.0237751778053,-13.23807912729223,105.51949458814887,1525.0,1435.0,1200.0,1173.0,1475.0,1018.02,58.0,292.45,1637152386.6924293,1637152387.7386844,91d9e524-c1fb-4486-94d8-c42932e236f9
0.1069740192296351,0.2144098213880013,0.2012063391677074,-0.3205229962614182,0.0400252407394276,0.2946990422785022,0.0341905066580451,0.017357435736963,-11.779483261489274,15.836801621451164,30.56111376383748,1.499194377984179,0.6691643289095285,-0.3259626114445267,3277.7919921875,12.035,0.4033333333333333,179.01890297619735,-13.239178503157389,105.46202309974268,1525.0,1435.0,1200.0,1173.0,1475.0,1018.02,58.0,292.45,1637152387.8496542,1637152388.952917,91d9e524-c1fb-4486-94d8-c42932e236f9
0.135243715467899,0.229503428265243,0.2103693365672649,-0.3224542144947663,0.0467639477570591,0.2835500438477087,0.0427508555766361,0.0162069250198125,-11.516140530282112,15.582813622840836,30.89546336491349,1.4774558413048753,0.7217616763474691,-0.3572498921722599,3278.767578125,12.034333333333333,0.4099999999999999,179.0091236631257,-13.195299850109407,105.49415610414796,1525.0,1435.0,1200.0,1173.0,1475.0,1018.02,58.0,292.45,1637152389.0685155,1637152390.0843828,91d9e524-c1fb-4486-94d8-c42932e236f9
0.0161247462110166,0.1646918634599468,-0.1218182317511032,-0.3005879281916574,-0.2496630172744774,0.3420020215013744,-0.2920807169620114,-0.3070176385703291,-13.919067784686051,15.65517093131502,30.483784011664707,1.5421440008580285,0.4755850341168113,0.9660901484373592,3276.122260199653,12.035222222222224,0.4,178.97295098128131,-13.209197387795616,105.51493809306258,1525.0,1435.0,1200.0,1617.0,1475.0,1018.02,58.0,292.45,1637152391.1998742,1637152392.3362954,61e3b515-5384-4f0a-97e5-9ecb88c1e228
0.0243558300425465,0.1922515295846378,-0.1162037385683345,-0.301968540493747,-0.2492028130724371,0.3207142840047398,-0.2939083873163206,-0.3212182326586411,-13.828027235043034,15.56544249837673,31.13040302240106,1.497255581376903,0.5730995977319722,0.964747483869994,3287.151258680556,12.038111111111112,0.39,178.9688786707162,-13.248396792079705,105.51950065942816,1525.0,1435.0,1200.0,1617.0,1475.0,1018.02,58.0,292.45,1637152392.4445906,1637152393.5709736,61e3b515-5384-4f0a-97e5-9ecb88c1e228
0.0178642092248533,0.185195063094038,-0.111965474704551,-0.3156333230293648,-0.2445755668488073,0.3392539454952989,-0.283939481406235,-0.3055526542465547,-13.922462521607272,15.527338661345697,31.049992974104224,1.569639165872455,0.5499650843926172,0.9373367282502404,3296.702392578125,12.037777777777778,0.3922222222222222,178.96455136642203,-13.23891620492051,105.53307300421886,1525.0,1435.0,1200.0,1617.0,1475.0,1018.02,58.0,292.45,1637152393.7069228,1637152394.6891973,61e3b515-5384-4f0a-97e5-9ecb88c1e228
0.0111528954085794,0.1904271482770646,-0.1846942072425886,-0.2918287058768998,-0.3141540948164974,0.3174353265978867,-0.3710496095771503,-0.3856775362139588,-14.341259568928177,15.853461897230146,31.176055985962808,1.465262220222875,0.5638994932891683,1.2558616114196826,3303.054443359375,12.038,0.4,178.92978266790703,-13.230067884578236,105.60361064450731,1525.0,1435.0,1200.0,1706.0,1475.0,1018.02,58.0,292.45,1637152396.6154788,1637152397.660741,aa25bb3b-11c8-49a7-88f6-b61e37f9860c
0.0110707158724964,0.1931938528056465,-0.1749970422380242,-0.2827204916735787,-0.3023887485543313,0.3050125493996058,-0.3624618649820378,-0.3992097383271623,-14.32152188595622,15.645380244654584,31.06061039678455,1.415895669837988,0.5746496137936563,1.2147423736492435,3305.744194878472,12.03677777777778,0.4,178.95187908878194,-13.23104384271964,105.5987528621876,1525.0,1435.0,1200.0,1706.0,1475.0,1018.02,58.0,292.45,1637152397.7697089,1637152398.8963225,aa25bb3b-11c8-49a7-88f6-b61e37f9860c
0.0140839589978655,0.1988368350175641,-0.1732575789631597,-0.2904042581232458,-0.3044158394454098,0.3045057785840073,-0.3647628865431953,-0.3908137468966797,-14.472496858265416,15.92247919643004,30.76422595389609,1.4338898764657484,0.6005706477981879,1.2183865275674373,3313.268798828125,12.039,0.4,178.9449183671078,-13.206516538546389,105.59447185139784,1525.0,1435.0,1200.0,1706.0,1475.0,1018.02,58.0,292.45,1637152399.008354,1637152400.1251545,aa25bb3b-11c8-49a7-88f6-b61e37f9860c
-0.0276768491842831,0.1634449288249062,-0.2584638816512281,-0.2754750105375394,-0.3764186625850321,0.3286391125450865,-0.4462300373928049,-0.4797729185335271,-15.037322045166212,15.984390588877451,30.580213021318784,1.4502980370916578,0.466219392091368,1.5437629471241965,3295.434814453125,12.034,0.4099999999999999,178.9835043824589,-13.182754879606344,105.56468311969768,1525.0,1435.0,1200.0,1795.0,1475.0,1018.02,58.0,292.45,1637152402.145141,1637152403.2857506,bfaaf97b-444a-4099-9a0a-be08826a837e
-0.00184513894345,0.1962344889377388,-0.2344127192326318,-0.2860350594937235,-0.3629412439584797,0.3057932536219458,-0.4303968084742986,-0.4647751789190986,-14.740650916274175,16.082104669885528,30.668135270762765,1.424789922651898,0.5891477010700611,1.4742450103572102,3293.184271918403,12.03422222222222,0.4099999999999999,178.9957607774695,-13.140948050606603,105.54378046410773,1525.0,1435.0,1200.0,1795.0,1475.0,1018.02,58.0,292.45,1637152403.3941944,1637152404.6257114,bfaaf97b-444a-4099-9a0a-be08826a837e
-0.0263345862901148,0.1714026291403785,-0.2522730349764925,-0.2672022881296336,-0.3734739004998579,0.3114910217398869,-0.4471203120996783,-0.4763350784020976,-14.968762756215485,16.230022238030664,30.351066608975533,1.3950373209269966,0.4969893628155639,1.5332401918343344,3290.094156901041,12.035444444444446,0.4099999999999999,179.01209403650475,-13.183836515952406,105.49527018389256,1525.0,1435.0,1200.0,1795.0,1475.0,1018.02,58.0,292.45,1637152404.7346056,1637152405.8589108,bfaaf97b-444a-4099-9a0a-be08826a837e
-0.011186192081171,0.1906736862108104,-0.2925409216720845,-0.2622852252128256,-0.4159880259395749,0.2916584047444805,-0.4991398532411709,-0.5136308158802593,-15.200079933894642,16.39737982527217,30.5034468074376,1.3383913060474704,0.5663988810903431,1.7224596520384274,3293.6060655381943,12.033,0.42,178.98716536385402,-13.26160818034554,105.48710279546506,1525.0,1435.0,1200.0,1883.0,1475.0,1018.02,58.0,292.45,1637152407.7874367,1637152408.9256527,2c281552-c028-4f7c-9baa-a648de723ecd
-0.0400448418264774,0.155857035571468,-0.2923080819773862,-0.2321117020701429,-0.4059347519015742,0.2968220076438844,-0.4935242649253796,-0.5163975226254552,-15.152581071808475,16.41894668791235,30.359832894411976,1.2820861155924428,0.4330520540882785,1.6963274988397783,3288.2725694444443,12.032222222222222,0.4288888888888889,178.9929679890089,-13.156745803838149,105.40600340599003,1525.0,1435.0,1200.0,1883.0,1475.0,1018.02,58.0,292.45,1637152409.0346296,1637152410.1546516,2c281552-c028-4f7c-9baa-a648de723ecd
0.0008065149089948,0.1841782305045221,-0.2823769782973223,-0.2527924122575259,-0.4033450043970548,0.2877899500968626,-0.4884039395797041,-0.5246286067396496,-15.195436808735998,16.352694569342496,30.37247706605413,1.30847624411425,0.542639705123835,1.6752333209788324,3274.455485026041,12.029,0.4266666666666666,179.00046146543835,-13.233715490186237,105.34107410992009,1525.0,1435.0,1200.0,1883.0,1475.0,1018.02,58.0,292.45,1637152410.2631788,1637152411.383365,2c281552-c028-4f7c-9baa-a648de723ecd
0.045590974670028,0.2309744383793543,-0.1292866917424487,-0.2937506026139544,-0.2354229778317542,0.2817284027692331,-0.276118197840498,-0.301205914617441,-12.79590930625736,11.289414740023393,32.1212081558043,1.3627911798936478,0.7003337790213296,0.947114637127598,7002.798828125,11.802666666666669,8.64,-178.2867749990637,-13.346912405028338,92.12295431320246,1525.0,1435.0,1350.0,1528.0,1475.0,1018.02,58.0,292.45,1637152415.6130512,1637152416.5966413,febb0ec8-bf40-4328-a12f-e0b061a953b2
0.0290499146873052,0.2164714269754649,-0.1411862622565882,-0.2427468032887779,-0.2330956576673334,0.2694080748275412,-0.2922647986005969,-0.3043878985913532,-13.333334505366686,11.087290526999071,34.92192486984798,1.2182971819821151,0.6178822937766383,0.9855041118366394,7010.437174479167,11.803333333333333,8.673333333333334,-177.54464307152568,-13.142717164465374,86.51463437983125,1525.0,1435.0,1350.0,1528.0,1475.0,1018.02,58.0,292.45,1637152416.7051153,1637152417.9374104,febb0ec8-bf40-4328-a12f-e0b061a953b2
0.0363211438128511,0.1722260657388993,-0.1244085251029144,-0.2264292692390449,-0.2089152029497182,0.3009386466055771,-0.2625224442654639,-0.2854537734333945,-13.140416273291985,11.26546268317392,35.552906279029386,1.2545564640576587,0.4440350911059216,0.8830938917321955,7020.0048828125,11.804,8.622222222222222,-177.06331053379597,-13.023848726154965,80.48219688558775,1525.0,1435.0,1350.0,1528.0,1475.0,1018.02,58.0,292.45,1637152418.0460713,1637152419.165542,febb0ec8-bf40-4328-a12f-e0b061a953b2
0.1049606250560078,0.3106418365095667,-0.098241522671406,-0.3071003653777384,-0.2185110134358196,0.2315716080901114,-0.2680651685976166,-0.2982523883549586,-13.184480389030318,11.162451914480885,34.49304833643655,1.281082637788279,0.9844731968068202,0.8829445033571952,7025.75927734375,11.804444444444446,8.653333333333332,-176.9206142216561,-12.921210619723537,73.24263425639103,1610.0,1435.0,1350.0,1528.0,1542.0,1018.02,58.0,292.45,1637152420.111205,1637152421.2143288,7b2c7e5a-ecc1-4b2f-8d21-73ae9cf4ff2f
0.0755678106691508,0.2702369911260002,-0.1146636966514787,-0.2989783061788011,-0.2283588393051908,0.2405976393204432,-0.2788032711850679,-0.2898290025285431,-13.16604083901496,11.391991241191436,31.10600950868734,1.2832172572297051,0.8607820049956394,0.9243553920223982,7025.75927734375,11.804444444444446,8.683333333333334,-177.0033065630275,-12.892204608729523,69.86517553153122,1610.0,1435.0,1350.0,1528.0,1542.0,1018.02,58.0,292.45,1637152421.322875,1637152422.4415274,7b2c7e5a-ecc1-4b2f-8d21-73ae9cf4ff2f
0.082950255653937,0.2777837944371243,-0.0996522674317532,-0.2827615789488626,-0.2119640568435024,0.2466652145219277,-0.2650108344846889,-0.293924274541006,-13.308409326291953,11.388424954181254,35.25180439419447,1.2615839719687052,0.8523056373725177,0.8687299179948814,7030.882541232639,11.803444444444445,8.706666666666667,-177.20502936997468,-12.904011065028582,66.72375751964836,1610.0,1435.0,1350.0,1528.0,1542.0,1018.02,58.0,292.45,1637152422.5498412,1637152423.555205,7b2c7e5a-ecc1-4b2f-8d21-73ae9cf4ff2f
0.1553639592865486,0.3946154307129574,-0.0790115529374992,-0.328028711086066,-0.2156758248892553,0.1743336917998884,-0.2713523424699521,-0.3057991918819723,-13.27165514403456,10.9330722313032,35.37735787859344,1.1992046387759865,1.2959965336290724,0.868808274517136,7025.7685546875,11.797333333333334,8.756666666666668,-177.66233178438446,-12.884526053146352,61.56432217198986,1695.0,1435.0,1350.0,1528.0,1609.0,1018.02,58.0,292.45,1637152424.6732423,1637152425.8116324,debd234a-59f0-42a2-8824-cbb9b03086ef
0.1692933589493379,0.4135029839460204,-0.0698074650800474,-0.3612839601302062,-0.2174837709043306,0.1827022889649474,-0.2625043643279527,-0.2887332784869615,-13.063030774637772,11.154855604087048,34.910596609972686,1.2949848309099703,1.3741783274789594,0.8475172990040107,7036.013020833333,11.798444444444446,8.761111111111111,-177.96511103465147,-12.976333851147604,59.21990679179726,1695.0,1435.0,1350.0,1528.0,1609.0,1018.02,58.0,292.45,1637152425.9197674,1637152427.039882,debd234a-59f0-42a2-8824-cbb9b03086ef
0.157349960251879,0.3906845188887107,-0.0665750769284588,-0.3486968222814298,-0.20725244031762,0.1833597225005689,-0.2544507867534848,-0.2700100799644416,-13.070672980495582,11.005457991622835,33.51951980949392,1.2670136566742765,1.2996310146470365,0.8131524861154821,7031.52294921875,11.79888888888889,8.745555555555557,-178.33800748911804,-13.019393640405086,57.176362762363546,1695.0,1435.0,1350.0,1528.0,1609.0,1018.02,58.0,292.45,1637152427.147813,1637152428.3802905,debd234a-59f0-42a2-8824-cbb9b03086ef
0.2041905455589093,0.4970908825981835,-0.0434257007758229,-0.4138113707734396,-0.2182244809941492,0.1185399396024434,-0.2598269607412237,-0.2832184944484655,-12.718489794919153,11.364647635613512,30.66635404284159,1.2714936827196477,1.7310050765366147,0.812575164370861,7031.52294921875,11.79188888888889,8.738888888888889,-178.75430903685017,-13.148132840431025,54.60114959829191,1779.0,1435.0,1350.0,1528.0,1677.0,1018.02,58.0,292.45,1637152429.1207726,1637152430.169652,9acea9d0-7378-4feb-93b4-784b9e87ff08
0.2037171925528205,0.4696758531786936,-0.0414402474989453,-0.3958765446683126,-0.209861909233703,0.1352650815288091,-0.2525557305674962,-0.2676767334959441,-12.78532925243887,11.523023032096653,31.60660426930843,1.269885724168166,1.6182420993533615,0.7861803957278025,7037.2958984375,11.786666666666669,8.836666666666666,-179.0215986241898,-13.186269011934314,53.39940703185962,1779.0,1435.0,1350.0,1528.0,1677.0,1018.02,58.0,292.45,1637152430.2786157,1637152431.2495992,9acea9d0-7378-4feb-93b4-784b9e87ff08
0.1826398331860014,0.4433784630660289,-0.0463052651887366,-0.3655161981573418,-0.2020121365783378,0.1379474156974597,-0.253042232224251,-0.2845333639113394,-13.047125498184815,11.24949459461043,32.282949238794664,1.2053483170705537,1.5114183352913892,0.7807802720503948,7033.447265625,11.791,8.77,-179.27822704514494,-13.259961061254442,52.22954133773872,1779.0,1435.0,1350.0,1528.0,1677.0,1018.02,58.0,292.45,1637152431.3582504,1637152432.478248,9acea9d0-7378-4feb-93b4-784b9e87ff08
0.2426795168912056,0.5267324240674173,-0.009734357266549,-0.3927449628243343,-0.1847489927359579,0.0988382617641111,-0.2373985692601767,-0.260093770493945,-13.223277400188374,11.296516306822063,34.96905419233267,1.1813584581975551,1.8071578890008968,0.6986369520222828,7037.2958984375,11.786,8.850000000000001,-179.682291929524,-13.298590903652745,50.777873422111725,1864.0,1435.0,1350.0,1528.0,1744.0,1018.02,58.0,292.45,1637152433.1124089,1637152434.115716,9dda47ea-0b89-4faa-81dc-f938a3699281
0.2931102427618338,0.6240190705893056,-0.0175140023140643,-0.484566712027478,-0.228523198074979,0.0499552448450343,-0.2657093590747178,-0.2985400147616945,-12.54247062078236,11.55991965990205,29.408690700598537,1.279454266926816,2.2273212433739373,0.8126642362352262,7028.961317274306,11.786444444444443,8.793333333333331,-179.9178970282139,-13.370927919332532,49.82972173972871,1864.0,1435.0,1350.0,1528.0,1744.0,1018.02,58.0,292.45,1637152434.2243023,1637152435.3456829,9dda47ea-0b89-4faa-81dc-f938a3699281
0.24962367154999,0.5270200517043071,0.0266163100380338,-0.4283560233360224,-0.1583557216457012,0.1019062905166587,-0.1952679504906864,-0.2193191110139987,-12.635298543114391,11.416585268928564,31.083525892376034,1.2708651263130009,1.845203395529105,0.5477576535287674,7029.601725260417,11.781333333333333,8.846666666666668,179.87758525173248,-13.43190395882913,49.125328504629785,1864.0,1435.0,1350.0,1528.0,1744.0,1018.02,58.0,292.45,1637152435.4549458,1637152436.5734174,9dda47ea-0b89-4faa-81dc-f938a3699281
-0.0661093938926336,0.0126321234535108,-0.1452207217003703,-0.2130871751968611,-0.2020477482306331,0.4184885308845783,-0.2400420063841735,-0.2626550273933227,-13.309096861936595,11.854429452467024,31.782772653784576,1.4907923870370656,-0.1228828369742061,0.8452311063651816,7031.52294921875,11.795111111111112,8.722222222222221,179.54991223867046,-13.48793968455356,47.646772790425125,1440.0,1435.0,1350.0,1528.0,1408.0,1018.02,58.0,292.45,1637152438.113105,1637152439.236138,dcd553d8-c6ca-49a8-a3de-49d0f8ec0b37
-0.0364426467937661,0.0591867263695163,-0.1570271560411153,-0.1959938692770403,-0.2154292873426883,0.3759196297753564,-0.2682843135327015,-0.2932394466732614,-13.6136791292855,11.520527238065585,34.303382647611905,1.354023193205256,0.0286822049874846,0.929023867297411,7035.37158203125,11.796333333333331,8.816666666666666,179.3274909228985,-13.514032999321516,47.06761335048811,1440.0,1435.0,1350.0,1528.0,1408.0,1018.02,58.0,292.45,1637152439.344206,1637152440.465719,dcd553d8-c6ca-49a8-a3de-49d0f8ec0b37
-0.0245403370433417,0.0798137436751432,-0.1605471710200285,-0.1870774094080018,-0.2203326549206571,0.3398155039094161,-0.2802414096156015,-0.3097164085014925,-13.48004063308037,11.276304881088596,33.15456916503958,1.2508689427097155,0.113957006404664,0.9586723976257404,7037.2958984375,11.794222222222222,8.796666666666667,179.1415261212765,-13.53778147220191,46.66107062526015,1440.0,1435.0,1350.0,1528.0,1408.0,1018.02,58.0,292.45,1637152440.574403,1637152441.5854125,dcd553d8-c6ca-49a8-a3de-49d0f8ec0b37
-0.096556845038367,-0.045756307343362,-0.1823520942829898,-0.1371123580816719,-0.2200998135265329,0.4105308309662152,-0.2777075460822933,-0.299991851022737,-13.401716214768191,12.16581348881678,32.17260215374325,1.3017606261098909,-0.356377240646693,0.9680189226066466,7048.8701171875,11.786555555555555,8.812222222222223,178.73971823496316,-13.644334699983837,45.77888149478653,1355.0,1435.0,1350.0,1528.0,1341.0,1018.02,58.0,292.45,1637152443.6291182,1637152444.765601,9a8590f7-fe5e-49b3-ab1a-b8611d772e85
-0.0975293006039508,-0.0275398835042133,-0.1854475167788939,-0.1495625307490523,-0.2275096525395447,0.3865755519622492,-0.2865966137140411,-0.3061279096529608,-13.339560110505095,12.033054572390409,29.63140492945712,1.2746064548511231,-0.2646375365444416,0.9935957753389228,7048.8701171875,11.791777777777778,8.722222222222221,178.58168587140688,-13.63826598204254,45.53338172871904,1355.0,1435.0,1350.0,1528.0,1341.0,1018.02,58.0,292.45,1637152444.875152,1637152445.8813703,9a8590f7-fe5e-49b3-ab1a-b8611d772e85
-0.0904755728137966,-0.028293194750861,-0.1775446021747461,-0.1176769398723445,-0.2090329933829294,0.3986696123527125,-0.2768446630727436,-0.311880465261329,-13.85854947249578,11.654809345802692,35.49148010925753,1.2284163052926127,-0.3191585419388733,0.9520184968310732,7048.8701171875,11.78622222222222,8.85222222222222,178.47304488246866,-13.624939618925676,45.36361813580828,1355.0,1435.0,1350.0,1528.0,1341.0,1018.02,58.0,292.45,1637152445.990256,1637152447.2305088,9a8590f7-fe5e-49b3-ab1a-b8611d772e85
-0.1865492679714575,-0.1496408748995663,-0.2288749264125431,-0.0563114243551141,-0.2370665652025412,0.4328726553570018,-0.3103179618749959,-0.3296071016065978,-13.509770390867557,12.35634213546907,31.150049172662893,1.1684276968962772,-0.7490742807440067,1.087516721265859,7059.837239583333,11.786,8.822222222222223,178.33347679696865,-13.644291916437783,44.896959880055405,1271.0,1435.0,1350.0,1528.0,1273.0,1018.02,58.0,292.45,1637152449.1570654,1637152450.2956903,93d2b6d9-1c55-4645-8f47-2f83073933f0
-0.1734356337044056,-0.1424266226219826,-0.2305091991703566,-0.0645068969716008,-0.2407542263089046,0.4346367722751854,-0.3139075556439039,-0.3262755503503892,-13.66885059475789,12.421718859700924,31.312730750960544,1.1911767512734677,-0.7214258179591914,1.100770393542616,7054.671875,11.78622222222222,8.773333333333333,178.3131653321968,-13.626037476971018,44.74490355256791,1271.0,1435.0,1350.0,1528.0,1273.0,1018.02,58.0,292.45,1637152450.4045832,1637152451.5237837,93d2b6d9-1c55-4645-8f47-2f83073933f0
-0.1803250034183828,-0.1679022240995699,-0.2247703419366079,-0.054138602279292,-0.2276877090430091,0.4556062014718584,-0.2984167473156844,-0.33852027632073,-13.655305459241037,12.269754895447557,32.185431579260865,1.21433382711447,-0.8257207303601857,1.0514060887582406,7054.671875,11.785333333333334,8.803333333333335,178.30370476128644,-13.60993540086645,44.6531323719697,1271.0,1435.0,1350.0,1528.0,1273.0,1018.02,58.0,292.45,1637152451.6329162,1637152452.7489994,93d2b6d9-1c55-4645-8f47-2f83073933f0
-0.2540415331366306,-0.2797735350126699,-0.2474803333155577,0.0122721770016091,-0.2301240523304093,0.487097874131566,-0.3116591287626151,-0.3369835214804953,-13.804777584669957,13.407499611713831,29.6233902399309,1.1412211696597392,-1.2311379140955945,1.087395865413476,7054.671875,11.778,8.85,178.2565127075811,-13.637718618271554,44.48602837883076,1186.0,1435.0,1350.0,1528.0,1206.0,1018.02,58.0,292.45,1637152453.6632128,1637152454.7996683,c129b2c8-6568-436b-bbed-aafbc4462493
-0.2982386902467197,-0.3941694034352648,-0.2283999304756052,0.002565151303038,-0.187200678082667,0.6257174436223896,-0.246123279666144,-0.2576420863366462,-14.369254257942158,13.34676885356608,32.4521878333605,1.475328791489727,-1.6788645988833644,0.8993078219100848,7054.671875,11.780111111111111,8.796666666666667,178.282122881329,-13.607172209892225,44.35629348900582,1186.0,1435.0,1350.0,1528.0,1206.0,1018.02,58.0,292.45,1637152454.9086063,1637152456.0339596,c129b2c8-6568-436b-bbed-aafbc4462493
-0.301087574655339,-0.3916032152966304,-0.2287565884463456,-0.0203628908194298,-0.1939519856871397,0.6266186769502905,-0.2456789636338968,-0.2811015552536445,-14.113614598638126,13.514730649432268,29.934829014088272,1.5298971095312135,-1.6459347290515327,0.9050257011263594,7045.0087890625,11.779666666666666,8.863333333333333,178.26048787767806,-13.569674566212594,44.32440561250076,1186.0,1435.0,1350.0,1528.0,1206.0,1018.02,58.0,292.45,1637152456.1425507,1637152457.259164,c129b2c8-6568-436b-bbed-aafbc4462493
0.0529821856099625,0.240433281508849,-0.1610402483025341,-0.2693389489792598,-0.2586145420472352,0.2618273044735423,-0.3107025613581679,-0.3490529324101714,-12.938925352637275,10.65944103338247,33.557303978755535,1.2574036894812812,0.719065055883084,1.0747693330970174,7054.671875,11.799,8.740000000000002,178.09426384057713,-13.535393562177084,44.30673591311793,1525.0,1435.0,1350.0,1528.0,1475.0,1018.02,58.0,292.45,1637152458.168435,1637152459.3117187,3a229b48-fa14-48a8-b125-1c2ff91ae192
0.0472296309519964,0.2322975260680001,-0.1610950344335095,-0.2713934326086059,-0.2579434102172775,0.2646487954184555,-0.3091000636888122,-0.3398762366080938,-12.932830704200557,10.707274075714494,32.5621815153178,1.268537170731478,0.6975779243226717,1.0692269484961228,7048.8701171875,11.802333333333332,8.74,178.12107612761898,-13.473619718639936,44.34344248808244,1525.0,1435.0,1350.0,1528.0,1475.0,1018.02,58.0,292.45,1637152459.4294932,1637152460.5348155,3a229b48-fa14-48a8-b125-1c2ff91ae192
0.0573513878520944,0.2541435359895255,-0.16306733870411,-0.2460274027992484,-0.2578338375592109,0.2332836779393428,-0.322974679645894,-0.3349180806596075,-13.238489453147473,10.564838723551077,34.40806648646208,1.1399339704453693,0.7620665389614131,1.0968346139917395,7050.159396701389,11.799222222222223,8.74,178.1460290853868,-13.506304735139386,44.39302472854232,1525.0,1435.0,1350.0,1528.0,1475.0,1018.02,58.0,292.45,1637152460.643711,1637152461.7701952,3a229b48-fa14-48a8-b125-1c2ff91ae192
0.0815258136367932,0.2594988900496279,-0.1840504678243553,-0.5113982757590076,-0.3077988896535052,0.4786985975333427,-0.2748860545398272,-0.29651292408558,-13.061740497384545,10.045515554637154,35.41243065921097,2.285787332880981,0.8033335413032877,1.12509769377749,7054.671875,11.800222222222224,8.704444444444443,178.1376901833201,-13.433668519228451,44.47639401755151,1525.0,1535.0,1350.0,1528.0,1475.0,1018.02,58.0,292.45,1637152462.6822865,1637152463.703831,45478c95-89dc-4934-abb5-74048cc7c361
0.0381625089395126,0.1823598750411355,-0.1531784221509771,-0.5124666069937142,-0.2701881343609683,0.5389360565802089,-0.2256058308338148,-0.2494789364666623,-13.14619371564664,10.848411355171848,33.39172484021777,2.4300539311592373,0.5346248128058945,0.949042143681314,7048.8701171875,11.803888888888888,8.695555555555554,178.18832161672748,-13.447933938492456,44.554272972832855,1525.0,1535.0,1350.0,1528.0,1475.0,1018.02,58.0,292.45,1637152463.8124857,1637152465.0405903,45478c95-89dc-4934-abb5-74048cc7c361
0.0561871802719411,0.1988368345086377,-0.161355268137821,-0.4839640625660878,-0.2694896098031178,0.5309372671719722,-0.2358645542255009,-0.2603677006619889,-13.51530772429975,10.194840641411268,38.21677458381282,2.3436284129519325,0.5522329069369126,0.982901946651965,7048.8701171875,11.800666666666668,8.690000000000001,178.23195590078518,-13.4302974414181,44.60069814807638,1525.0,1535.0,1350.0,1528.0,1475.0,1018.02,58.0,292.45,1637152465.1486695,1637152466.269585,45478c95-89dc-4934-abb5-74048cc7c361
0.0146181246874005,0.1230263851262875,-0.1956514541984848,-0.7098340856117596,-0.3204408153983616,0.7884736339947329,-0.1950761987296544,-0.2244964102823886,-13.288394320347724,10.51371970762736,34.722561630424984,3.43181784098084,0.32290136035449,1.0249208912643082,7043.078125,11.791666666666666,8.823333333333332,178.22863642884855,-13.38681133451992,44.85031424148367,1525.0,1636.0,1350.0,1528.0,1475.0,1018.02,58.0,292.45,1637152468.2039485,1637152469.3416567,7baea323-89fe-446c-ae11-e9802858944b
0.0409494850517381,0.196840424421018,-0.1900205243877893,-0.7299192729161128,-0.3260438043431061,0.7502558561443574,-0.2079159020668635,-0.2404457800209025,-13.726765683357751,10.19749930112603,36.91897648908093,3.389558228571525,0.5862093260280469,1.0548342555157872,7043.078125,11.794666666666664,8.71,178.29954289935216,-13.384459757306928,44.927293888524304,1525.0,1636.0,1350.0,1528.0,1475.0,1018.02,58.0,292.45,1637152469.4496665,1637152470.3993175,7baea323-89fe-446c-ae11-e9802858944b
0.0200693547923344,0.1512670440501829,-0.189455130470251,-0.7202418300613211,-0.3190223993823514,0.7794854051702147,-0.1933865910693661,-0.2275074613566707,-13.344437972816117,10.337468420977231,36.04801306744515,3.434420630406785,0.4191414629311893,1.017365487842547,7043.078125,11.799,8.68,178.2875126594941,-13.38166137188573,44.9515308147941,1525.0,1636.0,1350.0,1528.0,1475.0,1018.02,58.0,292.45,1637152470.5078983,1637152471.595115,7baea323-89fe-446c-ae11-e9802858944b
0.0416414349836925,0.1804971436021182,-0.2049240248372031,-0.9150771121070984,-0.3604484692103315,0.94792895581437,-0.1714359361387231,-0.2079646617698799,-13.802908244223133,10.311495937944782,38.58637148469862,4.251667865395204,0.5325269488405078,1.068720724959331,7043.078125,11.786111111111111,8.758888888888889,178.41966315955543,-13.271488428434916,45.203125006876,1525.0,1737.0,1350.0,1528.0,1475.0,1018.02,58.0,292.45,1637152473.6209135,1637152474.8713715,ceb69029-0753-4ed6-821a-98557007bc77
0.0478459760171664,0.18271598537389,-0.1953501298578419,-0.9572899364168502,-0.3637356446113036,0.9789927493700789,-0.1585200810673422,-0.1834478201999614,-13.607361296032892,10.9757970169914,37.86352257993891,4.4215578018865385,0.5516870151021779,1.0405012270100746,7043.078125,11.78788888888889,8.841111111111111,178.51535259200753,-13.296833268306326,45.235988082612565,1525.0,1737.0,1350.0,1528.0,1475.0,1018.02,58.0,292.45,1637152474.9798212,1637152476.1014564,ceb69029-0753-4ed6-821a-98557007bc77
