raw_voltage_G-,raw_voltage_G0,raw_voltage_G1,raw_voltage_G2,raw_voltage_G3,raw_voltage_G4,raw_voltage_G5,raw_voltage_G6,load_x,load_y,load_z,load_l,load_m,load_n,rpm,voltage,current,roll,pitch,yaw,aileron1_pwm,elevator_pwm,throttle_pwm,rudder_pwm,aileron2_pwm,pbaro,pdiff,Tt,sample_start_time,sample_end_time,uid
-0.0424417395203861,0.0745268724454451,0.0209459351409141,0.1146303954568408,-0.1063224915467585,-0.1636836829456094,-0.3262755494353173,-0.3490803241840868,-14.541218723152872,22.74710067310425,0.7454607041028862,-0.4817617805316311,0.3634334369786424,0.5723797235831274,3078.81689453125,12.042,0.39,179.18116095012022,11.248639397867644,53.18808667076374,1525.0,1435.0,1200.0,1528.0,1475.0,1018.02,58.0,292.45,1637150805.6476333,1637150806.637233,9df84157-1761-4d32-bf3b-07f4d086db2b
-0.041003600819796,0.0776633843379778,0.0281777181448074,0.1118773872433718,-0.1007890815631569,-0.1638617382190319,-0.3187835307033712,-0.3536001891666416,-14.44398956593828,22.75554266994348,0.8526542844800257,-0.4754696949792678,0.3743565993746529,0.5448893611920659,3373.319793701172,12.04325,0.38375,179.35645775516855,11.294697924761982,53.30454096922563,1525.0,1435.0,1200.0,1528.0,1475.0,1018.02,58.0,292.45,1637150806.7455492,1637150807.7726338,9df84157-1761-4d32-bf3b-07f4d086db2b
-0.0505774956016002,0.0735681133485129,0.0218773011383526,0.1125211254924542,-0.1055828773365496,-0.1621907579302677,-0.3237005960082473,-0.3571339017480265,-14.4411225198078,22.696141303055345,0.5617221633376274,-0.4739193255368257,0.3610753968546105,0.5661338660028341,3403.612548828125,12.044333333333334,0.38,179.5437164981834,11.338067918444269,53.46812556509912,1525.0,1435.0,1200.0,1528.0,1475.0,1018.02,58.0,292.45,1637150807.8809583,1637150809.0027387,9df84157-1761-4d32-bf3b-07f4d086db2b
0.0528178270352906,0.2508426656465636,0.0249727233979916,0.0316292508988515,-0.1421252980550182,-0.253560509629454,-0.3622016287229896,-0.3850474934260117,-14.56620421924765,22.34001478044033,1.5442666981995037,-0.4988801210744608,1.0282894948560677,0.6886892821872381,3405.41357421875,12.041,0.4099999999999999,179.8306846194317,11.431999241231225,53.76733793879959,1610.0,1435.0,1200.0,1528.0,1542.0,1018.02,58.0,292.45,1637150810.6474888,1637150811.672105,9656c949-72ca-4a55-8561-de6363bcb821
0.0534478687293486,0.2489251475452482,0.023740033126051,0.0303417744149531,-0.1430155744090297,-0.2525058744618829,-0.3626947048951501,-0.3957445079542745,-14.564327112820578,22.3238054539616,1.2522804159654477,-0.4938204162652956,1.023752312512326,0.6916370345100589,3407.971625434028,12.038888888888888,0.4099999999999999,179.91205797538345,11.457011488835548,53.87327493173639,1610.0,1435.0,1200.0,1528.0,1542.0,1018.02,58.0,292.45,1637150811.7845428,1637150812.893834,9656c949-72ca-4a55-8561-de6363bcb821
0.0370941777181007,0.2428438758478558,0.0187818788502219,0.0320127545701799,-0.146343838404178,-0.2474929334078575,-0.365981879557753,-0.3981961923322897,-14.589704275430847,22.32371852182185,1.3049481676933932,-0.4865768281536667,1.0001366111891252,0.706944385604733,3408.272433810764,12.038333333333334,0.4099999999999999,179.9538875716804,11.47053545311965,53.94612421160394,1610.0,1435.0,1200.0,1528.0,1542.0,1018.02,58.0,292.45,1637150813.0021696,1637150814.1239607,9656c949-72ca-4a55-8561-de6363bcb821
0.153953214140846,0.4295416531075626,0.0246850956689724,-0.0635755300787431,-0.1855981785830693,-0.3357809626464927,-0.4033871882246587,-0.4269178813533134,-14.684647865963765,22.156765819049287,2.127002407265423,-0.4700776281936199,1.705893293487741,0.8285345536444467,3374.7252604166665,12.03488888888889,0.43,-179.98911920523915,11.51077001051795,54.219431575057314,1695.0,1435.0,1200.0,1528.0,1609.0,1018.02,58.0,292.45,1637150816.1498134,1637150817.2960718,8f238e13-5b94-45c8-8ed8-a0bf405cf0c1
0.1394332188441607,0.4274290960843124,0.0228437303137237,-0.0635432061989185,-0.1867859442502355,-0.3342222940250782,-0.4033450028176462,-0.4239621634329049,-14.589991009552044,22.077709157449444,2.0521169827563,-0.4672280596196462,1.6978416166391106,0.832339940710576,3373.2490234375,12.035333333333334,0.4233333333333333,-179.98339398889487,11.502117109476927,54.33662509920126,1695.0,1435.0,1200.0,1528.0,1609.0,1018.02,58.0,292.45,1637150817.4051268,1637150818.5172777,8f238e13-5b94-45c8-8ed8-a0bf405cf0c1
0.1364901023915258,0.4256929204640964,0.0189873272368169,-0.0591241483599055,-0.1893647325407745,-0.3355892107960712,-0.4073181013363305,-0.4363137228632219,-14.597115888647847,22.048935613280765,2.164614884287744,-0.4806364360215394,1.689594220579977,0.8467600554642886,3371.7747938368057,12.034222222222224,0.4288888888888889,-179.99864200676197,11.4888369450007,54.37629521735565,1695.0,1435.0,1200.0,1528.0,1609.0,1018.02,58.0,292.45,1637150818.6256337,1637150819.7460594,8f238e13-5b94-45c8-8ed8-a0bf405cf0c1
0.2332228656292941,0.570013545319297,0.0134687097708012,-0.1846690040323309,-0.2378160397154374,-0.3504609366961226,-0.4345337168974826,-0.4478270524126489,-14.61758236361656,22.12226912503616,3.5908094821796634,-0.2304283663225219,2.233497491590547,0.9773533412051452,3362.957709418403,12.030444444444443,0.4555555555555556,179.92819543566245,11.483821594011404,54.49388185683181,1779.0,1435.0,1200.0,1528.0,1677.0,1018.02,58.0,292.45,1637150821.792692,1637150822.926782,800279d9-f14f-447c-ba44-1943d263104d
0.2155740289041429,0.5694519864692805,0.0264245586144468,-0.1833793359654907,-0.2252771128378948,-0.3508608762709677,-0.4215762218153445,-0.4469696489044559,-14.616166762746351,22.16066900996995,3.723778541988924,-0.2333146782693405,2.230865981006195,0.9242820396103216,3351.41392686632,12.029666666666666,0.4499999999999999,179.89035466984078,11.466772967524358,54.52686977324821,1779.0,1435.0,1200.0,1528.0,1677.0,1018.02,58.0,292.45,1637150823.0394204,1637150824.0456324,800279d9-f14f-447c-ba44-1943d263104d
0.2151631322168785,0.5646444948618025,0.0233428328792913,-0.1790786162495028,-0.2273179003267397,-0.3496966686505038,-0.423753975119328,-0.4609538371518202,-14.552913676096887,22.177369672506472,3.761818001691244,-0.2404047532504799,2.2113255395823703,0.933910087612744,3347.6325412326387,12.03022222222222,0.4477777777777778,179.8740472137424,11.476308006469434,54.574490611051445,1779.0,1435.0,1200.0,1528.0,1677.0,1018.02,58.0,292.45,1637150824.1531742,1637150825.2752674,800279d9-f14f-447c-ba44-1943d263104d
0.2917268906130278,0.675038746403516,0.013590883069503,-0.2782417114630511,-0.2711605896712319,-0.3533536503463108,-0.4517223539339732,-0.4788004571764999,-14.752452191703693,22.46348036286801,5.489189245282664,-0.0233488410036742,2.6230694689533496,1.0614069908049986,3341.2526041666665,12.02,0.48,179.82293007799404,11.471881569568572,54.66688865123346,1864.0,1435.0,1200.0,1528.0,1744.0,1018.02,58.0,292.45,1637150826.2980406,1637150827.4353569,00fc4d6b-0544-4e0b-b186-1886eb1286de
0.2725106200558194,0.6713680690594434,0.0192612583656489,-0.2740231709021956,-0.2642986129644112,-0.3523674980379843,-0.445901315269919,-0.4615564862194925,-14.8194437012218,22.49096813630168,5.714451490679767,-0.0301820661617901,2.607620398093641,1.0358958844964168,3339.0830078125,12.023999999999996,0.48,179.7846354840475,11.46076543669438,54.68483041981822,1864.0,1435.0,1200.0,1528.0,1744.0,1018.02,58.0,292.45,1637150827.5446546,1637150828.6640272,00fc4d6b-0544-4e0b-b186-1886eb1286de
0.2838924595712785,0.6764768849149569,0.0217403355370541,-0.27339312907445,-0.2628193843802268,-0.3561477487965257,-0.4445042659139441,-0.4788004576149635,-14.76571192122544,22.46727205709229,5.985899191533787,-0.040061339502929,2.6240746160007924,1.0295666118022708,3342.121419270833,12.023,0.4866666666666666,179.74665052534334,11.443692240499068,54.7380114110608,1864.0,1435.0,1200.0,1528.0,1744.0,1018.02,58.0,292.45,1637150828.7725885,1637150829.987183,00fc4d6b-0544-4e0b-b186-1886eb1286de
-0.1425224985089267,-0.1115545772390806,0.0272600487117503,0.1687728901372564,-0.0625208950218507,-0.0258004202452944,-0.2648464753053419,-0.2896372508625055,-14.29658510028792,23.092458356446485,1.7696296720181952,-0.2911616624830784,-0.3515537380675042,0.3960843099621561,3341.686767578125,12.03677777777778,0.4122222222222222,179.88481310969416,11.432142770067532,54.79414532075456,1534.2222222222222,1435.0,1200.0,1528.0,1482.6666666666667,1018.02,58.0,292.45,1637150830.6510656,1637150831.7368538,de036116-eaae-4d69-85d1-5581e264d313
-0.1452344172546785,-0.1169236285353751,0.0233565294774384,0.1705123530314238,-0.0643425373896061,-0.023650060453779,-0.2677501460983864,-0.283377922249924,-14.383487640591154,23.05703285686304,1.529995921034627,-0.2907644716741309,-0.3694142302898147,0.4070019676216212,3345.1650390625,12.042666666666666,0.3866666666666666,179.9177103363766,11.404467602460548,54.83741115405201,1440.0,1435.0,1200.0,1528.0,1408.0,1018.02,58.0,292.45,1637150831.845164,1637150832.9693954,de036116-eaae-4d69-85d1-5581e264d313
-0.1404132282698907,-0.1133762196392438,0.0266437035708301,0.1728407679193148,-0.0619319429782734,-0.0309366298173326,-0.2663667934990038,-0.2875142836574844,-14.32815502977055,23.06647319688049,1.31077674388785,-0.3121715307739761,-0.3546361150024231,0.3974435556256863,3348.21337890625,12.044,0.38,179.9132752668755,11.387019030452102,54.9086215679737,1440.0,1435.0,1200.0,1528.0,1408.0,1018.02,58.0,292.45,1637150833.0772383,1637150834.2011166,de036116-eaae-4d69-85d1-5581e264d313
-0.2346592566526048,-0.2864870407818,0.0288214564019426,0.2512535623682668,-0.0237733294770646,0.0685551728984953,-0.2254140784146429,-0.2510540401011727,-14.322274859959288,23.782080406210003,1.763474307082402,-0.2605528120046878,-1.0174649094569157,0.2642836945220021,3353.453125,12.03411111111111,0.42,179.88722796102073,11.365582956060711,55.21045331922088,1355.0,1435.0,1200.0,1528.0,1341.0,1018.02,58.0,292.45,1637150836.3331234,1637150837.4790668,a6e7ea6b-2429-42f2-b969-47fd93d7bf49
-0.2452193045446541,-0.2912808369561999,0.0271230831217509,0.2528012734091517,-0.0239239916243268,0.0702672427346187,-0.2261126029834379,-0.2525058752425813,-14.366323747636878,23.7599255876423,1.5331461675052365,-0.2604871427456496,-1.033389999923317,0.2668854731075581,3358.41943359375,12.036666666666669,0.4111111111111111,179.84357546312523,11.357026151986762,55.21838089211753,1355.0,1435.0,1200.0,1528.0,1341.0,1018.02,58.0,292.45,1637150837.6119015,1637150838.7003791,a6e7ea6b-2429-42f2-b969-47fd93d7bf49
-0.2468623439005604,-0.2974979797210938,0.0232513398998075,0.2537611281832661,-0.0271607624403185,0.073952712701844,-0.2281517468519301,-0.2585646850315304,-14.277074236711888,23.79005275398116,1.293276850635677,-0.2543569778056054,-1.0555769112825644,0.278442866793024,3370.743950737847,12.03588888888889,0.4099999999999999,179.83662536618982,11.348279146117177,55.3314364599893,1355.0,1435.0,1200.0,1528.0,1341.0,1018.02,58.0,292.45,1637150838.808912,1637150839.930398,a6e7ea6b-2429-42f2-b969-47fd93d7bf49
-0.3067442540515185,-0.4472024885366368,0.0358477909920448,0.2972192102722097,0.0089477496507982,0.1921803078425707,-0.1762023385858961,-0.2025682166847265,-14.05611825427247,24.787342178855727,3.170994349028375,-0.0790656575229228,-1.6398010327343135,0.1227868824211903,3379.308024088541,12.029,0.44,179.83086220435015,11.346890056394724,55.383181593686366,1271.0,1435.0,1200.0,1528.0,1273.0,1018.02,58.0,292.45,1637150840.839151,1637150841.9764948,c8e51152-953f-4aee-8887-d195da30154b
-0.3222213675918731,-0.4422032435258163,0.0383405646683214,0.2931376361161703,0.0103174055243049,0.1929747082761946,-0.1743943926699229,-0.1875567871685527,-14.11777051161534,24.783655549936395,3.4627275731396097,-0.0679583482087838,-1.6225395939352598,0.1158882906142043,3380.048285590278,12.031777777777778,0.4411111111111111,179.79315348885245,11.339202773347614,55.4158754325135,1271.0,1435.0,1200.0,1528.0,1273.0,1018.02,58.0,292.45,1637150842.084561,1637150843.2050295,c8e51152-953f-4aee-8887-d195da30154b
-0.3240057555496644,-0.4498913975305203,0.0366630101614587,0.2941144745975252,0.0093531677894759,0.1978923204519302,-0.173347975528304,-0.1973969435221014,-13.985691042936056,24.80463809320229,3.21555657248712,-0.0590286755733194,-1.6503452633644569,0.1168118730759759,3379.900146484375,12.029222222222224,0.4444444444444444,179.77758672882405,11.336267404688064,55.42393315845934,1271.0,1435.0,1200.0,1528.0,1273.0,1018.02,58.0,292.45,1637150843.3145025,1637150844.430462,c8e51152-953f-4aee-8887-d195da30154b
-0.3896358408985152,-0.5823053786895952,0.0365052257989258,0.3300224659506236,0.0306020090193091,0.3033004819140563,-0.1405501937529566,-0.1675872029197499,-14.016422566018385,25.747022839639737,4.570423065018354,0.1032777363965626,-2.163183899880017,0.0271836031692587,3381.2333984375,12.022111111111112,0.4755555555555555,179.78486163920002,11.316703845630377,55.47431073650259,1195.4444444444443,1435.0,1200.0,1528.0,1213.4444444444443,1018.02,58.0,292.45,1637150845.1300457,1637150846.0743763,5a48c269-288c-4857-8ca7-93d2db8252d0
-0.386211700615596,-0.571211162835415,0.0441616020855103,0.3334192122841999,0.0360669359313493,0.2904257176863717,-0.137276715981208,-0.1642041535222327,-13.978512122336165,25.76033909798329,4.771733690764718,0.0672048793276416,-2.1235589899102862,0.0063201182125838,3383.903076171875,12.021,0.48,179.76986861506194,11.333672122530936,55.46870049500932,1186.0,1435.0,1200.0,1528.0,1206.0,1018.02,58.0,292.45,1637150846.182928,1637150847.3032153,5a48c269-288c-4857-8ca7-93d2db8252d0
-0.3902795793504838,-0.5765802154296008,0.0397376136530106,0.3314879976515235,0.0329441205590516,0.2992052111944095,-0.1395366482970073,-0.1748052899229595,-14.06071345792767,25.76673893523848,4.993641999617677,0.0911060561734219,-2.145123743274391,0.0194078320754675,3383.0127766927085,12.02,0.48,179.75256091570512,11.3356651148125,55.46613462061113,1186.0,1435.0,1200.0,1528.0,1206.0,1018.02,58.0,292.45,1637150847.411887,1637150848.4898205,5a48c269-288c-4857-8ca7-93d2db8252d0
-0.040592704072877,0.0748418932908871,0.0172889539512976,0.0755678108816123,-0.1139240820199505,-0.1263194683303563,-0.3185095994974213,-0.3338497481779423,-14.449666725674598,22.60916738723542,1.0043147365978162,-0.3106929028173833,0.3662480252787741,0.5768425133730154,3386.4283040364585,12.038111111111112,0.3899999999999999,179.5424263513401,11.29104216087247,55.19762053213528,1487.3333333333333,1435.0,1200.0,1528.0,1445.111111111111,1018.02,58.0,292.45,1637150849.1246643,1637150850.1682537,f7310e9e-e224-438b-8ca0-9415653f7b95
-0.0526730691276654,0.0737735617273554,0.0126458205360232,0.077800349915008,-0.1174851874723209,-0.1243882534457512,-0.3236595063282352,-0.3613798359902043,-14.565619643436987,22.62803530970736,1.384752616729512,-0.3114931092509922,0.3591211040371267,0.5956923882637543,3387.0231119791665,12.044333333333334,0.3766666666666667,179.52719199385135,11.29492958201133,55.22944693693781,1525.0,1435.0,1200.0,1528.0,1475.0,1018.02,58.0,292.45,1637150850.2768843,1637150851.3970585,f7310e9e-e224-438b-8ca0-9415653f7b95
-0.042414346418689,0.0793754541475306,0.0189736306834821,0.0710068568970941,-0.1136775439463954,-0.1244567362527138,-0.317222122788939,-0.342560761590881,-14.476612674986203,22.62631015468447,1.314739094629103,-0.2959852537101201,0.3813597097345371,0.5732977442559156,3386.576904296875,12.041666666666666,0.3766666666666666,179.5310669878405,11.286098716596936,55.32185825804322,1525.0,1435.0,1200.0,1528.0,1475.0,1018.02,58.0,292.45,1637150851.5056982,1637150852.514082,f7310e9e-e224-438b-8ca0-9415653f7b95
-0.0329637206950404,0.0735544167879689,0.0030308362567701,-0.1036790556012479,-0.1459329416145994,0.0528863099355205,-0.2819260861443816,-0.3173453925421325,-14.34741197092656,22.183937130523123,2.92559815216902,0.4931722982544063,0.3648252107552245,0.589016387540738,3366.62451171875,12.041,0.38,179.53499206988351,11.317277676384396,55.42588886929169,1525.0,1535.0,1200.0,1528.0,1475.0,1018.02,58.0,292.45,1637150854.1410627,1637150855.1761436,6b788043-c472-4c8e-9aee-93cf1ea43fef
-0.0393737102865122,0.0749103760768214,0.0068247830514958,-0.1060622569208483,-0.1425909810639446,0.0516536196644736,-0.2783375872896846,-0.3140719143763893,-14.367321718215578,22.17028604062474,2.656117017087459,0.4958236364990869,0.3729739108779045,0.573938466588486,3362.80943467882,12.041444444444444,0.3744444444444444,179.5226779977199,11.334246522467389,55.41738680159484,1525.0,1535.0,1200.0,1528.0,1475.0,1018.02,58.0,292.45,1637150855.2844665,1637150856.4085357,6b788043-c472-4c8e-9aee-93cf1ea43fef
-0.0424006498339174,0.0714862364561886,0.0015105182267177,-0.1017204476061975,-0.14686430766175,0.0528863099357818,-0.2832409559445208,-0.2968553376181531,-14.338974075544106,22.187704914965405,2.8829320809880805,0.4887008800934054,0.3570492413078927,0.5939404979728772,3356.5191243489585,12.043,0.38,179.50185654549009,11.33445844805913,55.40914238381168,1525.0,1535.0,1200.0,1528.0,1475.0,1018.02,58.0,292.45,1637150856.51661,1637150857.5413694,6b788043-c472-4c8e-9aee-93cf1ea43fef
-0.0280811712944539,0.0720724491605597,-0.0065830523216601,-0.2997858532083499,-0.176306432395962,0.245227624780564,-0.2389468276922675,-0.2610629377009635,-14.350272355990738,21.91372927208649,4.521462927787323,1.365740805729615,0.3686739594103156,0.5827585856866968,3349.958550347222,12.043,0.3788888888888889,179.5019794888951,11.390610192135716,55.45391123818148,1525.0,1624.7777777777778,1200.0,1528.0,1475.0,1018.02,58.0,292.45,1637150859.1227932,1637150860.0917408,1b774fba-f42f-45d2-a439-e027a5f49fbf
-0.0333609208724336,0.071842346972478,-0.0074881209313174,-0.2946638874435158,-0.1776952635587066,0.2423234066335173,-0.2422745439541143,-0.2540672829158424,-14.375419535996349,22.062791386819857,4.728962597508178,1.3486242424901722,0.3654643853807965,0.590852854579755,3351.7049967447915,12.041,0.38,179.4857236386705,11.389225466145234,55.4082419372061,1525.0,1636.0,1200.0,1528.0,1475.0,1018.02,58.0,292.45,1637150860.1990235,1637150861.320428,1b774fba-f42f-45d2-a439-e027a5f49fbf
-0.0356756393639214,0.0689112834516934,-0.0081592523196435,-0.2969238199267498,-0.1779554981961593,0.244884662963807,-0.2424936889263814,-0.2781595326715845,-14.451173350564394,22.090607052678987,4.385810898470875,1.3595357240856158,0.3582847984783978,0.5915112932358774,3350.103759765625,12.041,0.3744444444444444,179.47370098791149,11.386252341717771,55.36939409793679,1525.0,1636.0,1200.0,1528.0,1475.0,1018.02,58.0,292.45,1637150861.428107,1637150862.4634173,1b774fba-f42f-45d2-a439-e027a5f49fbf
-0.028457552774047,0.0674320551343355,-0.0158019321737794,-0.4681719247173561,-0.2064717358804639,0.4150506953053739,-0.205307528286449,-0.237809466095198,-14.328985470877456,22.09389166081096,6.06506271543828,2.128185696430136,0.3575886683056513,0.5885961157201088,3346.90625,12.037,0.4,179.46412202705548,11.437447170867957,55.2880385763679,1525.0,1737.0,1200.0,1528.0,1475.0,1018.02,58.0,292.45,1637150864.7055328,1637150865.65597,34383db5-694e-4482-b7d2-49fc08849d7c
-0.0131311032964795,0.0680752455213283,-0.0134598206112734,-0.4669978553750933,-0.2043789015224846,0.4130312748753166,-0.2040238866917536,-0.2347260961454594,-14.358821855993874,22.13438255373713,6.034917137534693,2.121364592583651,0.360483988426296,0.5807335309309536,3348.21337890625,12.038111111111112,0.4,179.45730094480436,11.41238587871084,55.24239318105462,1525.0,1737.0,1200.0,1528.0,1475.0,1018.02,58.0,292.45,1637150865.7739456,1637150866.8502471,34383db5-694e-4482-b7d2-49fc08849d7c
-0.0303202847855187,0.0664459029180958,-0.018678209556681,-0.4685143387067782,-0.210142413961962,0.4148315503887916,-0.2087727579675014,-0.2227843393977322,-14.291269976609504,22.182547376503976,5.826185005261636,2.128891047180776,0.3556015454260766,0.6019808899840599,3348.21337890625,12.039222222222222,0.3977777777777778,179.44893016852154,11.411813281185418,55.212014017446215,1525.0,1737.0,1200.0,1528.0,1475.0,1018.02,58.0,292.45,1637150866.9581573,1637150868.0783894,34383db5-694e-4482-b7d2-49fc08849d7c
-0.0252388614072585,0.0656515025270889,-0.0143364003804665,-0.4902233894695331,-0.2138130920490999,0.4377184978831592,-0.2043487691002357,-0.2383162387330415,-14.315193912452877,22.805648332986777,6.153455718750242,2.2336783046667303,0.3528494603707435,0.5946659590768263,3349.2309841579863,12.031666666666666,0.4277777777777778,179.4518322400089,11.419246898595851,55.1616626217948,1525.0,1837.0,1200.0,1528.0,1475.0,1018.02,58.0,292.45,1637150868.6444826,1637150869.7173507,961d551b-e5f3-4eb2-be15-26b4e81f6501
-0.0331143828093252,0.0648844952441106,-0.0175003054981057,-0.4932640262940089,-0.2161415072601265,0.4406495611571149,-0.2047596659169035,-0.2297011026027326,-14.233209673823536,22.64677373460148,6.053030736593051,2.2459382471160727,0.350453614871559,0.6025965547341373,3347.342122395833,12.033333333333331,0.4099999999999999,179.461344416793,11.401554242188322,55.11959358942191,1525.0,1837.0,1200.0,1528.0,1475.0,1018.02,58.0,292.45,1637150869.8254063,1637150870.860875,961d551b-e5f3-4eb2-be15-26b4e81f6501
-0.0175140021619519,0.0706233532694276,-0.012350399340114,-0.488566105486016,-0.2109094213283617,0.4303360534171844,-0.202992809667724,-0.2180453297915523,-14.323265553149492,22.61711455091417,6.028712437661113,2.2121756681157545,0.3725783064917343,0.5865852385847177,3345.599609375,12.034,0.4111111111111111,179.44547409280153,11.405906685373177,55.04260521491735,1525.0,1837.0,1200.0,1528.0,1475.0,1018.02,58.0,292.45,1637150870.9740555,1637150872.0830386,961d551b-e5f3-4eb2-be15-26b4e81f6501
-0.0595761349415291,0.0748966795203048,0.0291227806966942,0.3088201947171325,-0.0807784084284283,-0.3505595518763851,-0.3737067400120978,-0.3878552884136909,-14.602094822630123,23.44078475963288,-0.5069414509869018,-1.3349660361393003,0.3529725252350602,0.5936274726693226,3346.90625,12.038444444444444,0.3788888888888889,179.43628672945795,11.375988559533749,54.92543256079586,1525.0,1334.0,1200.0,1528.0,1475.0,1018.02,58.0,292.45,1637150873.1985323,1637150874.2231505,7e935eaf-3049-4e9b-a7ed-2a04cd1717dc
-0.0525634966659704,0.0794850266148158,0.0349712112505985,0.308765408486974,-0.0770118546424344,-0.3534221331225518,-0.368940336750615,-0.3944981210161329,-14.489326613575622,23.495066032777306,-0.2424878075868501,-1.3405250841067895,0.367418050143535,0.5747231751002743,3349.521728515625,12.041,0.37,179.45124180810066,11.17397897950519,55.00252680323257,1525.0,1334.0,1200.0,1528.0,1475.0,1018.02,58.0,292.45,1637150874.3323982,1637150875.452041,7e935eaf-3049-4e9b-a7ed-2a04cd1717dc
-0.0644931996749656,0.0717464710664904,0.0258766962842788,0.3105185678740351,-0.0817919538091288,-0.3490940198483372,-0.3749394305127289,-0.3895536621113113,-14.607322524649918,23.293363153420007,-0.530499147992764,-1.3366491994257337,0.3409857291826376,0.6008451557081482,3350.831298828125,12.041,0.3711111111111111,179.48189417927583,11.174111504147836,55.13372676863449,1525.0,1334.0,1200.0,1528.0,1475.0,1018.02,58.0,292.45,1637150875.5605342,1637150876.6813862,7e935eaf-3049-4e9b-a7ed-2a04cd1717dc
-0.0529979515116041,0.0789623659448424,0.0437107113951766,0.4539894602413901,-0.0551280402694597,-0.4948073548129507,-0.4019906868384607,-0.4281171523119596,-14.55395478533625,24.012740345531835,-1.5025194782551576,-1.9821929301579009,0.359765434059191,0.5792356577794213,3349.9586588541665,12.037666666666668,0.4,179.4885741042841,11.128477018164476,55.26189944241427,1525.0,1234.0,1200.0,1528.0,1475.0,1018.02,58.0,292.45,1637150877.703513,1637150878.8412635,e2d7cb62-a9aa-4162-bf6e-1522824fadd6
-0.0664792007495011,0.0807588065545851,0.0464078377183475,0.4520724900608397,-0.0531661451469659,-0.4951541518279721,-0.4007985381460284,-0.4259180333538578,-14.665491284203,24.08796138476568,-1.53784806112826,-1.978076842260451,0.3680140020175402,0.571231501113937,3346.180447048612,12.037,0.4,179.50728426915052,11.13830945492966,55.33410972013946,1525.0,1234.0,1200.0,1528.0,1475.0,1018.02,58.0,292.45,1637150878.950029,1637150880.0757637,e2d7cb62-a9aa-4162-bf6e-1522824fadd6
-0.0588091276076808,0.0743899068580431,0.0379981507120193,0.4600301899207146,-0.058713251583206,-0.4955239589283057,-0.4093999786734325,-0.4278355509640982,-14.75409943906516,24.089096545360235,-1.5008995064431283,-1.9973084038548008,0.3429135552863251,0.6017856256011096,3347.3419596354165,12.035,0.4066666666666667,179.52656816990716,11.149227702045405,55.43203034772039,1525.0,1234.0,1200.0,1528.0,1475.0,1018.02,58.0,292.45,1637150880.1851013,1637150881.298229,e2d7cb62-a9aa-4162-bf6e-1522824fadd6
-0.0624661089502671,0.084826684414305,0.0541737864380454,0.5344846756710516,-0.0422088978975101,-0.5776485474983546,-0.4216720977504928,-0.4559271992796144,-14.71902262996,24.77202030057473,-1.9684686769320168,-2.344528651933087,0.3778236955333862,0.5757302653152901,3345.599609375,12.035555555555554,0.4044444444444444,179.5310897551377,11.102039822344556,55.530020415557885,1525.0,1133.0,1200.0,1528.0,1475.0,1018.02,58.0,292.45,1637150883.232835,1637150884.370138,a815b65f-5ca5-4dbc-bd34-dcd28c88d833
-0.0688487055126727,0.0792521851212952,0.0517631921341283,0.5509890272355964,-0.041907573585913,-0.5911807514850183,-0.4281779644625035,-0.4390667320573992,-14.801910765609549,24.86097309393013,-2.542762704892157,-2.411830716934679,0.3604092000660219,0.5864344561421562,3353.7471788194443,12.035777777777778,0.4011111111111111,179.53315702572652,11.11981112079128,55.62089380573519,1525.0,1133.0,1200.0,1528.0,1475.0,1018.02,58.0,292.45,1637150884.4785826,1637150885.600394,a815b65f-5ca5-4dbc-bd34-dcd28c88d833
-0.0719030381662503,0.087018133763737,0.0600496100583075,0.5625352250371011,-0.0338266037848444,-0.6125610863951315,-0.4247949137864975,-0.4408883746317107,-14.709475993881412,24.792393930674493,-2.9434730293891,-2.485979935133986,0.391536051606429,0.5598843802037462,3387.919731987847,12.03611111111111,0.4,179.5324345434943,11.113254708370498,55.69566616330904,1525.0,1133.0,1200.0,1528.0,1475.0,1018.02,58.0,292.45,1637150885.7092435,1637150886.7155569,a815b65f-5ca5-4dbc-bd34-dcd28c88d833
-0.0711223343659749,0.0822791245445064,0.0576390157567004,0.598132577401837,-0.0352236527996603,-0.6433920502753464,-0.4401213661909084,-0.4762118072183531,-14.788153499597565,25.31337275317092,-3.4004353063840167,-2.6323389797500165,0.3738420115517207,0.585720074278317,3420.361572265625,12.034333333333333,0.4066666666666667,179.4765757386421,11.084306469393216,55.699390134226505,1525.0,1033.0,1200.0,1528.0,1475.0,1018.02,58.0,292.45,1637150888.6501625,1637150889.788021,8105c30f-96ac-45d4-8a74-8544c4d4d785
-0.0647534342908875,0.0774579359590838,0.0565706841916586,0.5943386310363533,-0.0363741637475739,-0.6353795607341485,-0.4387517100078345,-0.4640355643219473,-14.751685390101898,25.354607122651988,-3.429098957884241,-2.6055416926240493,0.3561556447907157,0.5861447888649697,3421.423611111112,12.032555555555556,0.4122222222222222,179.47351277825433,11.088034234860228,55.68024966744241,1525.0,1033.0,1200.0,1528.0,1475.0,1018.02,58.0,292.45,1637150889.8965747,1637150891.0161889,8105c30f-96ac-45d4-8a74-8544c4d4d785
-0.0698485543163903,0.0819778002544866,0.0624191146952983,0.5913801746687182,-0.0316214577749414,-0.6371601139489175,-0.4323280226245933,-0.4459424055778234,-14.655136803834802,25.26700892327551,-3.392157570118682,-2.60310427818519,0.3728306492075995,0.5632299521113384,3421.72705078125,12.033,0.4177777777777777,179.47533112639337,11.085802660276403,55.69190728253581,1525.0,1033.0,1200.0,1528.0,1475.0,1018.02,58.0,292.45,1637150891.1242554,1637150892.2453785,8105c30f-96ac-45d4-8a74-8544c4d4d785
-0.0389765100754699,0.0716095054812654,0.0156590634619887,0.1003174919730308,-0.1122804948883979,-0.1504391097388894,-0.3256318110866967,-0.3562436251255394,-14.391267936204406,22.611210951648776,0.331502091532309,-0.4208676387980071,0.3565238877481131,0.5858830664884002,3420.5132921006943,12.034111111111107,0.3966666666666666,179.47146675714296,11.241060923528565,55.76740174288691,1525.0,1435.0,1200.0,1528.0,1475.0,1018.02,58.0,292.45,1637150893.1561117,1637150894.413066,a28fb7d1-f613-4010-bd18-d8d38feca72c
-0.0505090128085978,0.068897586895987,0.0150016286447913,0.0970303179677695,-0.1129242331791523,-0.1427553397850498,-0.3251935211398509,-0.3497103662771135,-14.476046069093194,22.67785481324529,0.6143972036982678,-0.3957746482546848,0.3448094646155792,0.5869873805113693,3431.3154296875,12.041,0.36,179.4765939524799,11.231562217395322,55.75595434583798,1525.0,1435.0,1200.0,1528.0,1475.0,1018.02,58.0,292.45,1637150894.5266812,1637150895.644717,a28fb7d1-f613-4010-bd18-d8d38feca72c
-0.0463315622643658,0.0721162781487946,0.017973781894128,0.0922228259563293,-0.1101301350580226,-0.1370575710161887,-0.320399724873778,-0.3546685212258156,-14.49815942571025,22.57609612764981,1.2742322844117309,-0.372559003922299,0.3519685230634044,0.5736092492520354,3426.443169487847,12.042444444444444,0.36,179.47601566313017,11.226651975428252,55.74121897161357,1525.0,1435.0,1200.0,1528.0,1475.0,1018.02,58.0,292.45,1637150895.7786858,1637150896.863346,a28fb7d1-f613-4010-bd18-d8d38feca72c
-0.0157334495197493,0.0881549481172018,0.0887575966850518,0.0779236189447437,-0.0477012180679251,-0.1418650634094424,-0.2460684911496697,-0.2707496934580324,-13.95276998855438,22.446219988973144,1.5102184042925118,-0.3481308240494112,0.4124172677266682,0.288843686456906,3355.063232421875,12.041444444444446,0.37,179.44991675140167,11.222479109300329,55.69616970003285,1525.0,1435.0,1200.0,1439.0,1475.0,1018.02,58.0,292.45,1637150897.6040845,1637150898.7073083,2c97c7cd-a546-43b5-a4d4-3da30cf01cd7
-0.035010534448758,0.0844322235314105,0.0858917288014113,0.0768980206420773,-0.050341914652886,-0.1384644815988958,-0.2474408864751612,-0.268781223698871,-13.894856680363429,22.45825287886581,1.3241845092985605,-0.3382392005709592,0.3996385011223621,0.297614637224023,3331.7301432291665,12.042666666666667,0.36,179.44243389971095,11.21940618821999,55.6800481768619,1525.0,1435.0,1200.0,1439.0,1475.0,1018.02,58.0,292.45,1637150898.8157356,1637150899.943072,2c97c7cd-a546-43b5-a4d4-3da30cf01cd7
-0.0205995629719538,0.0883636836713691,0.0896785532813081,0.0734267648560387,-0.0475149448568216,-0.1368866379420372,-0.2438907380688864,-0.2606684772291876,-13.939336644722909,22.454000296346965,1.670024659683656,-0.3266701660733864,0.4123008909250177,0.284451375923937,3319.3993326822915,12.043,0.37,179.4444009941919,11.217462050763736,55.639381230543634,1525.0,1435.0,1200.0,1439.0,1475.0,1018.02,58.0,292.45,1637150900.0763853,1637150901.160355,2c97c7cd-a546-43b5-a4d4-3da30cf01cd7
0.018809271870022,0.1048784459309483,0.1767990732152869,0.0676512000586497,0.0291501738117547,-0.1495214402389973,-0.1570545480372786,-0.1816398734530367,-13.339445921442069,22.586942625255546,2.082880022017413,-0.3364469024419572,0.4725726112290612,-0.0594654786633209,3314.265435112847,12.044,0.37,179.44272835675517,11.216070399720348,55.62538199892978,1525.0,1435.0,1200.0,1351.0,1475.0,1018.02,58.0,292.45,1637150902.16745,1637150903.2192235,28d395b5-65a9-413e-853f-fb46003dfb4e
0.009057322033835,0.0982493116720114,0.1707041048551995,0.0729654647673949,0.0249042406130472,-0.150069302629076,-0.1626975306349166,-0.1850092271139844,-13.329090863075592,22.60103230746661,1.7320821667150277,-0.3499264948260931,0.4497046999879413,-0.0385886870414573,3312.842041015625,12.041666666666666,0.3699999999999999,179.45450512070408,11.21597031847626,55.63236434953632,1525.0,1435.0,1200.0,1351.0,1475.0,1018.02,58.0,292.45,1637150903.3272498,1637150904.4482396,28d395b5-65a9-413e-853f-fb46003dfb4e
0.0147003042188958,0.1093161308408623,0.181538082312552,0.0648981917942399,0.0325332238038054,-0.154753526017827,-0.1538632496462636,-0.1862008278328122,-13.34201696874316,22.58865118082437,1.6276410710075395,-0.3418205503183006,0.4939090074343474,-0.0752085869590106,3314.4076877170137,12.041777777777778,0.37,179.45724478547118,11.21780412940467,55.63893537097282,1525.0,1435.0,1200.0,1351.0,1475.0,1018.02,58.0,292.45,1637150904.5821362,1637150905.5641158,28d395b5-65a9-413e-853f-fb46003dfb4e
0.0282735939390411,0.1213964952894264,0.2630052090041915,0.0674320551232618,0.1053030392342553,-0.1728329848485695,-0.0732589974296545,-0.1045830291545413,-12.684247518824998,22.710803641130465,1.690844030129666,-0.382955821453199,0.538856702453173,-0.39815270311836,3318.399658203125,12.040666666666665,0.37,179.43868184912688,11.20260022317596,55.603986051899774,1525.0,1435.0,1200.0,1262.0,1475.0,1018.02,58.0,292.45,1637150906.6728427,1637150907.924167,4d452bd2-dd37-4ef1-8656-0462439e4998
0.0416414352156066,0.1228346339130307,0.2649775133325585,0.069678290713471,0.1080697440281963,-0.1774213323847181,-0.0726289556987562,-0.0879280128569082,-12.776733646217489,22.668717259358274,1.5440436550626753,-0.3985841522850961,0.5460540389074207,-0.4055673117521749,3318.971110026041,12.038222222222224,0.37,179.4251975378855,11.20494146024146,55.57587261382104,1525.0,1435.0,1200.0,1262.0,1475.0,1018.02,58.0,292.45,1637150908.032038,1637150909.3589532,4d452bd2-dd37-4ef1-8656-0462439e4998
0.038806247561716,0.1208623295149602,0.2657034308942291,0.0690619455897322,0.1090285031093507,-0.1761064626238762,-0.0710264582853843,-0.0903112143931198,-12.75452214819255,22.65892343399125,1.3846181912987885,-0.3942821520163969,0.5400342130865646,-0.4105936528570373,3331.873372395833,12.041,0.3711111111111111,179.44447536736288,11.204155419304476,55.58179856183594,1525.0,1435.0,1200.0,1262.0,1475.0,1018.02,58.0,292.45,1637150909.4679234,1637150910.5815327,4d452bd2-dd37-4ef1-8656-0462439e4998
0.0581046986412064,0.1334494665781295,0.3390621940448477,0.0820188899197761,0.1739638856843231,-0.2038967826171921,-0.0043105192961923,-0.0418801810343371,-12.2497329595736,22.995809272161424,1.4159268888583678,-0.4798132812297936,0.5864543586024757,-0.6921277846786819,3350.8321940104165,12.04,0.3733333333333333,179.4266151815932,11.214928999219048,55.54479790928216,1525.0,1435.0,1200.0,1173.0,1475.0,1018.02,58.0,292.45,1637150911.7009013,1637150912.84266,9340ef28-3d7c-41cd-abd4-8c4f2e7da3e0
0.0741707618062884,0.1386130690383666,0.3475814528665249,0.0777455636713749,0.1801684264820611,-0.2071154742142641,0.0029623534194156,-0.0213079492268978,-12.215535967960058,23.03847065549189,1.178452320221223,-0.4767201652174369,0.6087506375007573,-0.7222875058660119,3355.933159722222,12.039666666666667,0.3788888888888889,179.41513894596775,11.208254007125175,55.532938803608246,1525.0,1435.0,1200.0,1173.0,1475.0,1018.02,58.0,292.45,1637150912.9516537,1637150914.095129,9340ef28-3d7c-41cd-abd4-8c4f2e7da3e0
0.0596661063139876,0.1344082256560939,0.3445819067682977,0.0822106417380839,0.1793603295776697,-0.2065539152606964,0.0010037455510979,-0.0360865365059156,-12.2391279347393,22.96695333847215,1.2389506974927864,-0.486156075545618,0.5918695860485258,-0.7146809519084253,3353.890625,12.038333333333334,0.3833333333333333,179.4182322627519,11.201783730978926,55.5063792335657,1525.0,1435.0,1200.0,1173.0,1475.0,1018.02,58.0,292.45,1637150914.2054777,1637150915.3027418,9340ef28-3d7c-41cd-abd4-8c4f2e7da3e0
-0.0754367505381386,0.0608851001503674,-0.0726563488103732,0.0998655055630197,-0.194405066578062,-0.1298668772473595,-0.4172344118065796,-0.4411486087627916,-15.152118663617031,22.85970627128547,1.0109956959476347,-0.3766444050221088,0.3101247644200295,0.9475685961202784,3354.765625,12.04188888888889,0.3755555555555555,179.45103538460577,11.211408795611812,55.61565011772738,1525.0,1435.0,1200.0,1617.0,1475.0,1018.02,58.0,292.45,1637150916.2063093,1637150917.3401346,9a28f9a3-9679-4e3f-81bb-111abca325f4
-0.0655023621219952,0.0565306902516399,-0.0785458692839766,0.1036819145754397,-0.1989090433505096,-0.128471471776648,-0.4217663300789512,-0.4521135279030953,-15.079200765456225,22.824418540421767,1.0623048400485582,-0.3825999277623552,0.2919783889477848,0.96782814758971,3357.2477213541665,12.040777777777778,0.36,179.4285579909571,11.20870717120386,55.60214607482836,1525.0,1435.0,1200.0,1617.0,1475.0,1018.02,58.0,292.45,1637150917.4487605,1637150918.5780704,9a28f9a3-9679-4e3f-81bb-111abca325f4
-0.0859146182503095,0.0586525611019908,-0.0764913853923302,0.1038238109270623,-0.1969115370390171,-0.1293874976763216,-0.4206996418617816,-0.4489419525943477,-15.15914895831376,22.8310381194478,1.2584605012097647,-0.3848412376398167,0.29887691081198,0.9612642718733612,3361.636528862847,12.042555555555555,0.36,179.4150812688148,11.204459837041234,55.548209968227546,1525.0,1435.0,1200.0,1617.0,1475.0,1018.02,58.0,292.45,1637150918.6955426,1637150919.695795,9a28f9a3-9679-4e3f-81bb-111abca325f4
-0.1114450049291941,0.0404087450423515,-0.1733671506942405,0.1315593415317114,-0.284870846656739,-0.1335512517627777,-0.5269164795603644,-0.5397090698004053,-15.743175483175127,23.228256639821435,0.9726635361635706,-0.4592924093740279,0.2275686080576165,1.3614116512530414,3365.302978515625,12.041,0.3611111111111111,179.3920149610777,11.183477685638431,55.52006503538764,1525.0,1435.0,1200.0,1706.0,1475.0,1018.02,58.0,292.45,1637150921.6224203,1637150922.6691043,baa8ec03-a3c3-4b63-ab4f-2ee7550505fd
-0.1117189360892207,0.0362449912113997,-0.1786677193374835,0.1309156032805379,-0.2886510973623018,-0.1277713036584233,-0.5320389939036193,-0.557021525350491,-15.9493019656568,23.276402946317315,1.0904115225827136,-0.4448817328134996,0.2121113614881541,1.3805718216699951,3366.62451171875,12.041,0.37,179.34663973769162,11.17515462581608,55.428992810814506,1525.0,1435.0,1200.0,1706.0,1475.0,1018.02,58.0,292.45,1637150922.7773192,1637150923.9902096,baa8ec03-a3c3-4b63-ab4f-2ee7550505fd
-0.1063361882418032,0.0443807470465328,-0.1709565561590355,0.1311210516644611,-0.2827204866553277,-0.1366603707912369,-0.5254783404791102,-0.5500773676222439,-15.779960353915447,23.182338764324992,1.0420886649356786,-0.4654821538388181,0.2423170746039551,1.3537170825807312,3365.009467230903,12.03977777777778,0.37,179.33489940141828,11.17874265699632,55.4197933049124,1525.0,1435.0,1200.0,1706.0,1475.0,1018.02,58.0,292.45,1637150924.0987155,1637150925.2286975,baa8ec03-a3c3-4b63-ab4f-2ee7550505fd
-0.1453987759492478,0.026931331304298,-0.2618743217104378,0.1698549182417628,-0.362859063639932,-0.150548682209292,-0.629339376250119,-0.6436385893990993,-16.53878419447041,23.59187214590133,0.956928887439376,-0.5862729561635645,0.1724709698299756,1.7320850157094636,3366.62451171875,12.041,0.36,179.3084134456368,11.171715720432717,55.350466505381824,1525.0,1435.0,1200.0,1795.0,1475.0,1018.02,58.0,292.45,1637150926.2429435,1637150927.2663734,6f2c425d-2ede-4d2f-bc77-6911ec0a977c
-0.1467547353758051,0.023603067531905,-0.2645314544686197,0.1683209037319375,-0.3653929274751258,-0.144261961371052,-0.6291613209871624,-0.6626220264278767,-16.40910900858365,23.56211098996413,1.176221125420931,-0.5689148602583695,0.157146483698161,1.7389007027673606,3366.037163628472,12.04044444444444,0.37,179.28630943566282,11.156272662719315,55.34894564992663,1525.0,1435.0,1200.0,1795.0,1475.0,1018.02,58.0,292.45,1637150927.3749993,1637150928.5025375,6f2c425d-2ede-4d2f-bc77-6911ec0a977c
-0.1440839062308771,0.026150627459655,-0.2614908180446889,0.165704861132449,-0.3628727602245397,-0.1469464870236791,-0.6261891667303684,-0.6605812384231227,-16.38717498570802,23.504282626275867,0.8309287187084688,-0.5693221450668721,0.1701203268398617,1.7269290929761023,3363.6888292100693,12.04022222222222,0.3677777777777777,179.27333511187942,11.141960760223462,55.30913399507444,1525.0,1435.0,1200.0,1795.0,1475.0,1018.02,58.0,292.45,1637150928.6149666,1637150929.7303686,6f2c425d-2ede-4d2f-bc77-6911ec0a977c
-0.1665736571801917,0.0199186932388807,-0.3121133056708696,0.1972754275146334,-0.4101669861333506,-0.1662723327327498,-0.6913163264438044,-0.7263110486732703,-16.839078766983594,24.11295468007448,0.8976968303055853,-0.6826678986912814,0.1422675987558385,1.952127842030088,3357.1017795138887,12.038222222222222,0.3644444444444444,179.26340553464604,11.123446963295711,55.29504179699688,1525.0,1435.0,1200.0,1883.0,1475.0,1018.02,58.0,292.45,1637150930.6353428,1637150931.687474,0cfb6dd0-2fc0-420e-8ac9-a27f3475ceac
-0.1702580318179717,0.0174533126541445,-0.3102094841209687,0.1952072472497338,-0.4074961570204586,-0.1632179999222401,-0.6877278272516305,-0.7125460027889226,-16.85685267020615,24.054063662815764,0.7398019770817726,-0.6714688114229975,0.1349204706815355,1.940258297825146,3349.521728515625,12.03188888888889,0.4055555555555555,179.24637863195508,11.11200895775688,55.25717408987347,1525.0,1435.0,1200.0,1883.0,1475.0,1018.02,58.0,292.45,1637150931.823233,1637150932.796211,0cfb6dd0-2fc0-420e-8ac9-a27f3475ceac
-0.1618757372195657,0.0164123741934794,-0.3127159544655087,0.1949607091849947,-0.4089342957142072,-0.1623277235783561,-0.6885907104150736,-0.7247907297486011,-16.81566416230193,23.935615436445584,0.6773673879151252,-0.6698113444163253,0.1311476010775927,1.9467234951185053,3349.521728515625,12.033,0.4077777777777778,179.22286153173283,11.102925754798148,55.185239675899766,1525.0,1435.0,1200.0,1883.0,1475.0,1018.02,58.0,292.45,1637150932.9041398,1637150934.1413567,0cfb6dd0-2fc0-420e-8ac9-a27f3475ceac
-0.0608082774148775,0.0558864041261368,-0.0221116629583805,0.0672337289483069,-0.1144023658789553,-0.1125089535221657,-0.3200085511257627,-0.350592424257784,-14.9217433495954,18.91168244558989,-0.8730063908773846,-0.2878690343274544,0.313598916083298,0.6295084147710941,6997.08251953125,11.811555555555554,8.574444444444444,178.26888749253737,10.949613810868223,49.04002968718008,1525.0,1435.0,1350.0,1528.0,1475.0,1018.02,58.0,292.45,1637150939.1890645,1637150940.1666403,90c2a4e0-5b6d-4791-85a2-ed52e32fc06b
-0.0535222558161559,0.0549407937272215,-0.0258415098860229,0.0705548704373757,-0.1144993375167112,-0.1126639986018921,-0.3227692299037805,-0.3517648499714587,-15.100341412605085,18.68981045039145,-0.6135298699673107,-0.2974142002351607,0.3083675226751036,0.6389021362755507,7005.343967013889,11.811,8.598888888888887,178.05672663871857,10.89706783749098,46.56261610455909,1525.0,1435.0,1350.0,1528.0,1475.0,1018.02,58.0,292.45,1637150940.274892,1637150941.5109246,90c2a4e0-5b6d-4791-85a2-ed52e32fc06b
-0.0650273654900952,0.049914156726811,-0.0260743513975432,0.0666102616034104,-0.1162798902639398,-0.112225708668201,-0.321988525963292,-0.3356166046654021,-14.930210697465206,18.80232373047699,-1.7672089099243953,-0.2868952266046206,0.2990082756183099,0.6383359721329033,7014.2607421875,11.809111111111111,8.621111111111112,177.98951302382622,10.87155167370789,44.36632551907675,1525.0,1435.0,1350.0,1528.0,1475.0,1018.02,58.0,292.45,1637150941.619643,1637150942.6317606,90c2a4e0-5b6d-4791-85a2-ed52e32fc06b
0.0363545635591384,0.2211896177759416,-0.0309503263936328,-0.0114190333658924,-0.1575750173136199,-0.1972265579517624,-0.3664612592093982,-0.380294786877941,-15.18944989075976,18.359971242699768,-0.3923274333719526,-0.304975041714433,0.9403351441274768,0.7865272017744758,7017.451931423611,11.805222222222222,8.663333333333334,178.0594298758101,10.904818679242869,40.24342032765672,1610.0,1435.0,1350.0,1528.0,1542.0,1018.02,58.0,292.45,1637150944.674914,1637150946.0165193,b2d22fb7-8f6f-4adb-ba0c-27d9edce4c88
0.0204117692147735,0.2245589710287389,-0.0308818436227729,-0.0071183138759109,-0.1563971131955316,-0.1982811930814099,-0.3663653833289906,-0.3809248284836967,-15.202763676728052,18.24139462308592,0.491647295332227,-0.3176947570454331,0.9447046732003178,0.7864245224140541,7020.0048828125,11.804222222222222,8.651111111111113,178.17197469731394,10.953811246704417,39.0726875789662,1610.0,1435.0,1350.0,1528.0,1542.0,1018.02,58.0,292.45,1637150946.1257124,1637150947.1322448,b2d22fb7-8f6f-4adb-ba0c-27d9edce4c88
0.0379981505944221,0.2260655924062317,-0.0277179384839418,-0.0072689760126385,-0.1534934425351525,-0.1983359793007568,-0.3628042774026208,-0.3764186597821171,-15.162539017626733,18.205905218586903,0.6999725392890999,-0.3175022780073837,0.9484428603256374,0.7736041112559041,7025.75927734375,11.802444444444443,8.686666666666666,178.2940817836558,10.991197899810032,37.93549940710942,1610.0,1435.0,1350.0,1528.0,1542.0,1018.02,58.0,292.45,1637150947.2403038,1637150948.3615606,b2d22fb7-8f6f-4adb-ba0c-27d9edce4c88
0.1309566928425946,0.4236932230730246,-0.0388943306338814,-0.1181837120539431,-0.2146896719355953,-0.2923491686987482,-0.422206263708504,-0.4432852727885462,-15.338462208416344,18.22270804560269,0.0729100639461989,-0.2791996315646265,1.709417151235292,0.9786921254042532,7037.2958984375,11.799333333333331,8.703333333333333,178.5866931589784,11.088241227537576,36.20806108592333,1695.0,1435.0,1350.0,1528.0,1609.0,1018.02,58.0,292.45,1637150950.2036068,1637150951.3421,2e18af07-1d69-48e9-a78f-fbbe360c282f
0.1203544610315125,0.4202762059167045,-0.0430706854142423,-0.1136660388754552,-0.2142141273435011,-0.2887935416008422,-0.4228182260243718,-0.4370188221960067,-15.415421126221894,17.901318477631115,0.6792769368001826,-0.283680992210221,1.690945309931693,0.985168015692934,7039.223307291667,11.797666666666666,8.703333333333333,178.71233221203107,11.125390626433273,35.730591020169285,1695.0,1435.0,1350.0,1528.0,1609.0,1018.02,58.0,292.45,1637150951.4503727,1637150952.4189672,2e18af07-1d69-48e9-a78f-fbbe360c282f
0.1304088305291157,0.4258846722649954,-0.0379903577274384,-0.1180193533238998,-0.2120599323744594,-0.2926230999216552,-0.4187547301546043,-0.4327663133621837,-15.274414362182036,17.94847781737978,0.3802729414649037,-0.2818776026504458,1.7144913739749077,0.9698213164268564,7043.078125,11.796,8.79,178.85276545482597,11.161759391625084,35.310069933349936,1695.0,1435.0,1350.0,1528.0,1609.0,1018.02,58.0,292.45,1637150952.526981,1637150953.6014922,2e18af07-1d69-48e9-a78f-fbbe360c282f
0.2131497381315144,0.564096632571558,-0.045331713383962,-0.2372479065766512,-0.2612442799566045,-0.3111819396168716,-0.4482845169668703,-0.4797592168681602,-15.249086799241873,18.087287049014783,1.241654313845318,-0.0539266973935103,2.239273131837732,1.1057172753268525,7043.078125,11.796555555555557,8.77111111111111,179.11189068937773,11.229608878156435,34.50399756935181,1769.6666666666667,1435.0,1350.0,1528.0,1669.4444444444443,1018.02,58.0,292.45,1637150955.7337818,1637150956.7582197,fe10f949-c190-4e74-a043-595a5966a955
0.2020867543445571,0.5565887277256709,-0.0411378270016542,-0.237881783284402,-0.2548173059870356,-0.2940267234935405,-0.4392935460142982,-0.4701272463288689,-15.344394214831416,18.04860007113928,2.602567456628813,-0.0138254366196211,2.200070005224698,1.079400208678405,7043.078125,11.793333333333331,8.752222222222223,179.21176171542166,11.266440768119468,34.209142097431894,1779.0,1435.0,1350.0,1528.0,1677.0,1018.02,58.0,292.45,1637150956.866599,1637150957.9878318,fe10f949-c190-4e74-a043-595a5966a955
0.1974671792517618,0.5534270144403493,-0.0451125684580167,-0.2490680379629587,-0.2607649003584949,-0.2862678959042526,-0.4408746771471909,-0.4564065789624975,-15.246288748153791,18.12791671628065,1.7784450960287483,0.0290890328148872,2.195948102538583,1.0935633039945054,7037.938368055556,11.789666666666667,8.81,179.29476065639585,11.271898089266308,33.93336903568814,1779.0,1435.0,1350.0,1528.0,1677.0,1018.02,58.0,292.45,1637150958.0963852,1637150959.1242406,fe10f949-c190-4e74-a043-595a5966a955
0.2751540557235898,0.6730253524876862,-0.0328267551277976,-0.3437386648928406,-0.2858980888726523,-0.296307474920433,-0.4502705185599692,-0.4766500970045902,-15.37994414005864,18.561737274583187,4.622153312631216,0.2239561233683567,2.632699044093281,1.141806989180988,7025.75927734375,11.787,8.8,179.5081084453103,11.333399484146565,33.55678427906976,1864.0,1435.0,1350.0,1528.0,1744.0,1018.02,58.0,292.45,1637150961.1510804,1637150962.1976588,50a510bc-b4d0-4f76-be80-01521ad29464
0.2634648654311901,0.676031472873299,-0.0430049419489084,-0.3710123527745371,-0.300127719423516,-0.2822586388630979,-0.4565709368681692,-0.4834074328056432,-15.321014217184825,18.55988196087687,3.404770455585677,0.316364992695177,2.6570590657928985,1.18248226666572,7031.52294921875,11.784,8.906666666666666,179.58550663116512,11.331728269665897,33.48194058396458,1864.0,1435.0,1350.0,1528.0,1744.0,1018.02,58.0,292.45,1637150962.3063433,1637150963.42515,50a510bc-b4d0-4f76-be80-01521ad29464
0.2589548628769416,0.6735595182201353,-0.0441620272998512,-0.361650479358484,-0.2991021210020881,-0.2826399511046405,-0.4584906469417997,-0.4794233769575055,-15.414314700085669,18.56426476982144,4.219867078735258,0.2944444454930247,2.639997984273044,1.186261412223149,7031.52294921875,11.783666666666669,8.865555555555554,179.63240726346586,11.338349474020056,33.38250782839239,1864.0,1435.0,1350.0,1528.0,1744.0,1018.02,58.0,292.45,1637150963.533713,1637150964.5403736,50a510bc-b4d0-4f76-be80-01521ad29464
-0.1607663158951541,-0.1427005535469678,-0.0127475995530642,0.1317237002028864,-0.0627400399677344,0.0234524053549941,-0.253793351141622,-0.280214017352107,-14.763081026357606,19.159069725582903,-0.477221731187855,-0.125570097147728,-0.4431959860119681,0.4292059290735933,7037.2958984375,11.806888888888889,8.664444444444445,179.93416046753757,11.344776017982868,33.14873929167935,1440.0,1435.0,1350.0,1528.0,1408.0,1018.02,58.0,292.45,1637150966.6803155,1637150967.7267864,9373a479-e8f9-493c-921a-2e99a6abe63a
-0.1470900270818692,-0.1495225359637385,-0.011106203945044,0.1348311753461633,-0.0594934076135975,0.0268540826874296,-0.2510041836464958,-0.284980419690469,-14.81475809802538,19.19172116018232,-0.5201296345482268,-0.1246704484117343,-0.4683145057574192,0.417667043796146,7040.508246527777,11.804222222222222,8.726666666666668,179.9421593779656,11.321044715439136,33.06428741768673,1440.0,1435.0,1350.0,1528.0,1408.0,1018.02,58.0,292.45,1637150967.8349955,1637150968.9506297,9373a479-e8f9-493c-921a-2e99a6abe63a
-0.15991712913957,-0.1469738801442713,-0.0146651178048478,0.1347095499064777,-0.0626578606282346,0.0228497567791973,-0.2551219175125367,-0.2686404231290886,-14.82218336810925,19.10350637783485,-0.7785941411185017,-0.1342012812293856,-0.4566243157589948,0.432664902302343,7043.078125,11.803555555555556,8.72777777777778,179.98140564493647,11.317718223585862,33.11525618654813,1440.0,1435.0,1350.0,1528.0,1408.0,1018.02,58.0,292.45,1637150969.0596056,1637150970.1894102,9373a479-e8f9-493c-921a-2e99a6abe63a
-0.2499172247621919,-0.324275851570137,-0.0076524796686765,0.1998914700639487,-0.0197602377282043,0.1442423544383626,-0.2012670431349263,-0.2319336418035719,-14.707972075064376,19.670819460595304,0.5406779998504182,-0.0040725877070753,-1.141686646858392,0.2688256415641823,7043.078125,11.795666666666667,8.813333333333334,-179.94765388569792,11.32732336683367,33.16002542037289,1355.0,1435.0,1350.0,1528.0,1341.0,1018.02,58.0,292.45,1637150972.2100556,1637150973.460333,c1c3b5ea-b85c-415e-9c78-0bf5755aa114
-0.2628878673100012,-0.3262755494349216,-0.0061732512913374,0.1973713034002632,-0.0185275474122675,0.1440642992027469,-0.2001302286451788,-0.2145664035414508,-14.76349510725933,19.727111603404826,-0.0830062884283275,0.0015316323041338,-1.1428610368461385,0.2623060957402336,7043.078125,11.797,8.78,-179.94509028802943,11.33816780996088,33.19585317766419,1355.0,1435.0,1350.0,1528.0,1341.0,1018.02,58.0,292.45,1637150973.568923,1637150974.6957762,c1c3b5ea-b85c-415e-9c78-0bf5755aa114
-0.2508858454897739,-0.3213628670290736,-0.0048605730930187,0.1973137778687212,-0.0181144591985219,0.1386179997854664,-0.1989616381578276,-0.2350942596206159,-14.612162843249845,19.628508658702348,-0.1704993257779183,-0.0111032244947991,-1.1246425077374622,0.2589071341635078,7048.2265625,11.795555555555556,8.787777777777778,-179.93480250531957,11.336837820347498,33.28569179418223,1355.0,1435.0,1350.0,1528.0,1341.0,1018.02,58.0,292.45,1637150974.8286417,1637150975.9190304,c1c3b5ea-b85c-415e-9c78-0bf5755aa114
-0.3414277809289444,-0.4767410416187927,-0.0037823799880868,0.2548787672986025,0.0111545391999442,0.2464767508531554,-0.1593972076353603,-0.1826046587221711,-14.41927420579919,20.459564141507908,1.200008178736657,0.1072956941078469,-1.7279221598483756,0.144671436515566,7044.365234375,11.789555555555555,8.854444444444445,-179.92122257142978,11.325180489845318,33.274845833235204,1271.0,1435.0,1350.0,1528.0,1273.0,1018.02,58.0,292.45,1637150976.6373105,1637150977.761466,49f513bc-50b7-44fb-b28e-9e288a5a3520
-0.3572062190444135,-0.4791341049249651,-0.0040585026229166,0.2593493237497181,0.0115490000837544,0.2439653499918658,-0.1610144974193622,-0.1790150642879792,-14.47695815572427,20.52975538920258,1.0871217019887984,0.0919722867929356,-1.7360555548961778,0.1463345014929801,7048.8701171875,11.79188888888889,8.796666666666667,-179.95079729053592,11.32481146990266,33.29349566476393,1271.0,1435.0,1350.0,1528.0,1273.0,1018.02,58.0,292.45,1637150977.8692007,1637150978.9905422,49f513bc-50b7-44fb-b28e-9e288a5a3520
-0.327631509146397,-0.4688430561615695,-0.0062691272047944,0.2428986620248026,0.0039895953664194,0.2513631347909955,-0.1633960552178017,-0.1942817980368746,-14.402634051625393,20.65218003754271,1.399005992111458,0.1464933818815715,-1.6988607724617122,0.1645774331028733,7042.435655381944,11.791333333333334,8.834444444444443,-179.95649366830372,11.311987694872222,33.36223430911598,1271.0,1435.0,1350.0,1528.0,1273.0,1018.02,58.0,292.45,1637150979.0990963,1637150980.2176769,49f513bc-50b7-44fb-b28e-9e288a5a3520
-0.381897283761325,-0.5793195280427794,-0.0001193723527063,0.2728530338391611,0.030780064243698,0.3496222397920119,-0.1248813296878555,-0.1446317692932998,-14.464050763520468,21.148313403415383,4.064934273263869,0.3037141801725431,-2.139697822405657,0.0552767529694326,7035.37158203125,11.780333333333331,8.906666666666666,-179.9333195953598,11.305620535609693,33.495747431916804,1186.0,1435.0,1350.0,1528.0,1206.0,1018.02,58.0,292.45,1637150981.2212791,1637150982.3589928,a94d82ab-9be2-4cb2-be2d-43de99e5d61c
-0.3705976208684206,-0.5696497547121006,0.001757056244997,0.2701137223809071,0.0293145324857991,0.3370898896432922,-0.1265523099124459,-0.1573147839393865,-14.323736362269564,21.18160256441224,3.271794524962862,0.2819898426768485,-2.096937038500525,0.0572060353660583,7032.164388020833,11.780333333333331,8.836666666666666,-179.97838821914314,11.297499535550289,33.52884501081487,1186.0,1435.0,1350.0,1528.0,1206.0,1018.02,58.0,292.45,1637150982.467471,1637150983.5888653,a94d82ab-9be2-4cb2-be2d-43de99e5d61c
-0.388841988175238,-0.5678220853649174,0.0002542697644332,0.2668835262149879,0.0262360939145493,0.3385965109864414,-0.1297074494070361,-0.1526650756741091,-14.400051610178055,21.324899707480995,3.298433834166424,0.2935028897987191,-2.089473262332927,0.0680579067696251,7025.75927734375,11.780666666666663,8.899999999999999,179.986001603338,11.289101153919583,33.46266503121689,1186.0,1435.0,1350.0,1528.0,1206.0,1018.02,58.0,292.45,1637150983.7202256,1637150984.7243814,a94d82ab-9be2-4cb2-be2d-43de99e5d61c
-0.0353261031001065,0.0570697867930177,-0.0343136534225328,0.0261046070029643,-0.1251842974917967,-0.065502362030526,-0.3148805588123542,-0.3395869632058369,-14.968839882832617,18.24811194124798,0.5703184451375446,-0.094261823983808,0.3098575870386132,0.6555829369228457,7025.75927734375,11.793333333333331,8.860000000000001,19.90933966114758,11.275915094271925,33.67707795018699,1374.3333333333333,1435.0,1350.0,1528.0,1355.4444444444443,1018.02,58.0,292.45,1637150985.6652958,1637150986.6168668,6aaf71a3-0580-46cd-b550-8be2c4414055
-0.0302112601446781,0.0612905182799422,-0.0287780521466796,0.0228963250902223,-0.1214369188212024,-0.0650027115547561,-0.3098972021706044,-0.3323946252907275,-14.948669293272395,18.28993699782407,0.8489937830266427,-0.0852944695275039,0.323821886436739,0.6367105652046702,7027.040093315973,11.805222222222222,8.70888888888889,179.817441641541,11.279145014839433,33.772561718054035,1525.0,1435.0,1350.0,1528.0,1475.0,1018.02,58.0,292.45,1637150986.730954,1637150987.6960928,6aaf71a3-0580-46cd-b550-8be2c4414055
-0.0702753391035859,0.0577403703007724,-0.0322361593478527,0.0296810524069876,-0.1234486694660193,-0.0656338489961802,-0.3148674100738746,-0.3465294760139856,-15.067675754639763,18.37979378564225,1.1198664909838651,-0.101610647482361,0.3078951867474946,0.6511328000697664,7025.75927734375,11.802666666666664,8.796666666666665,179.799452441087,11.274116003471793,33.84825387443612,1525.0,1435.0,1350.0,1528.0,1475.0,1018.02,58.0,292.45,1637150987.805482,1637150988.9126403,6aaf71a3-0580-46cd-b550-8be2c4414055
-0.0526182828975318,0.0564748082902336,-0.0483860460288934,-0.1962951918649473,-0.1630262480798516,0.1494470465858872,-0.2691471952913682,-0.3027859490202544,-14.866046942250865,17.88695038252244,2.0558067477592608,0.8876312996427345,0.3202166031583316,0.6614859452916675,7028.320909288194,11.804444444444446,8.736666666666666,179.71751293834404,11.312410597418332,33.74082448516567,1525.0,1535.0,1350.0,1528.0,1475.0,1018.02,58.0,292.45,1637150990.754979,1637150991.8887513,d0d8edd6-5d02-4f1a-aee9-62ec6c418585
-0.050659674964827,0.0475583486460636,-0.0462356862793917,-0.1871458898846952,-0.1585748661859644,0.1500223020189773,-0.2672570699552379,-0.2920615417757637,-14.954549808024202,17.99001646830052,2.10805489899677,0.8690394813975626,0.2859493801816435,0.6487715178348737,7029.601725260417,11.808,8.666666666666666,179.69944936471907,11.30700364891662,33.737627197724194,1525.0,1535.0,1350.0,1528.0,1475.0,1018.02,58.0,292.45,1637150991.9974957,1637150993.0146008,d0d8edd6-5d02-4f1a-aee9-62ec6c418585
-0.0437018229396066,0.0552832076910187,-0.0442085955222514,-0.19588429511322,-0.1588624939456676,0.1431740228993169,-0.2675036080568398,-0.2944173502535165,-15.001881511869025,17.974838296021428,1.0745284568783606,0.8731739270756194,0.3256215532733704,0.6461246680023879,7048.8701171875,11.805444444444444,8.72,179.6713621090322,11.306235632089946,33.73340348463244,1525.0,1535.0,1350.0,1528.0,1475.0,1018.02,58.0,292.45,1637150993.1447875,1637150994.351534,d0d8edd6-5d02-4f1a-aee9-62ec6c418585
-0.0392049687061995,0.0487992568558729,-0.058231132728818,-0.4479453901699144,-0.2006315227428695,0.3949123728751869,-0.2126625810255861,-0.2452187571657828,-14.84937998053092,17.75686153428502,3.119706890711139,2.0057112428865453,0.3122385273007632,0.6441339192424883,7048.8701171875,11.80188888888889,8.738888888888889,179.65732379355808,11.383938710000168,33.730042272650884,1525.0,1636.0,1350.0,1528.0,1475.0,1018.02,58.0,292.45,1637150995.1479578,1637150996.1988647,6b4d1240-8492-4d87-9707-06746aa72310
-0.0222694474163384,0.0507715612902205,-0.0563903151691149,-0.4476561187420341,-0.1981464188935685,0.3942812355215692,-0.2103615589439382,-0.2253247769979916,-14.866560557687704,17.654337199046566,3.3597023428612283,2.00308209013009,0.3177097381123689,0.6355734567597744,7048.8701171875,11.808777777777776,8.646666666666667,179.6488376629693,11.385149740485506,33.73064560602757,1525.0,1636.0,1350.0,1528.0,1475.0,1018.02,58.0,292.45,1637150996.3072224,1637150997.4308884,6b4d1240-8492-4d87-9707-06746aa72310
-0.0291971669404068,0.0459421547226092,-0.058754341294302,-0.4485173586224824,-0.2010752912721446,0.4006556133695931,-0.2104163451874705,-0.24602740220875,-14.706853209266251,17.72280404893583,3.46938660950167,2.019782953660508,0.2974513605556052,0.642509495576864,7048.8701171875,11.805555555555555,8.685555555555556,179.6329263578428,11.381435445669355,33.787395371111494,1525.0,1636.0,1350.0,1528.0,1475.0,1018.02,58.0,292.45,1637150997.5682476,1637150998.5412948,6b4d1240-8492-4d87-9707-06746aa72310
-0.0361002327483667,0.0405183175066718,-0.0696704989287958,-0.6987809538166211,-0.2425895648654228,0.6441393132383996,-0.1593966597671534,-0.1830917086559465,-14.752755556544804,17.92394953391947,4.717808999255328,3.1324224591975143,0.2964930130273623,0.6400877161555297,7048.8701171875,11.79977777777778,8.714444444444446,179.61393843195015,11.445366206028154,33.742472078575446,1525.0,1737.0,1350.0,1528.0,1475.0,1018.02,58.0,292.45,1637150999.1386902,1637151000.1965358,37fb0bc0-90d7-4858-8f46-bcbd7442e649
