raw_voltage_G-,raw_voltage_G0,raw_voltage_G1,raw_voltage_G2,raw_voltage_G3,raw_voltage_G4,raw_voltage_G5,raw_voltage_G6,load_x,load_y,load_z,load_l,load_m,load_n,rpm,voltage,current,roll,pitch,yaw,aileron1_pwm,elevator_pwm,throttle_pwm,rudder_pwm,aileron2_pwm,pbaro,pdiff,Tt,sample_start_time,sample_end_time,uid
0.0112624679930932,0.1499812123619384,-0.008337307582249,-0.1111436804671612,-0.1203477683969909,0.1775112942297138,-0.2258934580216718,-0.2430689451246907,-14.092591938068637,16.54465435218722,30.532172349223828,0.7566390159561522,0.4050949739604849,0.540497471241387,3050.745551215278,12.04588888888889,0.3988888888888889,178.6819348345849,-8.01546320171876,101.64905709411462,1525.0,1435.0,1200.0,1528.0,1475.0,1018.02,58.0,292.45,1637149997.6731677,1637149998.690418,290d56d6-4f1c-4b63-badd-20e5cf5950e5
0.0149605388479293,0.1439821198654058,-0.0110218331241826,-0.1056787532677615,-0.1214434931587476,0.1793192399044335,-0.2276192245879984,-0.2622578259985492,-14.06753214207498,16.563537900684825,30.65154462585109,0.7483973274102641,0.380516655267954,0.5476064806836846,3371.362006293403,12.048,0.4,178.81194976216582,-8.139234198033424,101.50053994298206,1525.0,1435.0,1200.0,1528.0,1475.0,1018.02,58.0,292.45,1637149998.7988064,1637150000.0359623,290d56d6-4f1c-4b63-badd-20e5cf5950e5
0.0190010236683864,0.1499675157969585,-0.0097206600365633,-0.1104999421788605,-0.1212928310044458,0.1776482598140227,-0.2268248241209259,-0.2416581994166483,-14.07703387154876,16.500762117911105,30.6254806560798,0.7551575368278346,0.4039387986601968,0.5451608937532831,3416.271728515625,12.047,0.4,178.9121607798484,-8.244548031072203,101.40672577691213,1525.0,1435.0,1200.0,1528.0,1475.0,1018.02,58.0,292.45,1637150000.1713066,1637150001.147391,290d56d6-4f1c-4b63-badd-20e5cf5950e5
0.1135346706977728,0.3094913260514542,0.0101804399513287,-0.1879813800200367,-0.1406323730568631,0.0931815850517723,-0.2421923646038559,-0.2616688742241731,-13.788324860711256,16.21901462332268,30.71449925865268,0.7394115037485663,1.0102141645192793,0.5853208839400611,3420.361572265625,12.042555555555555,0.42,178.9815524661761,-8.406221834093511,101.26887586344328,1610.0,1435.0,1200.0,1528.0,1542.0,1018.02,58.0,292.45,1637150002.1693718,1637150003.3073318,a2fa569a-5ffd-40d5-a462-4253eea1e2e0
0.1086723924731346,0.3089160706304151,0.0116870614204117,-0.1902276158133336,-0.139290110206701,0.0944827581112471,-0.2400693977689526,-0.2671748917641253,-13.786925679138577,16.211503982809088,30.53946386275745,0.7474004043727266,1.0099699822687611,0.5780842179053657,3418.997314453125,12.042,0.42,179.03177105259363,-8.466539993563803,101.19983934695244,1610.0,1435.0,1200.0,1528.0,1542.0,1018.02,58.0,292.45,1637150003.415744,1637150004.53794,a2fa569a-5ffd-40d5-a462-4253eea1e2e0
0.1085902131504203,0.3142029418966804,0.0122623168855192,-0.1914740027775084,-0.1392901102133345,0.0930172263552433,-0.2407131361047501,-0.2547110213609225,-13.85001377493182,16.186519008620618,30.904530661231306,0.7468081547478281,1.027199409429995,0.5793264409578815,3422.789849175347,12.038555555555554,0.4177777777777777,179.09106316586863,-8.511378762508858,101.15770618669234,1610.0,1435.0,1200.0,1528.0,1542.0,1018.02,58.0,292.45,1637150004.6471188,1637150005.7653906,a2fa569a-5ffd-40d5-a462-4253eea1e2e0
0.2107802336127417,0.4883683671471382,0.0338480934362743,-0.2820082655242176,-0.1621770613685228,0.0022364358386997,-0.2579297123424102,-0.2900755404281919,-13.536097072883472,15.974466203843784,30.42543711885971,0.7467854642343533,1.6949615469320864,0.6254993047189484,3424.461181640625,12.03788888888889,0.43,179.08158134548086,-8.579197608052686,101.11487786495672,1695.0,1435.0,1200.0,1528.0,1609.0,1018.02,58.0,292.45,1637150006.674867,1637150007.7003574,7895a9ad-063c-4e0d-a938-03e0383c49f7
0.2200610213285346,0.4898985465339657,0.0383986380855542,-0.2867423446845553,-0.158371609217788,0.0051192875424198,-0.2505834252630642,-0.2696753353051367,-13.37234666920923,15.85134365189018,30.47506395859676,0.7634432707252007,1.6999710821034228,0.6040323842180559,3423.093505859375,12.038444444444444,0.4344444444444444,179.10053891497716,-8.625440265463395,101.07671987479358,1695.0,1435.0,1200.0,1528.0,1609.0,1018.02,58.0,292.45,1637150007.8084035,1637150008.8653824,7895a9ad-063c-4e0d-a938-03e0383c49f7
0.2114376684032331,0.4836019651841989,0.0327934584223566,-0.2832820456357728,-0.1630536411825716,0.007386341954674,-0.2575188155240517,-0.2939653635095724,-13.518698440785943,16.030079653623655,30.323701874430185,0.7615400220945157,1.6779540898138166,0.6268037423567313,3423.093505859375,12.037444444444445,0.43,179.12263230021244,-8.656485941698302,101.05297434268908,1695.0,1435.0,1200.0,1528.0,1609.0,1018.02,58.0,292.45,1637150008.974509,1637150010.0664923,7895a9ad-063c-4e0d-a938-03e0383c49f7
0.2724848705237197,0.6049233304965924,0.0537037205482369,-0.3462139070302977,-0.1758593766925014,-0.0622546339306111,-0.2670981898321484,-0.2922647982131495,-13.270285120063283,16.14495897899855,29.126091440474084,0.7487431908682965,2.1509149616763987,0.6419471701173373,3422.9416775173613,12.032111111111112,0.4588888888888889,179.09679597131202,-8.730045750967001,100.99790859869051,1779.0,1435.0,1200.0,1528.0,1677.0,1018.02,58.0,292.45,1637150012.2044437,1637150013.231891,dd106b3e-eb52-4722-85d5-9a0a075ea6a0
0.2646482479829479,0.6010970602590588,0.0522968100516443,-0.3450699702579123,-0.1765036628736428,-0.060966061641337,-0.2675715429692052,-0.2810489592059508,-13.2475294449369,16.14471277126268,28.91882522047452,0.7489650720654527,2.138010020236546,0.6446871740322364,3418.8462727864585,12.031222222222222,0.4600000000000001,179.1083389910093,-8.737770884645764,100.90975817726236,1779.0,1435.0,1200.0,1528.0,1677.0,1018.02,58.0,292.45,1637150013.344661,1637150014.5712583,dd106b3e-eb52-4722-85d5-9a0a075ea6a0
0.2761265113184785,0.5978997359304254,0.0520371233066711,-0.3469984460464528,-0.1754353311978634,-0.0556452223516275,-0.2653258549256772,-0.2870075107370211,-13.268221857505344,16.051417318242283,28.98626172951328,0.7646408135390371,2.125786269440312,0.6401038151130285,3414.910888671875,12.031222222222222,0.4677777777777778,179.12507750793532,-8.738051301856688,100.85074610174335,1779.0,1435.0,1200.0,1528.0,1677.0,1018.02,58.0,292.45,1637150014.679678,1637150015.8004751,dd106b3e-eb52-4722-85d5-9a0a075ea6a0
0.3317619287799129,0.706746276453845,0.0670622480363495,-0.3940187403349336,-0.1912685543943852,-0.1242786810358227,-0.2834053147042516,-0.3059361573962744,-13.211368344713478,16.464313112915843,28.21895201719457,0.7198701236788212,2.5471739458578506,0.6784758775892432,3416.271728515625,12.025222222222222,0.49,179.0957152836033,-8.742300343566605,100.68955287842114,1864.0,1435.0,1200.0,1528.0,1744.0,1018.02,58.0,292.45,1637150017.7344964,1637150018.8723743,70968208-5ebb-4c0f-961e-2b0c52157b1d
0.3363639721059336,0.7104032572418867,0.0698289528676802,-0.3947035684026014,-0.1886525114258645,-0.127702820894509,-0.2802824988839896,-0.307949552266561,-13.138918204023229,16.342644339238372,28.17569573803381,0.713081209237756,2.5610180901678574,0.6671712674140071,3408.423041449653,12.025555555555556,0.4822222222222222,179.1204420862186,-8.748686570440567,100.554627044827,1864.0,1435.0,1200.0,1528.0,1744.0,1018.02,58.0,292.45,1637150018.9804094,1637150020.1018066,70968208-5ebb-4c0f-961e-2b0c52157b1d
0.3417741124156707,0.703924785657728,0.0692400008490201,-0.3936215400545491,-0.1876252694491139,-0.1231966527953481,-0.2792278637396052,-0.3089630980768057,-13.190731292033378,16.344924210095545,28.0576532227311,0.7207072693876029,2.537962292382494,0.6640952906017752,3406.76708984375,12.023666666666664,0.4866666666666666,179.13168305977263,-8.738489382600953,100.44529468896278,1864.0,1435.0,1200.0,1528.0,1744.0,1018.02,58.0,292.45,1637150020.209788,1637150021.3364418,70968208-5ebb-4c0f-961e-2b0c52157b1d
-0.1001727365587429,-0.0596446175993398,-0.0348401491312026,-0.0097754462778084,-0.0968992587060433,0.287275509409746,-0.207019598280258,-0.21953825514761,-14.38930007956546,17.03884494509177,30.17331778354288,0.7763817882130762,-0.3900011505772748,0.4924212952101,3408.121826171875,12.041,0.4099999999999999,179.32071385742205,-8.730143081162673,100.18400580226393,1440.0,1435.0,1200.0,1528.0,1408.0,1018.02,58.0,292.45,1637150023.264062,1637150024.295391,315b1d3c-bf40-476d-b1d3-6a32b7fcca1e
-0.1079660788190018,-0.0621784810476604,-0.0352510459001997,-0.00884408029432,-0.0958446236471071,0.2884260202571345,-0.2054034042038656,-0.2199354551442086,-14.343971068489182,16.91504278445279,30.11177611643512,0.776038054208637,-0.3994228837940045,0.4889411055036923,3415.8192545572915,12.039888888888887,0.4,179.29448744882905,-8.733280224993958,100.20279792940036,1440.0,1435.0,1200.0,1528.0,1408.0,1018.02,58.0,292.45,1637150024.4293554,1637150025.4328172,315b1d3c-bf40-476d-b1d3-6a32b7fcca1e
-0.102377882618067,-0.063465957603138,-0.0361687153530815,-0.009679570376965,-0.0971594933346487,0.2914803526444082,-0.2069374189228603,-0.2194423788315875,-14.421725542873114,17.02570173716695,30.24683408487387,0.785456474988489,-0.404851823902334,0.4940945849775806,3424.461181640625,12.041,0.4099999999999999,179.27581371163822,-8.719889923717362,100.22274663523623,1440.0,1435.0,1200.0,1528.0,1408.0,1018.02,58.0,292.45,1637150025.545572,1637150026.6546812,315b1d3c-bf40-476d-b1d3-6a32b7fcca1e
-0.1984455519003043,-0.2353166913788805,-0.0560698156849559,0.0700207046812626,-0.0790526419808332,0.3836307924018031,-0.1914876993340532,-0.2048007562220981,-14.656863226113336,17.702027542025906,29.819049094996647,0.8160524732166969,-1.0550038290018997,0.4534221763080459,3426.1343587239585,12.035666666666666,0.44,179.27011733387042,-8.704104787363033,100.17169780137958,1355.0,1435.0,1200.0,1528.0,1341.0,1018.02,58.0,292.45,1637150028.6816409,1637150029.7330894,6f17c6ad-415c-4766-b70b-e4d3ca851ac0
-0.1955144880946169,-0.2392749972817342,-0.0556315257786728,0.0761567628905944,-0.0773268754998193,0.3845621583149018,-0.1905974229251177,-0.210498525239438,-14.641184972414116,17.719991266055164,30.20791779677176,0.8045147203654276,-1.074134773291256,0.4493335213327559,3437.283175998264,12.035666666666666,0.4344444444444444,179.28583435806055,-8.69815768473446,100.05941176815428,1355.0,1435.0,1200.0,1528.0,1341.0,1018.02,58.0,292.45,1637150029.8412905,1637150030.9554422,6f17c6ad-415c-4766-b70b-e4d3ca851ac0
-0.2234596847181232,-0.2426390831769106,-0.0596572605784762,0.0741307258205733,-0.0799871687343286,0.3853375941926804,-0.1918648815070111,-0.2064043067400378,-14.546813899213127,17.55938139145002,29.56578787041816,0.8095074593601237,-1.0817373800951446,0.4590504738877791,3446.9551595052085,12.037333333333333,0.43,179.2728251244214,-8.685826062779219,99.9932204049077,1355.0,1435.0,1200.0,1528.0,1341.0,1018.02,58.0,292.45,1637150031.0648863,1637150032.0682917,6f17c6ad-415c-4766-b70b-e4d3ca851ac0
-0.3127241723978836,-0.4229628616791476,-0.077967326615975,0.1523583869786867,-0.0598089763162736,0.4840210798347239,-0.1735846520468862,-0.1966474675138564,-14.85065775551204,18.372331566496584,28.709749224496,0.8589880114596362,-1.7591020772944532,0.4076117395960678,3459.6306966145835,12.029,0.4600000000000001,179.31193175196924,-8.672606516231873,99.75362040446328,1271.0,1435.0,1200.0,1528.0,1273.0,1018.02,58.0,292.45,1637150034.1561153,1637150035.2565632,e16ee633-fab8-4254-b6b8-c1ee5e68513a
-0.3107518677269105,-0.4202673783836393,-0.0745486654379302,0.1534497287262915,-0.0577972257144174,0.4811415156099138,-0.1718753213825383,-0.1891921565860014,-14.823148783540448,18.46267548463821,28.837144288139164,0.850858728635638,-1.7502322875374818,0.3982754895078666,3461.0274522569443,12.028555555555554,0.4600000000000001,179.32885696073254,-8.671190485207696,99.6068707545059,1271.0,1435.0,1200.0,1528.0,1273.0,1018.02,58.0,292.45,1637150035.364989,1637150036.4868157,e16ee633-fab8-4254-b6b8-c1ee5e68513a
-0.2987997009985445,-0.4168881627260093,-0.0754953716089342,0.1510172200048172,-0.0588359727545657,0.4800764713146919,-0.1728483249876097,-0.2044972408845101,-14.842404461051895,18.382060239784337,28.83168884117384,0.8533604653125546,-1.7371354252507256,0.4027655976494499,3456.530164930556,12.028888888888888,0.4600000000000001,179.32032529554928,-8.661592741331487,99.48677402050978,1271.0,1435.0,1200.0,1528.0,1273.0,1018.02,58.0,292.45,1637150036.595515,1637150037.602578,e16ee633-fab8-4254-b6b8-c1ee5e68513a
-0.3556820659687871,-0.514137586959534,-0.0789841591854,0.1897834102350896,-0.0448386372350598,0.5331150199556004,-0.1593007838356951,-0.1852146757036545,-15.02863060007066,19.128777535773413,27.931627384063447,0.8896372828894084,-2.097566062923167,0.3560340690014794,3439.270562065972,12.020777777777775,0.5077777777777778,179.35270494567462,-8.648863924903262,99.16650113795852,1186.0,1435.0,1200.0,1528.0,1206.0,1018.02,58.0,292.45,1637150039.1557343,1637150040.2667162,3f8f7502-0b09-4561-85cb-5aa677e1c2f2
-0.3593390476620799,-0.5201914674645606,-0.0743547221627246,0.1984670280302687,-0.0383601648110754,0.5296223978377202,-0.1560957888797149,-0.1708606808357478,-15.135932647524076,19.216156129377627,27.758395162723065,0.8629289113753499,-2.1187511609337744,0.335324882315505,3434.0662434895835,12.021,0.51,179.35610941552088,-8.644708039384525,98.95949176459378,1186.0,1435.0,1200.0,1528.0,1206.0,1018.02,58.0,292.45,1637150040.3752582,1637150041.4934442,3f8f7502-0b09-4561-85cb-5aa677e1c2f2
-0.3665982250585699,-0.5250948367541147,-0.0812166983387432,0.2031512508924259,-0.043071781108843,0.531800150451578,-0.1619305232991501,-0.1876115740771712,-15.158317489552914,19.17950632394789,27.949738350035773,0.8566907498027123,-2.139691574776766,0.3591203452148625,3429.7899576822915,12.021,0.5,179.34965868130473,-8.6523054864713,98.80258031097124,1186.0,1435.0,1200.0,1528.0,1206.0,1018.02,58.0,292.45,1637150041.6019328,1637150042.7280142,3f8f7502-0b09-4561-85cb-5aa677e1c2f2
0.0163575878016705,0.1419550292474094,-0.0129256548105857,-0.1002412191914306,-0.1204984305520801,0.1786207154406298,-0.2275233486731961,-0.2483969076105009,-14.03749100151049,16.353793929065066,30.97689645980023,0.7331436741688085,0.3690238979930472,0.5491462529177342,3426.4385579427085,12.044,0.39,179.1906154497513,-8.644359415145638,98.58222930142776,1525.0,1435.0,1200.0,1528.0,1475.0,1018.02,58.0,292.45,1637150043.744565,1637150044.8815217,b73eca3b-1921-4df0-b6b2-4bba05b14d81
0.0143304971708332,0.1363531369297775,-0.0143090072603208,-0.0962007341877646,-0.1199642647319586,0.1781961221399246,-0.2272083277888423,-0.240096791571121,-13.97290566575,16.275435994440432,30.66184365621121,0.7224691755277473,0.3497620855455163,0.5488464080357213,3433.4544542100693,12.044111111111112,0.39,179.13841155501498,-8.629144789314479,98.75868647972511,1525.0,1435.0,1200.0,1528.0,1475.0,1018.02,58.0,292.45,1637150044.9901962,1637150046.1109655,b73eca3b-1921-4df0-b6b2-4bba05b14d81
0.0100708673312644,0.1408730011460903,-0.0125147580500545,-0.1014739095359302,-0.1198409956962497,0.1797575297627802,-0.2276603142782154,-0.2650519244255175,-14.153519840867546,16.39763842593803,30.82765952430195,0.7387078103363955,0.3672881043446483,0.5474343594528103,3437.7379557291665,12.042333333333334,0.3866666666666666,179.09794192527275,-8.623596493842447,98.88493569634365,1525.0,1435.0,1200.0,1528.0,1475.0,1018.02,58.0,292.45,1637150046.2190692,1637150047.3405674,b73eca3b-1921-4df0-b6b2-4bba05b14d81
0.0197680309987302,0.1351067501290886,-0.0263071928918543,-0.2740642604610877,-0.1501240888578268,0.3525806964069182,-0.1908713541386461,-0.2104437387542216,-13.963708738796209,15.95623334753923,32.09183307304272,1.5130702522037114,0.3534810961441041,0.5549878938598791,3438.8108995225693,12.041777777777778,0.39,179.0496965046154,-8.578882755304695,99.05045091159064,1525.0,1535.0,1200.0,1528.0,1475.0,1018.02,58.0,292.45,1637150048.2502663,1637150049.1979978,fa05d200-7111-4f31-ac13-6b37cc98d407
0.0289036356377382,0.1389143933174663,-0.0278549040483325,-0.2752147715325139,-0.1509458824300942,0.3510603785154949,-0.192446458514579,-0.2174152887989278,-14.028355593873044,15.822906354677826,32.24530095476428,1.511280181666445,0.3669007204781109,0.5611361212245544,3442.33984375,12.043,0.39,179.04009781210183,-8.56684634930358,99.1191155622267,1525.0,1535.0,1200.0,1528.0,1475.0,1018.02,58.0,292.45,1637150049.3089075,1637150050.4120471,fa05d200-7111-4f31-ac13-6b37cc98d407
0.0222745011996748,0.1372981994486421,-0.0263893722352873,-0.2742834054229219,-0.151206117065592,0.3507727508066691,-0.1925286378724694,-0.2190588756309582,-13.98580960078723,16.032055346036895,32.10388014750732,1.5099912309507069,0.3617730726281968,0.5591669548283603,3440.037353515625,12.043,0.39,179.042590072239,-8.567556783840999,99.16852970414205,1525.0,1535.0,1200.0,1528.0,1475.0,1018.02,58.0,292.45,1637150050.520649,1637150051.528292,fa05d200-7111-4f31-ac13-6b37cc98d407
0.0344408803417942,0.1400249102614366,-0.0352998056544348,-0.458372308602922,-0.1806192051545866,0.524742588402794,-0.1519024501596064,-0.1775161127626781,-13.769953944231252,15.671035112712088,33.24137086782762,2.3136372003963017,0.3824848587539977,0.5541507871546458,3439.5771484375,12.04044444444444,0.4066666666666667,179.01884074558492,-8.509735437967302,99.29301749086456,1525.0,1624.7777777777778,1200.0,1528.0,1475.0,1018.02,58.0,292.45,1637150053.1365385,1637150054.098307,8c9dbafd-44f7-4b8a-b095-c86f6ace0821
0.0391623580633717,0.1378460617764026,-0.0385245235078324,-0.4525167545156611,-0.1812015828722978,0.5184870967434964,-0.1572189067536834,-0.1943639780522447,-13.982010858955766,15.630234345827605,32.7841462946875,2.2857609090648787,0.3789400428639073,0.5659204285568692,3410.4019368489585,12.040333333333336,0.4133333333333333,179.03461696474784,-8.505256067100374,99.28103430342075,1525.0,1636.0,1200.0,1528.0,1475.0,1018.02,58.0,292.45,1637150054.2072,1637150055.3274124,8c9dbafd-44f7-4b8a-b095-c86f6ace0821
0.0016217342837203,0.1370270075903318,-0.0377980580182562,-0.45344154635321,-0.180895327799116,0.5183391739243978,-0.1565702376933012,-0.1715334554808613,-13.965652263881475,15.667166183536096,32.53288638709253,2.2877637915130906,0.3781397618400888,0.5631241673172216,3375.1787380642363,12.041444444444444,0.4,179.042145351033,-8.501184325717661,99.27243661307551,1525.0,1636.0,1200.0,1528.0,1475.0,1018.02,58.0,292.45,1637150055.4358652,1637150056.555301,8c9dbafd-44f7-4b8a-b095-c86f6ace0821
0.0361217220291754,0.1354902537549683,-0.0360591428977316,-0.535517920772583,-0.1933093417949539,0.5989680673928803,-0.1371397503653167,-0.175051828202146,-13.862584973890732,16.105818624714768,33.1120032347827,2.657230535164245,0.3767368533217616,0.549800535487596,3346.90625,12.035333333333334,0.43,179.05131146489916,-8.463741703006342,99.1983024987341,1525.0,1737.0,1200.0,1528.0,1475.0,1018.02,58.0,292.45,1637150058.69516,1637150059.8348677,ff89d026-39ba-4234-b44c-0bf995073cb9
0.0337111277041086,0.1374625581485398,-0.0369083295581454,-0.5352713826654069,-0.1952953429806097,0.5998309505023324,-0.1380711164255991,-0.158465294268418,-13.768300489756635,16.146783815017418,33.5335579389867,2.658957357192728,0.3796471495590958,0.555873641591818,3347.777669270833,12.037333333333333,0.4233333333333333,179.08123072910345,-8.446190014114181,99.1288121541184,1525.0,1737.0,1200.0,1528.0,1475.0,1018.02,58.0,292.45,1637150059.9444048,1637150061.0618038,ff89d026-39ba-4234-b44c-0bf995073cb9
0.0250138129781569,0.140859304590746,-0.0364152534175118,-0.5375724051565004,-0.1933230383475337,0.5971875149502397,-0.1370164813180734,-0.1480833019904475,-13.86482603926447,15.93050623790934,33.33888519535115,2.65671894878252,0.395106473239419,0.5511511226886029,3350.1039767795137,12.033888888888889,0.43,179.08546696420868,-8.449722360279939,99.08027379423665,1525.0,1737.0,1200.0,1528.0,1475.0,1018.02,58.0,292.45,1637150061.1705153,1637150062.290613,ff89d026-39ba-4234-b44c-0bf995073cb9
0.0298350016247515,0.1378597583309563,-0.0365659156047349,-0.5774430991723786,-0.2002261045969416,0.6414821811282146,-0.1282643798094373,-0.1495762272606803,-13.876999698238206,16.22241453935122,34.02790411721446,2.8482247944475354,0.3827400911195416,0.5484285370533716,3358.2715115017363,12.034555555555556,0.44,179.11438446733467,-8.429429204209661,98.91719923325306,1525.0,1837.0,1200.0,1528.0,1475.0,1018.02,58.0,292.45,1637150064.2246573,1637150065.249488,5f9cf18f-61e4-414b-8398-db78656317dc
0.0471748448703114,0.1415304359369203,-0.037579460962223,-0.5834969797388171,-0.2028832371893243,0.6431668576732505,-0.1284287385157657,-0.1599582191355847,-13.779517086230124,16.190856111606205,33.98155301724091,2.865448568142862,0.3969087882545439,0.5540700547074483,3372.957356770833,12.033111111111111,0.44,179.1192490798436,-8.415215960001818,98.85406779475464,1525.0,1837.0,1200.0,1528.0,1475.0,1018.02,58.0,292.45,1637150065.3583968,1637150066.4801252,5f9cf18f-61e4-414b-8398-db78656317dc
0.034245293493746,0.1413112910088757,-0.034757969785862,-0.5798673905779591,-0.2018559951793623,0.6426463884972783,-0.1287985456164434,-0.1601362747150392,-13.835451404457029,16.4751965263186,34.35825866520209,2.8581488520519045,0.3928808278451367,0.549732240739739,3383.1618381076387,12.031555555555556,0.44,179.11345707942738,-8.39943698979049,98.7955315557478,1525.0,1837.0,1200.0,1528.0,1475.0,1018.02,58.0,292.45,1637150066.5893278,1637150067.71,5f9cf18f-61e4-414b-8398-db78656317dc
0.0156316702060828,0.1480773907639421,0.0078794180774121,0.0915106049301172,-0.0865309633158122,-0.0191438925572576,-0.2660380760532688,-0.2951158748686358,-13.964785992832226,17.234293441506807,28.73928664961484,-0.1372521404335641,0.3890288767386141,0.5283141193760755,3390.149603949653,12.042444444444444,0.3899999999999999,179.10560843316114,-8.580165313048843,98.70961991854756,1525.0,1334.0,1200.0,1528.0,1475.0,1018.02,58.0,292.45,1637150068.7308702,1637150069.765632,fea59da8-6a83-4688-8619-56838847550e
0.0106872125084218,0.1472555972767576,0.0035923951691757,0.0967289936825642,-0.0887635024824457,-0.0218147215529335,-0.2700511682469446,-0.2932394461155634,-13.97381951365397,17.1129699972882,28.897708019826087,-0.1560222831661829,0.3836901766396297,0.5431256243901333,3406.019721137153,12.042222222222222,0.39,179.08857090573147,-8.572493777382318,98.81672790947208,1525.0,1334.0,1200.0,1528.0,1475.0,1018.02,58.0,292.45,1637150069.8733976,1637150071.088246,fea59da8-6a83-4688-8619-56838847550e
0.0056742719748409,0.144160175119018,0.0022090427329542,0.0979342908174333,-0.0898455306627019,-0.0188699613742952,-0.2712838586721191,-0.2901577197843818,-14.005495464588073,17.185915151914518,29.032085006774555,-0.1517037127614166,0.3708788183546785,0.5480135948964919,3417.1802571614585,12.043666666666669,0.3866666666666666,179.06093140689018,-8.563217621579533,98.91169865424146,1525.0,1334.0,1200.0,1528.0,1475.0,1018.02,58.0,292.45,1637150071.1967869,1637150072.3157332,fea59da8-6a83-4688-8619-56838847550e
-0.000708324407095,0.1522411444613435,0.0196858517361926,0.3031909095041643,-0.057179236960062,-0.2278109764325642,-0.3166742603513461,-0.3405747593042235,-13.999519379629296,18.03645037977962,27.20749845864813,-1.0780100277005376,0.3931672118130955,0.5441835606695816,3429.029622395833,12.041,0.3966666666666667,179.03679351836337,-8.601314993813787,99.01278545395766,1525.0,1234.0,1200.0,1528.0,1475.0,1018.02,58.0,292.45,1637150073.225722,1637150074.271414,3b318fee-146a-4d10-85c6-ff87dedcacee
0.002410655971253,0.1472566930024418,0.0222125928855308,0.3045676874866126,-0.0543128210758003,-0.2233919182841039,-0.3124217521919548,-0.3369177774672487,-13.932487891408536,18.07783779735554,27.3468061106502,-1.0707293623937877,0.3727547487015591,0.5304158310694764,3434.06494140625,12.041444444444446,0.3944444444444445,179.03578720382563,-8.601828491230137,99.061187210056,1525.0,1234.0,1200.0,1528.0,1475.0,1018.02,58.0,292.45,1637150074.3799198,1637150075.3706195,3b318fee-146a-4d10-85c6-ff87dedcacee
-0.0109221222540004,0.15106981480651,0.0184257683298682,0.2998078597448133,-0.0576394413498042,-0.2233130260944455,-0.3155379936798781,-0.3441495618494326,-13.988965304753997,17.923552911228807,27.2417108855273,-1.0610715896985483,0.3887308190214288,0.5448407820821762,3432.842719184028,12.04011111111111,0.39,179.0280190020096,-8.596085345639281,99.09767483951212,1525.0,1234.0,1200.0,1528.0,1475.0,1018.02,58.0,292.45,1637150075.4787166,1637150076.729592,3b318fee-146a-4d10-85c6-ff87dedcacee
-0.0115970887569864,0.1485293771872763,0.0285338286419056,0.3982724123298418,-0.0422362910280515,-0.3172769092492875,-0.3367534185064687,-0.3745559277530075,-14.006081933548906,18.697639281530886,26.368161878083924,-1.4888459269349947,0.3755968546481751,0.5392832000003867,3418.239935980903,12.03811111111111,0.4099999999999999,179.01338418334797,-8.61675283402157,99.14206348001812,1525.0,1133.0,1200.0,1528.0,1475.0,1018.02,58.0,292.45,1637150077.844385,1637150078.9833412,fa526d06-2702-46a9-b461-351bd7f110aa
0.0060029894088745,0.1525835584133898,0.0301637191492212,0.3863838004251524,-0.0424417393964787,-0.3101546975899336,-0.3341099822399538,-0.3562162323296706,-14.08846665826786,18.698885601844907,26.405926203487667,-1.4459696014792147,0.392617983825929,0.5339590719387443,3410.38232421875,12.038777777777776,0.4099999999999999,179.0058633861619,-8.637162957081383,99.17657870262391,1525.0,1133.0,1200.0,1528.0,1475.0,1018.02,58.0,292.45,1637150079.0920413,1637150080.2121675,fa526d06-2702-46a9-b461-351bd7f110aa
0.0037841468693131,0.1528300964621543,0.0282462009326621,0.3990668127107531,-0.0417295183290621,-0.3205777802068332,-0.3388900819780838,-0.362146842886708,-14.18442167217899,18.63682866926221,26.59416880330012,-1.498526585053111,0.3908692448357553,0.5427735352418416,3403.911566840278,12.04,0.4099999999999999,179.0218885277746,-8.626630710517484,99.18114354571922,1525.0,1133.0,1200.0,1528.0,1475.0,1018.02,58.0,292.45,1637150080.3208196,1637150081.3979568,fa526d06-2702-46a9-b461-351bd7f110aa
-0.012172344195959,0.149036149842178,0.0376420401574535,0.4547022290661524,-0.032046051133656,-0.3715152904086746,-0.349559702980099,-0.3833217270787402,-14.200589761866048,19.419944779287977,26.093541068143622,-1.732918560494569,0.3749501397306453,0.5309579518234339,3402.109809027778,12.035999999999998,0.43,179.0161450975925,-8.654256264389248,99.19311459060454,1525.0,1033.0,1200.0,1528.0,1475.0,1018.02,58.0,292.45,1637150082.237343,1637150083.433016,285b3239-2bf1-4cdf-b3ef-03ff3a7a3b9f
-0.0041050710433184,0.1463516244338032,0.0356149494490016,0.4485113850797271,-0.033634851993113,-0.3631877814535434,-0.3481763503691154,-0.382020553607405,-14.17297725319259,19.3331677969049,26.091443593748394,-1.700903134297694,0.3653369395664264,0.5335883613616469,3401.359619140625,12.034666666666668,0.4277777777777778,179.0226717227994,-8.6713019501004,99.19135088397884,1525.0,1033.0,1200.0,1528.0,1475.0,1018.02,58.0,292.45,1637150083.5419586,1637150084.5155609,285b3239-2bf1-4cdf-b3ef-03ff3a7a3b9f
-0.0037352639263864,0.1541860557251685,0.0384364405465496,0.4609478591971639,-0.0337033347813185,-0.3826916844943899,-0.3526414292708091,-0.3830888854122811,-14.023233255317209,19.56264503427934,26.02820966768724,-1.771057626076858,0.3928729728096926,0.5371713185619843,3398.9619411892363,12.032777777777778,0.4377777777777777,179.04270390872514,-8.666766040445342,99.17873552458184,1525.0,1033.0,1200.0,1528.0,1475.0,1018.02,58.0,292.45,1637150084.6286163,1637150085.740552,285b3239-2bf1-4cdf-b3ef-03ff3a7a3b9f
0.0152207734097484,0.144790216798895,-0.0088714733854202,-0.0873390603262246,-0.1163757661599556,0.1599933963887339,-0.2283588388373861,-0.2448358015176952,-13.962642089612672,16.398948309965338,30.42452553294548,0.6626323226765799,0.3826927098400932,0.5389052256748349,3401.359619140625,12.044,0.3866666666666666,179.04318202196703,-8.545044764927853,99.17001640865136,1525.0,1435.0,1200.0,1528.0,1475.0,1018.02,58.0,292.45,1637150087.767094,1637150088.9046223,1057603b-5d30-4672-9369-85d73fc20ccd
0.0094545221886522,0.1426535537163315,-0.0106794191513832,-0.0859967975153622,-0.1186904847023035,0.1605001690347349,-0.230043515728039,-0.2434798420032964,-13.873915180204309,16.47175739369591,30.35990209759385,0.6611702905335408,0.3743450522158628,0.5466152596704347,3409.02734375,12.043666666666669,0.38,179.04269480180622,-8.539543901325054,99.20344563117912,1525.0,1435.0,1200.0,1528.0,1475.0,1018.02,58.0,292.45,1637150089.0134523,1637150090.1334217,1057603b-5d30-4672-9369-85d73fc20ccd
0.0017570561845166,0.1377090961917265,-0.0124051855742601,-0.0823261196400458,-0.116718180143882,0.1624176871747688,-0.2297558879670972,-0.26301113691425,-13.99828937037492,16.291974992451085,30.421542137292374,0.6558685479336632,0.3555699137259909,0.5453794495055423,3415.8189832899307,12.043777777777777,0.38,179.04586704522077,-8.531531899701152,99.25449977740514,1525.0,1435.0,1200.0,1528.0,1475.0,1018.02,58.0,292.45,1637150090.2418582,1637150091.2708158,1057603b-5d30-4672-9369-85d73fc20ccd
0.0328071548842326,0.1530081517200665,0.0590223681791865,-0.091886318012334,-0.0549740909494431,0.1542682350644355,-0.1578489485107032,-0.1819959836462382,-13.462195738554568,16.395252188176578,30.690148820189886,0.6636750318305619,0.4124826231035616,0.2640167141840907,3418.0884602864585,12.044333333333334,0.38,179.0392068518701,-8.53030493210775,99.29130690793244,1525.0,1435.0,1200.0,1439.0,1475.0,1018.02,58.0,292.45,1637150093.2045696,1637150094.341282,6719b756-cba0-41e0-8161-3bf8b3083211
0.0484897144979467,0.1570486363780874,0.0619260385955265,-0.0949817404102106,-0.0528374277301962,0.1549393664269714,-0.1543837189114855,-0.1759694975472673,-13.426083619371465,16.326530313472407,30.96813633757094,0.6719171766894707,0.4254815326046,0.2531220244269941,3426.2870279947915,12.042777777777776,0.38,179.03632451204032,-8.532396772404802,99.30859411672174,1525.0,1435.0,1200.0,1439.0,1475.0,1018.02,58.0,292.45,1637150094.449627,1637150095.5606816,6719b756-cba0-41e0-8161-3bf8b3083211
0.0469058444702174,0.1602081584206507,0.0659583054272667,-0.0949422943256203,-0.0508941599210385,0.1493341869475707,-0.1508374056841622,-0.1784891165158716,-13.198689852101824,16.343873294265087,30.64451975924636,0.6596112358407129,0.4388414913057776,0.240007725213778,3437.5859646267363,12.043,0.37,179.02154246485665,-8.528386123269668,99.3499729205335,1525.0,1435.0,1200.0,1439.0,1475.0,1018.02,58.0,292.45,1637150095.669355,1637150096.6984951,6719b756-cba0-41e0-8161-3bf8b3083211
0.077512722096603,0.1687728901604188,0.1524191997104521,-0.0951187060112477,0.0281777181327455,0.1391883244845073,-0.0646575582542239,-0.0876951715142526,-12.820647537064254,16.511153579028782,31.03251385022393,0.6428763116234025,0.4703556869081033,-0.1064707503824005,3449.8835177951387,12.042666666666667,0.3777777777777777,179.0227810058261,-8.511448392492898,99.38007128747604,1525.0,1435.0,1200.0,1351.0,1475.0,1018.02,58.0,292.45,1637150098.6586502,1637150099.775769,2ed74c2b-090c-4532-9316-754939812a6c
0.0634326598867373,0.1685948349043627,0.1498579433311357,-0.0968581690407146,0.0264382551885188,0.1406538562138801,-0.0664244143884306,-0.1012136755516115,-12.870484842489171,16.435422690133752,30.97289525197063,0.6494292064640194,0.4706195165567834,-0.0982192922420176,3451.272271050347,12.045,0.3744444444444444,179.0294821803118,-8.49579597050869,99.3914837746692,1525.0,1435.0,1200.0,1351.0,1475.0,1018.02,58.0,292.45,1637150099.912557,1637150100.8852794,2ed74c2b-090c-4532-9316-754939812a6c
0.0632819977721986,0.1696631664346406,0.1515974062082865,-0.0980360731398252,0.0271778693435389,0.1405031940769427,-0.0648356135442927,-0.0932011882630813,-12.817284773710844,16.471902664804613,30.95819195905754,0.6521005911525578,0.4746361037947954,-0.1037394321239911,3447.878662109375,12.043666666666669,0.3733333333333333,179.02872478822383,-8.487987925922505,99.39236411016222,1525.0,1435.0,1200.0,1351.0,1475.0,1018.02,58.0,292.45,1637150100.9937963,1637150102.022529,2ed74c2b-090c-4532-9316-754939812a6c
0.0982493115691789,0.1779495840971316,0.238241832382656,-0.0956665683905323,0.1062754948734137,0.1269572979534864,0.0223018944309558,0.0101393494642152,-12.250398652190398,16.58343320946474,31.161518311655467,0.621687562553415,0.505103800519377,-0.451983522468574,3456.994818793403,12.04411111111111,0.38,179.03636245753572,-8.472502369254272,99.36908227201138,1525.0,1435.0,1200.0,1262.0,1475.0,1018.02,58.0,292.45,1637150103.6547406,1637150104.893026,488cabc9-c15f-4859-88f3-50f6d12baea5
0.0849055764935261,0.1803782577779401,0.2396657265466235,-0.1025948359683087,0.1058908955154449,0.127691433473768,0.0246451017081688,-0.0018232244019876,-12.142006527608991,16.56611425612467,30.711632848929927,0.6389046757906398,0.5183759457478168,-0.4570553290828909,3453.8993326822915,12.042,0.38,179.03834169457525,-8.45786423036181,99.36761605806954,1525.0,1435.0,1200.0,1262.0,1475.0,1018.02,58.0,292.45,1637150105.0007858,1637150106.006603,488cabc9-c15f-4859-88f3-50f6d12baea5
0.1010434094941861,0.1820448549636723,0.2376391838425939,-0.1004877572633235,0.1034403072982774,0.1253821937550459,0.0214527078052235,-0.0032558849377484,-12.120494692397829,16.602281255223286,30.870583516368782,0.6291374657619865,0.5226783821193427,-0.4459653303218139,3451.1183268229165,12.041666666666666,0.3733333333333333,179.02526415904438,-8.463079933566762,99.3530176670835,1525.0,1435.0,1200.0,1262.0,1475.0,1018.02,58.0,292.45,1637150106.114312,1637150107.3468027,488cabc9-c15f-4859-88f3-50f6d12baea5
0.1145345194565872,0.190071037991354,0.3060534900552877,-0.0909960416604195,0.1669238548004926,0.1033307348336147,0.0867578991353954,0.0729654642036024,-11.76031766040606,16.693967637886356,30.60823877021668,0.5623277687708809,0.5557273825222505,-0.7177704951389258,3428.7243381076387,12.039444444444444,0.4,179.0237433035892,-8.46201243191773,99.31155841882152,1525.0,1435.0,1200.0,1173.0,1475.0,1018.02,58.0,292.45,1637150109.168759,1637150110.3074749,1a7f2b91-7b57-42ec-944e-53ece6dc54db
0.1094667928870479,0.1904956312943755,0.3049029792134101,-0.0909138622989391,0.1655268058783628,0.1004818506912711,0.0854019398525502,0.0694454488217986,-11.699750422757504,16.677159745300884,30.26358320592996,0.5555474078137245,0.5598625197693176,-0.7127535494787454,3419.300482855903,12.04,0.39,179.03108499803704,-8.468590283543406,99.25001310203037,1525.0,1435.0,1200.0,1173.0,1475.0,1018.02,58.0,292.45,1637150110.41551,1637150111.647772,1a7f2b91-7b57-42ec-944e-53ece6dc54db
0.1081519232942271,0.1913037282143683,0.3044235996617884,-0.0899824962737793,0.1626368320754417,0.1001257401695862,0.0815942965611513,0.0632135145004629,-11.74406500469997,16.972230738578517,30.42752028959791,0.5545822634069834,0.561613995029636,-0.7025575087915135,3414.910888671875,12.03877777777778,0.3955555555555555,179.0206712362825,-8.484988998558176,99.21581510376602,1525.0,1435.0,1200.0,1173.0,1475.0,1018.02,58.0,292.45,1637150111.757033,1637150112.877411,1a7f2b91-7b57-42ec-944e-53ece6dc54db
-0.0154058278467192,0.1288616674213768,-0.103318014293243,-0.0726289556990989,-0.201525634161925,0.1662302611052661,-0.3270562534139266,-0.3540768291441581,-14.55169768901893,16.52400714349292,30.276184588032656,0.6392710593506002,0.3206384830854684,0.921676678805126,3416.423095703125,12.04288888888889,0.3688888888888889,179.0392478330051,-8.469033392065812,99.24261448933942,1525.0,1435.0,1200.0,1617.0,1475.0,1018.02,58.0,292.45,1637150113.674565,1637150114.665367,3d9be96d-fa81-4d0a-b552-ffa787ca9920
-0.0141857383784856,0.132449617819744,-0.0988167770167041,-0.0744779911896083,-0.2001028355146789,0.1642667225323273,-0.3250154658490676,-0.3379313233978441,-14.506945829684277,16.727496386475334,30.277268820408,0.6406254831729371,0.3342855876826955,0.911064686423093,3417.634033203125,12.042,0.3733333333333333,179.0582084381411,-8.469626100703787,99.23454575919992,1525.0,1435.0,1200.0,1617.0,1475.0,1018.02,58.0,292.45,1637150114.773574,1637150115.9485042,3d9be96d-fa81-4d0a-b552-ffa787ca9920
-0.0134729694272954,0.1269682552026235,-0.1029892968611184,-0.0705514616076039,-0.2028536526079282,0.1680710785222069,-0.3278714726954348,-0.3510000337424869,-14.487788879951951,16.74279506036753,30.54108460722062,0.6402624403249813,0.3105056684964489,0.9243157375044,3421.878879123264,12.044777777777776,0.37,179.044466097531,-8.475628034573198,99.22799333105614,1525.0,1435.0,1200.0,1617.0,1475.0,1018.02,58.0,292.45,1637150116.0572786,1637150117.1848896,3d9be96d-fa81-4d0a-b552-ffa787ca9920
-0.044756458003939,0.1186023973940636,-0.1938435076291927,-0.0498926675201817,-0.2848297569644128,0.1632531772283145,-0.4301228761933353,-0.4442303360217416,-15.418465772981875,17.028957288961514,30.6532158723016,0.5797572609781332,0.2764235418988225,1.3039573857718163,3425.3739420572915,12.041666666666666,0.38,179.0346807131801,-8.48393307028524,99.243868967417,1525.0,1435.0,1200.0,1706.0,1475.0,1018.02,58.0,292.45,1637150118.180029,1637150119.318363,247c2829-0478-487c-a731-af5af337d205
-0.0420445392934506,0.1134935811340486,-0.1966239093005909,-0.0504131367792182,-0.2859802680455834,0.1654172334114733,-0.4294380481272362,-0.446257426744081,-15.285966040015689,16.872208988708774,30.17451443187375,0.5846070756557148,0.2604524529583688,1.3071984634119946,3423.5493977864585,12.039666666666667,0.38,179.04898768276155,-8.486788373949521,99.23041577148176,1525.0,1435.0,1200.0,1706.0,1475.0,1018.02,58.0,292.45,1637150119.4268532,1637150120.5468118,247c2829-0478-487c-a731-af5af337d205
-0.0523580482970955,0.1171094725351232,-0.1937750248371272,-0.0514951649478711,-0.2854187090695193,0.1636366808519781,-0.4282875369481886,-0.4627891767155434,-15.228767103204593,16.99607209607372,30.29693762211525,0.5840579931440342,0.2728402960441652,1.3015020417881755,3421.72705078125,12.042555555555555,0.38,179.05328007719996,-8.484370202392121,99.21906323817132,1525.0,1435.0,1200.0,1706.0,1475.0,1018.02,58.0,292.45,1637150120.655364,1637150121.7157896,247c2829-0478-487c-a731-af5af337d205
-0.070273147637075,0.1063165845574628,-0.2757763305151509,-0.0237185432667243,-0.3586405228489879,0.1520493926273383,-0.5211639233575198,-0.5331073265574312,-15.90274964202223,17.26068044528814,30.109692578053004,0.4926644457104852,0.2301763803388745,1.6433393725381122,3420.361572265625,12.037222222222224,0.3888888888888889,179.03976996302168,-8.50107143786888,99.21334409310629,1525.0,1435.0,1200.0,1795.0,1475.0,1018.02,58.0,292.45,1637150122.6856978,1637150123.7316086,388ecfbf-7652-4a92-af85-2b20a070065c
-0.0724843201729305,0.1020383275853611,-0.274211635472225,-0.0235185735005562,-0.3568512041416124,0.1564476313987643,-0.5180805532899491,-0.5535294491499816,-15.860242767969137,17.300373259255082,30.182342840533103,0.5024708102686953,0.2132608108145053,1.6339793282192117,3418.997314453125,12.040555555555551,0.3844444444444444,179.050341578037,-8.50110046617285,99.18741138264755,1525.0,1435.0,1200.0,1795.0,1475.0,1018.02,58.0,292.45,1637150123.8391843,1637150124.966321,388ecfbf-7652-4a92-af85-2b20a070065c
-0.0735603218766895,0.103399217629004,-0.2732287702607412,-0.0221708320909956,-0.3556546725510389,0.1541175729296948,-0.5167673268624976,-0.5399145185198054,-15.794046411901618,17.224532551426346,30.22646356996357,0.4937812209222274,0.2174004998355555,1.6294562333376077,3417.7855088975693,12.040888888888889,0.3888888888888889,179.04946731382327,-8.496503179679003,99.16280980016708,1525.0,1435.0,1200.0,1795.0,1475.0,1018.02,58.0,292.45,1637150125.0982,1637150126.0768082,388ecfbf-7652-4a92-af85-2b20a070065c
-0.0769433719668522,0.1016871478276614,-0.3191122482685628,0.0030445328044711,-0.4008259313853616,0.1347369430457023,-0.5758816909005452,-0.6134102742699397,-16.02427262624148,17.796545573701923,30.12384450670684,0.3947256768997989,0.2075145738682725,1.8371650382308773,3412.19189453125,12.037,0.4,179.03060992043476,-8.50225619109866,99.12681546215104,1525.0,1435.0,1200.0,1883.0,1475.0,1018.02,58.0,292.45,1637150126.6557417,1637150127.6266975,1e4db56f-24b6-4273-9257-5bbe3d2362ce
-0.0891880959938317,0.0979068977081404,-0.3315213322958258,0.0069891417487576,-0.4110298695295165,0.1335316459230233,-0.5894001983609368,-0.6188888996592411,-16.173482183397507,17.80521553027802,29.843356693396007,0.3824389069687123,0.1956061740131681,1.886299261115741,3410.834228515625,12.036,0.41,179.03349226026455,-8.512654584927574,99.060553520283,1525.0,1435.0,1200.0,1883.0,1475.0,1018.02,58.0,292.45,1637150127.7354004,1637150128.8576765,1e4db56f-24b6-4273-9257-5bbe3d2362ce
-0.1034325176401837,0.0935650886993737,-0.3276589021382085,0.0061399551081022,-0.4059484452676716,0.1389828761094591,-0.5814835849883594,-0.6086712631217782,-16.04644071537081,17.664326314477503,29.94866358430348,0.3959431936353499,0.177836270973881,1.8626040771778147,3409.7789171006943,12.035111111111112,0.4099999999999999,179.0466532758852,-8.511028146131467,98.99291188020266,1525.0,1435.0,1200.0,1883.0,1475.0,1018.02,58.0,292.45,1637150128.9707062,1637150130.1728566,1e4db56f-24b6-4273-9257-5bbe3d2362ce
0.0100434742407481,0.1279434501498246,-0.1035831797004914,-0.0710812445754009,-0.1719837981737897,0.1710876084782533,-0.2855145850196849,-0.3219337410903205,-13.692480781274556,12.733035303796528,31.240773471836743,0.6221371654938702,0.3022924982139998,0.8260742853682919,7025.75927734375,11.808,8.64,-179.1023952086116,-8.677282349901176,85.6682487215319,1525.0,1435.0,1350.0,1528.0,1475.0,1018.02,58.0,292.45,1637150133.656985,1637150134.6782522,0334ee20-0cea-4af4-95e0-34b20e05750a
-0.009118011637844,0.1330385698231403,-0.1019806822460063,-0.0604116249969853,-0.1681761545492746,0.1681976347037331,-0.2855282815875732,-0.3179343446883984,-13.824114206342658,12.617261479994164,32.94353003062448,0.5910924441867628,0.3060284432018016,0.8217903691964022,7048.8701171875,11.810333333333332,8.630000000000003,-178.54157900060056,-8.60326842791641,79.29070605364467,1525.0,1435.0,1350.0,1528.0,1475.0,1018.02,58.0,292.45,1637150134.786456,1637150135.9056032,0334ee20-0cea-4af4-95e0-34b20e05750a
-0.0006261450969937,0.1321072038628715,-0.1068703539617722,-0.0681912706063423,-0.174353303006554,0.1674443240085708,-0.2881991108964615,-0.3248921978316275,-13.599927189124893,12.541677451155683,31.659696548631985,0.6061122998293934,0.3129736776697671,0.8388678798388876,7048.8701171875,11.812,8.628888888888888,-178.26905748835668,-8.5227603241233,73.91993478723718,1525.0,1435.0,1350.0,1528.0,1475.0,1018.02,58.0,292.45,1637150136.0137336,1637150137.248567,0334ee20-0cea-4af4-95e0-34b20e05750a
0.0921269499523187,0.3104363885296469,-0.0975840867109883,-0.1590131561937173,-0.2040748379372687,0.0804300891174086,-0.316866012255457,-0.349915815193321,-13.745289688865029,11.94471886511714,32.173413702742344,0.6119654193222569,0.9900530151325952,0.929156454917845,7054.671875,11.804333333333334,8.697777777777778,-178.4031902610972,-8.36724498013988,64.15508805625656,1610.0,1435.0,1350.0,1528.0,1542.0,1018.02,58.0,292.45,1637150139.1825137,1637150140.2081163,28f4ab82-0e79-4a2c-a34a-d7810e10c791
0.093222674614759,0.3127374102228691,-0.101569785481935,-0.1715865980071519,-0.2133337124833486,0.0698426494048477,-0.3233855751562349,-0.33856136526385,-13.497151229747407,12.144895924165295,29.300463653334017,0.6173321113003666,1.0236886489132837,0.9526903001760232,7060.48291015625,11.808444444444442,8.615555555555554,-178.61738802910844,-8.366807942896738,60.94652473137303,1610.0,1435.0,1350.0,1528.0,1542.0,1018.02,58.0,292.45,1637150140.3168504,1637150141.4365494,28f4ab82-0e79-4a2c-a34a-d7810e10c791
0.0997833260266479,0.3111349129729922,-0.0961459479708075,-0.1487818260876394,-0.2018422986471997,0.0786906262016253,-0.3178658611863484,-0.3541754445850964,-13.835779759561072,12.044300285975376,33.36301718918366,0.5858530661204523,0.9816031107189632,0.927326795797986,7060.48291015625,11.801,8.75,-178.86443141792836,-8.377811851968321,58.294257547089806,1610.0,1435.0,1350.0,1528.0,1542.0,1018.02,58.0,292.45,1637150141.5443952,1637150142.672742,28f4ab82-0e79-4a2c-a34a-d7810e10c791
0.1874139056174497,0.4943400661539766,-0.0844216932136582,-0.25868302324681,-0.2370287614454339,-0.0062828237787942,-0.3436153955284966,-0.3567777912254534,-13.57614125339668,11.703773181388716,32.36473057005829,0.6411145100661692,1.6900126243551246,1.016049984038359,7066.30322265625,11.803666666666668,8.717777777777778,-179.4035594985949,-8.41832217825436,53.24014523425271,1695.0,1435.0,1350.0,1528.0,1609.0,1018.02,58.0,292.45,1637150144.71285,1637150145.7383516,5d4a07ab-f889-4e00-ab88-fc1025562bc8
0.1979739518753196,0.4963534600837683,-0.0826411405043092,-0.2581077677380209,-0.2350564567715368,-0.0107342054162675,-0.3438071473707989,-0.3683376890818833,-13.700058971557633,11.711706472792264,32.09452702781446,0.6298498270335554,1.7008781278741143,1.010987210082703,7066.30322265625,11.802444444444443,8.723333333333334,-179.64766287043207,-8.429324000323696,51.56950221274501,1695.0,1435.0,1350.0,1528.0,1609.0,1018.02,58.0,292.45,1637150145.8463123,1637150147.0023837,5d4a07ab-f889-4e00-ab88-fc1025562bc8
0.1835103866149917,0.4975313640158169,-0.0877088674371373,-0.2632165848231957,-0.2410007638943219,-0.0088166872049271,-0.3474778257144801,-0.3652148726913444,-13.588452743175807,11.661187770162764,31.828947432527087,0.6451095974209194,1.7071667686863763,1.031039642804975,7066.951063368056,11.800444444444445,8.778888888888888,-179.85267023946005,-8.46672962617701,50.2356429177422,1695.0,1435.0,1350.0,1528.0,1609.0,1018.02,58.0,292.45,1637150147.1157217,1637150148.308316,5d4a07ab-f889-4e00-ab88-fc1025562bc8
0.2613890150999299,0.6160613708619143,-0.0647945238499539,-0.3160031290565558,-0.247616202474421,-0.0657532830450503,-0.3545452511568396,-0.3867321705036842,-13.735619292328456,11.76631458529116,33.39457725556708,0.6382523455266641,2.146845414550101,1.034819270042986,7064.363118489583,11.795666666666667,8.8,179.78026416297865,-8.488265402357538,48.419032302937104,1779.0,1435.0,1350.0,1528.0,1677.0,1018.02,58.0,292.45,1637150149.218236,1637150150.3621929,7f61ccdc-d93f-4930-8f43-1563220780a1
0.2571534915336949,0.6141142682812191,-0.063490611434028,-0.3228618187467253,-0.2484138901516497,-0.0646476967683107,-0.3512893046867426,-0.365055993354939,-13.503734721575697,11.79662754192008,32.39925142848138,0.6564322075427644,2.14765054843603,1.0279427642127166,7066.30322265625,11.793444444444445,8.788888888888888,179.5777095907726,-8.504130224252185,47.506698132561645,1779.0,1435.0,1350.0,1528.0,1677.0,1018.02,58.0,292.45,1637150150.4793663,1637150151.5844564,7f61ccdc-d93f-4930-8f43-1563220780a1
0.2752773247350327,0.615897012173995,-0.0693691746147345,-0.3330553472731556,-0.2566833253773846,-0.0715469275979048,-0.3589007575644,-0.379938675744141,-13.469623841505015,11.85858142827458,30.280820142446487,0.6637202845447846,2.1737545192317014,1.0551931511212125,7066.30322265625,11.795555555555556,8.744444444444445,179.41930232572184,-8.544371896430867,46.79331978360957,1779.0,1435.0,1350.0,1528.0,1677.0,1018.02,58.0,292.45,1637150151.6930952,1637150152.8135176,7f61ccdc-d93f-4930-8f43-1563220780a1
0.3249744626102895,0.7298227839973436,-0.0550885942264061,-0.4020958766215584,-0.277682891759719,-0.141554425566022,-0.3770081591568557,-0.391918784221575,-13.30168421595979,12.26558470051314,27.141046769054256,0.6651357981685885,2.637097108725891,1.0988121036774057,7058.5458984375,11.786666666666669,8.839999999999998,178.9769291870179,-8.568950996205327,45.29924550015568,1864.0,1435.0,1350.0,1528.0,1744.0,1018.02,58.0,292.45,1637150154.74802,1637150155.889639,94e809d6-2643-4151-9e28-06e1d1afb2dc
0.3370898896901353,0.7291812372571466,-0.0522347791473317,-0.3881566124129944,-0.2705853341571496,-0.1312776230833979,-0.3732273604892175,-0.4013874914059847,-13.561972681585443,12.178926381721828,30.363363588132007,0.6567358464357328,2.6064370887076627,1.0843147853424682,7058.5458984375,11.788333333333334,8.84,178.84606731597992,-8.596720837823305,44.84690370035811,1864.0,1435.0,1350.0,1528.0,1744.0,1018.02,58.0,292.45,1637150155.9978745,1637150157.1148343,94e809d6-2643-4151-9e28-06e1d1afb2dc
0.3360763443966634,0.7290716647985492,-0.0542892630251108,-0.3898001995803435,-0.2732561634457401,-0.1302914706555823,-0.375254451497176,-0.4065100054843585,-13.53532927716096,12.21696086141904,30.256886882624503,0.6628056667716675,2.606854012732992,1.093464361647517,7058.5458984375,11.79,8.796666666666667,178.70333912962388,-8.63029861696552,44.40643049260829,1864.0,1435.0,1350.0,1528.0,1744.0,1018.02,58.0,292.45,1637150157.2233803,1637150158.3426485,94e809d6-2643-4151-9e28-06e1d1afb2dc
-0.1240458396388807,-0.0726700453869196,-0.1112532529560286,0.0157686358894347,-0.1313461056947479,0.2887136479688428,-0.2441646693052601,-0.2726398191619332,-14.011807077987084,12.986584461876276,31.51602336832696,0.6917285551880097,-0.4614845228263776,0.6988540599122075,7060.48291015625,11.804888888888888,8.77,178.67801734164092,-8.681684122230036,43.6330584181715,1440.0,1435.0,1350.0,1528.0,1408.0,1018.02,58.0,292.45,1637150160.1647198,1637150161.3092248,27b22624-798a-491d-bda0-78cec8db06df
-0.1185261261113879,-0.081422146723846,-0.1157320278965321,0.0224936462050088,-0.1330444790840025,0.2935074431792412,-0.246027401509341,-0.2794196172445866,-13.96576511422694,12.943182684699517,31.83442428363088,0.6868940800523172,-0.4985707362792937,0.709423550798599,7066.30322265625,11.80488888888889,8.751111111111111,178.61353276677696,-8.665644561329122,43.43789411064737,1440.0,1435.0,1350.0,1528.0,1408.0,1018.02,58.0,292.45,1637150161.424924,1637150162.643399,27b22624-798a-491d-bda0-78cec8db06df
-0.1175947601352121,-0.0820658850064116,-0.1142938891399813,0.0245344334567391,-0.1297162151203714,0.2948223127187486,-0.2424936889624238,-0.2774199183145734,-13.950339945211589,12.764433290291649,32.21980451493628,0.6842011062789047,-0.5046730627856024,0.6984664353129283,7072.1337890625,11.807,8.72888888888889,178.55821278795926,-8.654105336181338,43.23641946724006,1440.0,1435.0,1350.0,1528.0,1408.0,1018.02,58.0,292.45,1637150162.751589,1637150163.873319,27b22624-798a-491d-bda0-78cec8db06df
-0.2196067370953335,-0.2655723930077142,-0.1310721745108729,0.1057139359149867,-0.1091850724919571,0.3908762713261893,-0.2224693180271454,-0.2578749268528378,-14.026628471065877,13.67351084211372,30.94353983413264,0.721875200806592,-1.192125756495361,0.6411434606875783,7077.97412109375,11.799,8.78,178.51710263825487,-8.639397851896055,43.08472058631913,1355.0,1435.0,1350.0,1528.0,1341.0,1018.02,58.0,292.45,1637150164.670718,1637150165.716067,9b8a2f93-cae7-4f2d-adc3-bd19ba97915a
-0.2227432493972565,-0.2649834409176574,-0.1307434570717076,0.0955236964871942,-0.1108286596149237,0.3911365059149151,-0.2211681448172886,-0.2422471520134923,-13.940696294319006,13.676225304958605,29.73513112488672,0.7453316573699834,-1.178539417444658,0.639417955030965,7077.97412109375,11.797444444444444,8.77222222222222,178.49197816684793,-8.625645645457187,43.02380592366132,1355.0,1435.0,1350.0,1528.0,1341.0,1018.02,58.0,292.45,1637150165.824423,1637150166.9472015,9b8a2f93-cae7-4f2d-adc3-bd19ba97915a
-0.2202367788452115,-0.2580118916974253,-0.1343319556747014,0.0978247183070992,-0.1130064125653631,0.3830144473081016,-0.2271809346995823,-0.24650678165936,-14.107423587858468,13.511428572021677,29.81865499490732,0.7205480129220819,-1.1524656759158338,0.6567691595491674,7077.97412109375,11.796,8.690000000000001,178.48086165451878,-8.62443205365091,42.91978517824165,1355.0,1435.0,1350.0,1528.0,1341.0,1018.02,58.0,292.45,1637150167.058996,1637150168.1732676,9b8a2f93-cae7-4f2d-adc3-bd19ba97915a
-0.3284943924044776,-0.4417649535566977,-0.1445495890987675,0.1813737235482848,-0.0854626317239624,0.4825884199284003,-0.2024038576089042,-0.2266467692236227,-14.442877741560764,14.550720439920056,29.361505229827817,0.7619770285678408,-1.846142198535186,0.5750965357135384,7065.009819878473,11.793,8.793333333333333,178.54527792749107,-8.603201928435745,42.79780255312468,1271.0,1435.0,1350.0,1528.0,1273.0,1018.02,58.0,292.45,1637150169.2886446,1637150170.3191178,620e4b35-b544-4b9e-987e-e1a02b66968a
-0.3127844372704667,-0.4467094123283142,-0.1386463719221898,0.1849211321146072,-0.0787102279949703,0.4919294720507507,-0.1947063909186153,-0.2191958405862472,-14.480897327322564,14.628206022248415,30.5160070917299,0.775938033591541,-1.8747113680544256,0.5478959880057018,7061.776312934027,11.791999999999998,8.801111111111112,178.56943251203586,-8.610004132802905,42.74887259573052,1271.0,1435.0,1350.0,1528.0,1273.0,1018.02,58.0,292.45,1637150170.4518871,1637150171.5417416,620e4b35-b544-4b9e-987e-e1a02b66968a
-0.3150646407367699,-0.4368478879336187,-0.1434478378577238,0.1750924820103843,-0.0871056709858286,0.4797083078452935,-0.2015782289879095,-0.2148452650599701,-14.281018416862237,14.56254944282403,28.82146762194068,0.7698026406446048,-1.823216072671867,0.5745436399089381,7066.30322265625,11.796,8.83,178.57611547268377,-8.594570466599615,42.78886752732544,1271.0,1435.0,1350.0,1528.0,1273.0,1018.02,58.0,292.45,1637150171.6503663,1637150172.6793935,620e4b35-b544-4b9e-987e-e1a02b66968a
-0.3762816937336699,-0.5589527392951604,-0.1404543177866259,0.2386527290297112,-0.0585214997841903,0.5389908430277645,-0.1787635952649174,-0.1964595512452337,-14.653107327005744,15.367534373049418,28.653074136789865,0.764913324504127,-2.28467968498159,0.4840017977027631,7066.30322265625,11.778333333333332,8.878888888888888,178.62800214307865,-8.616846938850134,42.66310021849837,1186.0,1435.0,1350.0,1528.0,1206.0,1018.02,58.0,292.45,1637150174.705685,1637150175.750425,d8d65706-b4dd-453c-860e-ac7a79add94c
-0.3875539635584179,-0.5587609873794749,-0.1440565129761097,0.2279557173295198,-0.0674790494585583,0.5359365107552571,-0.1851051024462194,-0.2170043914255326,-14.50815769731616,15.719664944118485,26.803115578064148,0.7841126903682812,-2.2674956374920163,0.507418499774765,7066.30322265625,11.78122222222222,8.872222222222222,178.63884089438156,-8.598287417600439,42.684806180225706,1186.0,1435.0,1350.0,1528.0,1206.0,1018.02,58.0,292.45,1637150175.8585498,1637150176.9805157,d8d65706-b4dd-453c-860e-ac7a79add94c
-0.3957719004548373,-0.5567201995552887,-0.1520826969249437,0.2227784184112434,-0.0755189297356206,0.5313344674982471,-0.1934600039749908,-0.2062525916631112,-14.512550056241528,15.619960701202208,25.69425016471937,0.7842104302001703,-2.249855580015037,0.5398807115428975,7066.30322265625,11.781555555555554,8.871111111111112,178.68336006739167,-8.59130127244438,42.67731573943593,1186.0,1435.0,1350.0,1528.0,1206.0,1018.02,58.0,292.45,1637150177.0895112,1637150178.0958576,d8d65706-b4dd-453c-860e-ac7a79add94c
-0.0148157800895625,0.1286556711814987,-0.1103218869118936,-0.0700540026391918,-0.1771610977501671,0.1484471978265971,-0.2958965778860851,-0.3200984019903213,-13.736442421935244,12.56534534224889,28.19411049418252,0.5669889691184294,0.3317208894139562,0.8529295158843136,7063.716417100694,11.808,8.70888888888889,178.55914776496564,-8.608125071871244,42.71334840240233,1525.0,1435.0,1350.0,1528.0,1475.0,1018.02,58.0,292.45,1637150180.2917674,1637150181.3789718,57bd2d39-3d52-45c4-b693-056361e25293
-0.0155964839318918,0.1234372824652101,-0.1097466314213598,-0.0651369378887771,-0.1751066137812431,0.1549941526394288,-0.2931298726535,-0.3300968905664429,-13.697868585431385,12.563907062421563,29.05376964139829,0.5707847184353804,0.3036876533321023,0.8460596261992223,7062.423014322917,11.808333333333332,8.683333333333334,178.59953846807747,-8.59191409219491,42.83876319757725,1525.0,1435.0,1350.0,1528.0,1475.0,1018.02,58.0,292.45,1637150181.5135975,1637150182.5146582,57bd2d39-3d52-45c4-b693-056361e25293
-0.0089810459866977,0.1210951710002342,-0.1028846551670937,-0.0445099198757147,-0.1615744127595523,0.161335659070175,-0.2847612741888396,-0.3110586719563857,-13.970909238194537,12.329897411972462,32.39010846913707,0.5376902234784208,0.2651573557467099,0.8108677227888682,7066.30322265625,11.807,8.737777777777778,178.64133011887907,-8.59700248826283,42.96541577481175,1525.0,1435.0,1350.0,1528.0,1475.0,1018.02,58.0,292.45,1637150182.627878,1637150183.7353382,57bd2d39-3d52-45c4-b693-056361e25293
0.0036882709520686,0.1221635025447331,-0.1244978259527805,-0.3273164881702218,-0.2160730245020878,0.4182419932001097,-0.235850857284459,-0.272420673853333,-13.788640623931837,12.084052159770325,32.146683395261654,1.75028240555758,0.3034768790055382,0.8424545493629241,7072.1337890625,11.805,8.678888888888888,178.68025916150853,-8.53580579571055,43.1678849696532,1525.0,1535.0,1350.0,1528.0,1475.0,1018.02,58.0,292.45,1637150185.6727417,1637150186.7041166,89e778f9-cb39-4306-bbf3-251d1dd1d7f6
0.0034417329181103,0.124642579595556,-0.1301955946983986,-0.3296038138341149,-0.2197847922611646,0.4217620084618858,-0.2404529014927238,-0.265394338602728,-13.95504452804371,11.899057107954029,32.65612230557428,1.7618393747784726,0.3093548201257545,0.862787114519862,7066.30322265625,11.804555555555556,8.724444444444446,178.70963808185843,-8.532625299150785,43.27101437538618,1525.0,1535.0,1350.0,1528.0,1475.0,1018.02,58.0,292.45,1637150186.836572,1637150188.039704,89e778f9-cb39-4306-bbf3-251d1dd1d7f6
-0.0053788510399957,0.1218210885898637,-0.1303873465353604,-0.3294668481737631,-0.2210311792185887,0.4196527386104034,-0.2398365562764856,-0.2723247980880154,-13.73679208677377,11.942649998218668,31.981548621693666,1.7570723691641683,0.3031782256752166,0.8627116845828162,7066.30322265625,11.81,8.684444444444445,178.72458405358222,-8.521752302038294,43.36431362108369,1525.0,1535.0,1350.0,1528.0,1475.0,1018.02,58.0,292.45,1637150188.148331,1637150189.2674854,89e778f9-cb39-4306-bbf3-251d1dd1d7f6
0.0098243293357851,0.1202048947113215,-0.1505212891268072,-0.6087260488614449,-0.2701059545522446,0.700884149946992,-0.1859816822991743,-0.2111285665239519,-13.972890524787326,11.64680428473332,35.311977197633155,3.016425549662036,0.3023714411627194,0.8823296739359195,7072.1337890625,11.804,8.7,178.71168106733018,-8.451540328964024,43.60056379319517,1525.0,1636.0,1350.0,1528.0,1475.0,1018.02,58.0,292.45,1637150191.2024086,1637150192.1318328,f3e65708-1ffb-4e0b-8e1f-d9066d1b414a
0.0061185883269622,0.1303343213622702,-0.1504823908734271,-0.6105685105331167,-0.2693466172179473,0.6922175163764059,-0.1851818031893368,-0.2156604846243947,-13.874236838273609,11.266767721696702,35.2569966105335,2.998630133077393,0.340374861997183,0.8814604754906548,7072.1337890625,11.802,8.736666666666666,178.71883455212094,-8.429758855700852,43.69051396946966,1525.0,1636.0,1350.0,1528.0,1475.0,1018.02,58.0,292.45,1637150192.2408535,1637150193.3631184,f3e65708-1ffb-4e0b-8e1f-d9066d1b414a
0.0120157786999382,0.1269025117142733,-0.1438510645690126,-0.6017818914144036,-0.2614634249258625,0.6989255422597305,-0.1766680216166257,-0.2073483164573973,-13.80898095968626,11.282039977686273,36.93955236538411,2.994615997581328,0.3114680038755506,0.8516365000976505,7072.1337890625,11.801444444444444,8.7,178.7361513583966,-8.431565156145107,43.698965569657645,1525.0,1636.0,1350.0,1528.0,1475.0,1018.02,58.0,292.45,1637150193.471131,1637150194.5950096,f3e65708-1ffb-4e0b-8e1f-d9066d1b414a
0.0233565293339146,0.1256013386841915,-0.1680939752109352,-0.8558394618731094,-0.3180028267916094,0.924959828249624,-0.1430292710206974,-0.1579174321716911,-13.765761463762209,11.490036419286454,35.66773279020712,4.07562757193165,0.3473006027268499,0.9095625787225222,7072.1337890625,11.794444444444444,8.72,178.7225607997681,-8.390078871717666,43.76701170871885,1525.0,1725.7777777777778,1350.0,1528.0,1475.0,1018.02,58.0,292.45,1637150195.1332104,1637150196.236901,291c8b30-aa66-4b1c-b0e9-a7cca9a9398d
0.0282188076396794,0.1312169275800236,-0.1686692307006309,-0.8589211891483891,-0.3175508402944587,0.9209056472217744,-0.1431388434948535,-0.1702991221628643,-13.814854553227036,11.241779084600688,35.470913258820154,4.071738449413403,0.3707930988717063,0.9103295279914616,7068.894585503473,11.792555555555555,8.755555555555556,178.73893655775817,-8.383952761214594,43.810672175168335,1525.0,1737.0,1350.0,1528.0,1475.0,1018.02,58.0,292.45,1637150196.3686476,1637150197.3524373,291c8b30-aa66-4b1c-b0e9-a7cca9a9398d
