raw_voltage_G-,raw_voltage_G0,raw_voltage_G1,raw_voltage_G2,raw_voltage_G3,raw_voltage_G4,raw_voltage_G5,raw_voltage_G6,load_x,load_y,load_z,load_l,load_m,load_n,rpm,voltage,current,roll,pitch,yaw,aileron1_pwm,elevator_pwm,throttle_pwm,rudder_pwm,aileron2_pwm,pbaro,pdiff,Tt,sample_start_time,sample_end_time,uid
-0.0812714846368704,0.0923734881105113,-0.1233884046047914,-0.070081395708011,-0.3082782686621941,0.1139455675364005,-0.4936201367984871,-0.5260125069249337,-18.370472032610028,29.190444311254662,17.251796270788997,0.5950032348958719,0.3248775967240548,1.300955668018234,-1.0,11.989333333333336,0.0,179.30093514740554,1.13268378067883,95.86632903919704,1553.0,1435.0,1000.0,1528.0,1471.0,1011.0,137.0,293.01,1649153550.397192,1649153551.5347736,7bf0232f-1231-4f8a-9f42-754416071030
-0.0680543049841275,0.0952634619359535,-0.1252648332544232,-0.0732589974394311,-0.3102916630742406,0.1131100774891712,-0.4960581248250066,-0.5203832195772565,-18.445728740940364,29.14909134235584,17.103983572528353,0.5998646562371768,0.3378310382519836,1.3098046303191329,-1.0,11.985444444444443,0.0,179.27537809735117,1.1166935489219223,96.10904740045254,1553.0,1435.0,1000.0,1528.0,1471.0,1011.0,137.0,293.01,1649153551.6442983,1649153552.9794462,7bf0232f-1231-4f8a-9f42-754416071030
-0.0671503321093189,0.0997011468569201,-0.1171975597364025,-0.0763270266931569,-0.3040186383052537,0.1111103799650784,-0.486963607626057,-0.5107408405850777,-18.25084709229367,29.074945006170168,17.10214370009059,0.6022997677347367,0.3539999418563055,1.2779894883302398,-1.0,11.988,0.0,179.29305007346372,1.1103432991207762,96.32986513958932,1553.0,1435.0,1000.0,1528.0,1471.0,1011.0,137.0,293.01,1649153553.1131604,1649153554.1967144,7bf0232f-1231-4f8a-9f42-754416071030
0.1599977792144516,0.5040070963276663,-0.0940613316331905,-0.3140390421085055,-0.3797693858602621,-0.0571397908936825,-0.5423267558683976,-0.5652186430823942,-17.968645642687306,28.09104612150993,18.26772497494619,0.7553967342246675,1.8887826626984787,1.4775347366947562,-1.0,11.976777777777777,0.0,179.13351962174943,1.0955446033509508,96.80899683858644,1647.0,1435.0,1000.0,1528.0,1543.0,1011.0,137.0,293.01,1649153556.442299,1649153557.5936096,24988fa6-196c-4926-8c59-a6812601db2b
0.1671703928185854,0.509214527431119,-0.0938997122203823,-0.317742592155162,-0.3818835870273502,-0.0569874851735122,-0.5437221616450758,-0.5694580035059227,-17.967881301086436,28.1869292587653,18.52384410755107,0.7647781671345607,1.9065061664011784,1.4831008529538348,-1.0,11.951444444444444,0.0,179.12767753327932,1.1039746576123333,96.91054657334638,1647.0,1435.0,1000.0,1528.0,1543.0,1011.0,137.0,293.01,1649153557.7016523,1649153558.8105204,24988fa6-196c-4926-8c59-a6812601db2b
0.158034788490036,0.5046672703943321,-0.098488059601981,-0.31467456255879,-0.3842120024359432,-0.0563985331215117,-0.5471599988380321,-0.5775252787532694,-18.00505797297284,28.10574553510104,18.346181824598336,0.7583672179712141,1.890618937788627,1.4966548350991469,-1.0,11.965111111111112,0.0,179.13541689651888,1.1070416259930806,96.99172944291124,1647.0,1435.0,1000.0,1528.0,1543.0,1011.0,137.0,293.01,1649153558.9189978,1649153560.0465744,24988fa6-196c-4926-8c59-a6812601db2b
0.4108748888414471,0.9538108048900032,-0.0648843732905384,-0.5674013269769889,-0.4630400968547292,-0.2548830494773741,-0.6065055618905297,-0.6220341783573855,-17.60311085519393,27.379123395904383,19.5148651325718,0.8796806678565008,3.5952114211108244,1.6970695802353264,-1.0,11.956333333333331,0.0,178.8796354190208,1.1108688679478478,97.09460423437018,1745.0,1435.0,1000.0,1528.0,1614.0,1011.0,137.0,293.01,1649153562.381398,1649153563.632489,cb0afc63-39ae-4f83-8d3f-f9bdfaff6909
0.4149509843642353,0.9512862553940656,-0.0682504396593277,-0.570425527976673,-0.4659196620074713,-0.2510173322981478,-0.6064661157669093,-0.6286874200062678,-17.44028094855301,27.248530591763856,19.304901671931283,0.8942044789677827,3.586607994837118,1.7050631545873782,-1.0,11.933666666666666,0.0,178.8765527269754,1.1071904553407763,97.08948842268182,1745.0,1435.0,1000.0,1528.0,1614.0,1011.0,137.0,293.01,1649153563.744859,1649153564.9643755,cb0afc63-39ae-4f83-8d3f-f9bdfaff6909
0.4125184757413956,0.9575844804282384,-0.065370875062197,-0.5712933422098815,-0.4649598069482918,-0.2554747408737299,-0.6066107514645522,-0.6331448298520155,-17.49341471851401,27.342258962049183,19.44452549585657,0.8869058934715253,3.609659738456337,1.700912342504013,-1.0,11.924555555555555,0.0,178.86743518334333,1.114505006901462,97.1005282851103,1745.0,1435.0,1000.0,1528.0,1614.0,1011.0,137.0,293.01,1649153565.0728035,1649153566.1901977,cb0afc63-39ae-4f83-8d3f-f9bdfaff6909
0.6048575870083086,1.31527064353883,-0.0324158582624806,-0.7781662408947613,-0.5286422464753472,-0.4185081922559119,-0.6550204327747852,-0.6838516996306329,-17.20476130710723,27.464545521013783,18.947255107454986,0.9897201601169586,4.98112632647171,1.8525703825401945,-1.0,11.921666666666663,0.0,178.44926975287774,1.133628054331584,97.05816896969768,1849.0,1435.0,1000.0,1528.0,1686.0,1011.0,137.0,293.01,1649153567.8068526,1649153568.940258,6b76b39a-41b9-4ad6-8c3b-cfdff1d32c0b
0.6005568680219725,1.2977801382893983,-0.0219242941983566,-0.7704139854715503,-0.5145210909126441,-0.4129884779450437,-0.6394611369141056,-0.656581842135994,-17.081266559538413,27.42492788960348,18.41092144663177,0.984872955460616,4.919115712644154,1.794180370308699,-1.0,11.880666666666665,0.0,178.44720703574842,1.144063302722894,97.01922171323046,1849.0,1435.0,1000.0,1528.0,1686.0,1011.0,137.0,293.01,1649153569.051668,1649153570.171571,6b76b39a-41b9-4ad6-8c3b-cfdff1d32c0b
0.6316677760539201,1.31629405046639,-0.0255829189281871,-0.7820275764195894,-0.522156650295374,-0.4172826237522715,-0.6461094485612943,-0.6779819008499496,-17.11224869869435,27.352534116019044,18.82010910695229,1.0008084014032532,4.98634352029989,1.8217566902116369,-1.0,11.882888888888887,0.0,178.45279261266964,1.1495723838970384,96.99087187471548,1849.0,1435.0,1000.0,1528.0,1686.0,1011.0,137.0,293.01,1649153570.2800636,1649153571.407483,6b76b39a-41b9-4ad6-8c3b-cfdff1d32c0b
0.6480976182831332,1.3594420460215428,0.012727999856394,-0.8331716461679556,-0.5095218454667151,-0.4392173933142096,-0.6231622263200256,-0.6422689327431397,-16.850821534440275,28.30035850768248,15.242193844345396,1.074638662187693,5.1867771050097575,1.7191736342902664,-1.0,11.87922222222222,0.0,178.39075628116814,1.1524522454116162,96.88387847918705,1962.0,1435.0,1000.0,1528.0,1760.0,1011.0,137.0,293.01,1649153573.3366668,1649153574.2870636,fbf31d10-48d8-4125-900f-371772faa351
0.6545623933069998,1.3676188919079066,0.0191379892948698,-0.8332949153529636,-0.5059059532064594,-0.4462300333287943,-0.619765478788502,-0.6379819083158725,-16.78322310144385,28.3808698779674,15.404436821330284,1.0600711728907306,5.215951749706901,1.701906270011474,-1.0,11.779,0.0,178.41353420314024,1.1473201290182269,96.69609684724576,1962.0,1435.0,1000.0,1528.0,1760.0,1011.0,137.0,293.01,1649153574.396819,1649153575.4997642,fbf31d10-48d8-4125-900f-371772faa351
0.6523435510315143,1.3524294078355836,0.013371738067801,-0.8272547300147522,-0.5075358440248426,-0.4373683578147522,-0.6222856464412714,-0.6439810031748026,-16.876865333415278,28.394075509670653,15.30763646936012,1.066097215995211,5.159393663361553,1.713582054446297,-1.0,11.79288888888889,0.0,178.39735272608658,1.1561251914957582,96.55870607427116,1962.0,1435.0,1000.0,1528.0,1760.0,1011.0,137.0,293.01,1649153575.607907,1649153576.731694,fbf31d10-48d8-4125-900f-371772faa351
-0.3593801372138943,-0.4246031618871198,-0.1416322219149975,0.2463091049581322,-0.2041296241560439,0.3210238275980818,-0.4181520814463117,-0.4418060442959917,-18.642057490518795,30.99226893352713,16.29764192446112,0.3573835672930861,-1.6438007445434273,1.014464084106308,-1.0,11.838333333333336,0.0,179.45300399690652,1.08043918939871,96.40764050366826,1459.0,1435.0,1000.0,1528.0,1394.0,1011.0,137.0,293.01,1649153577.31026,1649153578.364576,4976f458-c6a9-405f-ae82-7dadd50d4227
-0.3567914872091371,-0.4247264309499916,-0.1448783065464176,0.2431178069790261,-0.2074715847909029,0.3238453184811952,-0.4215351321490657,-0.4382860273536339,-18.733471161783704,31.024870151598005,16.238421459539364,0.370921649079603,-1.64290351997008,1.028053739006203,-1.0,11.979444444444445,0.0,179.4512585041186,1.0648934772623166,96.36180310414832,1459.0,1435.0,1000.0,1528.0,1394.0,1011.0,137.0,293.01,1649153578.4726582,1649153579.5891173,4976f458-c6a9-405f-ae82-7dadd50d4227
-0.363242567450026,-0.4203846209517602,-0.141358290705627,0.2427890895848478,-0.2046911830902281,0.3196267787277344,-0.4189601785506949,-0.4398611320506016,-18.70715415577164,30.984756694600808,16.224279622314192,0.3621038822453417,-1.6264170771473967,1.0163397758819557,-1.0,11.979222222222225,0.0,179.4618893141068,1.0797861237071311,96.31242311317884,1459.0,1435.0,1000.0,1528.0,1394.0,1011.0,137.0,293.01,1649153579.6976635,1649153580.8280652,4976f458-c6a9-405f-ae82-7dadd50d4227
-0.6310147399304908,-0.8965790749060929,-0.1702448829096326,0.5441369135541134,-0.1205428074062756,0.5090693439209009,-0.3654110069028101,-0.3871326573563997,-19.06999821391313,32.8612963596786,16.348035484503818,0.1188782904437369,-3.4498663255139843,0.8090329427842431,-1.0,11.968666666666667,0.0,179.6252188688194,1.0505086719834464,96.1675881929188,1364.0,1435.0,1000.0,1528.0,1312.0,1011.0,137.0,293.01,1649153582.9605415,1649153584.0985289,616fcb93-1899-4dbc-afbe-5c50a09fa992
-0.6381188734653486,-0.8979153118889035,-0.1778733188838178,0.5420862649912475,-0.1275521587148825,0.5143644329825411,-0.3730219120108956,-0.3908822286727972,-19.212227010156457,32.901882732905655,16.587663435107608,0.1352586338402909,-3.456225617764348,0.8398568253922686,-1.0,11.946,0.0,179.63148898247744,1.0523351428300924,95.99054285944293,1364.0,1435.0,1000.0,1528.0,1312.0,1011.0,137.0,293.01,1649153584.2076652,1649153585.3331993,616fcb93-1899-4dbc-afbe-5c50a09fa992
-0.6274645908220551,-0.8898074926845574,-0.1695611506587323,0.5448469430757088,-0.1211607961813222,0.5022714685729212,-0.3684352075941557,-0.3907354007997856,-19.16523595237861,32.92766469140354,16.40848564608691,0.1024366090716047,-3.4243734233413687,0.814065487465423,-1.0,11.947,0.0,179.625765283953,1.0450275163223155,95.87316605855624,1364.0,1435.0,1000.0,1528.0,1312.0,1011.0,137.0,293.01,1649153585.4459212,1649153586.7624712,616fcb93-1899-4dbc-afbe-5c50a09fa992
-0.8968880696524599,-1.3828560363719875,-0.1952268601815837,0.8535870674004936,-0.0351825631094345,0.698870756030796,-0.3118941606974928,-0.3305214838698858,-19.39546435443874,35.327092879428164,16.186835188113676,-0.1377437254715109,-5.309610144683911,0.5930325547356552,-1.0,11.931333333333336,0.0,179.78634303133998,1.0235525003662798,95.68362603235866,1262.0,1435.0,1000.0,1528.0,1222.0,1011.0,137.0,293.01,1649153587.8776667,1649153589.0168524,5d37c865-4838-4545-9326-1068730d38cc
-0.9019968888114792,-1.3739669609545508,-0.1988290554417741,0.843095504442855,-0.0397161241452817,0.6984050730827066,-0.3156333217525479,-0.3311789187815477,-19.49384165215562,35.1651592359329,15.959744076951884,-0.1164623448745038,-5.272501084536777,0.6101023450570263,-1.0,11.89,0.0,179.7971347302286,1.03595040835878,95.47191748884497,1262.0,1435.0,1000.0,1528.0,1222.0,1011.0,137.0,293.01,1649153589.1260445,1649153590.2415178,5d37c865-4838-4545-9326-1068730d38cc
-0.904517056896708,-1.3679541657808283,-0.1968841439332512,0.8483412859258269,-0.0397572138278614,0.6875710962926025,-0.3187561376023953,-0.3432729822346766,-19.50099668905318,35.32952032602909,15.93736692958855,-0.1514616906771818,-5.250220260707605,0.6126229294113849,-1.0,11.889,0.0,179.78246803735087,1.042417672581332,95.29713294798434,1262.0,1435.0,1000.0,1528.0,1222.0,1011.0,137.0,293.01,1649153590.3500874,1649153591.4710753,5d37c865-4838-4545-9326-1068730d38cc
-1.0234377723619057,-1.592947785192076,-0.2154764023960093,0.9823566224535976,-0.0139068763687335,0.7921475983343026,-0.3045588307600333,-0.3215732464739496,-19.7455104723984,37.175752394990816,16.969182380468524,-0.2074155721313028,-6.1191449698784846,0.5570205605303987,-1.0,11.84925,0.0,179.83748407275047,1.0367883249382477,95.03478936624114,1153.0,1435.0,1000.0,1528.0,1121.0,1011.0,137.0,293.01,1649153592.3815062,1649153593.521601,a33b18a0-f259-4a74-a56b-1529b292bf77
-1.0000232164211125,-1.5671023475859496,-0.2072798329560865,0.9591190428050066,-0.0133776412978149,0.7847344736434329,-0.2988276418729045,-0.32333078995546,-19.605488103914684,37.055545874726086,16.52803641874858,-0.1720441333138463,-6.015911419732245,0.5394155148790638,-1.0,11.743666666666664,0.0,179.83848469546388,1.055866777517812,94.67215014836064,1153.0,1435.0,1000.0,1528.0,1121.0,1011.0,137.0,293.01,1649153593.6293745,1649153594.5862436,a33b18a0-f259-4a74-a56b-1529b292bf77
-1.0101175866358831,-1.5745121946102507,-0.2139500576858278,0.9604750020034548,-0.0188288717495138,0.7902541862400624,-0.3046075904270318,-0.3277821722530692,-19.665237938060915,37.14865006091788,16.409426982145288,-0.1624632311801001,-6.042816949434797,0.563029966144312,-1.0,11.744999999999996,0.0,179.85762288551825,1.0574933230356272,94.38268900806524,1153.0,1435.0,1000.0,1528.0,1121.0,1011.0,137.0,293.01,1649153594.7080245,1649153595.7713287,a33b18a0-f259-4a74-a56b-1529b292bf77
-0.0653971725332016,0.1072479505271896,-0.1253059229508131,-0.0741081841198346,-0.310264269972106,0.1017419340322471,-0.4990165822773741,-0.5199586270241454,-18.55588048974508,28.939310438569446,17.037672720058733,0.5747757502216827,0.384245885831021,1.3153937619544454,-1.0,11.832666666666666,0.0,179.27513524618067,1.1057605979267169,94.07358424371684,1553.0,1435.0,1000.0,1528.0,1471.0,1011.0,137.0,293.01,1649153596.887051,1649153598.036792,f11dcc0b-4995-47dc-b242-61f23fd09891
-0.0668079181053651,0.1114390973841914,-0.1196081541946277,-0.0790252488593921,-0.3065935917013003,0.1034540038347684,-0.4929353086853316,-0.5203832200302301,-18.480286924719632,28.951431929275937,17.26583785706646,0.5901531814202721,0.3983747898611385,1.2948027538444853,-1.0,11.988888888888887,0.0,179.2879775196401,1.12014146636044,94.38737300001604,1553.0,1435.0,1000.0,1528.0,1471.0,1011.0,137.0,293.01,1649153598.144823,1649153599.2576692,f11dcc0b-4995-47dc-b242-61f23fd09891
-0.0706155615919147,0.1005640300364905,-0.1241828050612542,-0.0729165834620222,-0.3088124345317735,0.1084395510771452,-0.4957294073487001,-0.5177397839199036,-18.480109250037884,29.015215358602905,17.23032094763889,0.5877661880738513,0.3568591690499844,1.3067003817944265,-1.0,11.984666666666666,0.0,179.2886833058543,1.1306248818149591,94.67605929329562,1553.0,1435.0,1000.0,1528.0,1471.0,1011.0,137.0,293.01,1649153599.3658037,1649153600.578741,f11dcc0b-4995-47dc-b242-61f23fd09891
-0.0559038134393188,0.0955428717315259,-0.1632234785293405,-0.4630926916690671,-0.3858703820731434,0.4938957498312904,-0.4272624862745204,-0.453822859035238,-18.47977721418459,28.20905037665384,20.37175549413564,2.327292240066297,0.3557323550551402,1.368123672803303,-1.0,11.979,0.0,179.28385208538143,1.258617006184494,95.0560401717513,1553.0,1537.0,1000.0,1528.0,1471.0,1011.0,137.0,293.01,1649153602.4194422,1649153603.5762186,8d217fc8-d335-4e46-b983-17ebee8d5b3c
-0.0599185488496038,0.0880453756505247,-0.1579585209860325,-0.4568722611825843,-0.3789251298166773,0.493737417623062,-0.4203024415855123,-0.4365328674144373,-18.39071338935074,28.19440690919172,20.166097859321777,2.313081815155269,0.3283722066382405,1.3405032268107548,-1.0,11.974777777777778,0.0,179.29333542358904,1.2708721561085603,95.13797360321496,1553.0,1537.0,1000.0,1528.0,1471.0,1011.0,137.0,293.01,1649153603.684541,1649153604.8845465,8d217fc8-d335-4e46-b983-17ebee8d5b3c
-0.0628331766766383,0.0815658077649304,-0.1703106264162467,-0.456347408904046,-0.3890392184857743,0.5011801268880941,-0.4300237131062037,-0.4594767993821416,-18.409319548600845,28.13817994968124,20.306011391590303,2.327647787956596,0.302112895497384,1.38438525402486,-1.0,11.969,0.0,179.29089932278507,1.2686257116337305,95.2142372187576,1553.0,1537.0,1000.0,1528.0,1471.0,1011.0,137.0,293.01,1649153604.9926798,1649153606.012122,8d217fc8-d335-4e46-b983-17ebee8d5b3c
-0.0436333400651672,0.0799507095940302,-0.2018696917636787,-0.9149812334617184,-0.4710482026526685,0.9462305820955074,-0.3405062761816211,-0.3571202050309565,-18.2793182385634,27.619992922015456,23.53786797791908,4.357875188000026,0.3209494904952099,1.4122942428437149,-1.0,11.964444444444444,0.0,179.31063098038732,1.419765098083125,95.36984486515856,1553.0,1645.0,1000.0,1528.0,1471.0,1011.0,137.0,293.01,1649153607.946708,1649153609.1131918,26b45f68-a218-4939-8ebf-528dc1ca1203
-0.0539194559620618,0.0732120028262252,-0.2047048796597112,-0.910118952318201,-0.4715138857365302,0.947696113731269,-0.3424785809205171,-0.3693923238918361,-18.341817340688632,27.608109500604986,23.42610133339907,4.349931091501667,0.2963295930375118,1.418632116708146,-1.0,11.952333333333334,0.0,179.30635831760654,1.4204023808202146,95.3559962771614,1553.0,1645.0,1000.0,1528.0,1471.0,1011.0,137.0,293.01,1649153610.226312,1649153611.3372805,26b45f68-a218-4939-8ebf-528dc1ca1203
-0.0489613015835682,0.0699385253350333,-0.2072524398047207,-0.9130637141195128,-0.4741847152978547,0.9545991787489873,-0.3429031742948673,-0.3631466917994963,-18.289748025731143,27.62979929742599,23.553921370550256,4.372149379878452,0.2827520919357431,1.4261328977850578,-1.0,11.957333333333333,0.0,179.2853031211251,1.411417610848115,95.34654708989964,1553.0,1645.0,1000.0,1528.0,1471.0,1011.0,137.0,293.01,1649153611.4466832,1649153612.777228,26b45f68-a218-4939-8ebf-528dc1ca1203
-0.0415514631061031,0.060830313911946,-0.222387138672828,-1.262641228788626,-0.5319842076803389,1.3024232713754325,-0.2673803389956031,-0.2913630169310692,-18.114571134587123,27.804663412840384,26.197685257599417,5.943232983584021,0.2660032705257738,1.417572041840402,-1.0,11.939,0.0,179.30198244307826,1.542378839794195,95.3269717677384,1553.0,1761.0,1000.0,1528.0,1471.0,1011.0,137.0,293.01,1649153613.8861988,1649153615.131632,cf5c85e9-0a2d-4ff6-a669-f43ce538bbfe
-0.0304298572041599,0.065322785108469,-0.217648128903596,-1.271146798952593,-0.5284504945904845,1.3057515351088542,-0.2619838942387571,-0.2832546527722236,-18.18162292630424,27.75375220004336,26.223138729729232,5.969767298736929,0.2844485337980244,1.3990947330962804,-1.0,11.91511111111111,0.0,179.28778930998294,1.535514143939313,95.2055241741064,1553.0,1761.0,1000.0,1528.0,1471.0,1011.0,137.0,293.01,1649153615.2440095,1649153616.374318,cf5c85e9-0a2d-4ff6-a669-f43ce538bbfe
-0.0416900722958447,0.0663922124066254,-0.221643141586588,-1.263861866982635,-0.5317289037991269,1.2966104518062624,-0.2696490373190338,-0.3013111028229808,-18.27595068588752,27.81469657004841,25.981277502214,5.93291208867506,0.2901216150470402,1.4196803909832294,-1.0,11.926444444444446,0.0,179.29191322642183,1.5179207742920582,95.13063646222656,1553.0,1761.0,1000.0,1528.0,1471.0,1011.0,137.0,293.01,1649153616.4827702,1649153617.5832214,cf5c85e9-0a2d-4ff6-a669-f43ce538bbfe
-0.0284164630544364,0.0714999329862119,-0.1878581110661097,-1.3202490077330464,-0.5186437560537313,1.345019569851056,-0.2309885785471888,-0.2452740909099396,-17.870632142042535,28.921044912885936,26.456282148870383,6.178185546533174,0.3113029911344389,1.301383937659054,-1.0,11.888222222222222,0.0,179.2851649995219,1.5960398534114135,94.9439491783723,1553.0,1887.0,1000.0,1528.0,1471.0,1011.0,137.0,293.01,1649153619.9336538,1649153621.070567,654356c5-8c1e-4334-8106-e27ad80587a4
-0.0374424954471714,0.0658432543130562,-0.2025134300929017,-1.2978140244048968,-0.527984811452163,1.3298848721824923,-0.2502733352531301,-0.2675173050871779,-18.0518297030943,28.901163124385874,26.32430637469461,6.092594250506006,0.288847543722269,1.3607485475105066,-1.0,11.855666666666666,0.0,179.28215060936816,1.5748298393088007,94.77643954788766,1553.0,1887.0,1000.0,1528.0,1471.0,1011.0,137.0,293.01,1649153621.1793282,1649153622.2945328,654356c5-8c1e-4334-8106-e27ad80587a4
-0.0361807683963121,0.0634732018444305,-0.207468845536637,-1.3224130673157222,-0.5339115880162896,1.3565948059701467,-0.2496235704729891,-0.2705431490515087,-18.32048621663958,28.900477334938813,26.55580399046332,6.20775482652837,0.2825226433698271,1.374287128754909,-1.0,11.850555555555555,0.0,179.29486083250367,1.5786390808691928,94.63708699280144,1553.0,1887.0,1000.0,1528.0,1471.0,1011.0,137.0,293.01,1649153622.4028652,1649153623.530321,654356c5-8c1e-4334-8106-e27ad80587a4
-0.1036730291577962,0.099000978794165,-0.0883022023729686,0.413215356578546,-0.2270472562485619,-0.3564172972067986,-0.5963547650611125,-0.6226390179440131,-18.75036728084181,30.561058985704737,14.301848793365634,-1.5419924302195944,0.3213121796991591,1.28881263910599,-1.0,11.928777777777778,0.0,179.2716943486588,1.0270050305540808,94.44256320523948,1553.0,1335.0,1000.0,1528.0,1471.0,1011.0,137.0,293.01,1649153625.8629491,1649153627.2148912,1aa38d4a-501d-4d52-bd51-6cb947ee4a55
-0.0916025253327813,0.0991324657490813,-0.0900904251701873,0.4100070749852014,-0.2292167913867659,-0.3553259550812493,-0.5963284677077249,-0.61669580541723,-18.61644960897748,30.48048671433259,14.048950688797603,-1.5328990090573678,0.323379206774387,1.2939255362283808,-1.0,11.983,0.0,179.2662514468002,1.0045442024858071,94.75880703509031,1553.0,1335.0,1000.0,1528.0,1471.0,1011.0,137.0,293.01,1649153627.323103,1649153628.4455662,1aa38d4a-501d-4d52-bd51-6cb947ee4a55
-0.0869347379905242,0.1078500512250133,-0.0822932479085528,0.4061282098996692,-0.2241545427733992,-0.3588103602366162,-0.5914240024415789,-0.6149338791456046,-18.68011078573861,30.56600883349456,14.308182135377892,-1.531014701972124,0.3552017901206682,1.2707260681192505,-1.0,11.98377777777778,0.0,179.29555144051972,1.0090257552187205,95.0509774837565,1553.0,1335.0,1000.0,1528.0,1471.0,1011.0,137.0,293.01,1649153628.5539548,1649153629.667682,1aa38d4a-501d-4d52-bd51-6cb947ee4a55
-0.0877773502878679,0.122204592227912,-0.0361276256994623,0.8506833972302648,-0.1427553398061676,-0.8032583475874119,-0.6802084131972328,-0.7118337804484574,-18.9607136996687,32.371301599715615,11.137822427469564,-3.5189366375903206,0.38734791497664,1.2235648010310436,-1.0,11.979111111111113,0.0,179.28118072250606,0.8583714663539722,95.3892926904553,1553.0,1236.0,1000.0,1528.0,1471.0,1011.0,137.0,293.01,1649153630.3075857,1649153631.5177245,41ce7af8-96f1-4e14-a682-bd173deaaec4
-0.1026381171484042,0.1187256664108091,-0.0458795757146462,0.8484371618251373,-0.1509047927533263,-0.7964100651576667,-0.6898097044079732,-0.7079576520770322,-19.201427007208768,32.40751144473639,11.259001862280348,-3.49882807064215,0.3745884794580512,1.2611748943269647,-1.0,11.952666666666666,0.0,179.27367358569828,0.8562666356537303,95.54121203470444,1553.0,1236.0,1000.0,1528.0,1471.0,1011.0,137.0,293.01,1649153631.6311913,1649153632.7535975,41ce7af8-96f1-4e14-a682-bd173deaaec4
-0.1094453071913581,0.112726573866041,-0.0473588040976199,0.8496835485401651,-0.1519868209693445,-0.7910547082359601,-0.6894535937526952,-0.712094015113756,-19.125212568894764,32.46808732153027,11.34234240673416,-3.489225853162719,0.3505639580492463,1.2635890005260018,-1.0,11.951,0.0,179.28985658057178,0.8530878822151604,95.67980188533336,1553.0,1236.0,1000.0,1528.0,1471.0,1011.0,137.0,293.01,1649153632.8641224,1649153633.8377178,41ce7af8-96f1-4e14-a682-bd173deaaec4
-0.1028024758864852,0.1357915780367583,-0.0075839969336471,1.1287509112337215,-0.0979949835584599,-1.0859143933264823,-0.7446096576628173,-0.7692497775113863,-19.27308640330473,34.135399777403855,9.09254070210564,-4.768722265974353,0.4262489192037015,1.2156401103536014,-1.0,11.940666666666669,0.0,179.27168827737955,0.736232120412051,96.04958756808794,1553.0,1133.0,1000.0,1528.0,1471.0,1011.0,137.0,293.01,1649153636.1242762,1649153637.244386,9f7bfbbc-7af0-4f0a-becc-4fe7174db421
-0.1047473872896117,0.129518554340373,-0.0077072659945603,1.1165609747259309,-0.0984880597187598,-1.066711805225746,-0.7387612247544045,-0.7622645299531282,-19.23406997323193,34.12462945333151,9.374644013393636,-4.698086903309871,0.4014376879827717,1.2077164731892809,-1.0,11.937333333333337,0.0,179.2809818881102,0.7314771703848605,96.14846138651303,1553.0,1133.0,1000.0,1528.0,1471.0,1011.0,137.0,293.01,1649153637.3530147,1649153638.4728465,9f7bfbbc-7af0-4f0a-becc-4fe7174db421
-0.1004778958100197,0.1290063030704856,-0.0034668112853942,1.1144089712994565,-0.0944163464738744,-1.0642776504630236,-0.7339296245393225,-0.7579917493571244,-19.26686186289985,34.132058156539244,9.4026166678013,-4.687514295552029,0.4000345121641978,1.1894438972906638,-1.0,11.939444444444444,0.0,179.2909311970012,0.7633977037318957,96.25209357005993,1553.0,1133.0,1000.0,1528.0,1471.0,1011.0,137.0,293.01,1649153638.581853,1649153639.9070375,9f7bfbbc-7af0-4f0a-becc-4fe7174db421
-0.1125544261762457,0.1448997892347398,0.0197269412834918,1.2521432048607288,-0.0701498786118047,-1.2144703917675217,-0.7639629036085064,-0.7882606098580597,-19.289719919568338,35.484176975984155,8.253611708614168,-5.3257885363125474,0.4545253931851452,1.1684767331345498,-1.0,11.92422222222222,0.0,179.2793608565472,0.6788735613575082,96.38929385664773,1553.0,1026.0,1000.0,1528.0,1471.0,1011.0,137.0,293.01,1649153640.815915,1649153641.9041393,908ec411-7cb4-4019-872a-313848720a51
-0.1003990036632304,0.1431674485681141,0.0209240205939085,1.262371247026943,-0.0672905848330489,-1.2229693872613676,-0.7641058955210187,-0.7919285505590679,-19.24562003451663,35.44358127993471,8.147389709441672,-5.368163112092333,0.4474732862417401,1.1629318623886282,-1.0,11.906,0.0,179.26987751833957,0.6768028756741327,96.43424029593592,1553.0,1026.0,1000.0,1528.0,1471.0,1011.0,137.0,293.01,1649153642.0131905,1649153642.9711125,908ec411-7cb4-4019-872a-313848720a51
-0.1069388368104399,0.1479678182967431,0.028040752474922,1.2628813067997509,-0.0624935020065069,-1.2270986292445778,-0.7591691057260396,-0.7843296957842526,-19.184847886130413,35.55366040446983,8.340439485425948,-5.377447182102951,0.4637266961506978,1.140523154528177,-1.0,11.901111111111112,0.0,179.2813446470461,0.6749319255921107,96.47933168701654,1553.0,1026.0,1000.0,1528.0,1471.0,1011.0,137.0,293.01,1649153643.0838797,1649153644.215085,908ec411-7cb4-4019-872a-313848720a51
-0.0734573236386213,0.1027352084764744,-0.1169663618187109,-0.0791638580480996,-0.3027969051104789,0.1109794408718993,-0.4863527409685919,-0.5187905832599938,-18.367026439502528,28.92903450622505,17.140384637259594,0.6073965945001479,0.3662243348494005,1.2755153723826085,-1.0,11.914888888888887,0.0,179.30233761291507,1.0835800329157923,96.50485989849444,1553.0,1435.0,1000.0,1528.0,1471.0,1011.0,137.0,293.01,1649153645.8049638,1649153646.977021,f51ea80a-383f-4a96-83c1-2f11dea655e4
-0.0741805019756542,0.1013020005966521,-0.12237047632326,-0.0741016097997371,-0.306623176281485,0.1094673407898578,-0.493387295255829,-0.5143200253873877,-18.51830604124141,28.95960842846824,17.340897237968544,0.5924689138973898,0.3591771709871177,1.2981444331508254,-1.0,11.987111111111112,0.0,179.30314053959754,1.0861339070510772,96.52949639083064,1553.0,1435.0,1000.0,1528.0,1471.0,1011.0,137.0,293.01,1649153647.0859373,1649153648.203765,f51ea80a-383f-4a96-83c1-2f11dea655e4
-0.0637930315053792,0.1024985319436426,-0.1232908851058184,-0.0699992163387446,-0.3075961799399279,0.1060092337829606,-0.4955962767589223,-0.5246812007344772,-18.493332112031947,28.98656387458668,17.540361040394973,0.5756213187830056,0.3611573047385583,1.3043379153271684,-1.0,11.988666666666669,0.0,179.31162059890707,1.0862122052092191,96.54146364116642,1553.0,1435.0,1000.0,1528.0,1471.0,1011.0,137.0,293.01,1649153648.3124912,1649153649.4300244,f51ea80a-383f-4a96-83c1-2f11dea655e4
-0.0046392367861004,0.1361065988679691,0.0694180561020253,-0.0909960416655721,-0.1360714187316823,0.0822380348533503,-0.2972114477072055,-0.3236458103736799,-16.999160887708964,28.903752010631496,17.592521076134073,0.5793750456880539,0.4909707930018634,0.5306087059486729,-1.0,11.988111111111111,0.0,179.28227355277326,1.083002858214992,96.57780404210042,1553.0,1435.0,1000.0,1435.0,1471.0,1011.0,137.0,293.01,1649153651.3651783,1649153652.5028236,7d39edc5-8ee7-4fe4-914a-a0148d403f9e
-0.0153088561214983,0.1222730750172989,0.0635011428298297,-0.083832741150582,-0.1374958609050359,0.0888671691506672,-0.3004027462974509,-0.3157976808485191,-17.117155523305,28.87857976049787,17.511658423276852,0.5775791665129129,0.4393810052544171,0.5433606967071972,-1.0,11.989,0.0,179.28463831604589,1.090246641426777,96.559900598466,1553.0,1435.0,1000.0,1435.0,1471.0,1011.0,137.0,293.01,1649153652.6116636,1649153653.93164,7d39edc5-8ee7-4fe4-914a-a0148d403f9e
-0.0076349481105951,0.1308339718037238,0.0682067324648837,-0.0867112100997973,-0.1353876864757786,0.0844453722001615,-0.297931886805891,-0.3216258416327031,-17.08337708064141,28.91694224414437,17.725565646749494,0.5746756368209888,0.4700080043788235,0.5318772782208699,-1.0,11.99177777777778,0.0,179.3076924812244,1.0843277370444646,96.59179075170078,1553.0,1435.0,1000.0,1435.0,1471.0,1011.0,137.0,293.01,1649153654.0402176,1649153655.3690023,7d39edc5-8ee7-4fe4-914a-a0148d403f9e
0.0679799174016376,0.1639927913656989,0.2909050972187429,-0.0978580179492721,0.064939281477306,0.049147149359752,-0.0722317554882478,-0.0974471218717777,-15.503795752280256,28.96892957224897,17.58457465622602,0.5327064528106931,0.59993463050959,-0.3610876440274574,-1.0,11.985111111111111,0.0,179.27472239919084,1.0883277495829244,96.54597308383843,1553.0,1435.0,1000.0,1330.0,1471.0,1011.0,137.0,293.01,1649153656.4828422,1649153657.825688,66983101-b82c-4d28-b49e-291b16efb584
0.0619123419839547,0.1588428855029923,0.2938635536863731,-0.0968444724930542,0.0683223314278653,0.0531191514152792,-0.0678488565458625,-0.0966664175257123,-15.473478766249656,29.01807602995919,17.59208110323307,0.5398353281069891,0.5804018414998441,-0.3765711307191874,-1.0,11.984222222222222,0.0,179.28175142275666,1.0990325414291366,96.55499879937166,1553.0,1435.0,1000.0,1330.0,1471.0,1011.0,137.0,293.01,1649153657.9386804,1649153659.0513687,66983101-b82c-4d28-b49e-291b16efb584
0.0681031864155585,0.1628970667123979,0.2896039242289467,-0.0995974809373251,0.0634189634701043,0.0524206269214025,-0.0714647481795817,-0.0913658490666017,-15.373666257331289,28.92126075676238,17.66737019916505,0.5436841062003972,0.5943010267450721,-0.3582558208115042,-1.0,11.984666666666666,0.0,179.28990363298604,1.1125354815372,96.54183626593114,1553.0,1435.0,1000.0,1330.0,1471.0,1011.0,137.0,293.01,1649153659.1600049,1649153660.2838943,66983101-b82c-4d28-b49e-291b16efb584
0.1528580373925738,0.2075566118253699,0.5300415124972301,-0.0946924691167087,0.2775076722641478,-0.0096072525527492,0.1622856523475992,0.1439563701503437,-13.654462636211822,29.258175455942464,17.524861207590373,0.4082829954695144,0.7655406896016329,-1.3040962204011803,-1.0,11.979777777777777,0.0,179.22048007244223,1.094877213234863,96.44759862813264,1553.0,1435.0,1000.0,1210.0,1471.0,1011.0,137.0,293.01,1649153662.423805,1649153663.5613892,14c2c433-0516-494c-ad8b-7deb670778bd
0.1443498197207761,0.2018374349263999,0.5271791427313318,-0.0962586811980951,0.2757103467302715,-0.0024730732536054,0.1603431853838339,0.135765238355977,-13.800154776177724,29.333368054623648,17.518770216381213,0.4281290649225343,0.7451881069202831,-1.295827904857086,-1.0,11.97588888888889,0.0,179.22567405185106,1.094458294965769,96.38279455219748,1553.0,1435.0,1000.0,1210.0,1471.0,1011.0,137.0,293.01,1649153663.669279,1649153664.7895875,14c2c433-0516-494c-ad8b-7deb670778bd
0.1466133808432171,0.2071582550503233,0.5272437623894249,-0.0958583202274036,0.2746548923380936,-0.0101726465078911,0.1589707200324063,0.1339151493481231,-13.69208720400262,29.28354157483668,17.212932696106524,0.4096025375626319,0.7670441304453647,-1.2922123260082026,-1.0,11.97711111111111,0.0,179.21287579516627,1.0946405637812762,96.3883482549026,1553.0,1435.0,1000.0,1210.0,1471.0,1011.0,137.0,293.01,1649153664.8979704,1649153666.025377,14c2c433-0516-494c-ad8b-7deb670778bd
0.1934743587121981,0.2267274100817124,0.7031046358133364,-0.0549965533174327,0.4359231531281643,-0.0764420777999045,0.3212139357920703,0.2970992283470987,-12.627011372347614,29.906921869770454,17.15558043195513,0.1819282925112475,0.8395385821549458,-1.9794487799435023,-1.0,11.969333333333331,0.0,179.1968020833195,1.074649762161445,96.35949829475838,1553.0,1435.0,1000.0,1071.0,1471.0,1011.0,137.0,293.01,1649153667.9528103,1649153669.2975447,f7b218ea-a73f-4c64-b671-75007ffb342a
0.1959726108902701,0.2245184292140949,0.7162401820907408,-0.0569294117568321,0.4473493691968404,-0.0707881381712763,0.3355328650341199,0.3232914296619082,-12.553508695157754,30.04072881638633,17.502114360400896,0.2006268286810771,0.828734974620918,-2.03310299256578,-1.0,11.96,0.0,179.19961156779812,1.0789861852324627,96.35602172847084,1553.0,1435.0,1000.0,1071.0,1471.0,1011.0,137.0,293.01,1649153669.406618,1649153670.5327384,f7b218ea-a73f-4c64-b671-75007ffb342a
0.1965774508872559,0.2323419030953973,0.7189619619494527,-0.0609134668550046,0.4476123431042835,-0.0768365387131857,0.3373210876110114,0.3198727687944192,-12.396040707202715,29.991156125750926,17.227771168324086,0.1958647538636155,0.8600569634557214,-2.0390620676163875,-1.0,11.960444444444445,0.0,179.1783453943623,1.068198612916466,96.38144369256165,1553.0,1435.0,1000.0,1071.0,1471.0,1011.0,137.0,293.01,1649153670.6471157,1649153671.7555676,f7b218ea-a73f-4c64-b671-75007ffb342a
-0.134085965489794,0.0567410693821257,-0.3539716391507681,-0.0377454632498401,-0.5155823003122605,0.131373068325571,-0.7361386063878186,-0.7528506065286165,-20.11298957282768,29.49549349129308,17.183122211682512,0.5508758310818088,0.1855823099165757,2.2374475676677354,-1.0,11.973666666666666,0.0,179.2801303911937,1.0938890532450978,96.53441336812314,1553.0,1435.0,1000.0,1613.0,1471.0,1011.0,137.0,293.01,1649153673.8912995,1649153675.0381696,6c5068f3-5fa8-4bf1-8315-df69f16a929d
-0.1411205184814749,0.0571223815769503,-0.3585736836569366,-0.0369696901757247,-0.5190404083632405,0.131031202218145,-0.7406749084875631,-0.7582941694304662,-20.173277799853576,29.420001322474583,17.255191927918546,0.5476092012735114,0.1864118760068593,2.2550328679406344,-1.0,11.989888888888888,0.0,179.28011217735587,1.0918751672251326,96.51507862040268,1553.0,1435.0,1000.0,1613.0,1471.0,1011.0,137.0,293.01,1649153675.147258,1649153676.2678,6c5068f3-5fa8-4bf1-8315-df69f16a929d
-0.1590158954702009,0.0463010045614139,-0.3609010033042021,-0.0319600367335124,-0.5192507875652309,0.1368166284392059,-0.7420292247884483,-0.755638132111579,-20.269074787874352,29.544124873741684,17.21098410527086,0.5499609519721554,0.1461327430381409,2.2589743131187072,-1.0,11.990444444444444,0.0,179.2870410248139,1.0873553488317134,96.47291510374627,1553.0,1435.0,1000.0,1613.0,1471.0,1011.0,137.0,293.01,1649153676.403467,1649153677.6938984,6c5068f3-5fa8-4bf1-8315-df69f16a929d
-0.2302292411652492,0.0169662630276373,-0.5742649485778668,0.0215551580593732,-0.7122211181799301,0.1274679056430895,-0.97695710163427,-1.003044131435409,-21.86791843775996,30.190752967238627,17.076210439288623,0.4010721303134499,0.0285163088995022,3.1424787982955,-1.0,11.980666666666666,0.0,179.30949413334548,1.0806605657904025,96.42965951573257,1553.0,1435.0,1000.0,1694.0,1471.0,1011.0,137.0,293.01,1649153678.3074768,1649153679.5399094,ef9a3cad-8443-4663-a880-83c3a2d52b92
-0.2248251263984194,0.0208451284626061,-0.562404820974225,0.0191095005248178,-0.7021623615667094,0.1280595969487262,-0.964571022250746,-0.994129309863949,-21.770084808751207,30.18857166634441,17.473077867582177,0.4086071488759271,0.0399074888747831,3.0960535693373044,-1.0,11.96,0.0,179.3026290343197,1.0826206996445558,96.36799505008588,1553.0,1435.0,1000.0,1694.0,1471.0,1011.0,137.0,293.01,1649153679.6479683,1649153680.7658155,ef9a3cad-8443-4663-a880-83c3a2d52b92
-0.2236943384195654,0.0204506675698139,-0.5702020001226622,0.017636846529382,-0.7088681992551877,0.1266000916957072,-0.9721052296498728,-1.0017818555423763,-21.811190149837703,30.09576118634716,16.96049390573551,0.4075434927272541,0.0429474145591549,3.125768430689684,-1.0,11.957,0.0,179.2956349206096,1.085491406808371,96.33178138710647,1553.0,1435.0,1000.0,1694.0,1471.0,1011.0,137.0,293.01,1649153680.8739915,1649153681.9929688,ef9a3cad-8443-4663-a880-83c3a2d52b92
-0.2829686683576745,-0.0044135174043758,-0.7568083657815461,0.0821443503809263,-0.8782760800439242,0.1000791718413094,-1.1844831208275004,-1.2007349229899118,-23.142334606692955,30.91533542343879,16.632651332590832,0.1978533016649362,-0.0577394262361597,3.9090813470960746,-1.0,11.955555555555556,0.0,179.3341389736907,1.0574069970336173,96.2114964434532,1553.0,1435.0,1000.0,1774.0,1471.0,1011.0,137.0,293.01,1649153683.926684,1649153685.0655992,9a908ea9-3380-4a15-9567-7432a31a6702
-0.2827451405063593,-0.0025332538067081,-0.7481433712691293,0.0838273834788466,-0.870268519883397,0.0983435439493388,-1.175449959385299,-1.2077037378912427,-23.03470126076807,30.88647134398593,16.93586663776128,0.1904992332883334,-0.0537948789833875,3.874259166644185,-1.0,11.937444444444443,0.0,179.32628122050556,1.0470290107664426,96.11097882616782,1553.0,1435.0,1000.0,1774.0,1471.0,1011.0,137.0,293.01,1649153685.1734955,1649153686.3041446,9a908ea9-3380-4a15-9567-7432a31a6702
-0.2838496311412857,0.0016217342873471,-0.7480381815630227,0.0812502390339908,-0.8708207653205322,0.095411384752354,-1.1774748600748417,-1.2027335262190912,-23.16788369306776,30.91250448845034,16.75354137583248,0.1898053967877489,-0.0353281590932043,3.877870168351752,-1.0,11.93988888888889,0.0,179.32009762257698,1.0618767748049924,96.02094251361882,1553.0,1435.0,1000.0,1774.0,1471.0,1011.0,137.0,293.01,1649153686.4117572,1649153687.522782,9a908ea9-3380-4a15-9567-7432a31a6702
-0.3363129371695311,-0.017299240001116073,-0.900576281264094,0.15039923129153823,-1.0097236735296737,0.05654383890220788,-1.3587166503786614,-1.3910624761772519,-24.319139971603217,31.859707946442782,16.354541442248696,-0.05547772215400623,-0.11277644045249911,4.529597122964297,-1.0,11.92,0.0,179.36441947901105,1.042745770678806,95.91338904257844,1553.0,1435.0,1000.0,1856.0,1471.0,1011.0,137.0,293.01,1649153689.3599765,1649153690.5949392,8a3c2e60-328e-405c-b4ec-c65284caac2d
-0.34268297577509366,-0.024345424210580148,-0.8993408086377553,0.15323783244119935,-1.0057188812653552,0.0615130346526558,-1.353578033444718,-1.3813420394000286,-24.262374079139825,31.702458610628426,16.477132095784633,-0.05164725493133431,-0.14096604521162892,4.514591509533239,-1.0,11.886,0.0,179.36093152907492,1.0255827859550333,95.79042514695071,1553.0,1435.0,1000.0,1856.0,1471.0,1011.0,137.0,293.01,1649153690.703499,1649153691.822827,8a3c2e60-328e-405c-b4ec-c65284caac2d
-0.33465620111474814,-0.017838336567620346,-0.89576385552228,0.147388179942643,-1.00383305353237,0.05985731037191698,-1.3512087370956742,-1.3768881665838477,-24.31522221538143,31.69328909842031,16.405711698321994,-0.04209317025216928,-0.11460664530358786,4.504375931151268,-1.0,11.891333333333332,0.0,179.3570155539508,1.031301183968117,95.66920067283161,1553.0,1435.0,1000.0,1856.0,1471.0,1011.0,137.0,293.01,1649153691.9312694,1649153693.2754657,8a3c2e60-328e-405c-b4ec-c65284caac2d
