raw_voltage_G-,raw_voltage_G0,raw_voltage_G1,raw_voltage_G2,raw_voltage_G3,raw_voltage_G4,raw_voltage_G5,raw_voltage_G6,load_x,load_y,load_z,load_l,load_m,load_n,rpm,voltage,current,roll,pitch,yaw,aileron1_pwm,elevator_pwm,throttle_pwm,rudder_pwm,aileron2_pwm,pbaro,pdiff,Tt,sample_start_time,sample_end_time,uid
-0.122252138083765,0.0470373315432651,-0.2648760598993823,-0.0621625931195259,-0.4236860401664425,0.1623513958109563,-0.6341967255069002,-0.6502907356532219,-20.65741534411673,29.11720702058004,17.781599525443706,0.6773173409709793,0.1563844560932495,1.844921320298856,-1.0,11.988444444444443,0.0,179.3037507031634,1.1204705012373315,95.79482227095636,1553.0,1435.0,1000.0,1528.0,1471.0,1011.0,137.0,293.01,1649153907.8827543,1649153909.0196817,02518b0f-8a4b-48b2-aa7a-a821481bc956
-0.1474450418321008,0.0451439192914012,-0.2716739367402857,-0.0680269118734237,-0.4301814974980296,0.1699250446076525,-0.6374313058776954,-0.6641100208072898,-20.55933883320483,29.00612436799195,17.78903554065732,0.7065404927639747,0.1488121324405537,1.8674841191863087,-1.0,11.985555555555557,0.0,179.2982288746744,1.1112441133233424,96.18203707865302,1553.0,1435.0,1000.0,1528.0,1471.0,1011.0,137.0,293.01,1649153909.1283913,1649153910.4519987,02518b0f-8a4b-48b2-aa7a-a821481bc956
-0.12497391840183,0.0506532230192643,-0.2599715955830681,-0.0677376405726148,-0.4207275828825393,0.1632060610262456,-0.6284901893776419,-0.6525786095439279,-20.544130254191927,29.100036392360863,17.717447970913028,0.6919910110970012,0.1707100505157399,1.8264660089814888,-1.0,11.989333333333333,0.0,179.28383690718326,1.093879804030597,96.48334556151876,1553.0,1435.0,1000.0,1528.0,1471.0,1011.0,137.0,293.01,1649153910.560887,1649153911.6917431,02518b0f-8a4b-48b2-aa7a-a821481bc956
0.0957006560170527,0.4560538053780842,-0.2420762178058369,-0.3366811006578922,-0.5038273627752002,0.0264070270154554,-0.6791258368023303,-0.7027409045487648,-20.22932499579245,27.90573106752577,19.41824205743684,0.9846593278107468,1.7081334198245848,2.0371564433781257,-1.0,11.983444444444444,0.0,179.1448531823122,1.0855848713067011,97.1067619710928,1647.0,1435.0,1000.0,1528.0,1543.0,1011.0,137.0,293.01,1649153913.819553,1649153914.9533644,129e78ed-5d66-4289-987c-6566a3738443
0.0909671254288359,0.4521880890185417,-0.2368298874207798,-0.3272008891406354,-0.4978710018553915,0.0201482475387988,-0.6756282823756604,-0.7025568227120053,-20.20085926506559,28.003440025195644,19.26348692715369,0.9501085968968968,1.693971780010569,2.0162894744290867,-1.0,11.95925,0.0,179.13534404116774,1.085624497668956,97.25987033743996,1647.0,1435.0,1000.0,1528.0,1543.0,1011.0,137.0,293.01,1649153915.062977,1649153916.1058218,129e78ed-5d66-4289-987c-6566a3738443
0.0966605108267967,0.4573456646760704,-0.2421238818467293,-0.3339867132928775,-0.5033994821855995,0.0211376869212767,-0.6806740963988466,-0.7030131929161382,-20.27452280217416,27.88581588888832,19.196285338692288,0.9665480131931332,1.714930677247228,2.038686472667058,-1.0,11.963111111111113,0.0,179.11928550751912,1.071112020620561,97.36755301289212,1647.0,1435.0,1000.0,1528.0,1543.0,1011.0,137.0,293.01,1649153916.2316737,1649153917.4129612,129e78ed-5d66-4289-987c-6566a3738443
0.3417193262004973,0.8960874850631607,-0.2087727579877051,-0.6179301392315163,-0.5853323191106768,-0.1375917369031254,-0.7280916009468976,-0.7431441262222278,-19.719258135052275,27.186013903506307,20.52491914981409,1.2478814957486255,3.3818355102076203,2.225480734153918,-1.0,11.956888888888887,0.0,178.93426782546203,1.084874922945941,97.4989893787303,1745.0,1435.0,1000.0,1528.0,1614.0,1011.0,137.0,293.01,1649153919.3490207,1649153920.486726,53c4dd74-b344-453f-b17d-d6f893b393dc
0.3502462550963333,0.9080401968329442,-0.198212162406517,-0.6125276670001185,-0.5774732313883849,-0.1542429184267452,-0.7219774546756842,-0.7476437208223036,-19.554156119585468,27.18034377879227,20.593269148479976,1.1988596765696504,3.424895340059465,2.19338371409605,-1.0,11.92177777777778,0.0,178.9147744655708,1.0912477740327782,97.51683590412166,1745.0,1435.0,1000.0,1528.0,1614.0,1011.0,137.0,293.01,1649153920.595207,1649153921.716424,53c4dd74-b344-453f-b17d-d6f893b393dc
0.3554794358416608,0.9022416222619158,-0.2080342394776801,-0.6104501722479846,-0.5850205853492052,-0.1489965881891351,-0.7317206426445282,-0.7560062952261787,-19.75686332519416,27.227578981642747,20.728451152578984,1.2057061270951903,3.402506106688404,2.230270384541985,-1.0,11.929444444444446,0.0,178.91761127080608,1.0718110833673318,97.54310632948936,1745.0,1435.0,1000.0,1528.0,1614.0,1011.0,137.0,293.01,1649153921.8249388,1649153922.939804,53c4dd74-b344-453f-b17d-d6f893b393dc
0.5793491187460769,1.2850790451840064,-0.1573460108687076,-0.8561468128327586,-0.6396928824965766,-0.2982343068965509,-0.7585571430732494,-0.7719030762335995,-19.348263601374843,27.145371637588006,20.7662898698713,1.4267711551239537,4.868614358414753,2.318393780789296,-1.0,11.912333333333336,0.0,178.55553838944422,1.10016969677814,97.49504911848912,1849.0,1435.0,1000.0,1528.0,1686.0,1011.0,137.0,293.01,1649153924.879762,1649153926.0153892,142b7f06-9839-46d3-b139-8c96671928fc
0.5903151303629022,1.289299776667945,-0.1618165680171826,-0.8563571921591584,-0.6448734706555409,-0.3022446598771664,-0.7630934453926423,-0.7864718381110951,-19.20302717076278,27.059536764525195,20.72215897655596,1.417508380679578,4.883548887914545,2.338585935720654,-1.0,11.88,0.0,178.58275441655704,1.1047047645175188,97.49286573468446,1849.0,1435.0,1000.0,1528.0,1686.0,1011.0,137.0,293.01,1649153926.124129,1649153927.2514756,142b7f06-9839-46d3-b139-8c96671928fc
0.5958638796459971,1.288786977636897,-0.1556235315713168,-0.8562783000586246,-0.6390617448267473,-0.3023367008321667,-0.7564533508028722,-0.7741252066345177,-19.15543985675547,27.06739926407009,20.697049668342043,1.4175040361150943,4.881894337147815,2.31270756535485,-1.0,11.881,0.0,178.56568805055088,1.102308221892491,97.43401454806587,1849.0,1435.0,1000.0,1528.0,1686.0,1011.0,137.0,293.01,1649153927.364817,1649153928.474569,142b7f06-9839-46d3-b139-8c96671928fc
0.6174277394032394,1.3425519972555695,-0.0976246285419034,-0.9245332188097344,-0.6122646927738601,-0.3284631642732899,-0.7143906539489177,-0.7372693950885786,-18.773818361488164,28.030382711086585,15.91150703916114,1.5214617055996726,5.13535576420424,2.136290976948965,-1.0,11.84377777777778,0.0,178.5446541035469,1.117785181534426,97.24713222436536,1962.0,1435.0,1000.0,1528.0,1760.0,1011.0,137.0,293.01,1649153930.4128933,1649153931.5461848,bff7c0fe-d70e-4539-ae8a-f4b2d7a3e2a2
0.6248830494566937,1.346075847999199,-0.082556221904306,-0.909385912579592,-0.5968938618722481,-0.3456616618922983,-0.7034640830930772,-0.7367302990110844,-18.69747641520233,28.040038628663385,16.039778702329535,1.4495189654551428,5.145985611712661,2.0800478838802565,-1.0,11.793444444444445,0.0,178.51401691056984,1.117260561344739,97.1007225660467,1962.0,1435.0,1000.0,1528.0,1760.0,1011.0,137.0,293.01,1649153931.654507,1649153932.777235,bff7c0fe-d70e-4539-ae8a-f4b2d7a3e2a2
0.6248173059750607,1.3457602792878125,-0.0992156209135465,-0.919576157701536,-0.6136716037631877,-0.3351821492264277,-0.7182037775188073,-0.7467627576231335,-18.78467893650564,28.021867150102963,16.03141628488181,1.49505930971268,5.145691563130777,2.14640170153508,-1.0,11.800333333333334,0.0,178.51158991668478,1.1107918030183062,96.92530054086352,1962.0,1435.0,1000.0,1528.0,1760.0,1011.0,137.0,293.01,1649153932.8855908,1649153934.2150147,bff7c0fe-d70e-4539-ae8a-f4b2d7a3e2a2
-0.427041149966343,-0.4723356794507187,-0.2793785259351651,0.2879603372522754,-0.3117434985314853,0.3354463027985995,-0.5642396124780594,-0.5873320176440507,-20.98626317016384,30.989755239678715,16.071487413432234,0.2877462456819137,-1.818091175274112,1.549431226915977,-1.0,11.837444444444444,0.0,179.43261967678356,1.026140395009774,96.71749051754608,1459.0,1435.0,1000.0,1528.0,1394.0,1011.0,137.0,293.01,1649153934.801422,1649153936.0516808,e1d23624-1b3e-48fb-9a0d-bdc337de80c1
-0.4168783013211714,-0.4691032908412436,-0.2765433379065453,0.2810846652878175,-0.3106477736825406,0.3403496704478003,-0.5598156227067984,-0.5908657314972596,-20.902133930586093,30.96739518111043,16.346323602825763,0.3143537038006205,-1.8079731660253089,1.5385617935041545,-1.0,11.966111111111111,0.0,179.4349358698221,1.0278968327014926,96.70195866737346,1459.0,1435.0,1000.0,1528.0,1394.0,1011.0,137.0,293.01,1649153936.160204,1649153937.2787426,e1d23624-1b3e-48fb-9a0d-bdc337de80c1
-0.4289718172476221,-0.4774116253025915,-0.2867291960036037,0.2842398043148645,-0.3185884917059909,0.3442241526588108,-0.5681639516366203,-0.5966308879483208,-20.894264365458262,30.9580756189888,16.08173812785087,0.31533577867726,-1.837879508427692,1.5738065349627857,-1.0,11.974666666666666,0.0,179.44117259144423,1.0327405040400892,96.65518629084713,1459.0,1435.0,1000.0,1528.0,1394.0,1011.0,137.0,293.01,1649153937.3924668,1649153938.5096714,e1d23624-1b3e-48fb-9a0d-bdc337de80c1
-0.6869624627690603,-0.934223813317997,-0.3028889460013585,0.6119315849128193,-0.2239573123000445,0.4886888665781367,-0.5178044305653152,-0.5433655034885971,-21.336676517476885,33.03986878898922,15.994642489672747,-0.0864658637690711,-3.588634750296991,1.3415540114393116,-1.0,11.957222222222224,0.0,179.62375113705775,1.0025723411019856,96.53269747282168,1364.0,1435.0,1000.0,1528.0,1312.0,1011.0,137.0,293.01,1649153939.3453932,1649153940.556077,6f6797c4-463e-4cfd-9150-d1a149386b17
-0.6919326719417596,-0.9345262335013668,-0.3108439084477005,0.6125101274909482,-0.2308077838201754,0.4904244943270584,-0.5261538550179045,-0.5436153285546746,-21.454595259076896,33.026395028708464,16.212872002168808,-0.0843807202351727,-3.59144433433385,1.373815231954641,-1.0,11.938111111111112,0.0,179.6160694509712,1.00249101916218,96.39419717356184,1364.0,1435.0,1000.0,1528.0,1312.0,1011.0,137.0,293.01,1649153940.6642196,1649153941.9898586,6f6797c4-463e-4cfd-9150-d1a149386b17
-0.6935631108682446,-0.9414161543353424,-0.3058211057198321,0.6175329289728271,-0.2253642229752951,0.4901615204322669,-0.520171196587307,-0.5394734883446339,-21.33004941896116,33.10221845014034,15.914274937941808,-0.0955340274704101,-3.615819482635727,1.34988143440908,-1.0,11.935,0.0,179.6158524027376,1.0072528823843117,96.28611018885633,1364.0,1435.0,1000.0,1528.0,1312.0,1011.0,137.0,293.01,1649153942.0982609,1649153943.2204635,6f6797c4-463e-4cfd-9150-d1a149386b17
-0.9661225694231328,-1.4243550080139582,-0.3458588921779613,0.950694564123046,-0.1521917215200965,0.650983208967336,-0.4922828045208349,-0.5168182783335292,-21.89156540207108,35.67473112904496,15.046052330798366,-0.4710384135618537,-5.4589783834422425,1.2068991255051038,-1.0,11.94,0.0,179.78494967274932,0.9942474788686017,96.05944580779,1262.0,1435.0,1000.0,1528.0,1222.0,1011.0,137.0,293.01,1649153944.8000767,1649153945.877765,16033513-f995-4a34-8bbb-f051e57986e3
-0.9589959716871348,-1.4190034830549276,-0.3404679258343302,0.9507866049861792,-0.1477343131877627,0.646026150966036,-0.4883644920581703,-0.5128999657544723,-21.885649977471388,35.648334166914,15.13490388819559,-0.4822746197977097,-5.439406289534403,1.188689281594102,-1.0,11.884777777777778,0.0,179.7908099750572,0.9878791575252764,95.85326212840494,1262.0,1435.0,1000.0,1528.0,1222.0,1011.0,137.0,293.01,1649153945.9871397,1649153947.10822,16033513-f995-4a34-8bbb-f051e57986e3
-0.9539468693988934,-1.4109170264558788,-0.3385482158089463,0.9472101598969794,-0.147576528775719,0.6437119806512491,-0.4870233246574361,-0.5156874902807109,-21.81511982436031,35.58192784923826,15.4768857326522,-0.4796618953948376,-5.412046422196177,1.1854540773628832,-1.0,11.889555555555557,0.0,179.79106800442582,0.9931137386141834,95.69964130814252,1262.0,1435.0,1000.0,1528.0,1222.0,1011.0,137.0,293.01,1649153947.2160275,1649153948.334388,16033513-f995-4a34-8bbb-f051e57986e3
-0.976891358006869,-1.4891781515699023,-0.3063733510721927,0.9916658987326666,-0.104054341400087,0.6590302102852955,-0.4506540221561135,-0.471521008053675,-22.04884735011909,36.59019375743806,12.8275878094138,-0.5377749990921097,-5.683854935710298,1.0171415894032168,-1.0,11.840333333333334,0.0,179.82056227908177,0.9874049455546202,95.26783826663414,1153.0,1435.0,1000.0,1528.0,1121.0,1011.0,137.0,293.01,1649153950.4771826,1649153951.613742,65baedee-cabc-4b8c-a771-b4d0a2dc605d
-0.980191683024514,-1.4737152671965816,-0.3017318605973668,0.9868534762104256,-0.1024370516401129,0.6501416924896302,-0.449799356693066,-0.4724545658937569,-22.08317959508627,36.54442218370273,13.109594992513404,-0.5469376776896646,-5.627230163606681,1.0096163955733095,-1.0,11.744888888888887,0.0,179.80824061781908,0.9863724486250864,94.9137521531418,1153.0,1435.0,1000.0,1528.0,1121.0,1011.0,137.0,293.01,1649153951.7228792,1649153952.841569,65baedee-cabc-4b8c-a771-b4d0a2dc605d
-0.9873182806227097,-1.4824065649731233,-0.3031124739094586,0.991889426508588,-0.1025948360019314,0.6535735018751545,-0.4494837879331148,-0.4771749487810121,-21.99461825459156,36.61202686614991,13.04072775385244,-0.5501727978661948,-5.660550671593696,1.0101934922661835,-1.0,11.750666666666667,0.0,179.8220603672397,0.9878828097792076,94.6584419586964,1153.0,1435.0,1000.0,1528.0,1121.0,1011.0,137.0,293.01,1649153952.9501808,1649153954.2908764,65baedee-cabc-4b8c-a771-b4d0a2dc605d
-0.1252894871106655,0.0603175147574229,-0.2596954729075642,-0.0718268852554923,-0.4196230921430322,0.1604974296975218,-0.6286874198669442,-0.653196598737217,-20.71035389366244,28.8484690070258,18.147191477120472,0.6934595983005252,0.2048414164119526,1.826592725735716,-1.0,11.809111111111111,0.0,179.3285200047335,1.096878043632821,94.29670527442376,1553.0,1435.0,1000.0,1528.0,1471.0,1011.0,137.0,293.01,1649153956.421174,1649153957.414925,845d10a4-71a2-4fd4-b159-9a5f446ac0e7
-0.1227912346948054,0.0606199347695929,-0.2621937255494362,-0.0688026849721993,-0.4227261851442585,0.1576704601023216,-0.6326846249754331,-0.6559446771205731,-20.67170069083488,28.9358589701308,18.15704934772404,0.6807611160118051,0.2050854897973452,1.8399839899441377,-1.0,11.99,0.0,179.3299452375403,1.1018448718198894,94.64248208333584,1553.0,1435.0,1000.0,1528.0,1471.0,1011.0,137.0,293.01,1649153957.5242767,1649153958.7808237,845d10a4-71a2-4fd4-b159-9a5f446ac0e7
-0.1272617917032583,0.0634074583692274,-0.2618518593687533,-0.0727209966033759,-0.4228971182052339,0.1563029957349547,-0.6324610969973106,-0.6558526361215391,-20.68680473361241,28.8845285928961,17.841067702963684,0.686145767128849,0.2189510681357446,1.83930032409362,-1.0,11.985666666666669,0.0,179.34356008128583,1.114317615444077,94.94117308592968,1553.0,1435.0,1000.0,1528.0,1471.0,1011.0,137.0,293.01,1649153958.889242,1649153960.0099914,845d10a4-71a2-4fd4-b159-9a5f446ac0e7
-0.1281822004758104,0.0359003857853359,-0.3132106741244195,-0.4579515503185752,-0.5068384150107811,0.5599679423365237,-0.5711355578505883,-0.5921734786109608,-20.863465108433896,28.156492035426112,21.01142045376364,2.455253425365798,0.1330963286526968,1.9342652856961824,-1.0,11.984666666666666,0.0,179.32236828102103,1.2525262442819711,95.41760154783528,1553.0,1537.0,1000.0,1528.0,1471.0,1011.0,137.0,293.01,1649153961.9465926,1649153963.0857103,ec0382a9-9de5-4bb4-9061-cf8b9b74b8b7
-0.1290105684335613,0.0403446451408995,-0.3058605518084403,-0.4590165949327057,-0.5008426079441871,0.5556157242927303,-0.5637591370538376,-0.5845209352982864,-20.721658816694177,28.092687259434523,20.9290987178294,2.447877166581721,0.1500869549813508,1.906114967516492,-1.0,11.979555555555557,0.0,179.32305129993802,1.2322840893290907,95.53119670065148,1553.0,1537.0,1000.0,1528.0,1471.0,1011.0,137.0,293.01,1649153963.1957142,1649153964.466732,ec0382a9-9de5-4bb4-9061-cf8b9b74b8b7
-0.1292094424646863,0.0395458618388444,-0.3050184872547908,-0.4558176259036989,-0.4998794656842487,0.5532352626355522,-0.5639245915019839,-0.5879483627970061,-20.72956771839283,28.141559533885083,20.90027156071404,2.435669194065797,0.1470628532568703,1.9037560270021825,-1.0,11.974333333333334,0.0,179.3214272327354,1.2378836467938028,95.63141075397374,1553.0,1537.0,1000.0,1528.0,1471.0,1011.0,137.0,293.01,1649153964.580651,1649153965.74876,ec0382a9-9de5-4bb4-9061-cf8b9b74b8b7
-0.1171701666793469,0.0227538808843798,-0.3764597488605632,-0.9243222917780316,-0.6162865515369491,1.0254240783794744,-0.5067414433607339,-0.5334497403574033,-20.84842745974647,27.46478452238776,24.30902217138693,4.546012075048573,0.1078547841343668,2.0771350286310053,-1.0,11.973777777777778,0.0,179.31060517745044,1.3979653042604614,95.83050621482016,1553.0,1645.0,1000.0,1528.0,1471.0,1011.0,137.0,293.01,1649153967.888671,1649153969.0323646,8395a42b-25e7-437f-a157-afae9a851d2d
-0.0889510399830554,0.0282872906096124,-0.359409637478539,-0.9234004074085332,-0.6004733426958373,1.016702531839047,-0.4896955449893224,-0.5139321384694895,-20.66446951627821,27.33637835494111,24.09258002901222,4.524389909509899,0.130189951796509,2.008639660873883,-1.0,11.96,0.0,179.31451659911514,1.398300303694909,95.80366888375136,1553.0,1645.0,1000.0,1528.0,1471.0,1011.0,137.0,293.01,1649153969.1596365,1649153970.2557943,8395a42b-25e7-437f-a157-afae9a851d2d
-0.1145075555067455,0.0197274892633642,-0.3620054940526395,-0.9139090662749626,-0.6014564609303236,1.018015884213291,-0.4932821057742887,-0.512413464289983,-20.73374299331885,27.51840898533674,24.303699735163423,4.5070072773638765,0.0953745808540384,2.0178457365568394,-1.0,11.958222222222222,0.0,179.31338582335258,1.4030982151376603,95.77705543110535,1553.0,1645.0,1000.0,1528.0,1471.0,1011.0,137.0,293.01,1649153970.368932,1649153971.47972,8395a42b-25e7-437f-a157-afae9a851d2d
-0.1035283935066206,0.0142181854716672,-0.3915637688202068,-1.2891994279798242,-0.6761805279720275,1.384811908605464,-0.4282486387909905,-0.4425938698776914,-20.67705433358071,27.655489632480084,26.685159003438685,6.177655102358921,0.0975380642150346,2.0667050136521667,-1.0,11.951444444444446,0.0,179.31268459059777,1.52557183124904,95.75840446121178,1553.0,1761.0,1000.0,1528.0,1471.0,1011.0,137.0,293.01,1649153973.4165075,1649153974.554777,4fad2b16-5b2c-4b59-84c3-eb1c992027ef
-0.1147836781548802,0.0051455849217972,-0.3891444081454319,-1.27511716129695,-0.670592329806262,1.3808935969250729,-0.4248431257124252,-0.4472616578621112,-20.571580713035047,27.61684874507741,26.7301549437782,6.137008567615236,0.0607838726132574,2.050125876824412,-1.0,11.931,0.0,179.31999592864932,1.5360027870561843,95.67104102935797,1553.0,1761.0,1000.0,1528.0,1471.0,1011.0,137.0,293.01,1649153974.6634817,1649153975.788398,4fad2b16-5b2c-4b59-84c3-eb1c992027ef
-0.0987159703983753,0.0198721249307739,-0.3756406945762617,-1.2668729217891286,-0.6602705995427344,1.3561740472437225,-0.4184791553802623,-0.4344153787454632,-20.43554329980103,27.64850841552777,26.42211612061812,6.063765099554951,0.1176262102755991,2.0101011993008275,-1.0,11.93,0.0,179.30887182722108,1.540486924825971,95.5816065323658,1553.0,1761.0,1000.0,1528.0,1471.0,1011.0,137.0,293.01,1649153975.8964598,1649153977.0144005,4fad2b16-5b2c-4b59-84c3-eb1c992027ef
-0.1046241182857311,0.0174259195310319,-0.3434647334517198,-1.303484404910681,-0.6448575827620621,1.3961351284197054,-0.3856090518094824,-0.4001821937225361,-20.267365833015543,28.892723209553647,27.203641012678343,6.246208954791176,0.1069030412112318,1.8985409423059785,-1.0,11.893444444444444,0.0,179.32634041547837,1.5780418187717704,95.36346243283414,1553.0,1887.0,1000.0,1528.0,1471.0,1011.0,137.0,293.01,1649153978.9467404,1649153980.0802767,06627ee5-6532-46be-a393-80bac7200b0b
-0.1058020223866948,0.0067289071080346,-0.3378628399733205,-1.2946364200853373,-0.6343934081936428,1.3968610460063289,-0.3769254321107787,-0.3921012225221372,-20.32467839898143,28.711246753187577,27.032687176023376,6.226901109361118,0.0679662208293309,1.8628652628839617,-1.0,11.863,0.0,179.3114672991057,1.5316504980249073,95.18619246202552,1553.0,1887.0,1000.0,1528.0,1471.0,1011.0,137.0,293.01,1649153980.18886,1649153981.3253143,06627ee5-6532-46be-a393-80bac7200b0b
-0.0994128513691909,0.0220548085128367,-0.345227754802493,-1.3088436026690795,-0.6466748428856962,1.395291421542612,-0.3873561852209048,-0.4074210997542642,-20.340858712812448,28.773491119393054,27.01534110353434,6.255456868754449,0.126999294815738,1.90615191957291,-1.0,11.862666666666668,0.0,179.29616767536487,1.5958849053525863,95.03204419937722,1553.0,1887.0,1000.0,1528.0,1471.0,1011.0,137.0,293.01,1649153981.455685,1649153982.5415757,06627ee5-6532-46be-a393-80bac7200b0b
-0.1410679237143201,0.0613957078457675,-0.2175275991743838,0.412308096636149,-0.3335648591586692,-0.3093581055196942,-0.7252120353289635,-0.7557959162579125,-20.975549136122044,30.5055264572538,14.65357438386778,-1.4420643135407332,0.1848200651914525,1.7879117521478962,-1.0,11.891888888888891,0.0,179.2948927067198,1.0146729461381132,94.83220576573108,1553.0,1335.0,1000.0,1528.0,1471.0,1011.0,137.0,293.01,1649153984.299374,1649153985.4157112,9567ee54-ddf9-412a-bf74-b249928d78b3
-0.1360319726962882,0.0732163857217017,-0.2134383542315134,0.4114665801360481,-0.3312638369438035,-0.3199428076597234,-0.7241075444343867,-0.7470783266482115,-20.94757834576442,30.415048790356828,14.70612275811688,-1.4643250114801674,0.228852399419958,1.7791847599778323,-1.0,11.988,0.0,179.30458246842232,0.9951994009102704,95.14653410697473,1553.0,1335.0,1000.0,1528.0,1471.0,1011.0,137.0,293.01,1649153985.5421753,1649153986.6482697,9567ee54-ddf9-412a-bf74-b249928d78b3
-0.1445654772086762,0.0563992032647264,-0.2242202862970206,0.410888037552387,-0.3385745132596062,-0.3002460577188254,-0.7289594153218231,-0.7514962903445567,-21.008331005420978,30.447753764865165,15.027517922505131,-1.4190581461853642,0.1627474842321769,1.8091045934855885,-1.0,11.987888888888891,0.0,179.3111470391246,1.0001666678421293,95.4097878114248,1553.0,1335.0,1000.0,1528.0,1471.0,1011.0,137.0,293.01,1649153986.7660809,1649153987.8783271,9567ee54-ddf9-412a-bf74-b249928d78b3
-0.1653141214528526,0.066523699365111,-0.1804088260450713,0.8569049214661711,-0.2581833726850244,-0.7420160761459624,-0.8199484340264829,-0.8425247568081218,-21.4057381050938,32.28755653273361,11.822670384959933,-3.404212301827552,0.1798321227513412,1.7690207085410636,-1.0,11.988,0.0,179.30970511029983,0.8368567617813532,95.85451964212211,1553.0,1236.0,1000.0,1528.0,1471.0,1011.0,137.0,293.01,1649153989.7978716,1649153990.843764,0ced40b1-10d8-4d02-ad18-3bc488751cdd
-0.1623425158850649,0.0688641672819201,-0.1882980445396026,0.8509617112929823,-0.2676635838940992,-0.73883409030581,-0.8274563433151895,-0.8590921228636548,-21.340117827509392,32.319004642460904,11.76305028003902,-3.383816358027736,0.1889064030597542,1.8035566155359029,-1.0,11.958333333333334,0.0,179.29813021638637,0.8440726609830111,95.99675377812818,1553.0,1236.0,1000.0,1528.0,1471.0,1011.0,137.0,293.01,1649153990.976613,1649153992.0633335,0ced40b1-10d8-4d02-ad18-3bc488751cdd
-0.1503640526783435,0.0785416076563663,-0.1737950312378753,0.849094596586615,-0.2563425549675882,-0.7475253822112843,-0.8145443172355428,-0.8344908994133511,-21.155232287508262,32.29168251229277,11.735979347490522,-3.398505315144314,0.2252828750155294,1.7512407148586022,-1.0,11.953111111111111,0.0,179.29887546591578,0.8286611691785889,96.14878316431395,1553.0,1236.0,1000.0,1528.0,1471.0,1011.0,137.0,293.01,1649153992.1720765,1649153993.2904422,0ced40b1-10d8-4d02-ad18-3bc488751cdd
-0.160462252168256,0.0856287548703209,-0.134993225596664,1.1231528539059012,-0.2014467420097187,-1.0196377966320544,-0.864312157345707,-0.8879140796483728,-21.35730629203112,34.0593976634845,9.854469265861882,-4.6149377015620345,0.2387173619857891,1.694178292492282,-1.0,11.95522222222222,0.0,179.300684707136,0.7286837534519657,96.32602885000551,1553.0,1133.0,1000.0,1528.0,1471.0,1011.0,137.0,293.01,1649153994.4092505,1649153995.55204,bcd1a8a1-3d10-4c54-9499-4b97f395807d
-0.1838143386608222,0.0831305025953089,-0.1420146299150544,1.131620614085189,-0.205891001802909,-1.0254363760054162,-0.8736214393500906,-0.8997742101607815,-21.51994875462997,34.05465746413447,9.72877049878722,-4.647552025600598,0.2301248428934917,1.72253979197506,-1.0,11.950333333333331,0.0,179.3054779821135,0.7381160549682764,96.4591143270733,1553.0,1133.0,1000.0,1528.0,1471.0,1011.0,137.0,293.01,1649153995.6678665,1649153996.813049,bcd1a8a1-3d10-4c54-9499-4b97f395807d
-0.165393013672131,0.0843138852612843,-0.1406471654496391,1.119431773144125,-0.2054570948673376,-1.0135630954556412,-0.8682173222296109,-0.8886767051049111,-21.49593397152924,33.952977679623274,10.01290252386034,-4.593924716236449,0.2334606944226878,1.7128860642258397,-1.0,11.930555555555555,0.0,179.30300545363397,0.7256368665388563,96.52898033209335,1553.0,1133.0,1000.0,1528.0,1471.0,1011.0,137.0,293.01,1649153996.9345028,1649153998.0116615,bcd1a8a1-3d10-4c54-9499-4b97f395807d
-0.1676282921904103,0.0962496141247904,-0.1130475023945079,1.26055289191807,-0.1773665463225174,-1.162081012906235,-0.8955047167425807,-0.9140087784721012,-21.59818704562709,35.53615711601727,9.019155305804324,-5.234339490193541,0.2721597040479971,1.676414498849482,-1.0,11.917666666666666,0.0,179.32696272160274,0.68233287430261,96.62948428900036,1553.0,1026.0,1000.0,1528.0,1471.0,1011.0,137.0,293.01,1649153998.918126,1649154000.2547667,dfb87fd6-629f-448b-ba7d-47d484c24e82
-0.1500829992642281,0.110685786635352,-0.0980360733193381,1.2431171729206316,-0.1671763058283266,-1.159862169114079,-0.877233498057986,-0.8992438795514408,-21.29275003632582,35.30871004739444,9.192120487300482,-5.190601725933685,0.3257038313816925,1.618203270795609,-1.0,11.896999999999998,0.0,179.32503205479736,0.6882047381286074,96.64201085593815,1553.0,1026.0,1000.0,1528.0,1471.0,1011.0,137.0,293.01,1649154000.365506,1649154001.4943092,dfb87fd6-629f-448b-ba7d-47d484c24e82
-0.1617508245213653,0.1067192633560434,-0.1037256241239587,1.2524834272748324,-0.1708365745157409,-1.16368186761742,-0.8849293245061776,-0.9049153537863736,-21.39922603482184,35.37426560328672,9.270907524085017,-5.220202837704203,0.3093695190925473,1.6415133203876318,-1.0,11.907,0.0,179.30088050589217,0.6729578882712877,96.64046950991548,1553.0,1026.0,1000.0,1528.0,1471.0,1011.0,137.0,293.01,1649154001.6063445,1649154002.9167264,dfb87fd6-629f-448b-ba7d-47d484c24e82
-0.1342700472493583,0.0409889312502202,-0.2680580448375256,-0.0573633187940728,-0.4227919286471268,0.1644946332224622,-0.6344728482670153,-0.6656878644997959,-20.711255038177587,28.89697333605326,17.861619854397844,0.6696747514178958,0.1325747742706966,1.847909865439008,-1.0,11.945666666666666,0.0,179.31613763067816,1.0675660022184958,96.66661850969793,1553.0,1435.0,1000.0,1528.0,1471.0,1011.0,137.0,293.01,1649154004.8527882,1649154006.194234,6734db12-d663-4b3c-b1aa-e986c4b8310b
-0.1357032552580792,0.044802053177075,-0.2673217177279355,-0.056469207396614,-0.4222791293760825,0.1622988010030253,-0.6354721494800123,-0.6663190021373996,-20.802679306596147,28.908979616688256,18.196766996558424,0.6628471859777842,0.1444897762674253,1.848503571897741,-1.0,11.99,0.0,179.32546918690417,1.063206242667814,96.6916890985014,1553.0,1435.0,1000.0,1528.0,1471.0,1011.0,137.0,293.01,1649154006.3027189,1649154007.4231384,6734db12-d663-4b3c-b1aa-e986c4b8310b
-0.1144139974124618,0.0457598851324307,-0.2645114363982433,-0.0547012134081212,-0.4198936519154052,0.1586743124537083,-0.6329658048434441,-0.6575311184038317,-20.71206567348338,28.89695276910376,18.066581546482062,0.6507993810845991,0.1485549927781633,1.8378713307680543,-1.0,11.988,0.0,179.32183552626577,1.0653745075641756,96.72757491240066,1553.0,1435.0,1000.0,1528.0,1471.0,1011.0,137.0,293.01,1649154007.532139,1649154008.6532269,6734db12-d663-4b3c-b1aa-e986c4b8310b
-0.0661466482720066,0.085444673129446,-0.0598878685003369,-0.0707223947168494,-0.2367509951803342,0.1224714011494558,-0.4252112892397071,-0.4457495575115391,-19.191440392974386,28.73270263345988,17.932135615829996,0.6154305314590185,0.302767862727444,1.0193043860186255,-1.0,11.989777777777778,0.0,179.2968218557054,1.060471866554151,96.733472401294,1553.0,1435.0,1000.0,1435.0,1471.0,1011.0,137.0,293.01,1649154010.300084,1649154011.5344613,0321ff71-7ade-44df-aebe-3bb8fad21a45
-0.0776517579502794,0.0697977247150318,-0.0653051315790445,-0.0664096222156091,-0.2388153407337357,0.1323986665671276,-0.4274334193923741,-0.4466173717707423,-19.264802973859663,28.805113702138502,17.698723222909372,0.628146006283805,0.2457970712172772,1.03039856679957,-1.0,11.981333333333334,0.0,179.27716457127406,1.0464442351085963,96.7431803768343,1553.0,1435.0,1000.0,1435.0,1471.0,1011.0,137.0,293.01,1649154011.6463273,1649154012.7543266,0321ff71-7ade-44df-aebe-3bb8fad21a45
-0.0659176418098274,0.0874153339410937,-0.0569874851748783,-0.0714921413240225,-0.2349194911803798,0.1218895713497403,-0.4230691470674636,-0.4420936714990855,-19.17941789862136,28.78564210022611,18.041800465674047,0.6163783368445886,0.3093815288045936,1.0101793694345853,-1.0,11.99,0.0,179.2995372353554,1.0571368369644152,96.78935625017314,1553.0,1435.0,1000.0,1435.0,1471.0,1011.0,137.0,293.01,1649154012.8629656,1649154013.9183118,0321ff71-7ade-44df-aebe-3bb8fad21a45
0.015059702031923,0.1112029687157154,0.1623119497377838,-0.0744040298136917,-0.0350105343431206,0.0880875610155597,-0.1994744373651095,-0.2207227328363395,-17.61478132978483,28.83386450964313,17.865140515531596,0.5589879708396636,0.4033529900621194,0.1242936569822581,-1.0,11.985777777777775,0.0,179.28669647971577,1.0543889309100527,96.76434106179292,1553.0,1435.0,1000.0,1330.0,1471.0,1011.0,137.0,293.01,1649154015.9142258,1649154017.0476742,5edce682-b28a-48f2-a3b2-9e261a187a4c
0.0050535439876488,0.1136223287817203,0.1620095297368586,-0.0780199214616469,-0.0359835378888105,0.0892577949633203,-0.1988564485750401,-0.2182770749793555,-17.553871221862856,28.77359902939532,17.896749555869036,0.5693953420457553,0.412140804148589,0.1255242204575388,-1.0,11.984,0.0,179.2788645294675,1.05517728415066,96.75326780732853,1553.0,1435.0,1000.0,1330.0,1471.0,1011.0,137.0,293.01,1649154017.1558936,1649154018.2773497,5edce682-b28a-48f2-a3b2-9e261a187a4c
0.0029629012753387,0.1052466094138107,0.1586960583842751,-0.0734047288663448,-0.0366146753359405,0.0934259316127515,-0.2007498610119172,-0.2297558880898476,-17.641542594214965,28.77586962346866,17.907167761224102,0.5681585503462034,0.3804766973550238,0.1325757494414199,-1.0,11.98425,0.0,179.28999659944975,1.0585676370868762,96.76814794361782,1553.0,1435.0,1000.0,1330.0,1471.0,1011.0,137.0,293.01,1649154018.388551,1649154019.510855,5edce682-b28a-48f2-a3b2-9e261a187a4c
0.06914028986309,0.1428387311824815,0.3848930671326879,-0.0719846696488428,0.1640607262686243,0.0427245591065721,0.0214631171544825,-0.0053339264830529,-15.925911395446096,29.16821831854536,17.83425494790697,0.4657385010034865,0.5241449168439405,-0.7599697377715755,-1.0,11.982222222222225,0.0,179.27620682697045,1.0644611594901634,96.71327325518854,1553.0,1435.0,1000.0,1210.0,1471.0,1011.0,137.0,293.01,1649154020.4226372,1649154021.563656,26a81c1d-076e-4a4c-8e28-a05104b0e2d8
0.077827742948409,0.1518576408215597,0.3971219015559704,-0.0738616460682711,0.1736077751649827,0.03601214967433,0.0313005335089034,0.0042772227833254,-15.882460795620071,29.190921608387725,17.974938677480694,0.4556925345822689,0.5574236263305856,-0.8023544740484786,-1.0,11.978666666666667,0.0,179.25087441424878,1.0577495144193392,96.71804072722922,1553.0,1435.0,1000.0,1210.0,1471.0,1011.0,137.0,293.01,1649154021.6974232,1649154022.7884085,26a81c1d-076e-4a4c-8e28-a05104b0e2d8
0.0674046619393173,0.1399279386221371,0.3871918973417829,-0.0738342529291518,0.1674169308693542,0.0474350795783963,0.0245070403529765,0.0019488078781123,-16.082553169239276,29.17238271172989,17.877659611332565,0.4805660183299315,0.5143251800191249,-0.7724269240187565,-1.0,11.979333333333331,0.0,179.25469476672455,1.0631784475924415,96.71891878599251,1553.0,1435.0,1000.0,1210.0,1471.0,1011.0,137.0,293.01,1649154022.8961642,1649154024.0241697,26a81c1d-076e-4a4c-8e28-a05104b0e2d8
0.1332007370534713,0.1813249638556814,0.5972707900143701,-0.0419924922985111,0.3541908636965478,-0.0338797464428408,0.217483877008554,0.1923698679322959,-14.615646411386251,29.84525470714057,17.78847578162968,0.241658799370851,0.6694061132109258,-1.5820261914347469,-1.0,11.975777777777775,0.0,179.22638590934457,1.053129519918093,96.67374543264188,1553.0,1435.0,1000.0,1071.0,1471.0,1011.0,137.0,293.01,1649154025.9475148,1649154027.0838337,2fd8d3ee-c7fc-47bf-98ce-e60d162e2eb8
0.1357778814362231,0.1842702717112852,0.592024460716193,-0.0457661682377771,0.3485106273199977,-0.0332880551126369,0.2109358265586353,0.1960383541729667,-14.746204642204727,29.87175245082809,17.743844459194854,0.2513424875490416,0.6819049141108506,-1.5576569827921174,-1.0,11.960777777777778,0.0,179.21768576616176,1.0573734508441,96.63848799614628,1553.0,1435.0,1000.0,1071.0,1471.0,1011.0,137.0,293.01,1649154027.1936123,1649154028.3125927,2fd8d3ee-c7fc-47bf-98ce-e60d162e2eb8
0.1331744396203411,0.1818377629979083,0.5934971145515242,-0.0449246516944652,0.349562522942562,-0.0307109105866908,0.2148541378384604,0.2017185905713981,-14.51668331970989,29.844399669112708,17.9013048415053,0.2552680589736449,0.6697507504064917,-1.5665690677714026,-1.0,11.96211111111111,0.0,179.22775953627763,1.0625194884911102,96.64302020611552,1553.0,1435.0,1000.0,1071.0,1471.0,1011.0,137.0,293.01,1649154028.4211204,1649154029.552225,2fd8d3ee-c7fc-47bf-98ce-e60d162e2eb8
-0.2250749516897147,0.0029891987102663,-0.5301773571859547,-0.0144459729108549,-0.6605335734659284,0.175316009869238,-0.916236386760682,-0.9322120624366768,-22.780481585181857,29.558315738692727,17.634284204808534,0.5874353044862535,-0.0151767740843939,2.9239305066750862,-1.0,11.973333333333333,0.0,179.31522390314916,1.0812193369259395,96.8270588943916,1553.0,1435.0,1000.0,1613.0,1471.0,1011.0,137.0,293.01,1649154031.4792674,1649154032.6183703,2e335d3c-0f69-4bfb-8b83-29e09b84538f
-0.2182244801740552,-0.000166488440395,-0.5257067991814846,-0.0115269622604718,-0.6551294573138834,0.1753028611785523,-0.9104509571419324,-0.9425337946973648,-22.717937837052204,29.51025503217611,17.614714903771368,0.5807535519389472,-0.027358544822548,2.901918441654455,-1.0,11.97311111111111,0.0,179.31921273362448,1.0839077515583129,96.71028694470144,1553.0,1435.0,1000.0,1613.0,1471.0,1011.0,137.0,293.01,1649154032.7272894,1649154033.8452404,2e335d3c-0f69-4bfb-8b83-29e09b84538f
-0.2168126387918013,0.0054140374921309,-0.531367862331525,-0.0179385954333086,-0.6630466189090624,0.1768127697356581,-0.9161728346101292,-0.9396898394483978,-22.62476823534496,29.520133142383845,17.722850879086703,0.5984573283921689,-0.007615322014968,2.929397932779851,-1.0,11.973666666666666,0.0,179.33461708693255,1.0812786030465504,96.67619367600436,1553.0,1435.0,1000.0,1613.0,1471.0,1011.0,137.0,293.01,1649154033.9538014,1649154035.071315,2e335d3c-0f69-4bfb-8b83-29e09b84538f
-0.2842440920970325,-0.0293434460833125,-0.7348894798877745,0.0397792511269948,-0.8447731848783668,0.1673084540962989,-1.1390148938443043,-1.15763346269759,-24.12226142108218,30.09160158617011,17.445647317240397,0.4397588690127565,-0.1449200768560094,3.766245734645021,-1.0,11.966111111111111,0.0,179.3416233432012,1.057258191401856,96.63183235625505,1553.0,1435.0,1000.0,1694.0,1471.0,1011.0,137.0,293.01,1649154035.984932,1649154037.0494187,d4bc6606-2fa2-4a22-945b-94a5ec0c8530
-0.2848982398509866,-0.0258141167628491,-0.7296940990246504,0.0429563048475857,-0.8405677912885089,0.1609795485215933,-1.1365643035753743,-1.1671076535520506,-24.14326144491657,30.168151970692914,17.482041714648844,0.4191317059554121,-0.1319173813367637,3.750406975635142,-1.0,11.946444444444444,0.0,179.34564556571246,1.0628395943186182,96.55483866938113,1553.0,1435.0,1000.0,1694.0,1471.0,1011.0,137.0,293.01,1649154037.1777008,1649154038.1224182,d4bc6606-2fa2-4a22-945b-94a5ec0c8530
-0.2868475343222229,-0.0201130610714902,-0.7251199945752609,0.0422249086249854,-0.8369102605912027,0.1539888252356532,-1.1337422626731506,-1.1594479840543614,-24.140987087408725,30.121371391309907,17.21579915318308,0.4049488180011081,-0.1078121215264961,3.7355009876393046,-1.0,11.95188888888889,0.0,179.36393833012954,1.0459395125880544,96.499316820528,1553.0,1435.0,1000.0,1694.0,1471.0,1011.0,137.0,293.01,1649154038.231734,1649154039.386165,d4bc6606-2fa2-4a22-945b-94a5ec0c8530
-0.3562069179354856,-0.0583757683672145,-0.9258086430391548,0.1120444851873087,-1.0159561591717272,0.1368034796974467,-1.3586772037331891,-1.3851850023930794,-25.730332380816016,30.995285251244724,16.94230590850119,0.2037918864938446,-0.2589516318639826,4.56731463882264,-1.0,11.942,0.0,179.35698519755448,1.043704605915416,96.35485831958222,1553.0,1435.0,1000.0,1774.0,1471.0,1011.0,137.0,293.01,1649154041.3083591,1649154042.4535992,a0255566-3de7-42fb-8e1a-90c193bf86a6
-0.3614926948296739,-0.0536553862417962,-0.9220349650908752,0.1151738748565912,-1.0128004700081563,0.1298609682684541,-1.3569284254695966,-1.3791365959495132,-25.70638785508067,30.98277716056283,17.04375043100554,0.1812652101758921,-0.2424621785550644,4.5561462126274765,-1.0,11.903333333333332,0.0,179.35408767952654,1.0280121988654425,96.21462087554352,1553.0,1435.0,1000.0,1774.0,1471.0,1011.0,137.0,293.01,1649154042.5708454,1649154043.6803286,a0255566-3de7-42fb-8e1a-90c193bf86a6
-0.355207616925401,-0.0553910142084815,-0.9250986130929988,0.1105981286638947,-1.0163374716358085,0.1369481153830352,-1.3585062706371651,-1.3825289628015258,-25.710412447040607,31.023566110530595,17.19207269931192,0.2076522015910741,-0.249888085030045,4.567325850209483,-1.0,11.905888888888889,0.0,179.36346325252725,1.0549022385989266,96.12572368676608,1553.0,1435.0,1000.0,1774.0,1471.0,1011.0,137.0,293.01,1649154043.793995,1649154044.9055831,a0255566-3de7-42fb-8e1a-90c193bf86a6
-0.38654096586171244,-0.047041591786867176,-1.0055029390710997,0.2135655657174022,-1.0903515331606026,0.03463811090612451,-1.4822356319607906,-1.4994341477368158,-26.223420957691456,32.069295395154775,16.494452749494574,-0.25196212288466563,-0.22651570445337288,4.954041103552927,-1.0,11.892444444444443,0.0,179.35363688704135,1.0227039560836113,95.97031183912132,1553.0,1435.0,1000.0,1856.0,1471.0,1011.0,137.0,293.01,1649154045.815005,1649154046.9627354,b725c6ea-fe04-4a8f-a70a-96a6c2d9ea0d
-0.38130833156303034,-0.045975451633150914,-1.000858706994219,0.2156425116976559,-1.0856130683328524,0.031040298769155806,-1.4794853599501518,-1.5063306460170498,-26.332072937530807,32.11381554813415,16.43193186106257,-0.26427024602708865,-0.22115443953234393,4.937305521165279,-1.0,11.866444444444445,0.0,179.34897718020758,1.0033369191181383,95.80030084158062,1553.0,1435.0,1000.0,1856.0,1471.0,1011.0,137.0,293.01,1649154047.0961354,1649154048.18072,b725c6ea-fe04-4a8f-a70a-96a6c2d9ea0d
-0.38164964990008854,-0.05444430804941178,-1.0151935344987202,0.2150776657059338,-1.0968469938047187,0.04048928077067489,-1.4898487358145112,-1.5186707113785125,-26.352946074077646,31.99382825138944,16.428078637655638,-0.24328327787687434,-0.25357715606371495,4.985901248844366,-1.0,11.866666666666667,0.0,179.35293565428654,1.0107856791528276,95.66648453427166,1553.0,1435.0,1000.0,1856.0,1471.0,1011.0,137.0,293.01,1649154048.2893598,1649154049.620179,b725c6ea-fe04-4a8f-a70a-96a6c2d9ea0d
