raw_voltage_G-,raw_voltage_G0,raw_voltage_G1,raw_voltage_G2,raw_voltage_G3,raw_voltage_G4,raw_voltage_G5,raw_voltage_G6,load_x,load_y,load_z,load_l,load_m,load_n,rpm,voltage,current,roll,pitch,yaw,aileron1_pwm,elevator_pwm,throttle_pwm,rudder_pwm,aileron2_pwm,pbaro,pdiff,Tt,sample_start_time,sample_end_time,uid
-0.2176327887996553,-0.0200473175943421,-0.4800676626361268,-0.0638193289837031,-0.6022848290200769,0.2429791977774863,-0.8447205899930027,-0.8735688447278966,-23.91206363733341,28.98498575328773,18.06213490885236,0.8490507638045927,-0.0881148056694072,2.67129240226505,-1.0,11.984,0.0,179.3377771877886,1.1131410086378368,95.69810147993964,1553.0,1435.0,1000.0,1528.0,1471.0,1011.0,137.0,293.01,1649154294.7919028,1649154295.7862256,fa18e706-823f-4206-a6c9-7d4e93d78005
-0.2247856803619708,-0.0291330669428162,-0.4805015697033588,-0.05194605572075,-0.6002073343320543,0.2438601604197416,-0.8462852855350511,-0.8739370093693859,-24.04112059164213,29.14123225766246,18.46695487519137,0.825260946916807,-0.1263530771967375,2.670703348684012,-1.0,11.98177777777778,0.0,179.3201917274055,1.1091578344129556,96.1193154515048,1553.0,1435.0,1000.0,1528.0,1471.0,1011.0,137.0,293.01,1649154295.895005,1649154297.023939,fa18e706-823f-4206-a6c9-7d4e93d78005
-0.2210448758213309,-0.020280706958492,-0.476293985862654,-0.0623702329576618,-0.5992891167465537,0.2406661231172628,-0.8412663160477892,-0.8590581552584466,-23.8203443338916,29.02977031183313,17.917384852690372,0.8410920519161421,-0.088294832506755,2.65697611650903,-1.0,11.986,0.0,179.3162302176869,1.0864087510173666,96.45038079185456,1553.0,1435.0,1000.0,1528.0,1471.0,1011.0,137.0,293.01,1649154297.1329691,1649154298.250584,fa18e706-823f-4206-a6c9-7d4e93d78005
0.0078109351628024,0.3879452080265369,-0.448270820415058,-0.3336990854427166,-0.674401070200335,0.1054947910438323,-0.8806165491941466,-0.9049964374804508,-23.323334525641883,27.84984027926604,20.011910625617983,1.1435529650438043,1.4558820033129989,2.827911321943123,-1.0,11.983111111111112,0.0,179.19466043955975,1.103951475286244,97.02119260226098,1647.0,1435.0,1000.0,1528.0,1543.0,1011.0,137.0,293.01,1649154299.3594286,1649154300.4981518,ad262d4c-df9c-46af-b21e-b7aa13a61cfb
0.004578547341172,0.3786178523489247,-0.4529276514058668,-0.3312747942517084,-0.6766199135368662,0.1139455674935993,-0.8840269941205056,-0.9036678710826646,-23.50705434637639,27.93259012600137,20.200211269988504,1.1573285970920388,1.4199378713995046,2.841132772040335,-1.0,11.956888888888887,0.0,179.1672395067719,1.080379484533309,97.27390201245235,1647.0,1435.0,1000.0,1528.0,1543.0,1011.0,137.0,293.01,1649154300.6072855,1649154301.7326517,ad262d4c-df9c-46af-b21e-b7aa13a61cfb
0.0013187663513669,0.3780015072539937,-0.4588856557807309,-0.3383833093805868,-0.6818109112065898,0.1210814743905688,-0.8873004733624205,-0.908338399607857,-23.555139998022707,27.808420989635312,20.16447807614824,1.1882492990082492,1.418778642204071,2.8608152806792826,-1.0,11.96,0.0,179.15324369025262,1.0793575411946803,97.44884971894317,1647.0,1435.0,1000.0,1528.0,1543.0,1011.0,137.0,293.01,1649154301.8410456,1649154302.955199,ad262d4c-df9c-46af-b21e-b7aa13a61cfb
0.2558912168269476,0.8280435357563124,-0.4120757389610274,-0.6486339991065742,-0.7554934955034746,-0.0248465918835682,-0.9161048997411544,-0.9303712433126232,-22.813551762976463,26.943697705824324,21.567610512125665,1.5573744239047551,3.130176500224388,2.992965249011537,-1.0,11.952333333333334,0.0,178.98746892781713,1.11332276756075,97.69890749791676,1745.0,1435.0,1000.0,1528.0,1614.0,1011.0,137.0,293.01,1649154304.8946145,1649154306.039115,ee7df6f4-2cea-41c0-8772-8173dc39f0e0
0.2667783366960892,0.8267944097246641,-0.4186369397461436,-0.6501066535552594,-0.7613183704736977,-0.021467376856905,-0.9224951696518352,-0.9410216939630308,-22.91611955508592,26.94847218565332,21.63181130263639,1.5679534694755413,3.1254139088874395,3.0187937661071773,-1.0,11.926666666666668,0.0,178.97190520342843,1.0947091858380935,97.77188806919835,1745.0,1435.0,1000.0,1528.0,1614.0,1011.0,137.0,293.01,1649154306.16908,1649154307.2534196,ee7df6f4-2cea-41c0-8772-8173dc39f0e0
0.2673963253987054,0.8321459286146508,-0.4107608690647318,-0.6460437049451722,-0.7547966143076249,-0.0303558957461184,-0.9169201193176536,-0.9465310004705136,-22.819111026984046,26.962021659157905,21.69657844433777,1.539355916794133,3.144224021100299,2.9920740497803866,-1.0,11.931,0.0,178.97349587859512,1.0960642906262374,97.8121338205178,1745.0,1435.0,1000.0,1528.0,1614.0,1011.0,137.0,293.01,1649154307.362279,1649154308.4881413,ee7df6f4-2cea-41c0-8772-8173dc39f0e0
0.5184312147524778,1.268038334639045,-0.3519861857896325,-0.9447296280272104,-0.8159906746034692,-0.1737292878071997,-0.9374320973636576,-0.952737189576192,-22.339205101583502,26.61544780611105,23.079027353905413,1.892030074973506,4.803931052123357,3.077062687711245,-1.0,11.920666666666667,0.0,178.6778382389027,1.1251098597991935,97.8271761737999,1849.0,1435.0,1000.0,1528.0,1686.0,1011.0,137.0,293.01,1649154310.2914438,1649154311.3556,39a74b22-b50a-415d-8a37-ea09b49a4c93
0.516898296063986,1.2645933762166066,-0.3617633388252044,-0.9474968823800894,-0.8258439835205795,-0.1672173955282037,-0.9451821624539396,-0.964453233091518,-22.25118570781341,26.636921342504976,23.09442986957011,1.9126076899372737,4.789972124833882,3.1144783888094576,-1.0,11.883111111111113,0.0,178.65768918085115,1.1277882425912231,97.82411852578144,1849.0,1435.0,1000.0,1528.0,1686.0,1011.0,137.0,293.01,1649154311.472065,1649154312.5812166,39a74b22-b50a-415d-8a37-ea09b49a4c93
0.5274720383349801,1.2686201644544124,-0.3526962154902321,-0.9464422466059592,-0.8176123479166658,-0.1719153154271326,-0.9383475757917792,-0.9677404085605668,-22.328604102517115,26.67900647045896,23.18660612808826,1.900378029314789,4.805251694274098,3.0817312035687245,-1.0,11.893,0.0,178.6584738936958,1.1183273633736976,97.77921913890752,1849.0,1435.0,1000.0,1528.0,1686.0,1011.0,137.0,293.01,1649154312.6898792,1649154313.80668,39a74b22-b50a-415d-8a37-ea09b49a4c93
0.5483050498329222,1.293809779479529,-0.3003380985711539,-1.0095001453617072,-0.7922046718087808,-0.1840641640721671,-0.8950143792802454,-0.9122260328694384,-21.8040359981528,27.76027238064108,17.06992999307727,2.024385062289355,4.961328587957546,2.90784900230267,-1.0,11.859333333333334,0.0,178.5209002234334,1.1504646129312732,97.6497233057035,1962.0,1435.0,1000.0,1528.0,1760.0,1011.0,137.0,293.01,1649154314.9334304,1649154316.062569,96b3e2f8-a209-44e2-b6e4-22d5e6488d6c
0.5367210495341662,1.2808977597313345,-0.3061103771693122,-0.995076016478442,-0.7928752557298837,-0.1826046585550467,-0.900300158256035,-0.9211277050572816,-21.966037246269785,27.776043938216205,17.325029495430186,1.9949037128908405,4.9096447448087766,2.922960583409605,-1.0,11.791555555555554,0.0,178.52069835339793,1.1492278387989066,97.48334217425172,1962.0,1435.0,1000.0,1528.0,1760.0,1011.0,137.0,293.01,1649154316.171127,1649154317.397576,96b3e2f8-a209-44e2-b6e4-22d5e6488d6c
0.5380868702435747,1.280590956762886,-0.3066346814912749,-0.9941199959499168,-0.7930817998810773,-0.182941046113385,-0.9002163352170269,-0.9156386691552016,-21.915211732584293,27.732058271293607,17.35816449859745,1.991704430071036,4.9076889512978985,2.92390883169228,-1.0,11.8,0.0,178.5238280978576,1.1587750321604748,97.34265849118724,1962.0,1435.0,1000.0,1528.0,1760.0,1011.0,137.0,293.01,1649154317.5062077,1649154318.6233785,96b3e2f8-a209-44e2-b6e4-22d5e6488d6c
-0.509547047174703,-0.5317683497946097,-0.4898371463484011,0.3094064073136349,-0.4846960048289411,0.3872203861667027,-0.7775964636134944,-0.803039202810937,-24.141375771321744,30.835143423044293,16.347405828431764,0.3426638492900124,-2.03709921706978,2.366894604535487,-1.0,11.804,0.0,179.4320201379564,1.050177443382603,97.17774585040702,1459.0,1435.0,1000.0,1528.0,1394.0,1011.0,137.0,293.01,1649154319.290208,1649154320.257329,519dc468-4e91-4c8a-b2f0-1d5669feaec9
-0.5036301323909582,-0.5342271566974179,-0.4910731241118469,0.311168332536611,-0.4845119230320952,0.3873781705160052,-0.77726774604524,-0.8000938935459915,-24.0972698720995,30.728982047318485,16.255597922286356,0.3382862072098483,-2.0461168029877355,2.367523489234429,-1.0,11.973666666666666,0.0,179.4580568190725,1.0325788562297324,97.21256160133628,1459.0,1435.0,1000.0,1528.0,1394.0,1011.0,137.0,293.01,1649154320.36684,1649154321.4920704,519dc468-4e91-4c8a-b2f0-1d5669feaec9
-0.5177397828973883,-0.5382161435336531,-0.4939762473955222,0.3173394535554892,-0.4863198692192647,0.385041537812431,-0.7807959811299497,-0.8035596723591056,-24.08662894977301,30.776430418084114,16.150304691946925,0.3192735012916828,-2.0611630664219587,2.378377610981689,-1.0,11.96977777777778,0.0,179.4504874516523,1.0320870233196549,97.2054483387707,1459.0,1435.0,1000.0,1528.0,1394.0,1011.0,137.0,293.01,1649154321.601268,1649154322.7187862,519dc468-4e91-4c8a-b2f0-1d5669feaec9
-0.7791348618657511,-0.9977583518358164,-0.5207365906185073,0.6636585509125144,-0.4000183820118081,0.513184885463509,-0.746657567815013,-0.7689972126196261,-24.58119483854492,32.97398426303307,15.69697765807966,-0.1610681728487901,-3.821505992507652,2.1942480795028474,-1.0,11.964111111111112,0.0,179.6146275221464,1.0002401990974128,97.12614073558797,1364.0,1435.0,1000.0,1528.0,1312.0,1011.0,137.0,293.01,1649154323.2921536,1649154324.3571217,273ec511-0afc-4ab4-9266-0b26891f9281
-0.7764525266636754,-0.9935507664466732,-0.5252728921176475,0.6677872411327423,-0.4045546831486526,0.5087932213101356,-0.7529163500149622,-0.7781092635691813,-24.568851773734405,32.9528696626197,16.157555526000905,-0.1805363589943668,-3.810690705861493,2.216733557310742,-1.0,11.944555555555556,0.0,179.62792817719014,1.001845756013091,96.98476492668756,1364.0,1435.0,1000.0,1528.0,1312.0,1011.0,137.0,293.01,1649154324.4660375,1649154325.5877292,273ec511-0afc-4ab4-9266-0b26891f9281
-0.7661307954523113,-0.9906580514079922,-0.5179490662694199,0.6594246711334968,-0.3984536868508968,0.5103316186354503,-0.7445274781314722,-0.7716663993053419,-24.57617892928713,32.89157134901352,15.745997540326217,-0.1583264350388891,-3.794648914575847,2.1862128955419857,-1.0,11.937,0.0,179.6261750953032,1.0111743951791856,96.87174654540128,1364.0,1435.0,1000.0,1528.0,1312.0,1011.0,137.0,293.01,1649154325.6962202,1649154326.8212574,273ec511-0afc-4ab4-9266-0b26891f9281
-1.055603887662804,-1.4734451705914915,-0.5661023449540902,1.034778827318693,-0.3290011650491989,0.63127824597453,-0.7384325069764991,-0.7625932479959477,-25.314687443962487,35.669992805391054,14.637016629945064,-0.7177779730378958,-5.639557963656934,2.090229286008382,-1.0,11.911333333333332,0.0,179.79055346350836,0.956910641083648,96.5619693868746,1262.0,1435.0,1000.0,1528.0,1222.0,1011.0,137.0,293.01,1649154328.9612572,1649154330.0915356,efbd08d0-2ac4-4c1b-b2fd-f7136a4a1bf6
-1.0365930515615178,-1.4654737647002565,-0.5571858827213648,1.029738494061384,-0.3224952987136918,0.628730686324611,-0.7305021963368575,-0.7490473450672851,-25.2788835193489,35.65594892498554,14.790141425409418,-0.7117396093148658,-5.610085306674361,2.059089986990904,-1.0,11.887999999999998,0.0,179.78255910653982,0.9644778859276896,96.38617473692672,1262.0,1435.0,1000.0,1528.0,1222.0,1011.0,137.0,293.01,1649154330.2003725,1649154331.3231018,efbd08d0-2ac4-4c1b-b2fd-f7136a4a1bf6
-1.0431537074710502,-1.4627618431562694,-0.5659516827803966,1.02913584553754,-0.3308775938993622,0.625292850450966,-0.7410211576733787,-0.7699619991669335,-25.383989378273977,35.63194436853491,14.52704006357266,-0.7187959130462257,-5.5973200910372265,2.097320612386928,-1.0,11.885444444444444,0.0,179.77465733658002,0.9605125223697067,96.23721514131792,1262.0,1435.0,1000.0,1528.0,1222.0,1011.0,137.0,293.01,1649154331.4340155,1649154332.5516117,efbd08d0-2ac4-4c1b-b2fd-f7136a4a1bf6
-1.220615767970112,-1.7747287577187376,-0.5844946374249453,1.2866568887018943,-0.2807070923529559,0.6983053621534329,-0.7342714908336085,-0.7570187451175707,-25.7504878541296,38.36018405487928,15.086601678919596,-1.1185642043077888,-6.802586696977431,2.0085757071279944,-1.0,11.844333333333331,0.0,179.88141015766766,0.931511479863996,95.94828903250747,1153.0,1435.0,1000.0,1528.0,1121.0,1011.0,137.0,293.01,1649154333.462895,1649154334.40688,8022ca6e-3ebe-4b5c-97f0-de10932d2fa2
-1.2271534146909486,-1.7768517268250408,-0.5810589915964123,1.2864667804326413,-0.277159683200234,0.7011717776521172,-0.7282422632821692,-0.7498554426635279,-25.593780981164752,38.28915203440451,15.20987551772496,-1.1118954230830151,-6.812510824161369,1.99053057105829,-1.0,11.759625,0.0,179.88370225531665,0.93856269413342,95.62286523868464,1153.0,1435.0,1000.0,1528.0,1121.0,1011.0,137.0,293.01,1649154334.515548,1649154335.6215637,8022ca6e-3ebe-4b5c-97f0-de10932d2fa2
-1.2383846026741274,-1.776016235704236,-0.5890851773829132,1.2769613687249783,-0.2865007373867703,0.7085268289027128,-0.7361862704555858,-0.755649089737069,-25.714853440530675,38.38238806129815,15.065650304029353,-1.0737912735926776,-6.80657895547342,2.025195971383861,-1.0,11.76477777777778,0.0,179.87978912610467,0.935720192627095,95.34114592808598,1153.0,1435.0,1000.0,1528.0,1121.0,1011.0,137.0,293.01,1649154335.729892,1649154337.0539637,8022ca6e-3ebe-4b5c-97f0-de10932d2fa2
-0.213361105673694,-0.0013520625889498,-0.4721028379690237,-0.0464959210245367,-0.5932763256349755,0.2105610886897198,-0.8467312457738378,-0.8607839225856688,-24.121082704994308,28.810172833727574,18.35139214056706,0.7363042135798684,-0.0207114463574872,2.653775874911968,-1.0,11.839666666666668,0.0,179.70706730237336,0.993363396257908,94.9834474034326,1553.0,1435.0,1000.0,1528.0,1471.0,1011.0,137.0,293.01,1649154337.9705284,1649154339.1103785,2f8bd77a-e6ae-4e67-a593-4ef1f20d385c
-0.2198943647888217,-0.0043872200159594,-0.4674054650899327,-0.0366409727615037,-0.5877555150562119,0.2038881257002504,-0.8435635040487567,-0.8666000319676264,-24.06799828319508,28.87104868000885,18.299367379439733,0.6997347053951704,-0.0329242906706118,2.635001022800316,-1.0,11.991444444444443,0.0,179.34023909152938,1.095194449434282,95.20680673185052,1553.0,1435.0,1000.0,1528.0,1471.0,1011.0,137.0,293.01,1649154339.2399938,1649154340.3298292,2f8bd77a-e6ae-4e67-a593-4ef1f20d385c
-0.2055228382925323,0.0060396963005345,-0.466550799600746,-0.0422686149571974,-0.5892807642701452,0.1987601343784905,-0.8458250809281554,-0.8694270036925128,-24.15507729591455,28.88767883140957,18.28092153966271,0.7010120323956264,0.0077101403654908,2.640252044081012,-1.0,11.989111111111113,0.0,179.3386271668853,1.104243762322445,95.41753779940304,1553.0,1435.0,1000.0,1528.0,1471.0,1011.0,137.0,293.01,1649154340.4385817,1649154341.5665734,2f8bd77a-e6ae-4e67-a593-4ef1f20d385c
-0.2011180246020353,-0.019034867949387,-0.5185144603792956,-0.4549930930013886,-0.6770088959007454,0.6258954989720611,-0.7751902511795212,-0.7969513538197955,-24.02385666890857,27.91082371660413,21.56231447435919,2.5833735252481795,-0.0688419395542063,2.7284721422547,-1.0,11.982888888888889,0.0,179.34863263510948,1.2612339054160262,95.78881853467594,1553.0,1537.0,1000.0,1528.0,1471.0,1011.0,137.0,293.01,1649154343.4968967,1649154344.4979117,02f687b9-bace-4720-b8fc-80d9f81556ca
-0.2039844406483576,-0.0184826226899266,-0.5229850183374837,-0.4568865057111631,-0.6809403575994737,0.6276574240957957,-0.7792006053116364,-0.8050641032128465,-24.07515251603061,27.85701288589352,21.61009174532899,2.5910063539542034,-0.066882275921533,2.745734505888904,-1.0,11.974666666666666,0.0,179.35355037131183,1.271601255086525,95.87191613393811,1553.0,1537.0,1000.0,1528.0,1471.0,1011.0,137.0,293.01,1649154344.6280727,1649154345.656726,02f687b9-bace-4720-b8fc-80d9f81556ca
-0.2071269794033043,-0.0298167991622142,-0.5195400589535641,-0.4560318401504711,-0.6765618400479683,0.63659853667574,-0.7724816185227225,-0.7942032747150987,-24.00762536004164,27.95300768511241,21.45199632044677,2.609986998872932,-0.1083542812217398,2.723929445216521,-1.0,11.972666666666663,0.0,179.3576697342913,1.271182313101496,95.91217782236562,1553.0,1537.0,1000.0,1528.0,1471.0,1011.0,137.0,293.01,1649154345.7659912,1649154346.8934033,02f687b9-bace-4720-b8fc-80d9f81556ca
-0.203458492781039,-0.0452632305636589,-0.5795934593266882,-0.9051334024150652,-0.7801659391811698,1.0867298711596438,-0.7082452796012474,-0.7380900933752274,-23.99247109929528,27.236900115493068,24.523443382672585,4.627315116625552,-0.1421424014895215,2.854272231835892,-1.0,11.973,0.0,179.3658872107727,1.419196295107244,95.99764170272029,1553.0,1645.0,1000.0,1528.0,1471.0,1011.0,137.0,293.01,1649154348.8251169,1649154349.960601,d11be4df-497c-410c-8627-cc20c29d47c4
-0.1950761980686141,-0.0382642888886362,-0.5745257311337856,-0.9069002595918904,-0.7765637427369191,1.0817580206891109,-0.7041500069544552,-0.7226266722795115,-23.923893517128068,27.17353853183328,24.595879025163168,4.620006675980089,-0.1164817551175485,2.8376347505372563,-1.0,11.962444444444444,0.0,179.37156992816216,1.426051860327298,95.97310159194234,1553.0,1645.0,1000.0,1528.0,1471.0,1011.0,137.0,293.01,1649154350.0692642,1649154351.1940124,d11be4df-497c-410c-8627-cc20c29d47c4
-0.1954323086431882,-0.0429759051959742,-0.5771691677743526,-0.9035719938318264,-0.7780566683088322,1.0837988077878309,-0.7061770984354739,-0.7254755575710178,-23.9323995031692,27.20378743029711,24.64706652225796,4.617157620948698,-0.135123498664814,2.845670519397094,-1.0,11.962666666666667,0.0,179.3459734147926,1.43950800889636,95.94955261750394,1553.0,1645.0,1000.0,1528.0,1471.0,1011.0,137.0,293.01,1649154351.325919,1649154352.426358,d11be4df-497c-410c-8627-cc20c29d47c4
-0.1894551298915149,-0.0502761711807072,-0.5951450847255696,-1.2594176041118634,-0.8385144022031299,1.4369464918698815,-0.6320008925453342,-0.6587059044653681,-23.83087942369981,27.288191257666067,27.46417978544908,6.213592743537991,-0.1455164072920803,2.846914403786684,-1.0,11.955444444444444,0.0,179.37369942936343,1.5556880918642324,95.92324500555075,1553.0,1761.0,1000.0,1528.0,1471.0,1011.0,137.0,293.01,1649154353.3269622,1649154354.475674,29b3115f-477e-469a-936f-8c6f49ab7e89
-0.1876537583581219,-0.0474360526885731,-0.5962890217256327,-1.2717379434970788,-0.8423275261109069,1.4434025021093484,-0.6322507179028201,-0.6468326271767881,-23.82346372550696,27.353854773997096,27.15874968084061,6.2562253042260485,-0.1307642117599626,2.8538061094891014,-1.0,11.935,0.0,179.35998896296945,1.5628138052955212,95.7910603545435,1553.0,1761.0,1000.0,1528.0,1471.0,1011.0,137.0,293.01,1649154354.6100328,1649154355.6990871,29b3115f-477e-469a-936f-8c6f49ab7e89
-0.1865755651801095,-0.0403489051870993,-0.5978537170556897,-1.2758008936962708,-0.8449704153216718,1.4426398774823144,-0.6347489710428458,-0.6684753900097617,-23.86617309012034,27.30245458933157,27.49064905521801,6.263289363540524,-0.1064222579988262,2.864376916230362,-1.0,11.935,0.0,179.36175115177534,1.561751746453486,95.66741116326904,1553.0,1761.0,1000.0,1528.0,1471.0,1011.0,137.0,293.01,1649154355.8342507,1649154356.927281,29b3115f-477e-469a-936f-8c6f49ab7e89
-0.1688905671626923,-0.0496713311393329,-0.5235372639496332,-1.2632833246195967,-0.7824351863037486,1.4356842170335598,-0.5682033979626149,-0.5923312632683371,-23.4755688349736,28.537556852405427,27.36739509711657,6.231487574937592,-0.1398681947900757,2.581727602422191,-1.0,11.926222222222222,0.0,179.35003358279923,1.5475463047881328,95.52536979037956,1553.0,1887.0,1000.0,1528.0,1471.0,1011.0,137.0,293.01,1649154357.8311217,1649154358.9799404,f5c82695-316b-425c-985b-070ce815a55e
-0.1674776300533722,-0.0437292159454444,-0.5166714509917648,-1.2703523987979288,-0.7785634411426626,1.4371015371443885,-0.5602265196564762,-0.5810315988816438,-23.28345910752284,28.51841442891911,27.52743380427713,6.2509557703322,-0.1190544888605136,2.5567628497579533,-1.0,11.814555555555556,0.0,179.3518261280014,1.558040985311596,95.25884594313683,1553.0,1887.0,1000.0,1528.0,1471.0,1011.0,137.0,293.01,1649154359.1126568,1649154360.205928,f5c82695-316b-425c-985b-070ce815a55e
-0.1750836036330493,-0.043412551512031,-0.5225642601104041,-1.2567089700152565,-0.7828822421401503,1.4229431294579562,-0.5705701638603263,-0.5929755493839459,-23.31925980433889,28.55726285806501,27.28216170108617,6.188270694552319,-0.1174922876494167,2.5851759339379727,-1.0,11.811666666666667,0.0,179.3376815651402,1.5696335001644652,95.02882262681872,1553.0,1887.0,1000.0,1528.0,1471.0,1011.0,137.0,293.01,1649154360.346742,1649154361.4310875,f5c82695-316b-425c-985b-070ce815a55e
-0.2214327624052587,0.005382261471021,-0.4119836981084151,0.4189087415980103,-0.4930980239115798,-0.2459682323836282,-0.919234291206725,-0.9428625119261084,-24.137378151100435,30.32510198149009,15.249900906287564,-1.3268834399535363,-0.0213142133499756,2.5384973240201005,-1.0,11.88,0.0,179.31938121162403,1.043179309821592,94.88133607534093,1553.0,1335.0,1000.0,1528.0,1471.0,1011.0,137.0,293.01,1649154362.3363428,1649154363.4291832,952ab22e-e250-414e-adf9-7349835f4b40
-0.2223005764264569,-0.002401766845452,-0.4216216944582392,0.4154506347619683,-0.5005796339758848,-0.2337793895354282,-0.9237837427221264,-0.9480036553244866,-24.091122654698484,30.205099724170765,15.39220974461925,-1.2929222894560328,-0.0522849826290076,2.5676127705027847,-1.0,11.987000000000002,0.0,179.33475369071598,1.0352055975741312,95.17644805880964,1553.0,1335.0,1000.0,1528.0,1471.0,1011.0,137.0,293.01,1649154363.546418,1649154364.7142622,952ab22e-e250-414e-adf9-7349835f4b40
-0.231123352596986,0.0085510972993084,-0.4067373672235589,0.4101911566772907,-0.4886011686331031,-0.2409717272233182,-0.9109111618961524,-0.9343684494569912,-24.062133327821744,30.16351711604339,15.314155264927358,-1.2967527044528635,-0.0091280311552297,2.5138873112772524,-1.0,11.989,0.0,179.33864234508343,1.0417569940747409,95.45269733652052,1553.0,1335.0,1000.0,1528.0,1471.0,1011.0,137.0,293.01,1649154364.8266735,1649154365.9324322,952ab22e-e250-414e-adf9-7349835f4b40
-0.237439658315827,0.0168095743928896,-0.3684609571524012,0.8564085582249444,-0.4159332385018151,-0.678633308414765,-1.008473998279822,-1.0399213181425715,-24.37566487781574,32.26158255573663,12.409327911765804,-3.271600480036925,-0.0026660210013617,2.501379098585477,-1.0,11.983666666666668,0.0,179.34526611075856,0.865019428211363,95.86006651463804,1553.0,1236.0,1000.0,1528.0,1471.0,1011.0,137.0,293.01,1649154367.8025029,1649154369.0065014,15561277-2fbe-4b81-85a3-2c8d69b2863f
-0.2313857787253821,0.0139332970505447,-0.3655161965066199,0.8587917592093555,-0.4114544629050572,-0.678729184323049,-1.0049950701601815,-1.0327032276419363,-24.442470066230708,32.21307153860483,12.332752955168932,-3.2774126340324305,-0.0124098608316383,2.485849614419652,-1.0,11.956333333333331,0.0,179.35727965459867,0.8672528111352025,96.00423055853962,1553.0,1236.0,1000.0,1528.0,1471.0,1011.0,137.0,293.01,1649154369.1150534,1649154370.232562,15561277-2fbe-4b81-85a3-2c8d69b2863f
-0.224852519581546,0.0217540321005533,-0.3579146051751798,0.8514641010135433,-0.4062223764854639,-0.6794824953854549,-0.9975167444974384,-1.024348321461621,-24.397165201215856,32.16384436934218,12.414149066163631,-3.2624880669986065,0.0172638392578438,2.458762724232114,-1.0,11.956,0.0,179.35075454721158,0.8698631351238618,96.17032254531654,1553.0,1236.0,1000.0,1528.0,1471.0,1011.0,137.0,293.01,1649154370.3420527,1649154371.4709845,15561277-2fbe-4b81-85a3-2c8d69b2863f
-0.2332534416506485,0.0316665055629419,-0.3156168859793933,1.1016810339461651,-0.3509211411880053,-0.932908943367411,-1.0369414921869256,-1.058216097438691,-24.4534579369463,33.7956835671511,10.515742062274189,-4.383806381023977,0.0435676656976524,2.381923131763587,-1.0,11.957777777777778,0.0,179.36003449756396,0.7713675265660794,96.41639908291394,1553.0,1133.0,1000.0,1528.0,1471.0,1011.0,137.0,293.01,1649154373.396951,1649154374.5348177,855e7ee3-d1a5-4da4-a027-b9cdd0842de2
-0.2404852254875531,0.0309433272562046,-0.3302645359248147,1.1088076269208291,-0.3629653490750998,-0.938773265153782,-1.0534957119441732,-1.0846975901487597,-24.56853947105913,33.726761153439526,10.395641596636924,-4.414323466826093,0.0409270856519218,2.441617217855292,-1.0,11.94111111111111,0.0,179.3534183209879,0.7726278091186362,96.52271325407492,1553.0,1133.0,1000.0,1528.0,1471.0,1011.0,137.0,293.01,1649154374.6434028,1649154375.793348,855e7ee3-d1a5-4da4-a027-b9cdd0842de2
-0.2276329212715443,0.0329441205596616,-0.3265905704130645,1.1074390668255123,-0.3620920562896869,-0.9379366788241988,-1.0512483790184268,-1.0838325155801254,-24.48889264098629,33.9242799555466,10.633959735932503,-4.407786012932039,0.0461601073248911,2.432760875677946,-1.0,11.934111111111111,0.0,179.34842469379473,0.741525380652187,96.59765408964827,1553.0,1133.0,1000.0,1528.0,1471.0,1011.0,137.0,293.01,1649154375.901654,1649154376.9889736,855e7ee3-d1a5-4da4-a027-b9cdd0842de2
-0.2206065859417373,0.0625286871652098,-0.2735985774841253,1.2298999937396182,-0.3131268512263314,-1.0887632794413742,-1.0499335086719126,-1.0748201736343403,-24.325752659563,35.15025501440361,9.538441209451554,-5.012282098466264,0.1539777480005022,2.2946817584429566,-1.0,11.93011111111111,0.0,179.3514497086871,0.695880815396611,96.74139162618168,1553.0,1026.0,1000.0,1528.0,1471.0,1011.0,137.0,293.01,1649154378.9261608,1649154380.0664625,f8527067-29c5-4e27-b930-e3b057610459
-0.2304270195075491,0.0502154810005317,-0.2795702778212461,1.2186140297633368,-0.3167153501317586,-1.0650134305322527,-1.0472489812831522,-1.0636026841247308,-24.33010651445009,35.01352378342643,9.711086241646894,-4.934633076843617,0.1073050563657918,2.3025950308559744,-1.0,11.918,0.0,179.35063160380653,0.6980943717991097,96.77874668966238,1553.0,1026.0,1000.0,1528.0,1471.0,1011.0,137.0,293.01,1649154380.175641,1649154381.299113,f8527067-29c5-4e27-b930-e3b057610459
-0.2274274728903977,0.0520782129586967,-0.2894181050829255,1.228311192967914,-0.3252483077584913,-1.07521737350059,-1.0619317024699622,-1.0953924188943571,-24.49530154795029,35.08553178254983,9.694959653606626,-4.979535855485906,0.1137865662447305,2.3486885596564164,-1.0,11.890777777777778,0.0,179.34800729334543,0.6647035453694907,96.77126307906175,1553.0,1026.0,1000.0,1528.0,1471.0,1011.0,137.0,293.01,1649154381.411341,1649154382.520671,f8527067-29c5-4e27-b930-e3b057610459
-0.2182507775666504,-0.0154847198873405,-0.4787790900779489,-0.0639639645828458,-0.597669635148866,0.243807565631728,-0.842866622816471,-0.8681910249558838,-24.21209208722903,28.69568999385646,18.81321436235909,0.849353564950938,-0.0754409707658524,2.662129274101942,-1.0,11.911444444444443,0.0,179.3825695683655,1.0843232073009526,96.77446188432307,1553.0,1435.0,1000.0,1528.0,1471.0,1011.0,137.0,293.01,1649154384.2908905,1649154385.3840215,042d86d9-3075-4398-9f2e-9efaa4727c5e
-0.2109663990838743,-0.0140778093541744,-0.4761887962770848,-0.060834574800124,-0.5951845307503462,0.2390477378200365,-0.8406707894380907,-0.8640754807204776,-24.11593880967676,28.655259210652563,18.760619773508896,0.8314994356909549,-0.070600375347763,2.6522945485458536,-1.0,11.988,0.0,179.3626861287817,1.0922518236987375,96.7637741560918,1553.0,1435.0,1000.0,1528.0,1471.0,1011.0,137.0,293.01,1649154385.4919994,1649154386.82287,042d86d9-3075-4398-9f2e-9efaa4727c5e
-0.224838275139879,-0.0209282802617086,-0.4844330308602529,-0.0576262926798111,-0.6016010965899645,0.2422823169581214,-0.8489281748150944,-0.8642464144357447,-24.23622521228048,28.73370716304385,18.62246683837096,0.8315578300970704,-0.0951343210206918,2.682916754399713,-1.0,11.989,0.0,179.3606082334542,1.0882447556697288,96.77180949419537,1553.0,1435.0,1000.0,1528.0,1471.0,1011.0,137.0,293.01,1649154386.9310348,1649154388.2582834,042d86d9-3075-4398-9f2e-9efaa4727c5e
-0.1417144013518182,0.0193708308798588,-0.2521360673582933,-0.0807373188964072,-0.3927723532260386,0.2105884818491833,-0.6094656631396417,-0.6361328723263774,-22.513783498127697,28.48109259816414,18.515090912844983,0.8232125060710352,0.0623400651217033,1.7467248664697106,-1.0,11.990333333333334,0.0,179.35439276130947,1.0926675877485272,96.73658848537532,1553.0,1435.0,1000.0,1435.0,1471.0,1011.0,137.0,293.01,1649154389.3689518,1649154390.5092132,4a4a36d4-087d-4f0b-a39f-d26066de8489
-0.1399475451287246,0.013604579644912,-0.2497802590019693,-0.083353361654147,-0.3903343653342463,0.2201760724535219,-0.6037678928977691,-0.6263946155861096,-22.43363539196861,28.50755489425515,18.762520843980656,0.8510307654055609,0.0384247686377319,1.7317541142128512,-1.0,11.99,0.0,179.34429774171622,1.1133723338641015,96.76778120040488,1553.0,1435.0,1000.0,1435.0,1471.0,1011.0,137.0,293.01,1649154390.617192,1649154391.73647,4a4a36d4-087d-4f0b-a39f-d26066de8489
-0.1478093703665108,0.0242331092260154,-0.238247755292764,-0.0787787108601111,-0.3806919862313423,0.2045893894602218,-0.5959608519565406,-0.6113968796417879,-22.318179310951525,28.45259718927336,18.70058336534932,0.8059442810389803,0.0781869269750159,1.693127314109237,-1.0,11.989,0.0,179.33329203023357,1.103335951919166,96.78597530653398,1553.0,1435.0,1000.0,1435.0,1471.0,1011.0,137.0,293.01,1649154391.8445728,1649154392.894225,4a4a36d4-087d-4f0b-a39f-d26066de8489
-0.0537211297688556,0.0737949283470822,0.0151254454890646,-0.0869215893181424,-0.1551896245200758,0.1496892016578263,-0.3442547510007371,-0.3624394017408267,-20.431812121529287,28.54195946810652,18.667094547170265,0.7150974654836585,0.2680860373296104,0.6893943868200445,-1.0,11.991777777777775,0.0,179.31399295127875,1.113822758752336,96.723638446709,1553.0,1435.0,1000.0,1330.0,1471.0,1011.0,137.0,293.01,1649154394.9005463,1649154396.03769,0bdc20a2-697e-4436-9116-0d7b4bcfba53
-0.0599596385495371,0.0665143857088173,0.0129197517006133,-0.0890648268907423,-0.1555479264863368,0.1588702785668176,-0.3434373401966279,-0.3648039756477992,-20.50900531319541,28.512679488778826,18.6730067335724,0.7402213460477715,0.2413970834035951,0.6907918257555083,-1.0,11.987444444444444,0.0,179.31697394939653,1.0880070982889205,96.722741415198,1553.0,1435.0,1000.0,1330.0,1471.0,1011.0,137.0,293.01,1649154396.145726,1649154397.2764466,0bdc20a2-697e-4436-9116-0d7b4bcfba53
-0.0582475686335714,0.0583649333679534,0.0093586464021659,-0.0841203689623621,-0.1575750173359644,0.1620889697539458,-0.3449302653792431,-0.3685568335440123,-20.403777352154293,28.52958066499915,18.6224919945726,0.736280326628612,0.2097003784610707,0.6995852568450404,-1.0,11.989777777777778,0.0,179.31332511055993,1.0959207262160269,96.71975206907126,1553.0,1435.0,1000.0,1330.0,1471.0,1011.0,137.0,293.01,1649154397.3909378,1649154398.496814,0bdc20a2-697e-4436-9116-0d7b4bcfba53
0.0074071606761773,0.0908619359218893,0.2331834195951344,-0.0736019593211551,0.0443287000813521,0.1076396720586704,-0.1261178550609377,-0.1494962387908601,-18.88034924005844,28.87058853530024,18.477562298451986,0.6043478434378836,0.3349859936325156,-0.187309587913234,-1.0,11.986666666666666,0.0,179.29974973012955,1.1035917757058913,96.68703925749644,1553.0,1435.0,1000.0,1210.0,1471.0,1011.0,137.0,293.01,1649154400.4305356,1649154401.5720742,455919e6-24ca-4b49-b4ee-d133575cb6ae
0.0123905166027214,0.0933601881819568,0.2262935031201357,-0.0747327472674438,0.0377412032626356,0.1073504007375454,-0.1332181514452308,-0.1644200101684658,-18.91047493404444,28.807795476456352,18.583384815149635,0.6054909623161122,0.3433326537983847,-0.1583898242851588,-1.0,11.979888888888889,0.0,179.30012007816458,1.1000533108290016,96.70319720834296,1553.0,1435.0,1000.0,1210.0,1471.0,1011.0,137.0,293.01,1649154401.6803596,1649154402.7973416,455919e6-24ca-4b49-b4ee-d133575cb6ae
0.0003052209382044,0.0953456412732676,0.2305306702565905,-0.0732042112189776,0.0412442350795772,0.1034677003913729,-0.1308393330375331,-0.1546302572479295,-18.94003771835339,28.872832359225736,18.53295245946544,0.5939372130065739,0.3515170501331681,-0.1721885903541484,-1.0,11.983111111111112,0.0,179.2991198349061,1.0914934236835525,96.71161807267968,1553.0,1435.0,1000.0,1210.0,1471.0,1011.0,137.0,293.01,1649154402.9059715,1649154404.0255878,455919e6-24ca-4b49-b4ee-d133575cb6ae
0.0693638176991777,0.1220769403005154,0.4305190394343618,-0.051367513035625,0.2217835005100477,0.0470373315184446,0.0600019460204413,0.0454068931461517,-17.653837509031778,29.42730856300832,18.5840256686597,0.4321617555122066,0.4522186393316164,-0.958243182264276,-1.0,11.979,0.0,179.26731695631074,1.0884666300960482,96.6695046440772,1553.0,1435.0,1000.0,1071.0,1471.0,1011.0,137.0,293.01,1649154405.7892883,1649154406.892165,b57521af-2baa-4178-a34b-6f74919eaf38
0.0542559658018553,0.1280070021705251,0.4307951620322422,-0.0483959077619469,0.2197323039871513,0.0371758091602562,0.0579901954753352,0.0315350185465341,-17.424688457918595,29.46423837821317,18.388894896950823,0.4036411886828098,0.4742198180384843,-0.9523479883951572,-1.0,11.973,0.0,179.25574054457744,1.0696152131230745,96.67096630455958,1553.0,1435.0,1000.0,1071.0,1471.0,1011.0,137.0,293.01,1649154406.9999275,1649154408.0499525,b57521af-2baa-4178-a34b-6f74919eaf38
0.0727824786920694,0.1221821298731154,0.4281259769081881,-0.0495266955076244,0.2191011665850989,0.0441709157317302,0.0570171919336309,0.0301149593378447,-17.58463317909625,29.446820621648715,18.4109604673482,0.4215855405293461,0.4532792049313604,-0.9472529216537332,-1.0,11.968,0.0,179.2533029259537,1.0625972886146249,96.69037390763124,1553.0,1435.0,1000.0,1071.0,1471.0,1011.0,137.0,293.01,1649154408.1583395,1649154409.3563774,b57521af-2baa-4178-a34b-6f74919eaf38
-0.3024572305107241,-0.0561930847081079,-0.7312418107313102,0.000373703767043,-0.8257481075387476,0.23542034141372,-1.1188135503444776,-1.1397145154295438,-25.962888357419057,29.486777611279194,18.33842239273718,0.6770926018495458,-0.2354350324674703,3.7032242044426247,-1.0,11.96888888888889,0.0,179.340686848375,1.0866341828338788,96.838823515782,1553.0,1435.0,1000.0,1613.0,1471.0,1011.0,137.0,293.01,1649154411.489919,1649154412.8357818,43c7633a-a0ca-4c41-8788-686697d2253d
-0.2989509109639924,-0.059535045145584,-0.7384872932677103,0.0040169884297656,-0.8314047890373506,0.236242134898259,-1.1264973254012989,-1.153643926169402,-26.059974900951094,29.50928693324472,18.409394025472004,0.670471806700302,-0.2488187906415688,3.731395791006721,-1.0,11.976,0.0,179.34588234560366,1.098204950174703,96.79389604924148,1553.0,1435.0,1000.0,1613.0,1471.0,1011.0,137.0,293.01,1649154412.944557,1649154414.062579,43c7633a-a0ca-4c41-8788-686697d2253d
-0.2981565104573579,-0.0472218385040524,-0.7130253804242311,0.0006613314234943,-0.8111612656870126,0.2252164057439215,-1.10213112978048,-1.1266479893856207,-25.68379143760505,29.48738420598885,18.307993846001374,0.6545608960200383,-0.202373674964761,3.636013243594821,-1.0,11.976000000000004,0.0,179.36087385192192,1.1121095670673935,96.73328798618644,1553.0,1435.0,1000.0,1613.0,1471.0,1011.0,137.0,293.01,1649154414.170432,1649154415.4916236,43c7633a-a0ca-4c41-8788-686697d2253d
-0.3810070072639311,-0.0907358070369063,-0.9566872783083372,0.0646927433430644,-1.0275122270266184,0.221107438392501,-1.3670638886347284,-1.390608298426934,-27.638596774990912,30.1032686617052,18.089840252955764,0.4918195827768106,-0.3731284491847311,4.633405600714789,-1.0,11.967111111111112,0.0,179.3704285276609,1.0857683733508088,96.67670821692184,1553.0,1435.0,1000.0,1694.0,1471.0,1011.0,137.0,293.01,1649154416.404642,1649154417.5469823,a05a8559-843f-426b-959c-0666294e6ee9
-0.3712413591412626,-0.0795868077891038,-0.9437166297159668,0.059036064657614,-1.01821225767303,0.2124923034123748,-1.3558190030775197,-1.379582556530553,-27.482816641200863,30.06577697049669,17.770632580202605,0.4856451523417429,-0.3280682750685628,4.588021508973539,-1.0,11.945,0.0,179.3745190520638,1.0873521708964746,96.54823918882306,1553.0,1435.0,1000.0,1694.0,1471.0,1011.0,137.0,293.01,1649154417.6552784,1649154418.7715952,a05a8559-843f-426b-959c-0666294e6ee9
-0.3756932893243137,-0.0907215626079049,-0.9430071476003532,0.0619216555854368,-1.0151409394435158,0.2224409352429647,-1.3519713620158194,-1.375336618437149,-27.53113686405966,30.1068578341534,18.02884068876162,0.501816364446001,-0.3720864727249081,4.576384461826462,-1.0,11.940111111111111,0.0,179.39076883100918,1.082378239786988,96.46155574024662,1553.0,1435.0,1000.0,1694.0,1471.0,1011.0,137.0,293.01,1649154418.879481,1649154420.0015442,a05a8559-843f-426b-959c-0666294e6ee9
-0.4096054271857727,-0.0883252125991104,-1.0668761631279284,0.1652665711907809,-1.127812196174076,0.1281762915841672,-1.5200957022965895,-1.5453110978977058,-28.4793962015858,31.13226731482168,17.35942486055131,0.0569159887583675,-0.3710133570453948,5.13723508458688,-1.0,11.923666666666668,0.0,179.36273014555636,1.0524283108792396,96.29519206372272,1553.0,1435.0,1000.0,1774.0,1471.0,1011.0,137.0,293.01,1649154421.934437,1649154423.0716245,85df943b-cb77-45f1-bf6a-72ae84961d26
-0.4142211684207944,-0.0943243055599282,-1.0703003051248257,0.1720189743705228,-1.1292640323691414,0.1296966095705334,-1.524862110340375,-1.558637864574014,-28.66774454063319,31.255102234808334,17.59171123949778,0.045686585194303,-0.3952856226439846,5.1501451739310165,-1.0,11.89,0.0,179.3684447371619,1.0651120788896593,96.16239041896044,1553.0,1435.0,1000.0,1774.0,1471.0,1011.0,137.0,293.01,1649154423.180405,1649154424.2999306,85df943b-cb77-45f1-bf6a-72ae84961d26
-0.4080166260802448,-0.0909960416672721,-1.0659447964560531,0.1684167795906509,-1.126291876920752,0.1275599464794871,-1.518945190031151,-1.542544389229321,-28.44999711903477,31.14548569090677,17.31988744025524,0.0485673789779835,-0.3812168404473745,5.131920536285949,-1.0,11.895222222222223,0.0,179.38018962689472,1.062501357659095,96.08886798600469,1553.0,1435.0,1000.0,1774.0,1471.0,1011.0,137.0,293.01,1649154424.4078147,1649154425.5286818,85df943b-cb77-45f1-bf6a-72ae84961d26
-0.447472036984691,-0.09987305569030426,-1.1769094657517274,0.2476732821147905,-1.2278081106417014,0.0662738741085101,-1.663188210714716,-1.6854358347992495,-29.28596509272664,32.17427993955155,16.756006708581367,-0.2671498495959374,-0.4203718962201451,5.624636358576455,-1.0,11.899,0.0,179.37821190767505,1.0343426102872806,95.90440051363072,1553.0,1435.0,1000.0,1856.0,1471.0,1011.0,137.0,293.01,1649154427.2917118,1649154428.3977804,fbb850e9-ca35-4651-9c80-32d12a00ff67
-0.44626235669235875,-0.09709868062409026,-1.1744769550171763,0.248067742942455,-1.2255070868391416,0.06438046181305675,-1.6614131345235092,-1.6844891274219458,-29.31051664807574,32.14492801191156,16.94149470874154,-0.27235065226802485,-0.4113313646590679,5.616254820694626,-1.0,11.853,0.0,179.39803311664642,1.0415236292780987,95.73790782242249,1553.0,1435.0,1000.0,1856.0,1471.0,1011.0,137.0,293.01,1649154428.5058625,1649154429.6329257,fbb850e9-ca35-4651-9c80-32d12a00ff67
-0.44404022652127734,-0.09640179968134895,-1.1718209162400242,0.24704214474590247,-1.2234032936811223,0.06370987833976274,-1.65900691974441,-1.6773230786325002,-29.30246070046642,32.163895926779404,16.828266050708613,-0.2713000451577777,-0.4074761392322966,5.606256448011485,-1.0,11.850333333333335,0.0,179.39873738504085,1.0286280186817032,95.63785845255023,1553.0,1435.0,1000.0,1856.0,1471.0,1011.0,137.0,293.01,1649154429.7414587,1649154430.8553362,fbb850e9-ca35-4651-9c80-32d12a00ff67
