raw_voltage_G-,raw_voltage_G0,raw_voltage_G1,raw_voltage_G2,raw_voltage_G3,raw_voltage_G4,raw_voltage_G5,raw_voltage_G6,load_x,load_y,load_z,load_l,load_m,load_n,rpm,voltage,current,roll,pitch,yaw,aileron1_pwm,elevator_pwm,throttle_pwm,rudder_pwm,aileron2_pwm,pbaro,pdiff,Tt,sample_start_time,sample_end_time,uid
-0.3786123004587516,-0.1215684057876342,-0.8959084911052586,-0.047633283248276,-0.9479642089200988,0.3512718533363296,-1.267412017936112,-1.2966152994225473,-30.46731333107618,28.610511944287737,18.24571012578869,1.0294280548340131,-0.4524724779785664,4.294465789814528,-1.0,11.97577777777778,0.0,179.32856553932797,1.0199348124097982,97.31946316876588,1553.0,1435.0,1000.0,1528.0,1471.0,1011.0,137.0,293.01,1649155064.9104345,1649155066.0474577,a3230c82-2ca8-4c0b-bfe8-0fe33234b838
-0.3680801927909857,-0.1162037373743836,-0.8957375579534285,-0.0526560853864831,-0.9486873876505596,0.3509168385545972,-1.268608550345748,-1.299731543006711,-30.59866783555441,28.60538894324882,18.281770261257297,1.0398746782664796,-0.431112451098126,4.297487579776542,-1.0,11.978444444444444,0.0,179.3304946883135,1.01530081364916,97.57608324171208,1553.0,1435.0,1000.0,1528.0,1471.0,1011.0,137.0,293.01,1649155066.1562145,1649155067.2777278,a3230c82-2ca8-4c0b-bfe8-0fe33234b838
-0.3716385594076779,-0.1210188998248768,-0.8880126948033938,-0.0503994403508746,-0.941347123713352,0.3520191375031281,-1.258189843145476,-1.2892810601784117,-30.32998101169066,28.59841608030093,18.13176710349552,1.037711014259784,-0.4495327073953581,4.2615423630668765,-1.0,11.98088888888889,0.0,179.3071642799286,0.9998675031848892,97.80028875467718,1553.0,1435.0,1000.0,1528.0,1471.0,1011.0,137.0,293.01,1649155067.386528,1649155068.3314402,a3230c82-2ca8-4c0b-bfe8-0fe33234b838
-0.1360166325643142,0.2673744109510914,-0.8481556886156026,-0.3755283829030817,-1.0049265874268487,0.2863167503038512,-1.263545202201841,-1.2835148032395514,-29.988751538752968,27.19899094651419,20.47645003819773,1.6167333916221829,1.0265156653521317,4.349700112866459,-1.0,11.973,0.0,179.19616004553757,1.04451055637951,98.17477816104018,1647.0,1435.0,1000.0,1528.0,1543.0,1011.0,137.0,293.01,1649155070.3400662,1649155071.5773838,15deb091-8faf-4480-88ec-b36f16cd0ec1
-0.1502851604873058,0.2676592993481206,-0.8440631548451847,-0.3767977801085285,-1.0019001939374026,0.2866328668604652,-1.2588127630902868,-1.2738943318615288,-29.87869004562413,27.217364083148567,20.428097931528324,1.6206804699734514,1.0276497717418818,4.33328606948547,-1.0,11.954,0.0,179.1737570250599,1.0296825002826278,98.21837981197184,1647.0,1435.0,1000.0,1528.0,1543.0,1011.0,137.0,293.01,1649155071.685454,1649155072.812564,15deb091-8faf-4480-88ec-b36f16cd0ec1
-0.1423170499627342,0.2681195036937681,-0.8467060443413328,-0.3702365793926053,-1.0041880687315503,0.2794668278763654,-1.2636646366642876,-1.2925129026025837,-29.858672130529225,27.25192262154272,20.30308006685419,1.5898646046512996,1.0293673828835013,4.346849523996987,-1.0,11.949222222222224,0.0,179.1925567412954,1.0426859235177974,98.23269512956227,1647.0,1435.0,1000.0,1528.0,1543.0,1011.0,137.0,293.01,1649155072.9249086,1649155074.0404494,15deb091-8faf-4480-88ec-b36f16cd0ec1
0.1080735789544986,0.7013427106835861,-0.7803576913206192,-0.6947727916115909,-1.0570590110972544,0.1662039636204464,-1.2626390373010992,-1.2791275182954815,-29.20340626106177,26.407347865539723,22.32701152273749,2.065779395960784,2.6757911048669785,4.380195253414676,-1.0,11.937555555555557,0.0,179.05503619472654,1.073882836267765,98.2402204802078,1745.0,1435.0,1000.0,1528.0,1614.0,1011.0,137.0,293.01,1649155074.9503596,1649155076.0926635,0b98b202-d398-408f-8444-31b22e9e1ebd
0.1008154987949051,0.6992652168775484,-0.788746563205079,-0.6846614401713161,-1.0625157236283216,0.1583015974607864,-1.2740652642031065,-1.301585510843345,-29.39591198663139,26.39753560583148,22.16283253439468,2.0246071624766504,2.6690399624823504,4.414806085007585,-1.0,11.931444444444445,0.0,179.05120977097152,1.0789308322410642,98.19528997802765,1745.0,1435.0,1000.0,1528.0,1614.0,1011.0,137.0,293.01,1649155076.2059467,1649155077.2906148,0b98b202-d398-408f-8444-31b22e9e1ebd
0.1168355412709998,0.6961862308065209,-0.7790428210581676,-0.6799755718109338,-1.0531111122703207,0.1583908990124218,-1.2643669964741495,-1.2813781377954374,-29.33186979568354,26.497108030385466,22.433054758925067,2.015456235410031,2.654683568565876,4.375014701835824,-1.0,11.92388888888889,0.0,179.0513767311512,1.0592394205798523,98.1772172974838,1745.0,1435.0,1000.0,1528.0,1614.0,1011.0,137.0,293.01,1649155077.399308,1649155078.3401196,0b98b202-d398-408f-8444-31b22e9e1ebd
0.3727146359949745,1.134941755257568,-0.7053690012735178,-0.9827655422055503,-1.1034186073388643,0.0150016284537779,-1.2688594719127322,-1.2851036050816151,-28.52153169647484,26.243633505435223,23.790980826094472,2.378873904004536,4.324459062865503,4.402526657984362,-1.0,11.893444444444444,0.0,178.85972465868028,1.1410047297830015,97.99004507019848,1849.0,1435.0,1000.0,1528.0,1686.0,1011.0,137.0,293.01,1649155080.4758663,1649155081.817664,dc8ab237-b368-4a6f-bfcf-78f3f0b5e043
0.375727878674941,1.1407627924427868,-0.7020133431329766,-0.9862307733652932,-1.1016106604349645,0.0142209247071084,-1.266626930762821,-1.299156287202434,-28.54975760908616,26.25587953877267,24.05855144512721,2.385212984859636,4.344759378538703,4.393337956950673,-1.0,11.887555555555556,0.0,178.82304350719772,1.172586813027102,97.8944034490706,1849.0,1435.0,1000.0,1528.0,1686.0,1011.0,137.0,293.01,1649155081.926256,1649155083.05359,dc8ab237-b368-4a6f-bfcf-78f3f0b5e043
0.3786315488605569,1.1437212490075233,-0.7005752041104459,-0.9872991056207266,-1.1003642728669103,0.0116322750389671,-1.265092915334177,-1.297841417000979,-28.509953317001912,26.171121694375163,23.97508892535235,2.3813223110281103,4.356534658070738,4.387789391196059,-1.0,11.893,0.0,178.82989798148478,1.1662957819146973,97.80428593316144,1849.0,1435.0,1000.0,1528.0,1686.0,1011.0,137.0,293.01,1649155083.16792,1649155084.275223,dc8ab237-b368-4a6f-bfcf-78f3f0b5e043
0.4085344210785893,1.1802444910607088,-0.6863444741334692,-1.084000709218064,-1.1155444537172243,0.0253945772381532,-1.256866754767541,-1.2848603544759707,-28.33496089307808,27.15466998221759,18.437159243306738,2.636817131822504,4.55418786934019,4.3728343707526,-1.0,11.840666666666667,0.0,178.7453220257222,1.1816789687511529,97.62907412602276,1962.0,1435.0,1000.0,1528.0,1760.0,1011.0,137.0,293.01,1649155085.3910248,1649155086.4388237,b217dfdc-e15f-4a46-8631-1bb607c93aed
0.3954783146268095,1.1771134578071727,-0.6879880616538122,-1.0847638815934202,-1.115553767218972,0.032861941050837,-1.2563545027347522,-1.2813096553346115,-28.42462528910595,27.09196058749652,18.959242450285046,2.6548593657381074,4.538440707908124,4.374671947091678,-1.0,11.796777777777775,0.0,178.76009193034744,1.1978944070231938,97.48459361668966,1962.0,1435.0,1000.0,1528.0,1760.0,1011.0,137.0,293.01,1649155086.54768,1649155087.5533192,b217dfdc-e15f-4a46-8631-1bb607c93aed
0.4043673804017422,1.1867969244922705,-0.691576561368994,-1.0784908528746584,-1.1200325450562791,0.018494251024578,-1.2660105850419237,-1.299731543164598,-28.524815544476336,27.14215060486761,19.03563244221336,2.608538608099796,4.573792690242435,4.400655708245442,-1.0,11.789222222222222,0.0,178.7646924422084,1.1889225740934282,97.31176326884156,1962.0,1435.0,1000.0,1528.0,1760.0,1011.0,137.0,293.01,1649155087.6618395,1649155088.984372,b217dfdc-e15f-4a46-8631-1bb607c93aed
-0.6837541797208998,-0.6319614463792322,-0.9588381872951948,0.3783713142203319,-0.8730034501352344,0.4471389900652913,-1.27465695618571,-1.2981274004720922,-31.570732836942724,30.643482740317264,16.259836491101563,0.2933636485553288,-2.3977514300919096,4.226032598943077,-1.0,11.864666666666666,0.0,179.5091329736859,1.0245148218452786,96.98781878015647,1459.0,1435.0,1000.0,1528.0,1394.0,1011.0,137.0,293.01,1649155090.9202695,1649155092.0605972,9447bac3-b4f4-404d-a72b-c7af70528977
-0.6800577511204547,-0.6414471382653291,-0.9609058209504538,0.3840142959457734,-0.8738915353924522,0.4507439239774728,-1.2742285273276617,-1.3082645075991024,-31.392512154731183,30.69022091581266,16.18195967298362,0.2890194085576928,-2.4347247799518503,4.228347945933598,-1.0,11.969444444444443,0.0,179.52171114649738,1.0132208076034794,97.00604703723144,1459.0,1435.0,1000.0,1528.0,1394.0,1011.0,137.0,293.01,1649155092.169134,1649155093.287331,9447bac3-b4f4-404d-a72b-c7af70528977
-0.6827285810368172,-0.6345851600453354,-0.9562078987577266,0.3706464557135483,-0.8720288025656094,0.456345815928788,-1.267530904662966,-1.2829121540001476,-31.31042490118276,30.617638911949,16.228484735015567,0.3315636874580305,-2.408039073901097,4.210736967500653,-1.0,11.967444444444444,0.0,179.53051601924744,1.0442715709063632,97.0161033524194,1459.0,1435.0,1000.0,1528.0,1394.0,1011.0,137.0,293.01,1649155093.395589,1649155094.449509,9447bac3-b4f4-404d-a72b-c7af70528977
-0.9476486401768522,-1.0852761326430114,-1.0149963042026735,0.7780521973434231,-0.808338130052018,0.5166429921951252,-1.2877004752101946,-1.3029398282223643,-32.31172556057528,32.791049614422136,15.030751351584302,-0.4411624674532235,-4.134552176975413,4.17859718615012,-1.0,11.954333333333333,0.0,179.6793822689376,1.0005698505886045,96.926292436113,1364.0,1435.0,1000.0,1528.0,1312.0,1011.0,137.0,293.01,1649155095.4262955,1649155096.563977,a4772065-8a83-435e-acf7-2cdb5b6a5e4b
-0.936406498319142,-1.0774920989683727,-1.0113935588850822,0.7679408508037607,-0.8074966129622125,0.519154392993176,-1.283861052002203,-1.305885138471039,-32.280274003385934,32.76936837973735,15.177038939066469,-0.4126354778927565,-4.1054035173054295,4.168163981036781,-1.0,11.935,0.0,179.6884664205337,0.9875644589308612,96.82372348534692,1364.0,1435.0,1000.0,1528.0,1312.0,1011.0,137.0,293.01,1649155096.6729238,1649155097.798912,a4772065-8a83-435e-acf7-2cdb5b6a5e4b
-0.9335400809873036,-1.0744415993207883,-0.9957203032027776,0.7642855136430415,-0.7945977359803241,0.519351623378234,-1.2678853721910393,-1.284676272394671,-32.14357540511697,32.839241446907735,15.271703711893435,-0.402619208607428,-4.094323983426352,4.107022403620439,-1.0,11.938,0.0,179.70093834595815,0.9889404218835016,96.74780137926275,1364.0,1435.0,1000.0,1528.0,1312.0,1011.0,137.0,293.01,1649155097.9118044,1649155099.02423,a4772065-8a83-435e-acf7-2cdb5b6a5e4b
-1.2263179238948143,-1.5484613083201395,-1.0553162604994126,1.2090401360749647,-0.7289133953994229,0.5638227013173324,-1.2948418677888844,-1.3208927458216386,-32.97298506360579,35.597685648749824,13.427045264863985,-1.2913371951411583,-5.908456672828375,4.079403458623369,-1.0,11.907333333333334,0.0,179.85941087726096,0.969195151334772,96.44011274080232,1262.0,1435.0,1000.0,1528.0,1222.0,1011.0,137.0,293.01,1649155100.9557197,1649155102.1013794,4ed2c466-7c0c-4cfa-ac78-a2ab79f05d45
-1.223715575549627,-1.5424348153247731,-1.0527276087891158,1.2008358972960995,-0.7277491871863987,0.5657676125059204,-1.2958006273701976,-1.3237142396169468,-33.361736766023085,35.73904790982821,13.47560625622207,-1.267581909098438,-5.88235594435384,4.076050097708335,-1.0,11.882888888888887,0.0,179.87789488697484,0.9539807270890588,96.26455335292584,1262.0,1435.0,1000.0,1528.0,1222.0,1011.0,137.0,293.01,1649155102.2327938,1649155103.329892,4ed2c466-7c0c-4cfa-ac78-a2ab79f05d45
-1.2194970319192044,-1.5535564341794272,-1.0611099081690487,1.1993566687861277,-0.7345289863763457,0.5773548999829687,-1.299485004812775,-1.3170850992359788,-33.25340066115611,35.73518068664208,13.333158821068343,-1.2386181420176614,-5.923922379218591,4.100473947122679,-1.0,11.884333333333332,0.0,179.87922297931345,0.9512407065829566,96.11115261653671,1262.0,1435.0,1000.0,1528.0,1222.0,1011.0,137.0,293.01,1649155103.444767,1649155104.5571702,4ed2c466-7c0c-4cfa-ac78-a2ab79f05d45
-1.2722288281330734,-1.655842462985209,-0.9986124703843808,1.2984786628722145,-0.6537192594219162,0.5576592505858793,-1.236617745611705,-1.2703934900945308,-33.04903405663988,36.85988471094956,9.73160647324736,-1.4963753109626616,-6.28530612615437,3.798801846550641,-1.0,11.79377777777778,0.0,179.92828346921175,0.918204883978636,95.7822873560096,1153.0,1435.0,1000.0,1528.0,1121.0,1011.0,137.0,293.01,1649155105.4613369,1649155106.5996034,ef5ba0e6-1837-4491-a91e-5f8108586631
-1.2732560709696426,-1.6503775285482964,-0.9931475397752764,1.289329361298381,-0.6504731737982078,0.5621791145315845,-1.2301529637062023,-1.2579706985503487,-33.02419743827528,36.839532193878114,9.983555179739117,-1.4653901284492836,-6.265745524722537,3.778688895667708,-1.0,11.723,0.0,179.92190710816658,0.9240718741800692,95.46585759323132,1153.0,1435.0,1000.0,1528.0,1121.0,1011.0,137.0,293.01,1649155106.7090805,1649155107.8273022,ef5ba0e6-1837-4491-a91e-5f8108586631
-1.26157289612003,-1.6488572087106483,-0.9991329402018232,1.2918221350541452,-0.656143551438892,0.5595493755168058,-1.2394118459250858,-1.2712974622163762,-33.23121125915629,36.947076839262834,10.088853599838217,-1.476595116845149,-6.26019599767983,3.807919011909223,-1.0,11.728333333333332,0.0,179.91299295238983,0.9255474796320072,95.22714627628892,1153.0,1435.0,1000.0,1528.0,1121.0,1011.0,137.0,293.01,1649155107.936031,1649155109.0524557,ef5ba0e6-1837-4491-a91e-5f8108586631
-0.3682965984780009,-0.1084728513770598,-0.8908067942495513,-0.0116792680375477,-0.9369231327305538,0.307231393991254,-1.275735150117232,-1.299457611962952,-30.90277263129084,28.40233545770184,18.507911650347506,0.8480564134558474,-0.4067048175181245,4.286374173362579,-1.0,11.739,0.0,179.4155457216783,1.10352837115469,94.77961179130216,1553.0,1435.0,1000.0,1528.0,1471.0,1011.0,137.0,293.01,1649155110.7738724,1649155111.7191288,e962b556-7999-44de-aca2-fa0c89432cbc
-0.3805824138570208,-0.113485792148788,-0.9113790366032714,-0.0128845651964566,-0.9546054002718182,0.3146138385953411,-1.2976222706416272,-1.3268781474877351,-31.33031590492457,28.48239584127809,18.53918029948989,0.866660746933178,-0.4239118951317649,4.3687580055201165,-1.0,11.98,0.0,179.41387915552085,1.104651083499511,95.02550770834152,1553.0,1435.0,1000.0,1528.0,1471.0,1011.0,137.0,293.01,1649155111.8278797,1649155112.947361,e962b556-7999-44de-aca2-fa0c89432cbc
-0.3720768493531237,-0.1161840143348697,-0.902750199820058,-0.0075155142505138,-0.9461957083103766,0.311888223580131,-1.2870485175800843,-1.3074974993609334,-31.03169699824095,28.436062902351257,18.551599431743536,0.8486994712016154,-0.4363702991295144,4.330452829847849,-1.0,11.977444444444444,0.0,179.40742690348492,1.1311292011646132,95.23398481346791,1553.0,1435.0,1000.0,1528.0,1471.0,1011.0,137.0,293.01,1649155113.0556638,1649155114.1836865,e962b556-7999-44de-aca2-fa0c89432cbc
-0.3690926426452929,-0.124763539196281,-0.9657675543296608,-0.4435537247840851,-1.0489331111516391,0.744036523284436,-1.2286233305822205,-1.2573138103920032,-31.09551004905282,27.37967261676497,21.70384522099563,2.7937193569905774,-0.4463625987532464,4.4730730138460935,-1.0,11.973444444444445,0.0,179.42148950407605,1.2500415613859353,95.61800157481318,1553.0,1537.0,1000.0,1528.0,1471.0,1011.0,137.0,293.01,1649155115.8470771,1649155116.8392825,5919e0dc-38a8-4124-ae5d-63156bfaceec
-0.3689217095533708,-0.1310091703212893,-0.965478282965664,-0.4285510588914568,-1.045461853102457,0.7331362551364963,-1.231594938534838,-1.250358144821394,-31.23381162105817,27.435686857909246,21.23827077424062,2.735624556661624,-0.4665101347416651,4.470781126896831,-1.0,11.963888888888889,0.0,179.41414932744803,1.261963526144552,95.6770834700437,1553.0,1537.0,1000.0,1528.0,1471.0,1011.0,137.0,293.01,1649155116.947183,1649155118.0707977,5919e0dc-38a8-4124-ae5d-63156bfaceec
-0.3725113042347761,-0.1317060512924874,-0.9584305774188856,-0.4354409772312548,-1.0392819616189828,0.742537572051207,-1.2216545155759526,-1.2440467646447546,-31.209586970737952,27.4233352651726,21.64093322042961,2.7726379680660727,-0.4715692314100181,4.439049244543852,-1.0,11.97,0.0,179.4158052688668,1.2736678497711784,95.75977808814486,1553.0,1537.0,1000.0,1528.0,1471.0,1011.0,137.0,293.01,1649155118.1797345,1649155119.297942,5919e0dc-38a8-4124-ae5d-63156bfaceec
-0.3614346213815084,-0.1432347193811977,-1.0136376044156403,-0.8624822965295721,-1.138221588546922,1.167662832689858,-1.1611359488788595,-1.1890358621071395,-31.15931606564577,26.90881793283343,24.59286897450108,4.685587904789394,-0.4922581135596807,4.562166763912271,-1.0,11.954125,0.0,179.40501527752548,1.434493431639429,95.844904443318,1553.0,1645.0,1000.0,1528.0,1471.0,1011.0,137.0,293.01,1649155120.4142246,1649155121.754226,c3f67d63-a709-4da7-a817-38b1edbf8800
-0.3592020819321852,-0.1415089528893134,-1.0087342334993286,-0.8660434034478323,-1.1341126180336305,1.1688407367075797,-1.1546711682914608,-1.188241460321802,-31.05466336991877,26.83604405515236,24.5786276786108,4.696079934789448,-0.4856518639096195,4.540942454746234,-1.0,11.952666666666666,0.0,179.400702961702,1.4170828970256213,95.8349883367355,1553.0,1645.0,1000.0,1528.0,1471.0,1011.0,137.0,293.01,1649155121.863434,1649155122.9796307,c3f67d63-a709-4da7-a817-38b1edbf8800
-0.3635301952503518,-0.1442208716866623,-1.0224992839919056,-0.8598662523101067,-1.1453438047597249,1.168676377977704,-1.171490555706853,-1.193678999065385,-31.38302202660637,26.932315208952005,24.868804412773045,4.681610213181016,-0.4977025330804711,4.598816387554423,-1.0,11.951222222222222,0.0,179.41129279055517,1.4320588694067165,95.8163275010131,1553.0,1645.0,1000.0,1528.0,1471.0,1011.0,137.0,293.01,1649155123.0882351,1649155124.2154324,c3f67d63-a709-4da7-a817-38b1edbf8800
-0.3479889813877612,-0.1618823114368222,-1.0527856822234969,-1.252711763115176,-1.218433082740717,1.5658300239278284,-1.0933231410879602,-1.125695255990089,-31.11137598236976,26.70361397698607,27.625907983604424,6.457782798555567,-0.543858637463464,4.626947519151083,-1.0,11.941666666666666,0.0,179.40643880278498,1.5610004256447847,95.74813261561,1553.0,1761.0,1000.0,1528.0,1471.0,1011.0,137.0,293.01,1649155126.3517,1649155127.496781,39cb426c-509b-43eb-80a5-e2198171b265
-0.3563805904115372,-0.1606019570430793,-1.054179444827766,-1.2450274399259489,-1.2201681641786768,1.5560835519786294,-1.0995698718478293,-1.1231690610696143,-31.20754247858022,26.877450991147565,27.393769648592627,6.41954479880989,-0.5373499646266467,4.639860919981666,-1.0,11.927333333333332,0.0,179.4055873058685,1.5795352467485742,95.66918018226409,1553.0,1761.0,1000.0,1528.0,1471.0,1011.0,137.0,293.01,1649155127.609691,1649155128.7241871,39cb426c-509b-43eb-80a5-e2198171b265
-0.361216572188511,-0.1598837094321461,-1.062305344761485,-1.2497664523633574,-1.228242018283893,1.5611227900793887,-1.103579131658641,-1.1358723538963071,-30.967963072856943,26.67662730789961,27.544147638878144,6.439967359932796,-0.5376196505657531,4.668150045171945,-1.0,11.927333333333332,0.0,179.41415691654709,1.5793518277102376,95.59361779947623,1553.0,1761.0,1000.0,1528.0,1471.0,1011.0,137.0,293.01,1649155128.8407276,1649155129.947787,39cb426c-509b-43eb-80a5-e2198171b265
-0.3254537559189727,-0.1431525400280574,-0.9696305344321856,-1.396497823034574,-1.169997629262064,1.6825712886937694,-0.9806699674532048,-1.00781656415691,-30.15422375792069,27.43326527295025,28.74750464969907,7.054100244265409,-0.4673386692449513,4.29019032972777,-1.0,11.90622222222222,0.0,179.39499292355583,1.6037490736980464,95.44085834195918,1553.0,1887.0,1000.0,1528.0,1471.0,1011.0,137.0,293.01,1649155130.8593109,1649155131.992843,3a3357a1-ce77-4b91-aa39-54502bbf308f
-0.3326855399826645,-0.1536304081353686,-0.9876141267298358,-1.4019627558389114,-1.1857897737988996,1.6974868439635262,-0.9964210193991871,-1.0271561170332133,-30.40440254729048,27.53468746740984,28.563365350046222,7.099566628652181,-0.5036998128044452,4.35684752521179,-1.0,11.842777777777778,0.0,179.39115891070176,1.6015854096930005,95.23720942166608,1553.0,1887.0,1000.0,1528.0,1471.0,1011.0,137.0,293.01,1649155132.1013143,1649155133.2246735,3a3357a1-ce77-4b91-aa39-54502bbf308f
-0.3280013162730106,-0.14018038662294,-0.965918764658308,-1.4058799756493328,-1.1706961541217908,1.6880088235963353,-0.9742325807894868,-0.9901069026177748,-29.76798272391225,27.49727781232825,28.74256127637196,7.088285752989908,-0.4574896571937523,4.277430958874736,-1.0,11.849666666666668,0.0,179.3920589778524,1.6240580482967135,95.068633522761,1553.0,1887.0,1000.0,1528.0,1471.0,1011.0,137.0,293.01,1649155133.332836,1649155134.4525423,3a3357a1-ce77-4b91-aa39-54502bbf308f
-0.3961000697803215,-0.1092612253545839,-0.8422617826771198,0.3999746205133936,-0.850203599132355,-0.0918523506288765,-1.3415838823719464,-1.3578882814828717,-30.96394934614716,29.616345117311404,15.473573119963556,-0.9673778157563424,-0.4299207606927694,4.194534728307072,-1.0,11.889333333333331,0.0,179.38184556831348,1.062760359381059,94.8379438835438,1553.0,1335.0,1000.0,1528.0,1471.0,1011.0,137.0,293.01,1649155136.3884118,1649155137.5291622,2479704c-501f-4a73-899d-097cd17ea97f
-0.3856994490469972,-0.1107996228888968,-0.847652750724484,0.3925061616186754,-0.8553973367466307,-0.0828191959357186,-1.342846158036502,-1.3679075978677395,-30.86648363911874,29.484510179956928,15.541176903215607,-0.9313146433073892,-0.4364041630413784,4.210720467542205,-1.0,11.972666666666663,0.0,179.3837807885783,1.0362930561821422,95.0858843038747,1553.0,1335.0,1000.0,1528.0,1471.0,1011.0,137.0,293.01,1649155137.6377926,1649155138.7555478,2479704c-501f-4a73-899d-097cd17ea97f
-0.3817416907570699,-0.1071574338285338,-0.837068045167603,0.3853006766869238,-0.8475344125661387,-0.079321642429176,-1.3306047104515253,-1.3599920755116046,-30.70593585706412,29.4892490895576,15.689349344143496,-0.9065384672418192,-0.4236350622914579,4.168850389749996,-1.0,11.973222222222224,0.0,179.39722563650452,1.055033779030286,95.30374760674052,1553.0,1335.0,1000.0,1528.0,1471.0,1011.0,137.0,293.01,1649155138.864661,1649155139.979277,2479704c-501f-4a73-899d-097cd17ea97f
-0.3914437869055095,-0.0912288831752647,-0.784261212104736,0.8316862721827393,-0.761497521564944,-0.5278615425004213,-1.4135500557141831,-1.430218785615209,-30.801005487746924,31.38039040506577,12.44221766137122,-2.9068034862720373,-0.3860210642828024,4.098198875816652,-1.0,11.954333333333333,0.0,179.388959589789,0.8977297614710176,95.58576915320998,1553.0,1236.0,1000.0,1528.0,1471.0,1011.0,137.0,293.01,1649155140.8844995,1649155142.0259674,ccee6229-54dc-4828-932e-755cd34fadcb
-0.3901563101207774,-0.0877362605617502,-0.7781936340966363,0.8295906989259126,-0.7567448138573883,-0.5292722885330924,-1.4086192897745895,-1.4406692711070308,-30.8288776163063,31.423796914178173,12.495774670552814,-2.904662142077559,-0.372555610173658,4.076876843761578,-1.0,11.951444444444444,0.0,179.3948016782591,0.9016809013972134,95.78662376722264,1553.0,1236.0,1000.0,1528.0,1471.0,1011.0,137.0,293.01,1649155142.1346378,1649155143.2586174,ccee6229-54dc-4828-932e-755cd34fadcb
-0.3826368979871219,-0.0812303948925779,-0.7825902313905129,0.8271801047923631,-0.7608537832227863,-0.5324498908175784,-1.4160702254019857,-1.443860573912793,-31.10884391668436,31.39963251735881,12.59081095658128,-2.906869817394682,-0.3469977648387835,4.099789244152924,-1.0,11.952333333333334,0.0,179.41124725596066,0.9014625606451518,95.9253350434368,1553.0,1236.0,1000.0,1528.0,1471.0,1011.0,137.0,293.01,1649155143.3668664,1649155144.487675,ccee6229-54dc-4828-932e-755cd34fadcb
-0.3963498951570872,-0.0773887839690542,-0.7079346418528419,1.1327119557319805,-0.6701321255456344,-0.834635535114732,-1.4340193106249286,-1.4501790754124777,-30.78052358106176,33.24530978018167,10.359114256798655,-4.259364218364991,-0.3479871299522616,3.899483211024626,-1.0,11.9445,0.0,179.41415236308768,0.7777777865752851,96.24067121703794,1553.0,1133.0,1000.0,1528.0,1471.0,1011.0,137.0,293.01,1649155146.4225328,1649155147.560012,21369f48-1507-435e-99bd-71329d90d1bb
-0.3908822278930961,-0.0804222979022074,-0.719859965955263,1.1353252589584542,-0.6793044400937419,-0.8336921154779353,-1.447791488579898,-1.4730068816249655,-31.11385166648265,33.26853700152538,10.315373124311888,-4.263753787214815,-0.3576951223640844,3.947191939360225,-1.0,11.931,0.0,179.4232091939271,0.778299575675277,96.36668137703552,1553.0,1133.0,1000.0,1528.0,1471.0,1011.0,137.0,293.01,1649155147.6679723,1649155148.7871811,21369f48-1507-435e-99bd-71329d90d1bb
-0.3878415912862201,-0.0791074282299258,-0.7151757413176553,1.127668883186642,-0.6760720512269242,-0.8265562053494101,-1.4405323055617645,-1.4742121798709835,-31.027547558608703,33.236849274482275,10.55644974048958,-4.230342482795948,-0.3542719756900186,3.926574009810184,-1.0,11.938666666666668,0.0,179.4327031568734,0.767201603278015,96.46196251595718,1553.0,1133.0,1000.0,1528.0,1471.0,1011.0,137.0,293.01,1649155148.8953292,1649155149.944853,21369f48-1507-435e-99bd-71329d90d1bb
-0.3731862708416428,-0.0627948262329182,-0.6471859988554817,1.2301191389309691,-0.6123145487012254,-0.945168466805036,-1.4134404838612058,-1.43868326760348,-30.840596715799336,34.4393413224388,9.72929142161446,-4.716663595357049,-0.2953651477370129,3.709826202062045,-1.0,11.926333333333332,0.0,179.40348816106356,0.7404416158009925,96.6106967153234,1553.0,1026.0,1000.0,1528.0,1471.0,1011.0,137.0,293.01,1649155151.9522305,1649155153.0892284,2665c7f1-a89a-463c-a8e9-4df9a978cab0
-0.3770607540693428,-0.0633985705556965,-0.6326714769432832,1.2610169315214963,-0.5988924650462379,-0.975195176560423,-1.407182793874466,-1.4367673914047228,-30.4896027011626,34.743293490759534,9.495914004632589,-4.850958329818085,-0.3009242686936488,3.662839744906112,-1.0,11.915,0.0,179.39491855038492,0.7145330896665966,96.65956671883482,1553.0,1026.0,1000.0,1528.0,1471.0,1011.0,137.0,293.01,1649155153.1976044,1649155154.3140533,2665c7f1-a89a-463c-a8e9-4df9a978cab0
-0.3673652323495224,-0.0659450348369056,-0.6396665859808754,1.266921792612105,-0.6029871898411088,-0.9779580494472304,-1.4153443078424688,-1.4356837186509104,-30.67999656706072,34.685836950914585,9.464799605523412,-4.871316789332279,-0.3100231726983631,3.689162470653502,-1.0,11.908,0.0,179.3957776364005,0.7149147086995201,96.67390935718196,1553.0,1026.0,1000.0,1528.0,1471.0,1011.0,137.0,293.01,1649155154.4220855,1649155155.5448303,2665c7f1-a89a-463c-a8e9-4df9a978cab0
-0.3653189660699147,-0.112153938700536,-0.8949880818722936,-0.047370309298107,-0.9428625118077736,0.3423964839965159,-1.2668729208606933,-1.284360702576282,-30.76866611467712,28.12172786328901,18.342823918458265,1.0055601187575385,-0.4158726367696809,4.286763205968653,-1.0,11.930444444444444,0.0,179.40146187160977,1.110054261167618,96.66871234213347,1553.0,1435.0,1000.0,1528.0,1471.0,1011.0,137.0,293.01,1649155157.481774,1649155158.6188362,0087e1c7-af16-48e3-9e88-282b03ca5246
-0.3686061408225469,-0.1198985212725638,-0.8954088406216785,-0.0367067162415194,-0.9407850168189712,0.3422781457493302,-1.267227936281329,-1.289291468538584,-30.79495796785829,28.172511854755736,18.639537257595027,0.9815895089860086,-0.448701934793014,4.284548252372188,-1.0,11.976111111111113,0.0,179.4181958350763,1.117447063454576,96.67392225865038,1553.0,1435.0,1000.0,1528.0,1471.0,1011.0,137.0,293.01,1649155158.727258,1649155160.053114,0087e1c7-af16-48e3-9e88-282b03ca5246
-0.3744967577555153,-0.1182286367365436,-0.9051520296334502,-0.0382188164182073,-0.9493316741655446,0.341291993604476,-1.2775628204609286,-1.2948796690720206,-30.924716484128425,28.0856433127935,18.45854961758413,0.9816292455418464,-0.4403493323009602,4.324063260826436,-1.0,11.978,0.0,179.41221258936338,1.127359648220805,96.687454381216,1553.0,1435.0,1000.0,1528.0,1471.0,1011.0,137.0,293.01,1649155160.1611395,1649155161.284804,0087e1c7-af16-48e3-9e88-282b03ca5246
-0.3059361568863336,-0.0890511302316585,-0.6704564598781344,-0.0649040964602406,-0.7368984918032554,0.3268859542607197,-1.0330730336217224,-1.0655612929901883,-29.43630114444965,28.02208199121435,18.81903851588238,1.021524016648318,-0.3264826861921246,3.371576239818748,-1.0,11.981555555555556,0.0,179.3970070704511,1.14508512748185,96.66640146146428,1553.0,1435.0,1000.0,1435.0,1471.0,1011.0,137.0,293.01,1649155162.395383,1649155163.5364835,5651209c-fbf5-4628-9516-43dc122f1590
-0.2905554672239109,-0.0881181206264843,-0.6677522103537038,-0.068855279925082,-0.7339427732176651,0.3292477886435345,-1.027921480624248,-1.0455275966096529,-29.36659439072908,27.870781353108192,18.79922843577476,1.0349078698400616,-0.3226457796387024,3.3566906944039965,-1.0,11.989333333333333,0.0,179.40900998955254,1.137570010262099,96.686713685146,1553.0,1435.0,1000.0,1435.0,1471.0,1011.0,137.0,293.01,1649155163.6451905,1649155164.7630205,5651209c-fbf5-4628-9516-43dc122f1590
-0.3002520842598715,-0.0782993312226301,-0.6651558897895461,-0.0723276315321806,-0.735337083518324,0.3237494425532918,-1.029087332397393,-1.0611920878268963,-29.319568615591788,28.02783942899333,18.93399121413538,1.0316007164536625,-0.2867518082946567,3.358026775580194,-1.0,11.992,0.0,179.39817123824963,1.1349452136243388,96.680294825146,1553.0,1435.0,1000.0,1435.0,1471.0,1011.0,137.0,293.01,1649155164.8719833,1649155165.9919074,5651209c-fbf5-4628-9516-43dc122f1590
-0.205143169653959,-0.0300874431703729,-0.3772130597828125,-0.0940777675728728,-0.4774581936950199,0.2813722929974202,-0.7335976199320936,-0.7512661884584517,-27.0309640809767,27.86710053813161,19.01392717096103,0.99987342171952,-0.1019053449049793,2.2009963674723183,-1.0,11.991,0.0,179.37613097670794,1.1378884915480854,96.6593299389436,1553.0,1435.0,1000.0,1330.0,1471.0,1011.0,137.0,293.01,1649155167.9291508,1649155169.060176,f570fbd9-cb75-4ee8-8a81-9f7d47695662
-0.2071702605868177,-0.0423321669421891,-0.3847187753468066,-0.0825726578067525,-0.4813617139077442,0.2805231063781216,-0.7407061368263325,-0.7593334647256075,-27.06182509374472,27.91687211247613,18.637241914055235,0.9718931039348234,-0.146165028706351,2.224711207730373,-1.0,11.991444444444443,0.0,179.39030134250595,1.138823610850077,96.66429624538011,1553.0,1435.0,1000.0,1330.0,1471.0,1011.0,137.0,293.01,1649155169.1694686,1649155170.2924793,f570fbd9-cb75-4ee8-8a81-9f7d47695662
-0.2029325448469119,-0.0399938903731769,-0.3817416907778827,-0.0902219122430318,-0.4793444842198304,0.2854494842806988,-0.7354154279530545,-0.7611868839227813,-27.00139223755255,27.82649048048841,18.69450246970656,0.9998068129946632,-0.1372013122533728,2.210748711608693,-1.0,11.99,0.0,179.3863534931657,1.1355602508147573,96.69254970233682,1553.0,1435.0,1000.0,1330.0,1471.0,1011.0,137.0,293.01,1649155170.4006853,1649155171.52196,f570fbd9-cb75-4ee8-8a81-9f7d47695662
-0.1278260899333253,0.0007709040382219,-0.1386463719832173,-0.0806551395519114,-0.2605183623131791,0.2234084600904291,-0.4986467751789587,-0.5238210566897914,-25.3743946732687,28.12439601581933,18.640633526907315,0.8537018302776022,0.0188915266013182,1.2501818134074856,-1.0,11.984666666666666,0.0,179.36308986885263,1.112061696453367,96.65825304578446,1553.0,1435.0,1000.0,1210.0,1471.0,1011.0,137.0,293.01,1649155173.4577105,1649155174.5969894,a40018f8-c251-4450-bb65-cbf61ee10b8b
-0.1220872315141566,0.0067563002489497,-0.1294148908455837,-0.0821343678976589,-0.2534783303218958,0.2182585543185532,-0.4896892235370479,-0.518972474730723,-25.18519698971572,28.0831449227372,18.618130816871435,0.8457439389985343,0.0409673994972895,1.2160846316038083,-1.0,11.983666666666668,0.0,179.3682155463698,1.10749251334204,96.65149267632596,1553.0,1435.0,1000.0,1210.0,1471.0,1011.0,137.0,293.01,1649155174.7062838,1649155175.8222644,a40018f8-c251-4450-bb65-cbf61ee10b8b
-0.1347291559559252,-0.0076250865252412,-0.1502610545898332,-0.0726563489261888,-0.2695580922056484,0.2253944610098527,-0.5094944525134438,-0.5375861020690231,-25.36730740686317,28.155016170951143,18.71362891702239,0.8397611820752061,-0.0150162729391793,1.2929206855904252,-1.0,11.984333333333334,0.0,179.3589780949723,1.1337825162137518,96.66427954936212,1553.0,1435.0,1000.0,1210.0,1471.0,1011.0,137.0,293.01,1649155175.931041,1649155177.0481746,a40018f8-c251-4450-bb65-cbf61ee10b8b
-0.072326535720714,0.0263018374488881,0.0708233228957476,-0.051354364401716,-0.0707092460799379,0.1582884487742591,-0.2976820617112222,-0.3287918818889423,-23.775932979801947,28.61336826951256,18.34110277775461,0.6557016263256693,0.1156692658890983,0.423834606805253,-1.0,11.975,0.0,179.3517016667765,1.1102331623204096,96.63583181146905,1553.0,1435.0,1000.0,1071.0,1471.0,1011.0,137.0,293.01,1649155178.9859102,1649155180.1235487,e6ef9c94-fbca-48a7-abc7-2fd7c535348e
-0.0665542578358852,0.0298519854694344,0.0765430058148802,-0.0551937838190301,-0.065817930789439,0.1590247757620723,-0.2926066640983981,-0.316326915891796,-23.87251489292643,28.619832778046728,18.479595801075515,0.6663181566706892,0.1292760240455063,0.4026706572388688,-1.0,11.971888888888888,0.0,179.3609011726786,1.1104574201981583,96.6198476509914,1553.0,1435.0,1000.0,1071.0,1471.0,1011.0,137.0,293.01,1649155180.233374,1649155181.1826973,e6ef9c94-fbca-48a7-abc7-2fd7c535348e
-0.0646027721164139,0.0274518005114491,0.0710753396063815,-0.0552754155014539,-0.0714647482407579,0.1617465556956786,-0.29649922673468,-0.3235636310944174,-23.72709646986272,28.620496208319526,18.484685168703447,0.6724246565660138,0.1188629693422503,0.4231744994832122,-1.0,11.97,0.0,179.35500292487535,1.1223848159058027,96.60884573405832,1553.0,1435.0,1000.0,1071.0,1471.0,1011.0,137.0,293.01,1649155181.2944045,1649155182.3755264,e6ef9c94-fbca-48a7-abc7-2fd7c535348e
-0.4606525123745451,-0.1523429315315392,-1.156657170378939,0.0398060963021345,-1.1787497367641604,0.3149288594075351,-1.5619661313940665,-1.5810865512761074,-32.76731431532777,29.23340650206562,18.105805901838835,0.7404843138046475,-0.5776620222575758,5.37859700995917,-1.0,11.965111111111112,0.0,179.37809199990957,1.1490085849833624,96.6282298109228,1553.0,1435.0,1000.0,1613.0,1471.0,1011.0,137.0,293.01,1649155183.3100307,1649155184.4307454,b778cd16-09ff-4e00-80da-80d339917ab0
-0.4535987830151275,-0.1543974154824731,-1.1568626190073312,0.0496950116146627,-1.1758049744242516,0.3066287454107062,-1.564856108714702,-1.5823329395019137,-32.99052706875002,29.18911484957918,17.92413316657202,0.6990807152721129,-0.5834088929656684,5.37842485907925,-1.0,11.940666666666669,0.0,179.4323009346223,1.1314857346676948,96.61418618307935,1553.0,1435.0,1000.0,1613.0,1471.0,1011.0,137.0,293.01,1649155184.545432,1649155185.6597068,b778cd16-09ff-4e00-80da-80d339917ab0
-0.4610771056930838,-0.1550959400141626,-1.1499047620139495,0.0389706062548419,-1.170846816411106,0.3172161845419983,-1.553570131115803,-1.5718139709158694,-32.816256531944056,29.15902108592497,17.997676143108656,0.7473101418116768,-0.5861530537174732,5.346177910649299,-1.0,11.942,0.0,179.43510738346126,1.1207908205082509,96.51958199179542,1553.0,1435.0,1000.0,1613.0,1471.0,1011.0,137.0,293.01,1649155185.7753508,1649155186.882307,b778cd16-09ff-4e00-80da-80d339917ab0
-0.5056550320968733,-0.1711389943472709,-1.3040311701672005,0.098974681338669,-1.3099743863625917,0.284634265172025,-1.732218960888446,-1.748089461484846,-33.98861002326373,29.78598439936776,17.70375118705367,0.5345844894608601,-0.6525695277806198,5.997217001450967,-1.0,11.924333333333331,0.0,179.43610914453953,1.1085348286685055,96.31797757479389,1553.0,1435.0,1000.0,1694.0,1471.0,1011.0,137.0,293.01,1649155188.8171415,1649155189.954656,da98318c-3ef9-4502-9e08-da999a6c4f0b
-0.5021837753589764,-0.1650379987853209,-1.306358491700712,0.0986459639415659,-1.3140373374420422,0.2797035043863891,-1.7359794935187849,-1.7598707094300097,-33.86895651091415,29.783667518780803,17.78548195663538,0.5241879324532743,-0.6313654478643054,6.01221272071377,-1.0,11.89777777777778,0.0,179.4391614801886,1.1150874702556826,96.17077257889186,1553.0,1435.0,1000.0,1694.0,1471.0,1011.0,137.0,293.01,1649155190.0634148,1649155191.189721,da98318c-3ef9-4502-9e08-da999a6c4f0b
-0.5004612957376124,-0.1692192845255236,-1.3075550245092398,0.096358090829097,-1.3143003119133665,0.2858044990795865,-1.7350196376066638,-1.756912248337433,-33.896546269310235,29.75639298539172,17.77045540093118,0.5428018945324273,-0.6465139882871456,6.012279986949684,-1.0,11.876666666666663,0.0,179.4200809672872,1.1092072109888305,96.06233953126836,1553.0,1435.0,1000.0,1694.0,1471.0,1011.0,137.0,293.01,1649155191.3020594,1649155192.4128287,da98318c-3ef9-4502-9e08-da999a6c4f0b
-0.5530632173838524,-0.1798593200187566,-1.437491665647789,0.1644447777343995,-1.4338072874204844,0.2379815977506537,-1.8951627835078348,-1.9182004348631043,-34.8754305281828,30.701999735457218,17.280175876718157,0.2809782308630564,-0.6917511350667377,6.57772586750152,-1.0,11.881777777777778,0.0,179.43747973583297,1.0771933317231384,95.8060624856005,1553.0,1435.0,1000.0,1774.0,1471.0,1011.0,137.0,293.01,1649155194.346714,1649155195.4832523,fcc78340-6bb3-45c5-9d58-8e8761bfcfdd
-0.5548985568463013,-0.18055784459114,-1.4439290551838362,0.1650337297078329,-1.4395735447809743,0.2396525777882758,-1.9000250700156744,-1.9252678694417589,-34.7792175645285,30.61439866905373,17.45444839844906,0.2825795688912293,-0.697078666001246,6.601547124601628,-1.0,11.879333333333332,0.0,179.43278967260292,1.082899029853234,95.69045090915932,1553.0,1435.0,1000.0,1774.0,1471.0,1011.0,137.0,293.01,1649155195.5917876,1649155196.712818,fcc78340-6bb3-45c5-9d58-8e8761bfcfdd
-0.5527892861992906,-0.1864747584291583,-1.4451343534384649,0.1680195793813594,-1.438710660608758,0.2425014618341727,-1.901353638089704,-1.926541651557071,-34.96960261295677,30.664579872304028,17.416814846196477,0.2824168538681839,-0.7180328269984321,6.603009815294766,-1.0,11.866666666666667,0.0,179.42874620061426,1.098735677217555,95.57269237658905,1553.0,1435.0,1000.0,1774.0,1471.0,1011.0,137.0,293.01,1649155196.821325,1649155197.9408104,fcc78340-6bb3-45c5-9d58-8e8761bfcfdd
-0.5413011574052949,-0.18320949857035224,-1.4343085820740986,0.17163437497419043,-1.4282207291985602,0.23530035954089645,-1.892383473401309,-1.9232698116836984,-34.98054560595854,30.656050869668125,17.39752246436356,0.25855484988900373,-0.7052965847357734,6.561589257444289,-1.0,11.786999999999999,0.0,179.44503847851445,1.0906726033284526,95.3735468276887,1553.0,1435.0,1000.0,1856.0,1471.0,1011.0,137.0,293.01,1649155198.8524282,1649155199.9912632,9370eb94-de29-4322-91d3-d2de6f3147a3
-0.5428395552262275,-0.19036238998573635,-1.438226897501303,0.1744744933318766,-1.4304691584394718,0.23883735872238726,-1.8932118424885755,-1.914986119396323,-34.83896809269069,30.586377378415808,17.257685597236954,0.25948834390457626,-0.7324862179553403,6.570261993778068,-1.0,11.680555555555555,0.0,179.43373982780744,1.0989146850920521,95.08587064349638,1553.0,1435.0,1000.0,1856.0,1471.0,1011.0,137.0,293.01,1649155200.0996702,1649155201.2192128,9370eb94-de29-4322-91d3-d2de6f3147a3
-0.5432077188906516,-0.17325593462473066,-1.4213571025462042,0.1651915140736013,-1.4185169811200184,0.23044849088201524,-1.8798921916654314,-1.8994706330183118,-34.82719566791748,30.59070506333408,17.348775727381472,0.26246670277147566,-0.667004799689257,6.514146383983379,-1.0,11.68911111111111,0.0,179.40743145694438,1.0941564978397862,94.85145323881218,1553.0,1435.0,1000.0,1856.0,1471.0,1011.0,137.0,293.01,1649155201.3317077,1649155202.4466732,9370eb94-de29-4322-91d3-d2de6f3147a3
