raw_voltage_G-,raw_voltage_G0,raw_voltage_G1,raw_voltage_G2,raw_voltage_G3,raw_voltage_G4,raw_voltage_G5,raw_voltage_G6,load_x,load_y,load_z,load_l,load_m,load_n,rpm,voltage,current,roll,pitch,yaw,aileron1_pwm,elevator_pwm,throttle_pwm,rudder_pwm,aileron2_pwm,pbaro,pdiff,Tt,sample_start_time,sample_end_time,uid
0.0460511792669296,0.1898979134975542,0.1349889597186016,-0.0991761747452262,-0.1018848063203602,0.0347038544153005,-0.2280465572792128,-0.2508332507548763,-13.411008492558366,28.85621703449961,17.75699335998554,0.4957940519526899,0.6710303423768303,0.3053866722759811,-1.0,11.989,0.0,179.22241529270707,1.082137179169562,95.6857456677311,1553.0,1435.0,1000.0,1528.0,1471.0,1011.0,137.0,293.01,1649153062.3896778,1649153063.389974,4ce99590-7e0f-4184-a642-39dddf2ba910
0.0406415864599585,0.1956455371127029,0.1412838978738922,-0.1008712609349924,-0.0984058802621123,0.0295062843274184,-0.2230993597907403,-0.2440824901747742,-13.245757707669249,28.908699582726182,17.638649874230033,0.4886637945669358,0.6930753533294777,0.2856315118353708,-1.0,11.991,0.0,179.22840005623982,1.0861186458471506,95.58445320342987,1553.0,1435.0,1000.0,1528.0,1471.0,1011.0,137.0,293.01,1649153063.4992874,1649153064.6142075,4ce99590-7e0f-4184-a642-39dddf2ba910
0.0443418487321558,0.1983130787534968,0.1423785268175949,-0.1019374011327763,-0.0971118293188241,0.0278928296989014,-0.2215773980174027,-0.2380658654619669,-13.227919833433823,28.801516739806104,17.652543957013297,0.4867982687916108,0.703029701905503,0.2805994041071555,-1.0,11.991,0.0,179.237557822097,1.0922483937816931,95.51644064613212,1553.0,1435.0,1000.0,1528.0,1471.0,1011.0,137.0,293.01,1649153064.7229035,1649153065.840017,4ce99590-7e0f-4184-a642-39dddf2ba910
0.2745755131583056,0.6003081385599425,0.1648496480291673,-0.2715161523751004,-0.167273277332139,-0.2049837416201444,-0.2973138979968293,-0.3292389381366758,-12.994095806206737,28.11840500906908,18.14410160896344,0.3428081744353687,2.22703571314638,0.501655600126753,-1.0,11.965333333333334,0.0,179.06164022874404,1.0937092746027255,95.35970962334017,1647.0,1435.0,1000.0,1528.0,1543.0,1011.0,137.0,293.01,1649153066.9583404,1649153068.110546,80b2560d-ef80-4a5c-a378-93371a3d9492
0.2795194226522538,0.6102222545705258,0.1730018394415794,-0.2758946687907627,-0.1618297166112802,-0.2117421721814084,-0.2909499280647105,-0.3157746704349085,-12.917354838733386,28.08054897894535,18.04709855439882,0.3376760779644285,2.265591510380861,0.4751616093634545,-1.0,11.964555555555556,0.0,179.07167453554473,1.106443391542339,95.3168274190011,1647.0,1435.0,1000.0,1528.0,1543.0,1011.0,137.0,293.01,1649153068.223937,1649153069.261544,80b2560d-ef80-4a5c-a378-93371a3d9492
0.27615335659439,0.6099329832811645,0.1759865933744389,-0.2745535015839889,-0.1587792188534967,-0.2122286739821036,-0.2882149988806596,-0.3116459792306947,-12.92942153597096,28.096935266841754,18.13504668504073,0.3338226917024906,2.2638368592188693,0.4631298534967766,-1.0,11.964,0.0,179.07090803653784,1.111105541117369,95.25826006468805,1647.0,1435.0,1000.0,1528.0,1543.0,1011.0,137.0,293.01,1649153069.3901832,1649153070.5519483,80b2560d-ef80-4a5c-a378-93371a3d9492
0.5164326131335119,1.0599531005016172,0.2043565480036457,-0.4618167199631431,-0.2368507061521028,-0.4760200546138302,-0.3711180899969098,-0.3895536618406182,-12.441512296982706,27.530586810836795,18.59862040697828,0.1614459177514604,3.968968974186055,0.702869023537664,-1.0,11.931,0.0,178.65845416203817,1.106100435411827,95.18393849959944,1745.0,1435.0,1000.0,1528.0,1614.0,1011.0,137.0,293.01,1649153071.464444,1649153072.602248,cfde2a11-5bfc-4173-8141-325cb94b170b
0.5301154738956643,1.0575288097709203,0.204096313409468,-0.4585569382249329,-0.2371520304587754,-0.4751982609072269,-0.3717481317852585,-0.3915396634844429,-12.420850476707884,27.62230043638155,18.79972341007817,0.1565768093623609,3.957531508875428,0.704526900826715,-1.0,11.931333333333331,0.0,178.64632678171188,1.1111510757118357,95.19730593871505,1745.0,1435.0,1000.0,1528.0,1614.0,1011.0,137.0,293.01,1649153072.711373,1649153073.840164,cfde2a11-5bfc-4173-8141-325cb94b170b
0.5174735514826126,1.0652125787135975,0.208657267220469,-0.4644738529481267,-0.2352482086001713,-0.4790880845206475,-0.367844611886093,-0.3914574835785278,-12.3007321142033,27.588657441811577,18.574961938196783,0.1612116841084781,3.98850926955198,0.6908176238318182,-1.0,11.931111111111113,0.0,178.6713313453534,1.1167990492570707,95.20711105472355,1745.0,1435.0,1000.0,1528.0,1614.0,1011.0,137.0,293.01,1649153073.9484131,1649153075.0596302,cfde2a11-5bfc-4173-8141-325cb94b170b
0.7458636440370969,1.447949211844297,0.2609918149844565,-0.6393926539770404,-0.2808029682110761,-0.6971647593070185,-0.4112627110927978,-0.4357932536472482,-11.81978368276363,27.58306905425017,18.019463688424004,0.0684606501065038,5.450377562771036,0.7876778446900276,-1.0,11.88211111111111,0.0,178.33920808459217,1.1088992951517165,95.24320177429792,1849.0,1435.0,1000.0,1528.0,1686.0,1011.0,137.0,293.01,1649153075.9694464,1649153077.11314,1ecb21b9-160f-4f77-aa7d-0a12cb95511a
0.7406967547607282,1.4384454431425713,0.2552995255553121,-0.6391800831542895,-0.2841389024679658,-0.6882247381669555,-0.4139034080977765,-0.4350596655772982,-11.874684203073455,27.572687510803863,17.96277476916976,0.0876816330219428,5.415236447865414,0.8024783343494041,-1.0,11.881111111111112,0.0,178.33920960241196,1.1177082233265905,95.26473508402124,1849.0,1435.0,1000.0,1528.0,1686.0,1011.0,137.0,293.01,1649153077.2222474,1649153078.3378477,1ecb21b9-160f-4f77-aa7d-0a12cb95511a
0.7520407913621345,1.4537702495728435,0.2541161429694104,-0.6441179681395274,-0.288075841803567,-0.6960690341462262,-0.418028812387547,-0.4374231440782625,-11.84682083918913,27.47944380713941,18.316165707161364,0.0805864212444139,5.469915842209962,0.8176945540217231,-1.0,11.884999999999998,0.0,178.34484982084658,1.1212319013182457,95.29856045752086,1849.0,1435.0,1000.0,1528.0,1686.0,1011.0,137.0,293.01,1649153078.4464197,1649153079.5656402,1ecb21b9-160f-4f77-aa7d-0a12cb95511a
0.7555197169239295,1.437115233326202,0.2873302956249998,-0.6655804834004636,-0.2676953598993429,-0.6884537448659195,-0.3887866539567271,-0.403359795583428,-11.644409069105429,28.71216072606372,14.496168924567629,0.155431800951121,5.444642320728218,0.6950708606654987,-1.0,11.79,0.0,178.3318830861623,1.1354996684597751,95.32973571762253,1962.0,1435.0,1000.0,1528.0,1760.0,1011.0,137.0,293.01,1649153080.4753544,1649153081.612708,0d26d7f1-6af3-4325-b01a-39a106fb4253
0.7691242333517211,1.4666099525279892,0.2878819929569645,-0.6800856920579331,-0.272975657897408,-0.7057256597054444,-0.3938910884233975,-0.4182687765195932,-11.608529210269667,28.51442477063961,14.235163773952053,0.148032809639904,5.559142306469664,0.7119582227415252,-1.0,11.790888888888889,0.0,178.34335173268863,1.1048422932223692,95.19068217303996,1962.0,1435.0,1000.0,1528.0,1760.0,1011.0,137.0,293.01,1649153081.7211971,1649153082.8466349,0d26d7f1-6af3-4325-b01a-39a106fb4253
0.7487399210645654,1.445278382838998,0.2902613589931033,-0.6769349345798066,-0.2665174556759084,-0.6862349014350118,-0.3842804852673986,-0.4153031970399812,-11.60361616605447,28.54720492666426,14.492691665897777,0.1851031136858804,5.47658218348684,0.6840348355040797,-1.0,11.797444444444444,0.0,178.35957874433677,1.1108912320741926,95.10586640174655,1962.0,1435.0,1000.0,1528.0,1760.0,1011.0,137.0,293.01,1649153082.9587014,1649153084.0760975,0d26d7f1-6af3-4325-b01a-39a106fb4253
-0.2582622649406438,-0.3501716652498985,0.098475030948687,0.1422733372462864,-0.0176148087229567,0.336019366799331,-0.1408838418889412,-0.157727323171996,-13.641955656738771,30.34095835262396,17.150736515320137,0.6360507829330824,-1.3795683221479107,0.0514218916536986,-1.0,11.979666666666668,0.0,179.420568187448,1.113454770452834,94.92015204039409,1459.0,1435.0,1000.0,1528.0,1394.0,1011.0,137.0,293.01,1649153086.005406,1649153087.347524,37ce3933-a1f4-4ee9-902a-df6dce4f34a6
-0.2503281214708432,-0.3426429396350635,0.1077684197246991,0.1322441694295923,-0.0115423023849295,0.3371583725271325,-0.1312228366634189,-0.1585474733065296,-13.559913578573884,30.328349269383484,17.121173181286636,0.6616493732264187,-1.3498259355695528,0.0175716860831913,-1.0,11.97977777777778,0.0,179.41507823317514,1.1185049127182165,94.91283766670291,1459.0,1435.0,1000.0,1528.0,1394.0,1011.0,137.0,293.01,1649153087.4569085,1649153088.577487,37ce3933-a1f4-4ee9-902a-df6dce4f34a6
-0.2511088254131278,-0.3369451703150597,0.1107131797832001,0.1298335751922369,-0.010090467129672,0.33448754379312,-0.1285794006570431,-0.149781675112839,-13.465278886359236,30.278492732925404,17.24111501692815,0.6609682549498355,-1.3297060466575794,0.0087406163497572,-1.0,11.977111111111112,0.0,179.41875135712883,1.122832110290667,94.9237333362489,1459.0,1435.0,1000.0,1528.0,1394.0,1011.0,137.0,293.01,1649153088.6861622,1649153089.8020203,37ce3933-a1f4-4ee9-902a-df6dce4f34a6
-0.4896070441708551,-0.7980262597350829,0.084511663563038,0.3449106241469336,0.0647201365357983,0.5922841474481338,-0.0543714423509967,-0.0773405722891943,-13.80158963683274,31.986779677444105,17.985207142536645,0.7650796189495797,-3.0913676650686344,-0.2168867707133272,-1.0,11.943,0.0,179.54861298490837,1.1072109459082866,94.927550653085,1364.0,1435.0,1000.0,1528.0,1312.0,1011.0,137.0,293.01,1649153091.9433086,1649153093.081623,45de58d8-63b2-47b1-ab73-86474ad28f97
-0.5085356930428321,-0.8054224048204741,0.077718170564353,0.3422124022922162,0.0597619823411697,0.6022415445833669,-0.0590282724439564,-0.0742999361695833,-13.956307851306404,32.01287195848341,17.97374506872838,0.7932967372397669,-3.1180090802585987,-0.1952966386346785,-1.0,11.943,0.0,179.5606568851448,1.1136350945617026,94.82639327474742,1364.0,1435.0,1000.0,1528.0,1312.0,1011.0,137.0,293.01,1649153093.1903229,1649153094.3100016,45de58d8-63b2-47b1-ab73-86474ad28f97
-0.5074673612555255,-0.8028885403102318,0.0798959233595468,0.352238282457659,0.0616521074191957,0.5910103676231636,-0.0593159001894463,-0.0769981584873169,-13.794259121107428,32.02704196988112,18.04871799057951,0.7457387482885585,-3.1114130741723347,-0.1998222961226286,-1.0,11.946111111111112,0.0,179.57886009819282,1.1096528571162392,94.7759052753126,1364.0,1435.0,1000.0,1528.0,1312.0,1011.0,137.0,293.01,1649153094.418557,1649153095.540436,45de58d8-63b2-47b1-ab73-86474ad28f97
-0.7686816437751066,-1.2934201623745156,0.0600939869124301,0.5725775408413102,0.1456262546999696,0.8674238775467193,0.0275115175067957,0.0118514200419552,-14.047839204271654,34.04709071655862,18.095487853916502,0.882130381531168,-4.978174197585712,-0.46919250064054,-1.0,11.8905,0.0,179.73002129144407,1.1084071539344889,94.57686445597952,1262.0,1435.0,1000.0,1528.0,1222.0,1011.0,137.0,293.01,1649153097.47425,1649153098.6121438,34967626-3aa6-4e87-80ca-3c253a321e54
-0.7742303960286552,-1.2992318914255434,0.0494566916500755,0.5746418859531183,0.1366719927910801,0.8718418391010332,0.0176762926242841,-0.0064778629529564,-14.109552088881662,34.078508091949914,18.105377081351524,0.8870505892310022,-5.000550554423718,-0.4292206263792739,-1.0,11.8915,0.0,179.7324255180319,1.102846152650482,94.4346769929328,1262.0,1435.0,1000.0,1528.0,1222.0,1011.0,137.0,293.01,1649153098.7208412,1649153099.839927,34967626-3aa6-4e87-80ca-3c253a321e54
-0.7896713553603055,-1.3105518336071624,0.0425864978403684,0.5841209993117191,0.1338055770721986,0.8753508971122468,0.0112076818377868,-0.0185686372841735,-14.294240002194424,34.130771377453385,18.21725817844465,0.8734825909298074,-5.044293372811276,-0.4080211191788911,-1.0,11.890555555555556,0.0,179.75195226995908,1.0996748282284312,94.30268168994752,1262.0,1435.0,1000.0,1528.0,1222.0,1011.0,137.0,293.01,1649153099.952422,1649153101.0710363,34967626-3aa6-4e87-80ca-3c253a321e54
-0.8124487430601149,-1.3721042272796418,0.0815121172406779,0.6210606142592855,0.1813600270343157,0.890307537835301,0.0548997040193909,0.0313827123592124,-14.403241521235202,34.90883663664686,16.91549547654142,0.8305991860993834,-5.264910481757337,-0.5974155705271963,-1.0,11.740777777777778,0.0,179.7621429122007,1.1101662715268192,93.96303687309027,1153.0,1435.0,1000.0,1528.0,1121.0,1011.0,137.0,293.01,1649153103.0036604,1649153104.1434994,13cea744-8d11-4ce5-83bc-70dbf6ce527f
-0.8159139738754297,-1.376898027499629,0.0763896043843494,0.6296894453310675,0.1771551837126164,0.8872395089780607,0.0472159346475199,0.0247124881244525,-14.480736424596634,35.086348288536364,16.890164930040225,0.8051190192349601,-5.28350127663317,-0.5744329891905506,-1.0,11.746,0.0,179.77719057785214,1.100462149825883,93.64469389843453,1153.0,1435.0,1000.0,1528.0,1121.0,1011.0,137.0,293.01,1649153104.252529,1649153105.3695695,13cea744-8d11-4ce5-83bc-70dbf6ce527f
-0.8180780311059026,-1.37761024923331,0.07501994851518,0.6257859265107895,0.1763333902096366,0.889718585869662,0.0471611484138074,0.0241372331258504,-14.51926190613193,35.01038802664314,16.628184441569974,0.8188623146904738,-5.283185451211852,-0.5718543530860906,-1.0,11.753666666666666,0.0,179.76897461919057,1.0903831266305042,93.3601983056657,1153.0,1435.0,1000.0,1528.0,1121.0,1011.0,137.0,293.01,1649153105.4792757,1649153106.5987446,13cea744-8d11-4ce5-83bc-70dbf6ce527f
0.0388325449977356,0.1896480882743809,0.1313204735482044,-0.0926675697491445,-0.1036204343302654,0.028484521053767,-0.2337267947055076,-0.2512145630475575,-13.536106664221036,28.817281243018623,17.655279578668686,0.466616600032636,0.6708456753092689,0.320650535296164,-1.0,11.988222222222223,0.0,179.2471906655564,1.0878786290710944,93.15691214430854,1553.0,1435.0,1000.0,1528.0,1471.0,1011.0,137.0,293.01,1649153107.5095477,1649153108.5688694,089c3bce-70d1-4b35-b8e0-714960297d91
0.0383854893243906,0.18950345262295,0.1333585214267014,-0.0948239560510486,-0.1017796167432441,0.0286291567054905,-0.2306368507291352,-0.2585909828234073,-13.474265166038949,28.76726038301973,17.393586146436633,0.4715651956756926,0.6725787374002465,0.310624042653808,-1.0,11.990444444444446,0.0,179.24972087118897,1.10978104174285,93.49477048724285,1553.0,1435.0,1000.0,1528.0,1471.0,1011.0,137.0,293.01,1649153108.6775627,1649153109.8746555,089c3bce-70d1-4b35-b8e0-714960297d91
0.0348879361423048,0.1929089648193499,0.132267179660303,-0.0950343352051689,-0.10444880223307,0.027472071430188,-0.2330036163219696,-0.2521744177983339,-13.420335353478752,28.843511157370568,17.661230069664384,0.4699605793390954,0.6825556654675521,0.3199110891947198,-1.0,11.988666666666669,0.0,179.26168280915536,1.1200255547299942,93.82608475004238,1553.0,1435.0,1000.0,1528.0,1471.0,1011.0,137.0,293.01,1649153109.9858627,1649153111.1057632,089c3bce-70d1-4b35-b8e0-714960297d91
0.0515029574770449,0.1856744428530171,0.1100420484269174,-0.4812384447197962,-0.1654231460242261,0.408243506246395,-0.147124542307148,-0.1604786885676736,-13.231379572583208,28.05529327940813,20.479095188041214,2.1909991301484326,0.6752374292353484,0.3111504864318291,-1.0,11.978666666666667,0.0,179.24857036376878,1.2336689813311148,94.2010264667104,1553.0,1537.0,1000.0,1528.0,1471.0,1011.0,137.0,293.01,1649153112.0165465,1649153113.1534894,01584153-2d15-4983-ac44-347a44e2937a
0.0551106309977213,0.1924356117746108,0.1139247487856967,-0.491493882480664,-0.1641307386489133,0.4109669297374996,-0.142527429043929,-0.163841467485262,-13.179483829688406,28.01978979510412,20.498315360403566,2.220239943833304,0.7015664745124783,0.2983584762032379,-1.0,11.975,0.0,179.25851967265976,1.253067145460774,94.34200157117948,1553.0,1537.0,1000.0,1528.0,1471.0,1011.0,137.0,293.01,1649153113.2622993,1649153114.378957,01584153-2d15-4983-ac44-347a44e2937a
0.0618164660528861,0.1916461421690712,0.1182051971931238,-0.4906205897034628,-0.1598075565429533,0.4095583757595769,-0.1376602196280496,-0.1626427448503455,-13.112721805602265,27.98961775484706,20.33775430633824,2.215125936019392,0.6997193317483953,0.2794502998451277,-1.0,11.983888888888892,0.0,179.27471632791156,1.2493756772316955,94.4025193239555,1553.0,1537.0,1000.0,1528.0,1471.0,1011.0,137.0,293.01,1649153114.486929,1649153115.60952,01584153-2d15-4983-ac44-347a44e2937a
0.0764904109968993,0.1796945255940658,0.0913221402732286,-0.9407061243448696,-0.2349759209868055,0.8588903744168355,-0.0419398974862983,-0.0683819273284789,-12.98140282271365,27.554723135563325,23.8981822233757,4.236529717060429,0.6761116217304013,0.2820910062501939,-1.0,11.959333333333335,0.0,179.27174747235236,1.4012091816554926,94.55877128486816,1553.0,1645.0,1000.0,1528.0,1471.0,1011.0,137.0,293.01,1649153116.5209885,1649153117.6948109,36199648-dd33-452f-ae8e-3b090e588f8d
0.0758724223068805,0.1798786073321778,0.0931235116454048,-0.9434673521610858,-0.2343842295916463,0.8603498795689233,-0.0398624034059846,-0.0610055078984584,-12.924503891064546,27.60828874318576,23.783899773932816,4.2464932868045695,0.6778672780068498,0.2757264091564621,-1.0,11.961222222222222,0.0,179.27363564020288,1.4064306715484902,94.56401307560118,1553.0,1645.0,1000.0,1528.0,1471.0,1011.0,137.0,293.01,1649153117.803809,1649153118.754812,36199648-dd33-452f-ae8e-3b090e588f8d
0.0739264152695452,0.1808779082133624,0.0992376553141311,-0.9460050519915524,-0.2289669661245773,0.8633346333581382,-0.0313157505859845,-0.0546283900330491,-12.767751925909115,27.52343563206997,24.071658006293088,4.258791573460009,0.6786540282713059,0.248494005118953,-1.0,11.965666666666667,0.0,179.27750304509294,1.4129392845030486,94.5886579159464,1553.0,1645.0,1000.0,1528.0,1471.0,1011.0,137.0,293.01,1649153118.8627093,1649153120.1165016,36199648-dd33-452f-ae8e-3b090e588f8d
0.0934692127483061,0.1812230614693847,0.0826078419218256,-1.317674051174185,-0.2934038038739877,1.2220655622339978,0.0429152152231979,0.0256849442636228,-12.66934829962642,27.82097369737573,26.67901818653692,5.904911596187048,0.7008543322063933,0.2536455827040869,-1.0,11.917333333333334,0.0,179.2613261214987,1.522521831619512,94.64657412555856,1553.0,1761.0,1000.0,1528.0,1471.0,1011.0,137.0,293.01,1649153121.8578763,1649153122.983657,887e5fb7-dc27-4111-850a-004c5207a579
0.0831699486592427,0.1740011403217771,0.0763852214614308,-1.314642178073883,-0.2964460839256854,1.225120990495827,0.0361502109472679,0.0176236976709176,-12.979017782011818,27.857906005358924,26.455657106598064,5.904681887556215,0.6771720020171402,0.274509301833246,-1.0,11.930333333333332,0.0,179.26543637755924,1.5189328992337547,94.56073154915995,1553.0,1761.0,1000.0,1528.0,1471.0,1011.0,137.0,293.01,1649153123.0926294,1649153124.211399,887e5fb7-dc27-4111-850a-004c5207a579
0.0985095462275478,0.1740734581489535,0.0727874094856047,-1.3144416602093605,-0.2996083458193209,1.226229315987097,0.0338207002773657,0.018097050680377,-12.90181868820556,27.77770113310561,26.62716492552237,5.90607548833664,0.6751226418002013,0.2873766674791984,-1.0,11.931444444444445,0.0,179.26301545495346,1.5247350500699424,94.5038702243196,1553.0,1761.0,1000.0,1528.0,1471.0,1011.0,137.0,293.01,1649153124.3205469,1649153125.4423397,887e5fb7-dc27-4111-850a-004c5207a579
0.0891789027752962,0.1770910838296411,0.074583850085491,-1.295090048908162,-0.307543585203381,1.2021370698796097,0.0200693553122659,-0.0005083547537363,-12.624163370516888,28.8920595315522,26.09520386349677,5.815816134714089,0.6869403401837637,0.3148363325465971,-1.0,11.824222222222224,0.0,179.24288157510006,1.5351613931278034,94.34268155445685,1553.0,1887.0,1000.0,1528.0,1471.0,1011.0,137.0,293.01,1649153127.3757465,1649153128.5136042,00092608-cb36-4fbe-892b-bb2a61238d18
0.0960951169098354,0.1786689273122552,0.0786467972129551,-1.2971806937509949,-0.3029283921085427,1.2035045343330284,0.0222388902480159,-0.0008896669188987,-12.934661813728182,28.940993543570087,26.260667174174984,5.824001768402318,0.694105149267603,0.3000918102701291,-1.0,11.841,0.0,179.25859708147036,1.5437280155986843,94.14994803536732,1553.0,1887.0,1000.0,1528.0,1471.0,1011.0,137.0,293.01,1649153128.6215432,1649153129.7420046,00092608-cb36-4fbe-892b-bb2a61238d18
0.0974888787122885,0.178826711655646,0.0851816991540154,-1.318429007506845,-0.2976557642032593,1.225107842185857,0.034874787397581,0.0092216805779297,-13.048206946917322,28.841169411599203,26.647604368294463,5.9201464481898425,0.6950998736443093,0.2663517749456148,-1.0,11.854111111111113,0.0,179.2585272617588,1.5356821357621802,94.01037463749792,1553.0,1887.0,1000.0,1528.0,1471.0,1011.0,137.0,293.01,1649153129.850241,1649153130.970864,00092608-cb36-4fbe-892b-bb2a61238d18
0.022644308355532,0.1955633577703159,0.1702932081068954,0.4053946222880706,-0.021499700699677,-0.4570914061259725,-0.338698330120781,-0.3632014784758127,-13.674870438362978,30.58247751206042,14.376849193856406,-1.7349937923894343,0.664248797826299,0.304769456872231,-1.0,11.988222222222223,0.0,179.23885479912937,0.9679601914714036,93.78273809283974,1553.0,1335.0,1000.0,1528.0,1471.0,1011.0,137.0,293.01,1649153132.8557012,1649153133.8043983,4d8416f1-1cd8-4f44-9ddc-bbe17c989033
0.0151796838329674,0.1920296457880794,0.1711697878258365,0.4036551594850099,-0.0199108998603979,-0.450996436153473,-0.3365890597470158,-0.3648176722720002,-13.766815964031442,30.60758640919148,14.53497207468461,-1.7171847587384352,0.6505147195512294,0.2981130086816053,-1.0,11.990333333333334,0.0,179.24699942025964,0.9744554049229028,94.10852976824036,1553.0,1335.0,1000.0,1528.0,1471.0,1011.0,137.0,293.01,1649153133.913235,1649153135.0659635,4d8416f1-1cd8-4f44-9ddc-bbe17c989033
0.0172752573105087,0.1962070959924379,0.1754979001887929,0.4048741531003423,-0.0171168018404984,-0.4566668127237923,-0.3332197057742252,-0.3580789645920743,-13.616288802537754,30.60520496065856,14.499214694533292,-1.7324068071579208,0.6655584748507989,0.2841823826319083,-1.0,11.989777777777778,0.0,179.24537990651646,0.9797411531407484,94.41611671277316,1553.0,1335.0,1000.0,1528.0,1471.0,1011.0,137.0,293.01,1649153135.174433,1649153136.4998047,4d8416f1-1cd8-4f44-9ddc-bbe17c989033
0.0084590563871428,0.1985629039772427,0.2005352083311124,0.8353936562969246,0.0469847367697852,-0.8755542983874531,-0.4364665756598816,-0.459056041254911,-14.220932159482144,32.29874219920386,11.31989358714944,-3.6331872500294726,0.6554617343619863,0.3082045416616235,-1.0,11.959,0.0,179.2443493068617,0.8423210731999221,94.83326520396236,1553.0,1236.0,1000.0,1528.0,1471.0,1011.0,137.0,293.01,1649153137.4197905,1649153138.549075,2c6e2f1c-a5e9-4d92-9138-5eab1af645f4
-0.0007187337323762,0.2127109005249138,0.2084901692157843,0.8253480532687516,0.0503639516992653,-0.8802089393076414,-0.430628553264544,-0.4534283978456795,-14.137140617468518,32.30086207137992,11.366459501424696,-3.620526672194353,0.7092607216678398,0.2861935742348155,-1.0,11.960888888888888,0.0,179.24430680790687,0.8374636051163612,95.00387725815,1553.0,1236.0,1000.0,1528.0,1471.0,1011.0,137.0,293.01,1649153138.658664,1649153139.7831163,2c6e2f1c-a5e9-4d92-9138-5eab1af645f4
0.0087970874630131,0.203137554357397,0.2037538994600866,0.8282484362565441,0.0473802933755938,-0.8723164302670501,-0.4326841332169278,-0.4545027561425988,-14.105624474025594,32.344948852086866,11.507711592866892,-3.6092389011711146,0.6712232699659371,0.2987104141676946,-1.0,11.96288888888889,0.0,179.24050922272832,0.8406791716144418,95.17559732080302,1553.0,1236.0,1000.0,1528.0,1471.0,1011.0,137.0,293.01,1649153139.8988492,1649153141.2101948,2c6e2f1c-a5e9-4d92-9138-5eab1af645f4
0.0007982970878828,0.2086298741052445,0.2200117137614522,1.092359156534063,0.0815395103444982,-1.1324279399520496,-0.5015093566372034,-0.5207256338301244,-14.426707674355404,33.94601862196185,9.650357938754128,-4.778547754004614,0.6790971640071731,0.3274946238286822,-1.0,11.94211111111111,0.0,179.23594665636276,0.7539964938058694,95.38683761690363,1553.0,1133.0,1000.0,1528.0,1471.0,1011.0,137.0,293.01,1649153141.83665,1649153142.886083,edc970b7-cc19-491a-b5f1-615f4475ccac
-0.0093097633245612,0.2130949520037151,0.2238604465406813,1.0940164402121482,0.0849225602611344,-1.1381941960296753,-0.499838376055466,-0.5276150045818463,-14.478183006049903,33.945242239193526,9.69103709063811,-4.795076659691838,0.6958876411930847,0.3158379219660917,-1.0,11.937666666666669,0.0,179.23881230017454,0.7473156320181796,95.51104764259996,1553.0,1133.0,1000.0,1528.0,1471.0,1011.0,137.0,293.01,1649153142.9960773,1649153144.078452,edc970b7-cc19-491a-b5f1-615f4475ccac
-0.0025984495039832,0.2149987735762074,0.2246000606568908,1.0937699021716982,0.08568956752793,-1.14124853101793,-0.4998657692416723,-0.5142334632861538,-14.509755812700496,33.91229155662793,9.4931761000593,-4.801613068158282,0.705081914013962,0.3137646363513297,-1.0,11.938333333333333,0.0,179.24420056051974,0.7370154755194379,95.6355528842504,1553.0,1133.0,1000.0,1528.0,1471.0,1011.0,137.0,293.01,1649153144.1868546,1649153145.3081028,edc970b7-cc19-491a-b5f1-615f4475ccac
-0.0091996429991074,0.2124216292065815,0.2330124865370542,1.2811475855962644,0.1034583866938059,-1.3176795320004464,-0.5539239096370147,-0.5802870537086191,-14.71708545348664,35.560180090475434,8.387977021075034,-5.609692835582612,0.6841698821196924,0.3540140831972732,-1.0,11.918666666666669,0.0,179.24446314334784,0.6882364166882734,95.75114017557452,1553.0,1026.0,1000.0,1528.0,1471.0,1011.0,137.0,293.01,1649153146.4220295,1649153147.5595005,0005c38c-4dce-4b5f-90ea-aed88071e9e3
0.0028182656293957,0.213631309213199,0.2377197194546483,1.2704445462977945,0.1067587092660237,-1.3085280289789696,-0.5458769053740107,-0.5777493545476439,-14.65544712647792,35.49704919788176,8.505817717368634,-5.565119053856352,0.6888413536123895,0.3319329737719399,-1.0,11.911444444444443,0.0,179.2456682922814,0.6481732543494597,95.77974348999872,1553.0,1026.0,1000.0,1528.0,1471.0,1011.0,137.0,293.01,1649153147.6679928,1649153148.7875595,0005c38c-4dce-4b5f-90ea-aed88071e9e3
-0.0217040534331247,0.2177205535592834,0.2393764551631968,1.2910485537893088,0.1092569615847584,-1.3328794384360023,-0.5531218389462395,-0.5836268242394956,-14.770498812855868,35.657269708770215,8.288128103913195,-5.665265514819866,0.7044931423698809,0.3368094013305448,-1.0,11.905,0.0,179.2601725784389,0.6816259852974156,95.84234596829144,1553.0,1026.0,1000.0,1528.0,1471.0,1011.0,137.0,293.01,1649153148.8950703,1649153149.9497554,0005c38c-4dce-4b5f-90ea-aed88071e9e3
0.0483253558836692,0.1943169709822973,0.1423248363055141,-0.1063909743520052,-0.0966801137768357,0.0379159713573392,-0.2206887652104065,-0.2468628921738117,-13.434630934126446,28.89680555611731,17.940798871300604,0.5199386805048164,0.6874966650037148,0.2785196672382721,-1.0,11.991555555555555,0.0,179.2474031603306,1.0654425367226277,95.89245223604264,1553.0,1435.0,1000.0,1528.0,1471.0,1011.0,137.0,293.01,1649153150.9305658,1649153152.0646236,487a15c5-fcb1-4d9b-ab41-7ad4250b17cb
0.0403265656297494,0.1887835615318167,0.1384624068951248,-0.0998714120978175,-0.0997618396161038,0.036861336327901,-0.2254003818645972,-0.2533276684140187,-13.421994544357482,29.0187832700722,17.839082431357696,0.5034686680859312,0.6665096018356135,0.2938932778465324,-1.0,11.989666666666668,0.0,179.23740528120553,1.0760091951076567,95.8804477991214,1553.0,1435.0,1000.0,1528.0,1471.0,1011.0,137.0,293.01,1649153152.173354,1649153153.2938623,487a15c5-fcb1-4d9b-ab41-7ad4250b17cb
0.0431343601351796,0.1898108033865151,0.1430644504564588,-0.0997618396237926,-0.0955432993453443,0.0353547148874858,-0.2215653450430143,-0.2350427605573097,-13.453264439720453,29.04578922555197,17.814672727640033,0.5002244651557891,0.671078758877611,0.276471984091952,-1.0,11.990111111111112,0.0,179.2482516216075,1.089517127419957,95.88455501954228,1553.0,1435.0,1000.0,1528.0,1471.0,1011.0,137.0,293.01,1649153153.4029882,1649153154.522278,487a15c5-fcb1-4d9b-ab41-7ad4250b17cb
0.1095489722968241,0.2200665000236186,0.3227495938847569,-0.1247991502508887,0.0647338330930197,0.0181929268173005,-0.0336074588306407,-0.0601924801814317,-12.005896120351224,28.84478606084896,17.722014158517062,0.5264661187727374,0.7896034298806706,-0.4499684742640359,-1.0,11.988222222222223,0.0,179.20205222206152,1.0807037643653097,95.87978754750162,1553.0,1435.0,1000.0,1435.0,1471.0,1011.0,137.0,293.01,1649153156.4577837,1649153157.5975196,475cbe2c-e537-4dcc-9e27-c511029f9b00
0.0852474426843643,0.2165634683603772,0.321187638448956,-0.1250528105208883,0.0642095288339566,0.022173146798818,-0.0343268021079359,-0.0614657122260307,-12.088625126390056,28.853412160872708,17.758224287086634,0.5359259368767255,0.7766618950855012,-0.4465374589711099,-1.0,11.989,0.0,179.22171102431264,1.0802819646101591,95.88393271341788,1553.0,1435.0,1000.0,1435.0,1471.0,1011.0,137.0,293.01,1649153157.7062654,1649153158.8244016,475cbe2c-e537-4dcc-9e27-c511029f9b00
0.099002622301789,0.2122594619814172,0.3188186818287312,-0.1161977108958495,0.0628711011259054,0.0197406379626716,-0.0375383712719659,-0.0692869958902831,-12.043330443089175,28.933089724553984,17.94929213449993,0.5109483209676305,0.7572661599694567,-0.4370874172282595,-1.0,11.988,0.0,179.22244564910338,1.0955579317062063,95.8626528796038,1553.0,1435.0,1000.0,1435.0,1471.0,1011.0,137.0,293.01,1649153158.933612,1649153160.05354,475cbe2c-e537-4dcc-9e27-c511029f9b00
0.1775112941772093,0.2542941982180494,0.5688904276200532,-0.1350030870789979,0.2869330954643008,-0.0171852846377343,0.2168341123344078,0.1939608600954266,-10.266413127426665,28.90416112487388,18.026264737272744,0.4835580207930878,0.919831256504707,-1.4390310899228391,-1.0,11.97722222222222,0.0,179.16644265136873,1.088113191522435,95.80227097170123,1553.0,1435.0,1000.0,1330.0,1471.0,1011.0,137.0,293.01,1649153160.961137,1649153162.1100826,16f1bfc6-ceca-4dd4-a231-316f68bc0b14
0.187181064176535,0.2490073268811355,0.573547257095205,-0.1335923414592349,0.2924391116807235,-0.0139665933074133,0.2215046385915747,0.192303576627331,-10.39409939585121,29.00128770696948,17.967552151723414,0.4884106632195543,0.901549547162429,-1.460367396450704,-1.0,11.980777777777778,0.0,179.16120010172577,1.0986996052810003,95.80019762983318,1553.0,1435.0,1000.0,1330.0,1471.0,1011.0,137.0,293.01,1649153162.2184932,1649153163.536801,16f1bfc6-ceca-4dd4-a231-316f68bc0b14
0.1911667626053751,0.2598276075874954,0.5757524028178925,-0.1373725918778434,0.2910831524651225,-0.0206094243636269,0.2228195081568606,0.1998092904558522,-10.113591852542006,28.947700556224493,18.048175624099905,0.4819192716876249,0.9400365666669136,-1.4617905008103982,-1.0,11.979444444444445,0.0,179.16841278148934,1.0929868398023888,95.79815084981188,1553.0,1435.0,1000.0,1330.0,1471.0,1011.0,137.0,293.01,1649153163.6452267,1649153164.7625208,16f1bfc6-ceca-4dd4-a231-316f68bc0b14
0.2680800575753748,0.2931809172570878,0.8274255471017008,-0.1270514124944572,0.5202325859990693,-0.0787693971252334,0.4700177195578506,0.4438123701911827,-8.575767531337195,29.241082825417205,17.686335939487474,0.3431369263774651,1.0721433428758465,-2.464345158083514,-1.0,11.963666666666668,0.0,179.14327616752385,1.0805208433616,95.70453779486752,1553.0,1435.0,1000.0,1210.0,1471.0,1011.0,137.0,293.01,1649153166.9016466,1649153168.0455575,083fbe7b-9330-4ae1-898e-9b18680530b2
0.2549445107503605,0.28952557992033,0.817103821485081,-0.1268936281211198,0.5103184699402725,-0.0750483159204728,0.4597091426010843,0.439802018131412,-8.613337407212935,29.32770403506441,17.64657307990265,0.3511777890932849,1.0583796330438653,-2.4226537275043283,-1.0,11.965777777777776,0.0,179.15568434451603,1.0852061515467846,95.69017997832223,1553.0,1435.0,1000.0,1210.0,1471.0,1011.0,137.0,293.01,1649153168.1600325,1649153169.268964,083fbe7b-9330-4ae1-898e-9b18680530b2
0.2571008968315874,0.2978355554376541,0.8132381051329919,-0.1278534830134495,0.5049932484519197,-0.0821091661445174,0.4536475941707183,0.4300588350690959,-8.559647420134421,29.281215391177824,17.636721533151064,0.337001103406733,1.0891267275986325,-2.400461009438167,-1.0,11.963,0.0,179.15906756488494,1.0966753791135422,95.66495457189755,1553.0,1435.0,1000.0,1210.0,1471.0,1011.0,137.0,293.01,1649153169.3770542,1649153170.49389,083fbe7b-9330-4ae1-898e-9b18680530b2
0.3215990830114335,0.3263380919968636,1.0464482945659976,-0.0757654677524038,0.7170186944083156,-0.1711893976683674,0.6677658745024201,0.6395783596652631,-7.085164020497298,30.192573591083065,17.46547652506483,0.0376968622173439,1.195496867169082,-3.307676199533578,-1.0,11.952777777777776,0.0,179.1255753528348,1.0612001354744034,95.5795081464708,1553.0,1435.0,1000.0,1071.0,1471.0,1011.0,137.0,293.01,1649153172.4326165,1649153173.7746756,e1a111dd-6f7e-41f5-ac17-9ee3c87c039c
0.3352956406672744,0.3373638208962036,1.047201605253239,-0.0855585076539092,0.7149642108198516,-0.1724220880803713,0.6672591018841519,0.6467553556702058,-7.104718435542865,30.149282443127777,17.545583745870037,0.0567709949320207,1.2375312217072054,-3.3038179029385346,-1.0,11.952333333333334,0.0,179.13638222992157,1.0759655696459265,95.54582468912392,1553.0,1435.0,1000.0,1071.0,1471.0,1011.0,137.0,293.01,1649153173.8841088,1649153175.0029707,e1a111dd-6f7e-41f5-ac17-9ee3c87c039c
0.3165998394420812,0.3272009751170806,1.0272457206072356,-0.0768474959439896,0.698514645549794,-0.1693814517934292,0.6470155902614952,0.6283197895843721,-7.240675832821836,30.231141029911893,17.547532266465044,0.0434346562050838,1.1980231540253692,-3.2266677384809115,-1.0,11.954333333333333,0.0,179.14148210450188,1.067485427330631,95.55566699171791,1553.0,1435.0,1000.0,1071.0,1471.0,1011.0,137.0,293.01,1649153175.1144717,1649153176.2326107,e1a111dd-6f7e-41f5-ac17-9ee3c87c039c
-0.0284027664951158,0.1499264261216859,-0.0696020161287791,-0.0636987991211914,-0.2864185579942322,0.0502565706892741,-0.4446686246540443,-0.4659530821611863,-14.896517757149503,29.424997399861407,17.424035396655032,0.443497220764517,0.517249674607053,1.137764618209808,-1.0,11.98688888888889,0.0,179.25254856950534,1.0980580536756792,95.7190329741061,1553.0,1435.0,1000.0,1613.0,1471.0,1011.0,137.0,293.01,1649153176.83483,1649153178.081124,136c64fb-ab02-4431-8192-c0eaca52b651
-0.0180881618506753,0.1616545149561929,-0.0600325041656216,-0.0647923324114356,-0.2790372076171244,0.0396609129319859,-0.438373137044625,-0.4651175922272296,-14.890060217301688,29.37408321286343,17.469867793140587,0.4223036442345593,0.5615256520146297,1.1072027873595318,-1.0,11.990111111111112,0.0,179.24760047690663,1.0929928043599453,95.69409139998696,1553.0,1435.0,1000.0,1613.0,1471.0,1011.0,137.0,293.01,1649153178.1955712,1649153179.3142755,136c64fb-ab02-4431-8192-c0eaca52b651
-0.0380177508876501,0.1464201072231759,-0.0715743206510954,-0.0603157490083977,-0.2868431513661903,0.0483390524807232,-0.4468189848339085,-0.4712262582361201,-14.952725217128396,29.407235755354574,17.090749677683032,0.4312595963565231,0.5069087117212906,1.1431963629235646,-1.0,11.988444444444443,0.0,179.2551485948494,1.0959128288097988,95.66806913815908,1553.0,1435.0,1000.0,1613.0,1471.0,1011.0,137.0,293.01,1649153179.4267848,1649153180.7380283,136c64fb-ab02-4431-8192-c0eaca52b651
-0.0867638049105489,0.1218347851527504,-0.2432743929253675,-0.0199245964245331,-0.4418745261140941,0.0466406792007273,-0.6348590913431661,-0.6588691681421978,-16.318418334972716,29.933930034613898,17.327988354678396,0.3306229452968771,0.4064132539176983,1.8526725479731567,-1.0,11.973888888888888,0.0,179.25435629290567,1.0897284719713063,95.65970139751592,1553.0,1435.0,1000.0,1694.0,1471.0,1011.0,137.0,293.01,1649153181.3565242,1649153182.5814714,8c6e8626-484d-4766-bd90-9a56e77e9472
-0.0824510323103026,0.1235627429450649,-0.2457710018691761,-0.0187850427188217,-0.4445267282597185,0.0445916740371874,-0.6375627928928307,-0.6625321761595522,-16.255497203544987,29.90153403587188,17.406550952591548,0.3231531279191849,0.4114533830435783,1.863924769486488,-1.0,11.9785,0.0,179.26412384287374,1.0900985917404318,95.61676758730312,1553.0,1435.0,1000.0,1694.0,1471.0,1011.0,137.0,293.01,1649153182.6900532,1649153183.7073596,8c6e8626-484d-4766-bd90-9a56e77e9472
-0.0899277101377257,0.1247932417384404,-0.24794491991133,-0.0181303472009876,-0.4464217845411785,0.0430110911705116,-0.640803399771004,-0.6723328895051122,-16.33039130266765,29.90384069711727,17.418475918507372,0.3179957601457434,0.4162745102824639,1.8742012560329533,-1.0,11.977666666666668,0.0,179.27808133444265,1.0895439857159122,95.54417178334478,1553.0,1435.0,1000.0,1694.0,1471.0,1011.0,137.0,293.01,1649153183.815353,1649153185.1534977,8c6e8626-484d-4766-bd90-9a56e77e9472
-0.1563730073057822,0.1018279484417573,-0.4295240625457615,0.0292471454333948,-0.6116204063944939,0.0299177289447154,-0.8422486337232598,-0.8669418985698562,-17.61642672565379,30.49921536928384,17.085471036822177,0.1759061523579517,0.3248601184379239,2.629558425865321,-1.0,11.954333333333333,0.0,179.291870727467,1.0738318232924016,95.48763299521524,1553.0,1435.0,1000.0,1774.0,1471.0,1011.0,137.0,293.01,1649153186.8707116,1649153188.2134235,a84b9b06-624b-4bab-beea-21502edea201
-0.1497592125769705,0.093570567318607,-0.4373738359130293,0.0333495386766976,-0.6174452807550103,0.035466478785032,-0.8492042975477196,-0.8720961898026538,-17.696590321421212,30.576038524377644,17.203551934839975,0.1792178142012895,0.2924093256656695,2.6572113826355923,-1.0,11.949666666666666,0.0,179.3030175961925,1.080925828519106,95.3785214821342,1553.0,1435.0,1000.0,1774.0,1471.0,1011.0,137.0,293.01,1649153188.3223517,1649153189.4375603,a84b9b06-624b-4bab-beea-21502edea201
-0.1521391267853465,0.0953456412895178,-0.4338105384556812,0.0319426281807963,-0.6144473770284726,0.0337965943653577,-0.8458645270157865,-0.866757816345175,-17.68127658600163,30.560952163622677,17.056009744825186,0.1787006149092283,0.300665067144171,2.643527095035838,-1.0,11.954555555555556,0.0,179.30334848091223,1.0743197193573326,95.2973856649836,1553.0,1435.0,1000.0,1774.0,1471.0,1011.0,137.0,293.01,1649153189.5462787,1649153190.875776,a84b9b06-624b-4bab-beea-21502edea201
-0.19448724602933712,0.07855366063171904,-0.5615824793151646,0.09363357147313851,-0.7301597821715923,-0.0012561866695674107,-0.9992151188342838,-1.0321279710379743,-18.73427391347018,31.406631705623294,16.722956284207466,-0.040566538541492246,0.23240843777929657,3.1905932310594225,-1.0,11.90022222222222,0.0,179.28954542750955,1.065702226206696,95.18294432762023,1553.0,1435.0,1000.0,1856.0,1471.0,1011.0,137.0,293.01,1649153191.9908772,1649153193.1329956,7f447c6f-692b-4882-a3f0-26a641dc017f
-0.19393938363889315,0.0761430663448864,-0.5644724541131405,0.09489365484212553,-0.7315979214873103,0.0011270145666879307,-0.9996534091381731,-1.0289366704786485,-18.65072815060115,31.273804888658173,16.879170561110097,-0.039011076711962585,0.22105079912697945,3.197168047557893,-1.0,11.891,0.0,179.30634465722818,1.0679947388845217,95.04620090479695,1553.0,1435.0,1000.0,1856.0,1471.0,1011.0,137.0,293.01,1649153193.2437181,1649153194.357375,7f447c6f-692b-4882-a3f0-26a641dc017f
-0.19799356538391089,0.07541714872833657,-0.562144038479841,0.09712619387414743,-0.7288586086742358,-0.000995952055242717,-0.9994890502868982,-1.0228416990914575,-18.82168027717916,31.366203932035756,16.77797041370685,-0.048191448115184964,0.22030936101316448,3.1896606375859533,-1.0,11.904333333333334,0.0,179.32186588266208,1.0702380884298843,94.93841900187432,1553.0,1435.0,1000.0,1856.0,1471.0,1011.0,137.0,293.01,1649153194.46595,1649153195.5856059,7f447c6f-692b-4882-a3f0-26a641dc017f
