raw_voltage_G-,raw_voltage_G0,raw_voltage_G1,raw_voltage_G2,raw_voltage_G3,raw_voltage_G4,raw_voltage_G5,raw_voltage_G6,load_x,load_y,load_z,load_l,load_m,load_n,rpm,voltage,current,roll,pitch,yaw,aileron1_pwm,elevator_pwm,throttle_pwm,rudder_pwm,aileron2_pwm,pbaro,pdiff,Tt,sample_start_time,sample_end_time,uid
0.083210490473644,0.2129442898821867,0.2191762237530245,-0.1187589675080649,-0.0333609207624323,0.0278079110536207,-0.1342908659815399,-0.1505349860002366,-11.756014641301377,28.63145269014788,18.102088330136464,0.528061994704321,0.7504403309581793,-0.0318367119696425,-1.0,11.990222222222222,0.0,179.1949397184058,1.0599913461448862,96.0036143236945,1553.0,1435.0,1000.0,1528.0,1471.0,1011.0,137.0,293.01,1649153385.940099,1649153387.0724373,2aea75a0-3915-4dea-8e13-354f406dd2a5
0.0805670546563314,0.2102186748323715,0.216710843315858,-0.1125407295371839,-0.0344429489271959,0.0243563782440398,-0.1384409235244215,-0.1575339279132987,-11.853663041876365,28.683200094054712,18.02024970805127,0.5064371992785612,0.7407130698179923,-0.0215737976405043,-1.0,11.988666666666669,0.0,179.1968111902384,1.0684396261020224,95.75799085531204,1553.0,1435.0,1000.0,1528.0,1471.0,1011.0,137.0,293.01,1649153387.18046,1649153388.3169482,2aea75a0-3915-4dea-8e13-354f406dd2a5
0.0802794269384,0.2185735752064195,0.2254081576146626,-0.1220324452183925,-0.0284438560921587,0.0253973167206541,-0.1291272630430228,-0.1539317333171048,-11.785999495285864,28.614167732171907,18.15920014061618,0.5302189660448704,0.7720574317967609,-0.0536614959543246,-1.0,11.990666666666668,0.0,179.22182637861863,1.08785732030384,95.49079385498116,1553.0,1435.0,1000.0,1528.0,1471.0,1011.0,137.0,293.01,1649153388.4487743,1649153389.535322,2aea75a0-3915-4dea-8e13-354f406dd2a5
0.3135044173937857,0.6422217952234098,0.2526917009468009,-0.2684349741248959,-0.0955159062272839,-0.2535194199397485,-0.2137856989437539,-0.2447399254903276,-11.484242401506558,27.91945436019486,18.13999295618449,0.2306060881185717,2.3787734372639218,0.1714850290021647,-1.0,11.979555555555557,0.0,179.02020981905855,1.0955473899732686,95.19240186289096,1647.0,1435.0,1000.0,1528.0,1543.0,1011.0,137.0,293.01,1649153390.446007,1649153391.590207,0775deab-1fbc-4111-9938-f090bfc05b0d
0.3089708568100695,0.6332094605492509,0.2466789120447353,-0.2588062922098218,-0.0985976320783844,-0.2542727307353508,-0.2200724200006002,-0.2469039819013791,-11.55936812614921,27.97451141053296,17.990490820505,0.2071972860300659,2.345262715991522,0.1915374339310971,-1.0,11.964666666666666,0.0,179.01053219991456,1.1140809304165886,95.04559529469054,1647.0,1435.0,1000.0,1528.0,1543.0,1011.0,137.0,293.01,1649153391.7211602,1649153392.8125122,0775deab-1fbc-4111-9938-f090bfc05b0d
0.3124908721257093,0.6363048824892409,0.2491032027899617,-0.2663257038244291,-0.0985154527234524,-0.2502596385885675,-0.2169496043024644,-0.2392613015686037,-11.492004003149871,28.021935592198968,18.028221666114188,0.2336522082797471,2.357141527936139,0.184064180456777,-1.0,11.966444444444445,0.0,179.016914632239,1.1181141334055462,94.93931299774567,1647.0,1435.0,1000.0,1528.0,1543.0,1011.0,137.0,293.01,1649153392.9211056,1649153394.0395553,0775deab-1fbc-4111-9938-f090bfc05b0d
0.5651748255538982,1.0947779685720425,0.2960999276343853,-0.4422783007121393,-0.1582006761655093,-0.5360022311816883,-0.2853748800807376,-0.3181940314306515,-10.891344803870654,27.33113370867688,18.157838702286533,-0.0134598680653345,4.09592539633866,0.3535378250378583,-1.0,11.952666666666667,0.0,178.5756646801985,1.1126705082109485,94.77856904908889,1745.0,1435.0,1000.0,1528.0,1614.0,1011.0,137.0,293.01,1649153394.9508028,1649153396.092219,f63e0701-bda4-4862-b31e-4c3f6ac79429
0.5631789632256265,1.09171541821973,0.2912201180483286,-0.431177511473122,-0.1618072542545606,-0.5415170151113494,-0.2928011551906832,-0.314770439334221,-10.918983789962825,27.43838877300493,18.351792258461703,-0.0504079553175316,4.081241307289193,0.3756122359766449,-1.0,11.938,0.0,178.56556966060526,1.1066895748016423,94.7814081310539,1745.0,1435.0,1000.0,1528.0,1614.0,1011.0,137.0,293.01,1649153396.201352,1649153397.3229132,f63e0701-bda4-4862-b31e-4c3f6ac79429
0.5729446085672589,1.1002620703771429,0.2978218588776318,-0.4437098653309677,-0.1571915136381233,-0.5382983229429307,-0.2848571500762365,-0.3087576487208813,-10.935588798733056,27.29899739449561,18.41700237569026,-0.0154984877287343,4.1147951719279545,0.350077790905269,-1.0,11.935,0.0,178.58298208952934,1.1127092719060814,94.77683873449917,1745.0,1435.0,1000.0,1528.0,1614.0,1011.0,137.0,293.01,1649153397.4360418,1649153398.5458832,f63e0701-bda4-4862-b31e-4c3f6ac79429
0.7859545629491401,1.4901329718281335,0.3449736283058541,-0.5816939642055002,-0.2064563957645276,-0.7983582645888155,-0.3455959182212467,-0.3754697616272078,-10.294898183189169,27.39951287186029,17.633278302155485,-0.2854178298570576,5.599439239313125,0.4846503384056247,-1.0,11.920333333333334,0.0,178.34500008500834,1.1266917126382208,94.82591819714511,1849.0,1435.0,1000.0,1528.0,1686.0,1011.0,137.0,293.01,1649153400.4810002,1649153401.62047,38ebc512-7b11-45ba-b4b8-1260da3796a6
0.7861123473044636,1.497206971052692,0.3567943053801427,-0.5877949612834391,-0.197383794452674,-0.7990682945388156,-0.3336306026272359,-0.3496851641075328,-10.188873515946762,27.37812345129728,17.810192658037025,-0.2727226382686285,5.625152801827039,0.4402790903183141,-1.0,11.884888888888888,0.0,178.31017219152054,1.114653836249158,94.81139949169943,1849.0,1435.0,1000.0,1528.0,1686.0,1011.0,137.0,293.01,1649153401.7290657,1649153402.8471508,38ebc512-7b11-45ba-b4b8-1260da3796a6
0.7786307398344579,1.4633096294704062,0.342725201410727,-0.580352797424816,-0.2028273552363403,-0.7751508054880958,-0.3398630857301156,-0.3705390001501736,-10.45935510947586,27.43021474347005,17.38581848446285,-0.2363235744028407,5.50188546890364,0.4708994781425079,-1.0,11.894333333333334,0.0,178.34106134258695,1.128159918718558,94.8140131774218,1849.0,1435.0,1000.0,1528.0,1686.0,1011.0,137.0,293.01,1649153402.956626,1649153404.0755975,38ebc512-7b11-45ba-b4b8-1260da3796a6
0.7876107506866736,1.488340366230623,0.3789739628287016,-0.6309829641451872,-0.1904330642956648,-0.777193784943354,-0.312250271338547,-0.3300694973194643,-10.055669535659716,28.493138589323102,14.187048585216736,-0.1181606708355546,5.629809041858269,0.3632114618535886,-1.0,11.831555555555555,0.0,178.3389834472595,1.1381471138150956,94.81484494268074,1962.0,1435.0,1000.0,1528.0,1760.0,1011.0,137.0,293.01,1649153404.9861934,1649153406.1319282,f49f024d-e90d-4820-974c-1d0dcec58c4b
0.7858986810226051,1.4830261010340469,0.3773029828109646,-0.6276546991851738,-0.1886388149069951,-0.7741668439035617,-0.3116750157639662,-0.3357124805174833,-10.161242924829272,28.33215074275905,14.311022021354589,-0.1200502728826637,5.609007323257798,0.3617795695479819,-1.0,11.796444444444443,0.0,178.3224908171436,1.1280434734795832,94.66949472259331,1962.0,1435.0,1000.0,1528.0,1760.0,1011.0,137.0,293.01,1649153406.2447045,1649153407.3520422,f49f024d-e90d-4820-974c-1d0dcec58c4b
0.8058956547060102,1.4962569777267711,0.3853428620708121,-0.6384065013297007,-0.1861460410725506,-0.7797550423374977,-0.3061416053029812,-0.324412817520257,-10.015202726687695,28.411591856164748,14.002790159608844,-0.1074029334557542,5.662164179471745,0.340688139647424,-1.0,11.801666666666668,0.0,178.3227321504943,1.1217879332633345,94.57565020012709,1962.0,1435.0,1000.0,1528.0,1760.0,1011.0,137.0,293.01,1649153407.4611504,1649153408.5820675,f49f024d-e90d-4820-974c-1d0dcec58c4b
-0.2022225152174848,-0.3085691836103024,0.1867685239010351,0.0789755146288099,0.0474186437368574,0.3526656150611053,-0.0369828388342543,-0.063648395933012,-11.948093690962397,29.94403217150385,17.76128752974736,0.8189566323934346,-1.2275498369102995,-0.298755165445112,-1.0,11.842,0.0,179.4221641749841,1.1619312109937798,94.47581692985106,1459.0,1435.0,1000.0,1528.0,1394.0,1011.0,137.0,293.01,1649153409.49296,1649153410.6255329,9cec28bd-c8aa-4667-85ef-eedfa3619e57
-0.2210448758180232,-0.3158935563992436,0.1763333902345598,0.0807040203021819,0.0398471861304036,0.3581551953470086,-0.0463726518466911,-0.0702046649618659,-12.125203152047368,29.936950873913588,17.672489093547657,0.8267235168214251,-1.253854600493793,-0.2619665247385757,-1.0,11.979111111111113,0.0,179.40250764946268,1.1648667782742836,94.46961075435271,1459.0,1435.0,1000.0,1528.0,1394.0,1011.0,137.0,293.01,1649153410.7341435,1649153411.8669002,9cec28bd-c8aa-4667-85ef-eedfa3619e57
-0.2143883476991151,-0.3083467514735098,0.1795520813842001,0.0783345156802002,0.0409703039403627,0.3503892471871317,-0.0446057957284513,-0.0675064427468662,-11.993641980146512,29.887538906855497,17.328807225448482,0.8144615673720091,-1.2229396609136174,-0.2698793701379513,-1.0,11.979,0.0,179.38921761915765,1.1546193245112473,94.44776932720684,1459.0,1435.0,1000.0,1528.0,1394.0,1011.0,137.0,293.01,1649153411.9746225,1649153413.2911215,9cec28bd-c8aa-4667-85ef-eedfa3619e57
-0.457666661854037,-0.7703591988246026,0.1516795855672695,0.2623203811070382,0.1120143528323181,0.641509574245986,0.0386144958456521,0.0166863051782864,-12.27945287773103,31.40819013539853,18.64032829744317,1.062378688307872,-2.989762095015568,-0.5004031579644533,-1.0,11.968333333333334,0.0,179.5503053540027,1.179385768311223,94.41100924909382,1364.0,1435.0,1000.0,1528.0,1312.0,1011.0,137.0,293.01,1649153414.4075136,1649153415.5450325,930548de-eb8e-4670-b241-1e9e975a5222
-0.4711303821035897,-0.7768513704640215,0.1490909360728707,0.2698123982329765,0.1109734143979173,0.6395920562303391,0.0362723843201754,0.0229867221190041,-12.21483712736446,31.44208672818418,18.424577630521387,1.0412635553796583,-3.0137427869271014,-0.4931149646713832,-1.0,11.939,0.0,179.55537335436685,1.1751040579013692,94.26265526359144,1364.0,1435.0,1000.0,1528.0,1312.0,1011.0,137.0,293.01,1649153415.65405,1649153416.9814413,930548de-eb8e-4670-b241-1e9e975a5222
-0.4545849353817836,-0.7700167846727508,0.1602262378654111,0.2689495150996936,0.1201638050292946,0.6335929641526831,0.044613588518364,0.0222881974202368,-12.26386456721328,31.49928602730657,18.48531642378722,1.0306478951126614,-2.9874871288401343,-0.5318400237905622,-1.0,11.941222222222224,0.0,179.5532210858684,1.1730186564805631,94.15629176328645,1364.0,1435.0,1000.0,1528.0,1312.0,1011.0,137.0,293.01,1649153417.090442,1649153418.2068417,930548de-eb8e-4670-b241-1e9e975a5222
-0.7514699927922223,-1.2644272611459118,0.1144901427074685,0.4702412473815581,0.1785111429701367,0.93519225243555,0.1120839313362074,0.0848661304702126,-12.57894616159845,33.42557419532647,18.905601326189096,1.2647175714020682,-4.870971995735169,-0.703508194968487,-1.0,11.938333333333334,0.0,179.73369896885717,1.1840695349606571,93.95460462510496,1262.0,1435.0,1000.0,1528.0,1222.0,1011.0,137.0,293.01,1649153420.3470514,1649153421.484393,edd6fbad-23b3-4c3f-9b3b-1ab8af96fc0d
-0.725435563313981,-1.255065381178838,0.1170146923478244,0.4669803710091866,0.179549889937735,0.9281182544012504,0.1122285669984562,0.0920453184705574,-12.617155765011264,33.36201903885712,18.788444402730025,1.255843573134586,-4.833990008037921,-0.707631854725569,-1.0,11.889,0.0,179.72169756757555,1.182476440768621,93.77360005864016,1262.0,1435.0,1000.0,1528.0,1222.0,1011.0,137.0,293.01,1649153421.5930922,1649153422.7131732,edd6fbad-23b3-4c3f-9b3b-1ab8af96fc0d
-0.7336403531691452,-1.266399567316855,0.1115185374175732,0.4716876038484103,0.1766703255634392,0.935310590685572,0.1086915677726941,0.0886792522326274,-12.683308127852731,33.429796112785056,18.81309684455924,1.2615336100123915,-4.877177219567219,-0.6925514595669644,-1.0,11.89,0.0,179.7217582803682,1.1966532928747922,93.59331114421842,1262.0,1435.0,1000.0,1528.0,1222.0,1011.0,137.0,293.01,1649153422.821492,1649153424.147023,edd6fbad-23b3-4c3f-9b3b-1ab8af96fc0d
-0.785767834368373,-1.3572708396192343,0.1289296023077374,0.5271981071799079,0.20997213675777,0.9631732238148152,0.1328879076570478,0.1108364485841651,-13.035056561663742,34.47865085529821,17.5333455330223,1.206365450206415,-5.209880721984518,-0.8090835047397104,-1.0,11.858666666666668,0.0,179.7570005386656,1.178235936795166,93.3637112996288,1153.0,1435.0,1000.0,1528.0,1121.0,1011.0,137.0,293.01,1649153424.8103516,1649153425.985504,a2187d77-ebfa-4574-ba45-7c407042e7f6
-0.7765637427680696,-1.3470258038355631,0.1381062963350406,0.5260886860345958,0.2168752019681058,0.9525446951404672,0.1400649041712124,0.1119458698263187,-12.900380065903946,34.39162803654842,17.367609927821107,1.1849057362459685,-5.170223034401289,-0.840087021310123,-1.0,11.739333333333333,0.0,179.75488773348235,1.1639587900014952,93.01163477957226,1153.0,1435.0,1000.0,1528.0,1121.0,1011.0,137.0,293.01,1649153426.0945284,1649153427.224644,a2187d77-ebfa-4574-ba45-7c407042e7f6
-0.7643601036464096,-1.343492088289504,0.1399142420417777,0.5235959125991158,0.2176285126896026,0.9497369008402876,0.141297594426485,0.1205883980713252,-12.863090888812664,34.370509458876846,17.146250288730982,1.1841528441266196,-5.154850301629694,-0.8452043155316119,-1.0,11.747444444444444,0.0,179.74214260049112,1.1689111633264142,92.76345757935012,1153.0,1435.0,1000.0,1528.0,1121.0,1011.0,137.0,293.01,1649153427.333604,1649153428.4478135,a2187d77-ebfa-4574-ba45-7c407042e7f6
0.0742814300665567,0.2184437318366923,0.1999566657171466,-0.1155988973150287,-0.0503419146625894,0.0157434342653968,-0.1585030962000038,-0.1845638150878233,-12.06677983698759,28.538748248878377,17.402692583122175,0.4919836867239751,0.7778557664608513,0.0514908725412429,-1.0,11.834,0.0,179.21209260014146,1.143906706406611,92.37887998358302,1553.0,1435.0,1000.0,1528.0,1471.0,1011.0,137.0,293.01,1649153430.388023,1649153431.5252545,0eb07911-390b-4351-84b0-49f411c0afcd
0.0730848987151032,0.2237952509550619,0.2043483300697226,-0.1176106479878121,-0.0469232535274045,0.0128375723387787,-0.1548477583749197,-0.1686538910295856,-12.057965570043947,28.48946975342887,17.503133715942734,0.4899042938535636,0.7974998863487107,0.0364417356923257,-1.0,11.989111111111113,0.0,179.18596181419682,1.1395380178065453,92.77111194468,1553.0,1435.0,1000.0,1528.0,1471.0,1011.0,137.0,293.01,1649153431.6419322,1649153432.9489918,0eb07911-390b-4351-84b0-49f411c0afcd
0.0820188898836394,0.2285583659484618,0.2114102753747243,-0.1223200729687369,-0.0429622086440421,0.0129608413841646,-0.1485352879644576,-0.167806347930466,-11.95879986559046,28.59316035478942,17.617271951782282,0.5019117318369145,0.8146802679565431,0.0131556467707092,-1.0,11.99,0.0,179.19050009544532,1.1526574593938668,93.08603223565166,1553.0,1435.0,1000.0,1528.0,1471.0,1011.0,137.0,293.01,1649153433.0573585,1649153434.1819818,0eb07911-390b-4351-84b0-49f411c0afcd
0.1024815481526282,0.2252301023691455,0.1933171222444749,-0.5099053491817375,-0.1003781847906951,0.3905749470672737,-0.0590830586844695,-0.0807236227875446,-11.764434626094271,27.75111330098313,20.37991692868556,2.218813741581405,0.8228950872173931,-0.0107627943213651,-1.0,11.987444444444444,0.0,179.2084574216832,1.287183643915805,93.61707868471024,1553.0,1537.0,1000.0,1528.0,1471.0,1011.0,137.0,293.01,1649153435.809964,1649153437.0448866,b6b2d875-a0db-43c8-ba64-af0f8231d7a4
0.1080834405454733,0.2266956340603853,0.1933719084778542,-0.5127268409978836,-0.1013643370614001,0.3930129343065718,-0.0578092786872442,-0.0794909321335306,-11.648257194893713,27.73172593531616,20.56589906660142,2.2306191528887163,0.8262716221928027,-0.0108037858579256,-1.0,11.982111111111111,0.0,179.21473664226016,1.2808674146228682,93.75518359190808,1553.0,1537.0,1000.0,1528.0,1471.0,1011.0,137.0,293.01,1649153437.15265,1649153438.281215,b6b2d875-a0db-43c8-ba64-af0f8231d7a4
0.1036687658264653,0.2336962187535652,0.2011400483264715,-0.5157663821044853,-0.0956917700538628,0.3881933896468576,-0.0522090296074148,-0.0807022558547385,-11.667613159928386,27.763669433061235,20.50920631882405,2.2272252309236635,0.85403476722071,-0.0363786042531063,-1.0,11.98,0.0,179.22052864267633,1.2792523476174085,93.85770169571036,1553.0,1537.0,1000.0,1528.0,1471.0,1011.0,137.0,293.01,1649153438.3892255,1649153439.707924,b6b2d875-a0db-43c8-ba64-af0f8231d7a4
0.1367245875438302,0.2237821022653193,0.1832841195231554,-0.9730124902082452,-0.1634470063978305,0.841284271691586,0.0551106310303597,0.0315744645693624,-11.392826258865195,27.25655274123044,24.029980572321435,4.273264843151988,0.8388576068866032,-0.0723970051345274,-1.0,11.975,0.0,179.21882413102347,1.4365703279331832,94.02168618967336,1553.0,1645.0,1000.0,1528.0,1471.0,1011.0,137.0,293.01,1649153440.3113716,1649153441.3707418,0e101d8d-6135-4e07-af1c-9b5db13f5a41
0.1272969725597667,0.2156562083549577,0.179641930811601,-0.9717239172184904,-0.1648013222018677,0.8475956453285495,0.0551237797464835,0.0323370889420303,-11.335162753167294,27.16653579031237,23.950868164514645,4.283778962899547,0.8082825344900674,-0.0666126415315942,-1.0,11.961666666666666,0.0,179.21406880154126,1.4376607628909888,93.99918071635818,1553.0,1645.0,1000.0,1528.0,1471.0,1011.0,137.0,293.01,1649153441.4794896,1649153442.5875022,0e101d8d-6135-4e07-af1c-9b5db13f5a41
0.1210513419732034,0.2227433553093476,0.1795235925448484,-0.974629780820802,-0.1679307121790417,0.8425071003366084,0.0523625535318167,0.0308381374870875,-11.25956434905665,27.26767513951033,23.821638599584706,4.279581266096375,0.8358259232203339,-0.0575964353432055,-1.0,11.966,0.0,179.21786638671983,1.4314426582775346,94.03063373748608,1553.0,1645.0,1000.0,1528.0,1471.0,1011.0,137.0,293.01,1649153442.6967342,1649153443.8068354,0e101d8d-6135-4e07-af1c-9b5db13f5a41
0.1387774276899446,0.2157246911406107,0.1660061853918517,-1.3301105381710627,-0.2263865342248561,1.1958366530235602,0.1278886638966964,0.1083710679021084,-11.223439911504542,27.653053989619085,26.77060165758741,5.8778073558347685,0.8260262943691333,-0.0670246662949015,-1.0,11.959666666666667,0.0,179.22099005990026,1.5471133229698102,94.04950327343312,1553.0,1761.0,1000.0,1528.0,1471.0,1011.0,137.0,293.01,1649153444.923107,1649153446.0567043,594c4e22-3131-489c-989f-6af563902abd
0.1410099666780064,0.2146426630710871,0.1654446265151595,-1.3258509046104126,-0.2253182025264304,1.1905908712477935,0.1262861665618014,0.1049743216028938,-11.304409237640156,27.596752980303474,26.42474977491673,5.855913617297143,0.8250453820059986,-0.0660475784174094,-1.0,11.927222222222222,0.0,179.21856458383502,1.5413026818290294,93.95480270059088,1553.0,1761.0,1000.0,1528.0,1471.0,1011.0,137.0,293.01,1649153446.165341,1649153447.2917511,594c4e22-3131-489c-989f-6af563902abd
0.1389417863654422,0.2177106920455625,0.1671019100500219,-1.3360411538527386,-0.2257701890076933,1.197535026314289,0.1308471204788791,0.108316281636641,-11.153705643198156,27.53624256946616,26.5291111498302,5.894278653584834,0.8359194352947265,-0.0736255424131247,-1.0,11.92077777777778,0.0,179.22081247498184,1.5434751088719167,93.89370817628496,1553.0,1761.0,1000.0,1528.0,1471.0,1011.0,137.0,293.01,1649153447.4004853,1649153448.7374735,594c4e22-3131-489c-989f-6af563902abd
0.1281899881346428,0.2141495869653134,0.1529670620193687,-1.3330826958380466,-0.2476846853123719,1.2009180766665792,0.1036868452915655,0.0840459804053718,-11.50510184922309,28.775222202472023,26.72914205159743,5.90257178978263,0.8220380420227181,0.013283524173073,-1.0,11.912555555555556,0.0,179.21638347676003,1.535862270143572,93.79988262656636,1553.0,1887.0,1000.0,1528.0,1471.0,1011.0,137.0,293.01,1649153449.318226,1649153450.571495,120c03bf-f455-43be-9629-1a6b528679c2
0.1287515470286835,0.2248602952999537,0.1523644134153097,-1.3278369076320289,-0.2503281214950416,1.1849752824529822,0.0998928985838484,0.0856347810384156,-11.242820543215265,28.69371338989961,26.62405697463146,5.854457924417555,0.8605992582594179,0.0245178794172326,-1.0,11.852222222222224,0.0,179.19189497185582,1.5222810555933015,93.63187742791196,1553.0,1887.0,1000.0,1528.0,1471.0,1011.0,137.0,293.01,1649153450.6803634,1649153451.7957897,120c03bf-f455-43be-9629-1a6b528679c2
0.1346076474736063,0.2231772622334156,0.1506359077196986,-1.3454890508552528,-0.2519377413373891,1.2035045347782647,0.1024985318449887,0.0830384615549428,-11.4853094242392,28.624409259659405,26.71840639688485,5.93526202239117,0.8572295243840086,0.0249900309122344,-1.0,11.859222222222222,0.0,179.19217121506225,1.5680159429858709,93.5250403678245,1553.0,1887.0,1000.0,1528.0,1471.0,1011.0,137.0,293.01,1649153451.90481,1649153453.0216134,120c03bf-f455-43be-9629-1a6b528679c2
0.0574335673335072,0.2251890126943081,0.2365023695336271,0.3658663572557707,0.0273970142815792,-0.4516812642445629,-0.2617236595525968,-0.2909795133433675,-12.235677366918011,30.310119105615183,14.644766468893478,-1.631411961648087,0.7718616814765431,0.0430586953541511,-1.0,11.906333333333334,0.0,179.21418263802747,1.03994094638136,93.41672950469618,1553.0,1335.0,1000.0,1528.0,1471.0,1011.0,137.0,293.01,1649153454.958742,1649153456.0937388,0aff14db-2ddd-43af-bbdd-32dff8a2ef28
0.056666560042564,0.2302293460159596,0.2374885217085423,0.361688907196751,0.027794214497018,-0.4528865616678176,-0.2608607762470642,-0.278953933005327,-12.257843412502291,30.221952077002907,14.63694674205064,-1.6252448924629157,0.7915675428435769,0.0405278060451191,-1.0,11.990444444444444,0.0,179.2062747967884,1.0019620708144252,93.79033250428688,1553.0,1335.0,1000.0,1528.0,1471.0,1011.0,137.0,293.01,1649153456.2017765,1649153457.450585,0aff14db-2ddd-43af-bbdd-32dff8a2ef28
0.0617068936182391,0.224202860521393,0.2353655552329622,0.3631818319683148,0.0281229319085067,-0.4498048353034776,-0.2613127627387822,-0.2928696385801645,-12.348636087093704,30.15301259903904,14.422570600714296,-1.6223301075616992,0.7711876118132497,0.04256377713294,-1.0,11.98777777777778,0.0,179.20878527076334,1.005481894966705,94.03240503321086,1553.0,1335.0,1000.0,1528.0,1471.0,1011.0,137.0,293.01,1649153457.5590658,1649153458.5630293,0aff14db-2ddd-43af-bbdd-32dff8a2ef28
0.0304305280447189,0.2289363909472043,0.2710122167010676,0.8126069677675397,0.1017885023513304,-0.8876774027664308,-0.3595072412436751,-0.3913270927798278,-12.750531707819244,32.02207592951113,11.407405725022924,-3.60659895527676,0.7654667301528137,0.0326588799379753,-1.0,11.98,0.0,179.22478309161932,0.8617201444640805,94.50055758257211,1553.0,1236.0,1000.0,1528.0,1471.0,1011.0,137.0,293.01,1649153460.4881852,1649153461.6258156,363dbf41-5dce-45b8-bf23-18fba2e97a94
0.0256969973742008,0.2286471196396841,0.2644904637391709,0.8074526793076515,0.0952273030251797,-0.882049757752863,-0.364148731824892,-0.3902620477068144,-12.729808941964272,31.97005865332411,11.449916371978256,-3.582978434367831,0.764078622131395,0.0571094345689504,-1.0,11.956888888888887,0.0,179.20993729600335,0.8585891727047827,94.6799608491315,1553.0,1236.0,1000.0,1528.0,1471.0,1011.0,137.0,293.01,1649153461.7340045,1649153462.8545654,363dbf41-5dce-45b8-bf23-18fba2e97a94
0.0397135076610988,0.2416643282807316,0.2729056288527826,0.7977226449841419,0.100236956219993,-0.8874933209118383,-0.3572719624701064,-0.3802690366694448,-12.68853027071781,31.890396973956072,11.27524868399004,-3.5733784063245846,0.8158870850282927,0.0303292333057916,-1.0,11.956444444444443,0.0,179.2266317961547,0.860857720430677,94.81444575606923,1553.0,1236.0,1000.0,1528.0,1471.0,1011.0,137.0,293.01,1649153462.96297,1649153464.0791569,363dbf41-5dce-45b8-bf23-18fba2e97a94
0.0278079109830951,0.2435287037345219,0.2838376733722138,1.077868198351952,0.1300253269244098,-1.1566297777580086,-0.4355604112033823,-0.4571598897609119,-12.99817213302692,33.69274796547509,9.669053009676732,-4.798023250284642,0.8055385534090777,0.0857811616549417,-1.0,11.946000000000002,0.0,179.22902995146327,0.7508359186311846,95.0156631290178,1553.0,1133.0,1000.0,1528.0,1471.0,1011.0,137.0,293.01,1649153464.9938934,1649153466.1267822,df638230-2e1b-4c62-aaf1-75522e57b221
0.0242878953904709,0.2439122073585509,0.2819338518544501,1.0717458369398818,0.12751885679625,-1.1510689705024586,-0.4366698326957036,-0.4525167548391492,-13.063911043152578,33.71331292327565,9.700021126425751,-4.771703451339102,0.8078011897437293,0.0933517499925256,-1.0,11.944222222222225,0.0,179.22868085290568,0.7263237333662493,95.1621524728768,1553.0,1133.0,1000.0,1528.0,1471.0,1011.0,137.0,293.01,1649153466.2356873,1649153467.5733356,df638230-2e1b-4c62-aaf1-75522e57b221
0.0323962581498494,0.2497606375655271,0.2834404732082404,1.060199638644365,0.1267381529791715,-1.1472887172712962,-0.4343688103565271,-0.465761330243802,-13.061409380356553,33.67982304348225,9.5557257387465,-4.737332054081315,0.8325140669999317,0.0895036414726215,-1.0,11.94588888888889,0.0,179.22668947330766,0.743500123522065,95.27513897994696,1553.0,1133.0,1000.0,1528.0,1471.0,1011.0,137.0,293.01,1649153467.6872528,1649153468.7938688,df638230-2e1b-4c62-aaf1-75522e57b221
0.0035677412758466,0.241993045659996,0.292181616372074,1.2486308592422373,0.1471120572974864,-1.3191390365943414,-0.4865762689397674,-0.5077062300596673,-13.40386947893628,35.27703913457067,8.526319280699402,-5.5378704252070055,0.7923096397299986,0.1225362023194757,-1.0,11.933,0.0,179.21877252514977,0.6927134989675109,95.45633555061842,1553.0,1026.0,1000.0,1528.0,1471.0,1011.0,137.0,293.01,1649153470.9336147,1649153472.0726488,4c87e2e6-edf5-4f6f-83ad-0f1fa9b533db
0.0201088014066213,0.2455563421616058,0.2830169755813799,1.2627657080661996,0.1390256092395405,-1.3371133227200471,-0.5018682068451179,-0.5322680016228929,-13.456895611985498,35.32831340596788,8.223471084445071,-5.610337204331038,0.806413187723212,0.1678849402765451,-1.0,11.914222222222223,0.0,179.23673288702722,0.6733258765707892,95.51620898888277,1553.0,1026.0,1000.0,1528.0,1471.0,1011.0,137.0,293.01,1649153472.1815827,1649153473.299922,4c87e2e6-edf5-4f6f-83ad-0f1fa9b533db
0.0139815088335601,0.2376802734983822,0.2874217885684453,1.2298545212375958,0.1432726380304522,-1.2958395256558075,-0.4846302615948786,-0.5070093483426621,-13.590053004689572,35.13625621973647,8.771597945984283,-5.444383390622845,0.7772856183927825,0.1310701422596405,-1.0,11.905888888888889,0.0,179.22071837015326,0.6774973197426362,95.53943163206084,1553.0,1026.0,1000.0,1528.0,1471.0,1011.0,137.0,293.01,1649153473.407683,1649153474.524237,4c87e2e6-edf5-4f6f-83ad-0f1fa9b533db
0.0952141542842618,0.2326443231032516,0.2144333796443112,-0.1201089004107006,-0.0411641243833984,0.0086168407991166,-0.1484706402148366,-0.1634733038922494,-12.016670997282583,28.701885036713843,17.869060549627033,0.4880446041182587,0.8281043431018114,0.0072775438125681,-1.0,11.939666666666666,0.0,179.2017972283325,1.076825141838193,95.56804557122368,1553.0,1435.0,1000.0,1528.0,1471.0,1011.0,137.0,293.01,1649153476.4635165,1649153477.605993,4a066057-b44a-4bfe-8f38-e5046623a6e4
0.0822517313474041,0.2275037309784982,0.2102186748184921,-0.115115682697934,-0.0458110929423658,0.009454522331726,-0.1528770973784398,-0.1851324958799268,-11.885653021397175,28.863349032355085,17.889898877467903,0.4795932835916743,0.8068327711179126,0.0251023613518141,-1.0,11.986,0.0,179.21226563160042,1.0799225970528912,95.5555486017723,1553.0,1435.0,1000.0,1528.0,1471.0,1011.0,137.0,293.01,1649153477.7190564,1649153478.8291314,4a066057-b44a-4bfe-8f38-e5046623a6e4
0.0798685301795427,0.2284214003708549,0.2105747853471692,-0.1154307035698989,-0.0445236163698037,0.0065508518728907,-0.1522196624857949,-0.1839682882544794,-11.908116450335443,28.74344408367708,17.569362230962955,0.4729394228950239,0.8133338159275588,0.0216169959411833,-1.0,11.990333333333334,0.0,179.22348839131666,1.083406728723571,95.54495497836962,1553.0,1435.0,1000.0,1528.0,1471.0,1011.0,137.0,293.01,1649153478.9384997,1649153480.059583,4a066057-b44a-4bfe-8f38-e5046623a6e4
0.1510303686734708,0.2646613967790265,0.4186457677168838,-0.1465903764897162,0.1418131328969431,-0.0099228212457785,0.0646828818975742,0.0487992568118718,-10.470144829887486,28.517418102674423,17.82749975710584,0.5158366468946206,0.9538135403750913,-0.8190527667286951,-1.0,11.989666666666668,0.0,179.1826150215035,1.083188044090457,95.47871049142948,1553.0,1435.0,1000.0,1435.0,1471.0,1011.0,137.0,293.01,1649153481.8090343,1649153482.9269116,70027c68-9012-4d52-b67d-263e9a3fa6f4
0.1508199895328464,0.2570220046833109,0.414964133066232,-0.1419357376556881,0.1392096911002975,-0.0075823532631175,0.0628289157210325,0.0404235371962306,-10.33312551251349,28.551039390570672,17.683077769258972,0.5106817752274649,0.9246654832160184,-0.8088538860894449,-1.0,11.990666666666666,0.0,179.1905957180937,1.0945557437411146,95.47112746363094,1553.0,1435.0,1000.0,1435.0,1471.0,1011.0,137.0,293.01,1649153483.0357437,1649153484.1494932,70027c68-9012-4d52-b67d-263e9a3fa6f4
0.1505175695247816,0.2538926151450593,0.411308795805254,-0.1369523814365097,0.1372636841081978,-0.0068065801780384,0.0585818868462788,0.0365578204500376,-10.450250885203207,28.57771132387771,17.979513220872608,0.5011669059036926,0.9102852200946308,-0.7951835840726814,-1.0,11.988888888888887,0.0,179.20089108990263,1.0914414264969023,95.46652315722046,1553.0,1435.0,1000.0,1435.0,1471.0,1011.0,137.0,293.01,1649153484.2581298,1649153485.3895805,70027c68-9012-4d52-b67d-263e9a3fa6f4
0.2407619990006796,0.3074505389543944,0.6895707936519108,-0.1593555700752479,0.3829596610793532,-0.0546727666499853,0.3372816415433366,0.3176270810907732,-8.43837730177228,28.76376018915765,17.833825150145646,0.4602197310105579,1.1186134745520595,-1.898531992889378,-1.0,11.985333333333331,0.0,179.1627695274151,1.0854691731196666,95.3789904884572,1553.0,1435.0,1000.0,1330.0,1471.0,1011.0,137.0,293.01,1649153486.49809,1649153487.6318352,a1f1863e-c534-4d55-a36e-7fcbf5c61835
0.2333110715023258,0.3052180000474356,0.6865849441701903,-0.1596158047117019,0.3800422943224514,-0.0520841169867224,0.3350627991997389,0.3183940883971977,-8.404846431755393,28.78917035776252,17.83626096931616,0.4666608366054962,1.1098243688777976,-1.8875851972150728,-1.0,11.970888888888888,0.0,179.15623379528927,1.0916271104069948,95.34023144164708,1553.0,1435.0,1000.0,1330.0,1471.0,1011.0,137.0,293.01,1649153487.7401297,1649153488.791783,a1f1863e-c534-4d55-a36e-7fcbf5c61835
0.2365434591653612,0.3031224267175527,0.6858453300779086,-0.1626153512838836,0.3803162254763148,-0.0469753004406891,0.3368159585850687,0.3176818673546992,-8.411118928793258,28.68573935258724,17.883124661898865,0.4841891001530898,1.1019144049334126,-1.8896219556326177,-1.0,11.977444444444444,0.0,179.16458180427483,1.1078675571320906,95.31517071867242,1553.0,1435.0,1000.0,1330.0,1471.0,1011.0,137.0,293.01,1649153488.900902,1649153490.099713,a1f1863e-c534-4d55-a36e-7fcbf5c61835
0.3264997113589477,0.3340076164159667,0.9346531559616926,-0.1297468953906287,0.6072769468886376,-0.119674993404446,0.5754571050274777,0.5525520782009411,-6.778615947405807,29.22243089191688,18.014401737625768,0.263469447792106,1.21677006507735,-2.872545422274003,-1.0,11.97725,0.0,179.1223905874068,1.0872878621752655,95.26600322247712,1553.0,1435.0,1000.0,1210.0,1471.0,1011.0,137.0,293.01,1649153491.8229375,1649153492.9626644,359b0159-6259-4479-9520-a0e594aba894
0.3090804292679511,0.3389252284650871,0.9456416301453028,-0.1302092912567339,0.6166366262605694,-0.1264564339576845,0.5848743099480734,0.5566046156941761,-6.723381912047631,29.225467307328973,17.75320077816849,0.2498271450629185,1.2378917777268226,-2.9134202804844773,-1.0,11.961666666666666,0.0,179.12232114715027,1.086804048215581,95.24135306976255,1553.0,1435.0,1000.0,1210.0,1471.0,1011.0,137.0,293.01,1649153493.0706377,1649153494.1846912,359b0159-6259-4479-9520-a0e594aba894
0.3033689647253936,0.3318167150532237,0.92987689241793,-0.1269221169676276,0.6035701106318174,-0.1207449686312642,0.5695204692400943,0.5408946644448627,-6.888808313582814,29.26535602602108,17.885806221829103,0.25466382550819,1.2098226538584071,-2.853049881344948,-1.0,11.96,0.0,179.127326916902,1.0986054885944687,95.25066717106073,1553.0,1435.0,1000.0,1210.0,1471.0,1011.0,137.0,293.01,1649153494.2927392,1649153495.424549,359b0159-6259-4479-9520-a0e594aba894
0.372166773717022,0.363524245920346,1.1691557575276903,-0.0875034190489945,0.8190306531751436,-0.202581912870292,0.7933633047422775,0.7748455593150343,-5.219063504238757,30.095970109278607,17.593009348471025,6.09244896366129e-05,1.329851986010686,-3.7867867940872855,-1.0,11.954333333333333,0.0,179.0920451952893,1.0673668239416056,95.16566774356964,1553.0,1435.0,1000.0,1071.0,1471.0,1011.0,137.0,293.01,1649153497.3523848,1649153498.4905405,c51ef537-91c8-4dc6-9bc0-8183d9175198
0.3756730924476108,0.3593741889719471,1.15929423569992,-0.0842162448303937,0.8117166915715046,-0.2027736647160931,0.7837072318493509,0.7600121877757523,-5.324552466213351,30.032216891450982,17.34433148685302,-0.0087914340644174,1.3162064291782265,-3.750506062578593,-1.0,11.950666666666669,0.0,179.10117336366005,1.072240555227331,95.13314693620148,1553.0,1435.0,1000.0,1071.0,1471.0,1011.0,137.0,293.01,1649153498.5986135,1649153499.7280054,c51ef537-91c8-4dc6-9bc0-8183d9175198
0.3696876967892873,0.3618395693335208,1.1665945011203451,-0.0872568809918297,0.8181814666135615,-0.2031297752749918,0.7907198691713232,0.7688053775147815,-5.362131078239411,30.031631012281142,17.294420641420647,-0.0023999833966585,1.326998590571705,-3.779071669916806,-1.0,11.951,0.0,179.09310615134035,1.0785025580357632,95.11628547587046,1553.0,1435.0,1000.0,1071.0,1471.0,1011.0,137.0,293.01,1649153499.8514822,1649153500.9450867,c51ef537-91c8-4dc6-9bc0-8183d9175198
-0.0007450311456454,0.1758682551234956,-0.0003637188880586,-0.0782697466661024,-0.2310707577494332,0.0345723674359471,-0.3701839845246036,-0.3980592262272783,-13.487724053303006,29.194221274107186,17.449020811058507,0.4437521054430835,0.6105341858025645,0.8660755982396678,-1.0,11.953444444444443,0.0,179.22833327216793,1.1168826004947303,95.24501784570722,1553.0,1435.0,1000.0,1613.0,1471.0,1011.0,137.0,293.01,1649153502.8825324,1649153503.8319652,64530b3f-f8a4-4361-81c1-78b210106963
-0.0003374215390172,0.1865844421698384,0.0029366039234603,-0.0849887307532773,-0.2307946350992554,0.0280374653732231,-0.3676725830739116,-0.3826620996641394,-13.3111611936269,29.09595046494776,17.155935416382558,0.4437787326091885,0.653109149568833,0.858613288139587,-1.0,11.989222222222224,0.0,179.23224621165244,1.1228977915715923,95.22673950057836,1553.0,1435.0,1000.0,1613.0,1471.0,1011.0,137.0,293.01,1649153503.9405458,1649153505.043738,64530b3f-f8a4-4361-81c1-78b210106963
0.0139289140940786,0.181377558654559,0.0034757004813058,-0.0783880849217011,-0.2284804642980951,0.0279717218827723,-0.3680275979234096,-0.3899596280214507,-13.438225813595636,29.17277228823413,17.285763305581433,0.4292343971597068,0.6325516393784306,0.8547224853819556,-1.0,11.991666666666667,0.0,179.23003323036133,1.115499380466097,95.20342958276092,1553.0,1435.0,1000.0,1613.0,1471.0,1011.0,137.0,293.01,1649153505.1516278,1649153506.2740304,64530b3f-f8a4-4361-81c1-78b210106963
-0.0544810148837246,0.1598564308008039,-0.1666284432843011,-0.0445784026062389,-0.3835271743851507,0.0259314825092677,-0.5538987076177022,-0.5723753711737497,-14.723239268513131,29.666867246442084,17.054408225013823,0.3425049890772296,0.5480418170856546,1.558677893461219,-1.0,11.984333333333334,0.0,179.25128877905843,1.0956698827755709,95.1575466486465,1553.0,1435.0,1000.0,1694.0,1471.0,1011.0,137.0,293.01,1649153507.3899376,1649153508.5245826,33f1d5aa-55ab-4107-88c6-024c7e3feb65
-0.049591343304854,0.1615411074626265,-0.1601362739819977,-0.042962208645458,-0.377541777153769,0.0246577025351988,-0.5473106610318336,-0.5784429484317987,-14.651885171467825,29.65237577870233,17.369519980002234,0.3363102472602411,0.5512748596300446,1.5330143515934715,-1.0,11.976777777777777,0.0,179.25838306887636,1.095029576256817,95.09467551624644,1553.0,1435.0,1000.0,1694.0,1471.0,1011.0,137.0,293.01,1649153508.6340506,1649153509.7547913,33f1d5aa-55ab-4107-88c6-024c7e3feb65
-0.0467698521319368,0.1627737976860364,-0.1615333230675804,-0.0434415882198421,-0.3783224811299901,0.0243152885733688,-0.5486118344683978,-0.5648833513782049,-14.699814242867518,29.58364084001431,17.420455396886187,0.3360809374349746,0.5557552790316582,1.5380461085037096,-1.0,11.974333333333334,0.0,179.2621624402171,1.0960088309131328,95.062782327372,1553.0,1435.0,1000.0,1694.0,1471.0,1011.0,137.0,293.01,1649153509.8636348,1649153510.8088274,33f1d5aa-55ab-4107-88c6-024c7e3feb65
-0.1028161724449823,0.1349971776511649,-0.3429579605645861,0.0102078330577557,-0.5430236369589555,0.0111802887339368,-0.7508552908707996,-0.77237259484754,-15.984650836880109,30.32904570472765,17.228012087262695,0.1807751013666092,0.4442813385287079,2.2932619375300782,-1.0,11.96922222222222,0.0,179.28318728030223,1.0850188312372036,95.02199775001804,1553.0,1435.0,1000.0,1774.0,1471.0,1011.0,137.0,293.01,1649153512.917825,1649153514.0041463,11d7757d-6c6f-4c2d-a8c0-42df36a5c64a
-0.110212314502323,0.1330659629440499,-0.3406980280371042,0.0101530468298417,-0.5398871241779106,0.0124129790322052,-0.7484994818539085,-0.7782758138179936,-16.092190820672265,30.3267662431255,17.145500783172142,0.1836988384235318,0.4386805207540971,2.282130384620363,-1.0,11.958555555555556,0.0,179.2873506600563,1.0920138580107794,94.99682850292656,1553.0,1435.0,1000.0,1774.0,1471.0,1011.0,137.0,293.01,1649153514.1131814,1649153515.0793655,11d7757d-6c6f-4c2d-a8c0-42df36a5c64a
-0.1023367928649165,0.1396950971346904,-0.3430949261827442,0.0086190322306734,-0.543187995725473,0.0090984117956655,-0.7521016782672048,-0.7703865926997041,-16.081935523152957,30.27011037510951,17.37426268588865,0.1792576244809829,0.4614796676253003,2.296164035602683,-1.0,11.96,0.0,179.28394011893073,1.0855426925169829,94.95235334669104,1553.0,1435.0,1000.0,1774.0,1471.0,1011.0,137.0,293.01,1649153515.1872902,1649153516.3076718,11d7757d-6c6f-4c2d-a8c0-42df36a5c64a
-0.14489200315549702,0.1210814744464278,-0.47899220869127124,0.06955502168829668,-0.6665529393071806,-0.024869054199447276,-0.9124473687709093,-0.9359095870799764,-17.06387213642724,31.070452303079247,16.785037140501878,-0.03657789172163501,0.38773534830145406,2.8741684261128633,-1.0,11.944555555555556,0.0,179.27719189203071,1.0645652131533003,94.90300371211791,1553.0,1435.0,1000.0,1856.0,1471.0,1011.0,137.0,293.01,1649153517.423339,1649153518.5638964,90a2d77f-0076-42d2-b81e-5be493baae94
-0.16151962661910765,0.11342509834409083,-0.48247113537398256,0.0711712155793975,-0.6677445402945567,-0.01869190613387191,-0.9139813840945991,-0.9329648254616828,-17.15455072362464,31.062929653015686,16.78955043239648,-0.02661077440581271,0.359201421395518,2.8817514886765587,-1.0,11.914111111111112,0.0,179.28799725129772,1.0712358652311371,94.81073240989048,1553.0,1435.0,1000.0,1856.0,1471.0,1011.0,137.0,293.01,1649153518.6715288,1649153519.7966664,90a2d77f-0076-42d2-b81e-5be493baae94
-0.14835723274107912,0.11706838285617827,-0.4744586465738417,0.07040420831669908,-0.6606223271473378,-0.020253313858740907,-0.9061058584952066,-0.9353069388609612,-17.116711994563236,31.031589278477167,17.03584922287317,-0.028139767755943765,0.37101705278925934,2.85073662182185,-1.0,11.918444444444447,0.0,179.2850541986753,1.074800856380897,94.70953936278721,1553.0,1435.0,1000.0,1856.0,1471.0,1011.0,137.0,293.01,1649153519.9048412,1649153520.9534743,90a2d77f-0076-42d2-b81e-5be493baae94
