raw_voltage_G-,raw_voltage_G0,raw_voltage_G1,raw_voltage_G2,raw_voltage_G3,raw_voltage_G4,raw_voltage_G5,raw_voltage_G6,load_x,load_y,load_z,load_l,load_m,load_n,rpm,voltage,current,roll,pitch,yaw,aileron1_pwm,elevator_pwm,throttle_pwm,rudder_pwm,aileron2_pwm,pbaro,pdiff,Tt,sample_start_time,sample_end_time,uid
0.2086983568717816,0.313394844994572,0.502558000561109,-0.218154901613174,0.1942347916308363,0.0129882344932022,0.1816202616554413,0.1595140166879026,-6.643649437931575,27.54480362567444,19.26812663975772,0.7286393782190412,1.1108565854542067,-1.16095219948299,-1.0,11.987777777777776,0.0,179.15238915769646,1.1873072106387856,92.62353356510332,1553.0,1435.0,1000.0,1528.0,1471.0,1011.0,137.0,293.01,1649154113.400502,1649154114.5331662,ee5eeab4-9b1c-459d-b0aa-e7c2dfa5dbd8
0.2080562622346528,0.3108133178009884,0.4983531574573585,-0.2170673947437819,0.1906736865435274,0.01570398815654,0.178629481232053,0.1494525249072248,-6.5956741573639945,27.52844380872435,19.40912319780606,0.7320176911411472,1.0991843452886711,-1.1461756493838395,-1.0,11.988,0.0,179.1622565043174,1.1870771067831534,92.68934926794556,1553.0,1435.0,1000.0,1528.0,1471.0,1011.0,137.0,293.01,1649154114.6414957,1649154115.7665918,ee5eeab4-9b1c-459d-b0aa-e7c2dfa5dbd8
0.1993386769770812,0.308104686546829,0.5002597182402243,-0.2116632800526297,0.1932376822125456,0.013771129764575,0.1804440012493496,0.164573525259895,-6.54293460202415,27.55024601838334,19.478232255248265,0.7157609691398252,1.0874954151617628,-1.155005200909771,-1.0,11.982888888888889,0.0,179.15616397557773,1.185112099304436,92.72960412618392,1553.0,1435.0,1000.0,1528.0,1471.0,1011.0,137.0,293.01,1649154115.8748405,1649154117.2027209,ee5eeab4-9b1c-459d-b0aa-e7c2dfa5dbd8
0.4319522471914059,0.7216837418045443,0.5386276103473047,-0.3098314586569768,0.143680247719734,-0.3022052136794864,0.0976729604924172,0.0742156864976945,-6.236020520844575,26.967857649947987,19.15103124513081,0.2253153721779254,2.6539050850350976,-0.9727829903532572,-1.0,11.987000000000002,0.0,178.8484077941355,1.1601727307671923,92.8031121398514,1647.0,1435.0,1000.0,1528.0,1543.0,1011.0,137.0,293.01,1649154117.795028,1649154118.7485704,d1675ee5-829c-49a3-b406-3912096041b0
0.43483181142706,0.7264961641660642,0.5509347888763207,-0.3105809345075971,0.153870487020144,-0.3061103771084846,0.1093358538828548,0.0873643826711358,-6.110433741524767,26.9830744993359,19.259461866016032,0.2190247737354388,2.670977448690084,-1.0192337343431823,-1.0,11.961111111111112,0.0,178.8550710231258,1.1665944841112124,92.94830222994828,1647.0,1435.0,1000.0,1528.0,1543.0,1011.0,137.0,293.01,1649154118.8828132,1649154120.074446,d1675ee5-829c-49a3-b406-3912096041b0
0.4412483746549243,0.7276401006303692,0.5503430976015049,-0.3219808558873014,0.1516878035094509,-0.297826697219553,0.1116763217729201,0.0958584403797115,-6.037245757904029,26.93815000940861,19.111059576220665,0.2630406507739992,2.677430487496401,-1.0188878552709142,-1.0,11.964,0.0,178.8534621341213,1.1625016118307552,93.05692196940907,1647.0,1435.0,1000.0,1528.0,1543.0,1011.0,137.0,293.01,1649154120.183635,1649154121.3017795,d1675ee5-829c-49a3-b406-3912096041b0
0.6689837723738803,1.1693179247052663,0.6044499774759884,-0.4042391143841975,0.1102957086819356,-0.6580353202600878,0.0290762123782699,0.0042383245211265,-5.494096466909683,26.63488749334748,18.549226714647062,-0.3599740976148213,4.3486787957706845,-0.8662253026021308,-1.0,11.956666666666669,0.0,178.44912555999528,1.1307284018695674,93.2136383831853,1745.0,1435.0,1000.0,1528.0,1614.0,1011.0,137.0,293.01,1649154122.4126194,1649154123.555029,ecd90b31-a7e8-4d1e-bc74-0c0691391de8
0.689392738409173,1.163594954835343,0.5988447983805312,-0.4027982361208139,0.1067685709784399,-0.652308513104813,0.0246440059847393,0.0029760498271724,-5.621222488547647,26.637148783898063,18.716708767674,-0.3506568701489783,4.326096853670719,-0.8480036777915761,-1.0,11.931666666666665,0.0,178.45021990808226,1.1201454862113578,93.41901913588794,1745.0,1435.0,1000.0,1528.0,1614.0,1011.0,137.0,293.01,1649154123.666444,1649154124.819183,ecd90b31-a7e8-4d1e-bc74-0c0691391de8
0.6845649759066182,1.1708300247275194,0.6065537686729484,-0.4113920066699175,0.1110057382704825,-0.6502249919499004,0.0331391595510135,0.0062237776853641,-5.457789020235742,26.63859078360823,18.95705740297992,-0.3260754833929807,4.35149262800961,-0.8751255315898289,-1.0,11.935666666666668,0.0,178.4465331237503,1.123501516261198,93.53260366396545,1745.0,1435.0,1000.0,1528.0,1614.0,1011.0,137.0,293.01,1649154124.9304285,1649154126.0061266,ecd90b31-a7e8-4d1e-bc74-0c0691391de8
0.933272542961065,1.603224920698823,0.6839075411578932,-0.4934398901161576,0.0896391071718495,-1.0044773399813758,-0.0241497109553021,-0.0522879221282478,-4.626301970490504,26.65413505394083,18.15819740046621,-0.9328019339717863,5.989437527831483,-0.818849168316584,-1.0,11.913666666666664,0.0,178.29198871013014,1.070419633909386,93.70293036802776,1849.0,1435.0,1000.0,1528.0,1686.0,1011.0,137.0,293.01,1649154126.8551178,1649154128.056782,8a7ace79-0f65-4145-8c9a-ef43706b3b47
0.9192297364855708,1.602173024849044,0.6827241586108981,-0.4966876189703356,0.0889685236565525,-0.9998095500071622,-0.0220459194937233,-0.0360229844675864,-4.508180942789569,26.509868464049543,18.254689902138068,-0.9159271506746158,5.98412343476929,-0.8191959266024398,-1.0,11.892444444444443,0.0,178.28463183748414,1.0749355866054626,93.82710472495842,1849.0,1435.0,1000.0,1528.0,1686.0,1011.0,137.0,293.01,1649154128.1651576,1649154129.4880188,8a7ace79-0f65-4145-8c9a-ef43706b3b47
0.9235556572103926,1.599464393045015,0.6857615071475728,-0.4953727488895926,0.0927290507550984,-0.99921785806676,-0.0187192992445414,-0.0457267222687228,-4.550674714951545,26.51917606484946,18.15831621314144,-0.9173873765543962,5.975150157618516,-0.8336802186204365,-1.0,11.892222222222223,0.0,178.2841734558998,1.0735474218044614,93.88845803754292,1849.0,1435.0,1000.0,1528.0,1686.0,1011.0,137.0,293.01,1649154129.596649,1649154130.720109,8a7ace79-0f65-4145-8c9a-ef43706b3b47
0.9367388677759584,1.6187179224503505,0.704965724016405,-0.5405171663359,0.0916201773296616,-1.0084739985578102,-0.0131858896017421,-0.0302518023779489,-4.623845352942331,27.69931961103576,13.69880677245221,-0.8283205627115051,6.094200705849135,-0.8711171698643811,-1.0,11.855777777777778,0.0,178.27265320349974,1.0401726392046111,94.00387988650716,1962.0,1435.0,1000.0,1528.0,1760.0,1011.0,137.0,293.01,1649154132.2962077,1649154133.379138,8709e017-f9a1-40c7-bddb-252d684913d7
0.9270926562263668,1.6107065302632717,0.6958465561926491,-0.5343454954861389,0.0851422530247558,-1.003596376934589,-0.0209019830437291,-0.0423212100112962,-4.6617698843432205,27.71153933491228,14.019238414996488,-0.8316227522588286,6.060243793054078,-0.8393723619078312,-1.0,11.792375,0.0,178.2663459032562,1.0779699233424214,93.91602487076057,1962.0,1435.0,1000.0,1528.0,1760.0,1011.0,137.0,293.01,1649154133.4876451,1649154134.6041124,8709e017-f9a1-40c7-bddb-252d684913d7
0.9258638010848697,1.6104451998802451,0.6981996247275429,-0.533956513020562,0.0864291816491321,-1.0059264370837633,-0.0199793827835467,-0.0414966774920307,-4.654300450742732,27.82660466122737,13.7138921042179,-0.8369011226611778,6.062020286426994,-0.8461471586470873,-1.0,11.795555555555556,0.0,178.24892816196274,1.0667315689169252,93.81653159212324,1962.0,1435.0,1000.0,1528.0,1760.0,1011.0,137.0,293.01,1649154134.7135189,1649154135.83859,8709e017-f9a1-40c7-bddb-252d684913d7
-0.0812676495975405,-0.2104798971989427,0.4614579190674346,-0.074706449820882,0.2608351263751833,0.3949781163683971,0.2865145286584687,0.2670807565200735,-6.736213856476083,28.756831710758853,19.609923359150702,1.2694331454895107,-0.8766129440337024,-1.4071986395540526,-1.0,11.899555555555557,0.0,179.33328595895435,1.167339128884319,93.74671415733728,1459.0,1435.0,1000.0,1528.0,1394.0,1011.0,137.0,293.01,1649154136.9567306,1649154138.0903604,9c8e838a-de9e-4580-a525-4f38f8c1c69c
-0.0709305824416314,-0.1983496758367762,0.4753018514135359,-0.0843258173105797,0.2707026744976808,0.3914104370739878,0.3005611704148584,0.2857141016376842,-6.539745350993665,28.656389643434093,19.64066947377276,1.283242321204776,-0.8307200185460891,-1.4579034277584544,-1.0,11.976,0.0,179.34891494959513,1.168413437006584,93.703586825098,1459.0,1435.0,1000.0,1528.0,1394.0,1011.0,137.0,293.01,1649154138.1975768,1649154139.3186808,9c8e838a-de9e-4580-a525-4f38f8c1c69c
-0.0676455996520362,-0.2018806489829602,0.4691104596116763,-0.0809257834300438,0.2653056828522988,0.3920196599528629,0.2949033963475946,0.2715513131396964,-6.478180984222131,28.67099752859141,19.63440546524079,1.276760221811135,-0.845154404792324,-1.4344267297605222,-1.0,11.977666666666666,0.0,179.34150191761597,1.176678985687488,93.64249305970196,1459.0,1435.0,1000.0,1528.0,1394.0,1011.0,137.0,293.01,1649154139.4263327,1649154140.5485675,9c8e838a-de9e-4580-a525-4f38f8c1c69c
-0.3316714465906038,-0.6693300543992706,0.4325176410956227,0.0565832850195233,0.3264602652765888,0.7317161960736109,0.3850771488682503,0.3632634633303827,-6.845133358504595,29.87833465105161,21.00743491745212,1.7361325869351285,-2.6271754321446776,-1.65040098129211,-1.0,11.955375,0.0,179.49319472725762,1.1921741947411122,93.5034780297972,1364.0,1435.0,1000.0,1528.0,1312.0,1011.0,137.0,293.01,1649154142.4822843,1649154143.6168067,9b49c65a-cb63-4e8a-bcff-fea38438e743
-0.3175097507026443,-0.6660872559979615,0.43313015114839,0.0593921752518827,0.3251190983545377,0.7266473741597811,0.3822474400851437,0.3596344233840369,-6.839100979588102,30.062257341311124,21.095412876021697,1.7196729045002666,-2.616139294086386,-1.6449104537028216,-1.0,11.939,0.0,179.50275054136145,1.190659730730302,93.34799882889814,1364.0,1435.0,1000.0,1528.0,1312.0,1011.0,137.0,293.01,1649154143.7247837,1649154145.0553486,9b49c65a-cb63-4e8a-bcff-fea38438e743
-0.330251387191586,-0.6683701992295655,0.4236817179632925,0.0554261997255075,0.3174928550506987,0.7322158464863077,0.374571341383476,0.3537569566856529,-6.966933465741715,29.95471026221276,20.98597063763004,1.7398670696335512,-2.622939476247842,-1.611225477212121,-1.0,11.938125,0.0,179.49550333119709,1.188918062136867,93.22664363254742,1364.0,1435.0,1000.0,1528.0,1312.0,1011.0,137.0,293.01,1649154145.1636486,1649154146.2781432,9b49c65a-cb63-4e8a-bcff-fea38438e743
-0.5994973047539189,-1.1699932458495383,0.3717575205978397,0.2002327883241371,0.3653409573102778,1.095566890308006,0.4538711219885417,0.437816565192395,-7.263794631429485,31.758825254908857,21.80879242356488,2.239073142548608,-4.530612334824267,-1.777738206077224,-1.0,11.903666666666668,0.0,179.6549635837449,1.2173801066675285,92.93144076961724,1262.0,1435.0,1000.0,1528.0,1222.0,1011.0,137.0,293.01,1649154148.4218209,1649154149.5600555,88a89054-d41c-4933-b27f-30a3d4d6e3ac
-0.6029685616333316,-1.169598784643317,0.3717575205847906,0.2058078352877992,0.3660115407606426,1.0900575868574274,0.4535818506881203,0.428060233387495,-7.160409737686514,31.69053910108348,21.80950172490661,2.2137165392495537,-4.530558450551832,-1.7780417660325765,-1.0,11.864333333333333,0.0,179.65635087105633,1.2101073188677054,92.6505424098113,1262.0,1435.0,1000.0,1528.0,1222.0,1011.0,137.0,293.01,1649154149.6700103,1649154150.958553,88a89054-d41c-4933-b27f-30a3d4d6e3ac
-0.6018229810865064,-1.1767911271649951,0.3643049496883465,0.1949881023180965,0.3601685893014613,1.1065761835942742,0.4499906133376982,0.4195568626472112,-7.392832692764657,31.673237897057835,21.69857146242496,2.274622239677972,-4.554046509217077,-1.756088661834476,-1.0,11.866333333333335,0.0,179.65175643047462,1.2093331358980324,92.44002004248344,1262.0,1435.0,1000.0,1528.0,1222.0,1011.0,137.0,293.01,1649154151.067685,1649154152.2211282,88a89054-d41c-4933-b27f-30a3d4d6e3ac
-0.6521441544725547,-1.2770089311653032,0.3775358242816803,0.2661828103259928,0.3927937893707651,1.1280797797625737,0.469398635164646,0.450305634086245,-7.709455566318446,32.73190171904489,20.23136972473484,2.1696294322848537,-4.922588326546955,-1.8604207887320288,-1.0,11.868000000000002,0.0,179.67349464587303,1.2188270869863826,92.23999719372968,1153.0,1435.0,1000.0,1528.0,1121.0,1011.0,137.0,293.01,1649154152.7984707,1649154153.8602517,d1948b7e-b44e-4287-b34d-0c5de2f56355
-0.6605401480670229,-1.282693008087226,0.3744540988241363,0.2648268510779824,0.3911228093459293,1.134119961855569,0.4677687448374925,0.4454433561283463,-7.816828440693008,32.747069780445734,20.103120945925465,2.1861338489887334,-4.942038606508171,-1.8525853663178324,-1.0,11.7385,0.0,179.68100102377088,1.2138216255418213,91.88202356423474,1153.0,1435.0,1000.0,1528.0,1121.0,1011.0,137.0,293.01,1649154153.969466,1649154155.0885055,d1948b7e-b44e-4287-b34d-0c5de2f56355
-0.6542397287591933,-1.2732149810054787,0.3757004855770291,0.2653473203353458,0.3907393057489772,1.122423101225514,0.4656594750064711,0.4402249677567611,-7.775610453444834,32.703832745056665,19.82579095769512,2.1584273685225632,-4.9043098043553535,-1.8499520057935053,-1.0,11.743000000000002,0.0,179.68476445800357,1.196239331236033,91.57240767406348,1153.0,1435.0,1000.0,1528.0,1121.0,1011.0,137.0,293.01,1649154155.1969206,1649154156.316693,d1948b7e-b44e-4287-b34d-0c5de2f56355
0.2093053883226895,0.3162174316002086,0.4971040314267065,-0.2169622051817454,0.1885435978321444,0.0067365771692299,0.1747769133687485,0.1520691155623084,-6.593440724395558,27.509565594986128,18.88173473463655,0.7113591508100333,1.1240190214848271,-1.1361661639410712,-1.0,11.832,0.0,179.12444305925243,1.1219033942910224,91.22382213958272,1553.0,1435.0,1000.0,1528.0,1471.0,1011.0,137.0,293.01,1649154158.4635766,1649154159.506572,3ba5fb75-4f9d-4fb3-a131-e5afe61c40e8
0.2072936378733151,0.3109973995333279,0.5003912051896645,-0.2141746812575995,0.1931850874247795,0.0108258217806409,0.1788267116627638,0.1548040441707279,-6.684318634572188,27.5536792449177,19.128908789293146,0.7147100278018911,1.102759175146282,-1.1530750942151762,-1.0,11.987333333333334,0.0,179.12139224142314,1.134914442199172,91.57448632830088,1553.0,1435.0,1000.0,1528.0,1471.0,1011.0,137.0,293.01,1649154159.6149137,1649154160.718994,3ba5fb75-4f9d-4fb3-a131-e5afe61c40e8
0.2080431135319492,0.3206616906375384,0.5099371577956606,-0.2149767518111372,0.1996936918072862,-0.0004557597859519,0.1862557247687101,0.1639555365717677,-6.471009880336517,27.51966493129774,18.831092117351403,0.6914778225491166,1.140839275036548,-1.184624129128109,-1.0,11.989,0.0,179.1207684174789,1.1468831036330518,91.89093354600702,1553.0,1435.0,1000.0,1528.0,1471.0,1011.0,137.0,293.01,1649154160.8309276,1649154161.9492135,3ba5fb75-4f9d-4fb3-a131-e5afe61c40e8
0.2376117906971322,0.3150521284721747,0.4960384392610155,-0.6083973311825824,0.1455161343658726,0.3886163393389267,0.2827556453446175,0.2613342286369062,-6.245477610609417,26.72994455426517,22.18308219123796,2.4479558561294232,1.136039137208798,-1.228200962901496,-1.0,11.986666666666666,0.0,179.11700725997596,1.273849347818811,92.23951528593824,1553.0,1537.0,1000.0,1528.0,1471.0,1011.0,137.0,293.01,1649154162.862315,1649154164.0005147,b6368b87-8c32-4f80-884f-b0a0ced49ce0
0.2297773595579379,0.3129291620312964,0.4976272399160654,-0.6077809858286831,0.1474473490799505,0.3875617044127371,0.2834952594645061,0.2629641191216196,-6.3322531869065175,26.787107731598592,21.827086994229543,2.4445532514865764,1.1318718805833727,-1.2348878301530395,-1.0,11.98,0.0,179.1128727187984,1.2743870473464396,92.39002229884905,1553.0,1537.0,1000.0,1528.0,1471.0,1011.0,137.0,293.01,1649154164.1092148,1649154165.4311898,b6368b87-8c32-4f80-884f-b0a0ced49ce0
0.2344752789245253,0.3172024880322379,0.5002569789251875,-0.6141772808611258,0.1487759152236235,0.3899996916403871,0.2875220474508937,0.2691001770043941,-6.257694159946219,26.70454823396744,21.95773703985512,2.4641022128537275,1.1471666248252392,-1.245284012290661,-1.0,11.978666666666664,0.0,179.11732448431744,1.274220158314532,92.53594094245736,1553.0,1537.0,1000.0,1528.0,1471.0,1011.0,137.0,293.01,1649154165.5401528,1649154166.6595688,b6368b87-8c32-4f80-884f-b0a0ced49ce0
0.2710122166640821,0.3271177000566818,0.505256222357282,-1.0847107382560814,0.0963975369680733,0.8350649389227932,0.4155821217409869,0.3845380521611528,-5.708663311508034,26.202995268817293,25.52654030467121,4.52340077788001,1.2070797388913843,-1.3603902064867324,-1.0,11.98,0.0,179.1150310585761,1.4275773048158362,92.757056174278,1553.0,1645.0,1000.0,1528.0,1471.0,1011.0,137.0,293.01,1649154168.2956114,1649154169.3225873,06c17497-1a08-407b-8ba9-a4edfade402f
0.2639776645863341,0.3193862671855445,0.5018901564256354,-1.0836193956747315,0.0946750577855933,0.8420600447015112,0.4133599922567867,0.3902708834168577,-5.8336924556986185,26.28231902949076,25.56507545865018,4.536959358505782,1.1782791414192149,-1.351283546844708,-1.0,11.958777777777778,0.0,179.11922175908686,1.4280324017431902,92.74425336413375,1553.0,1645.0,1000.0,1528.0,1471.0,1011.0,137.0,293.01,1649154169.430682,1649154170.5649388,06c17497-1a08-407b-8ba9-a4edfade402f
0.2627022411336138,0.3248166783727799,0.514315673241154,-1.0836719905812446,0.1051414198430175,0.8359984962759275,0.4256277248414535,0.4048264890176485,-5.631489867648157,26.229194263133422,25.54753727030652,4.523822416296568,1.198164071450034,-1.399148003185898,-1.0,11.95988888888889,0.0,179.1114672176492,1.4399987034415755,92.7525194108493,1553.0,1645.0,1000.0,1528.0,1471.0,1011.0,137.0,293.01,1649154170.6729157,1649154171.781596,06c17497-1a08-407b-8ba9-a4edfade402f
0.2927678290261267,0.3237220494771662,0.5040372287504357,-1.4817452943156135,0.0442985676748755,1.2238735078524483,0.5136796051149423,0.48850533262196,-5.596553892148645,26.53116009723532,28.7185737493964,6.295398239455879,1.214071329610637,-1.4268841313434355,-1.0,11.959333333333332,0.0,179.09923814339524,1.5606235913016704,92.79040267562584,1553.0,1761.0,1000.0,1528.0,1471.0,1011.0,137.0,293.01,1649154173.8253186,1649154174.9599087,0707f742-b6e4-4a20-af24-1d591df5a722
0.286987881664572,0.3127784998948728,0.4981477090872268,-1.4720070304920558,0.0420934217168018,1.223572183608851,0.5085296995486275,0.4933402173813155,-5.656301468307316,26.53267811723616,28.384196275827872,6.272387413616902,1.174840495711792,-1.4102730115155455,-1.0,11.94111111111111,0.0,179.1065358210684,1.5792936525226196,92.754538111204,1553.0,1761.0,1000.0,1528.0,1471.0,1011.0,137.0,293.01,1649154175.0683925,1649154176.182825,0707f742-b6e4-4a20-af24-1d591df5a722
0.2879055510400095,0.3181064608363531,0.4975450605714639,-1.473472563971595,0.0396417377420069,1.2219696862606235,0.507118954154265,0.493751114116942,-5.554355442846937,26.552134466129512,28.69795507458313,6.272292575193094,1.1914637671954456,-1.4029659811256117,-1.0,11.937,0.0,179.1056600390349,1.5691755573249573,92.70412903839956,1553.0,1761.0,1000.0,1528.0,1471.0,1011.0,137.0,293.01,1649154176.291138,1649154177.4175408,0707f742-b6e4-4a20-af24-1d591df5a722
0.263767285451871,0.3210167053987608,0.4622468407429957,-1.4531243902523756,-0.0032169861506244,1.1991128707203345,0.451070449889502,0.4251675202819514,-5.760336392471864,27.83461125734543,28.15201793367264,6.1815831310116565,1.203954198685206,-1.2175842043296068,-1.0,11.91425,0.0,179.11262000179912,1.5627127309466706,92.59222834167996,1553.0,1887.0,1000.0,1528.0,1471.0,1011.0,137.0,293.01,1649154179.3531754,1649154180.4822671,74a071e4-35dc-4e2b-a026-2e297ac39314
0.2712368401884201,0.3165861429233762,0.4542639392383055,-1.4290682738653324,-0.006926562093431,1.1813046049869496,0.4368145250633855,0.4085448302925218,-5.952891986640218,27.9147437647266,28.0668529219116,6.087324084819753,1.1859880349370495,-1.1819654915131028,-1.0,11.838555555555557,0.0,179.09921992955745,1.6241298482887698,92.36108734079514,1553.0,1887.0,1000.0,1528.0,1471.0,1011.0,137.0,293.01,1649154180.5911176,1649154181.7090557,74a071e4-35dc-4e2b-a026-2e297ac39314
0.255509904672381,0.3105371951904734,0.4506365429712043,-1.4306269461190404,-0.0083318290668813,1.1891856050650709,0.437001346119452,0.4166734633347852,-5.955845376829395,27.78649722042584,28.128879322430866,6.107527345763017,1.1627317415140763,-1.1759804577963764,-1.0,11.843,0.0,179.0890404812369,1.5856570839366757,92.21062396520406,1553.0,1887.0,1000.0,1528.0,1471.0,1011.0,137.0,293.01,1649154181.8170774,1649154182.9408958,74a071e4-35dc-4e2b-a026-2e297ac39314
0.1808943440446829,0.3226400214222888,0.5145150951157513,0.2703465639906675,0.2490347199988218,-0.4653641294678154,0.0501196050867956,0.0371352672952767,-6.863809715262797,29.271854457455607,16.023580536911112,-1.4368056874994035,1.116488508055976,-1.064698632863936,-1.0,11.895,0.0,179.09721792522072,1.053938600885557,92.01509500146923,1553.0,1335.0,1000.0,1528.0,1471.0,1011.0,137.0,293.01,1649154184.8783734,1649154186.0162156,dcc3c3e1-1d2d-4d79-8e37-95566989c7fb
0.1772751655228443,0.312443756026408,0.5158409218679715,0.2765346687933082,0.2532351803705883,-0.4630532455673885,0.0530068396533089,0.0297599443348673,-6.919775086986451,29.27682633758029,15.758525770391,-1.445543117451928,1.0803138429104713,-1.0779323725226952,-1.0,11.988666666666669,0.0,179.09378006333847,1.0318291006727156,92.3686149681704,1553.0,1335.0,1000.0,1528.0,1471.0,1011.0,137.0,293.01,1649154186.1252325,1649154187.2426722,dcc3c3e1-1d2d-4d79-8e37-95566989c7fb
0.1855785669059782,0.3116142924920466,0.5136796051196826,0.2752636282330807,0.2515274935301855,-0.459543090701384,0.0510920607482308,0.0242878948001764,-7.011060647498535,29.289023759588435,15.960126425641796,-1.4348287501636194,1.076081848784086,-1.0698301055613977,-1.0,11.987333333333332,0.0,179.11130632874875,1.0227737995110615,92.64999751249748,1553.0,1335.0,1000.0,1528.0,1471.0,1011.0,137.0,293.01,1649154187.3506594,1649154188.481855,dcc3c3e1-1d2d-4d79-8e37-95566989c7fb
0.1669797367260772,0.3246062992471646,0.5432822483795043,0.726772286762419,0.318426412418209,-0.908662733420834,-0.055220081160164,-0.0698940267913037,-7.281178028575234,31.029485978724725,12.71562502345521,-3.4501948823461213,1.1017933185732027,-1.0498830715278802,-1.0,11.979333333333331,0.0,179.1283544809171,0.8650445078122219,93.04162234566826,1553.0,1236.0,1000.0,1528.0,1471.0,1011.0,137.0,293.01,1649154189.3301027,1649154190.5244226,a1506ac6-99f7-49c8-8c12-1a8ba765acc8
0.1563950365918043,0.3118783621274423,0.5358532356943414,0.730164650066552,0.3148368185768759,-0.8993271539390095,-0.059874719822744,-0.0914184440477861,-7.439538556583764,31.03118727653701,12.668284513961364,-3.437314827356399,1.0547076270120783,-1.0299286895487691,-1.0,11.959666666666667,0.0,179.1136255574269,0.8600188818942512,93.2532269185246,1553.0,1236.0,1000.0,1528.0,1471.0,1011.0,137.0,293.01,1649154190.633035,1649154191.747854,a1506ac6-99f7-49c8-8c12-1a8ba765acc8
0.1484532242743389,0.316112242037822,0.53289477931398,0.7263909746093067,0.3116153882055361,-0.8986697187831116,-0.0638061801787126,-0.0855541248722315,-7.572021621165079,31.008041625558768,12.83184929049329,-3.4276663576253927,1.0703519402548962,-1.0152839648867724,-1.0,11.959,0.0,179.1055917371432,0.8583681757680438,93.3974433272098,1553.0,1236.0,1000.0,1528.0,1471.0,1011.0,137.0,293.01,1649154191.8586204,1649154192.985077,a1506ac6-99f7-49c8-8c12-1a8ba765acc8
0.1341342944248222,0.3174901157370461,0.5494002265906676,1.0339433373168714,0.350087922913548,-1.1964183116783156,-0.1454946517269089,-0.1687925004463879,-8.041395553850805,32.917241609528425,10.686389698869322,-4.777610072521099,1.0610695293468295,-0.975151138070294,-1.0,11.954666666666668,0.0,179.11587800203318,0.7419088791729289,93.61048148088192,1553.0,1133.0,1000.0,1528.0,1471.0,1011.0,137.0,293.01,1649154193.829862,1649154195.132378,7b993413-8063-496e-881a-a78938a60d58
0.1287104573526051,0.3179284055879197,0.5456062802182317,1.032354536655402,0.3468007490832028,-1.1951308343474152,-0.1476450116231277,-0.1694773280462261,-7.972155654606254,32.800186594251606,10.700626751463965,-4.772060755986416,1.0620502513643213,-0.9622850224903272,-1.0,11.942333333333332,0.0,179.11595996430324,0.7497069156347064,93.79935442527056,1553.0,1133.0,1000.0,1528.0,1471.0,1011.0,137.0,293.01,1649154195.2410104,1649154196.3559537,7b993413-8063-496e-881a-a78938a60d58
0.1407908217261265,0.3225578420771664,0.5469485428350537,1.0365593798217445,0.3475266666438283,-1.203745976520347,-0.150521289113511,-0.1808043830106449,-8.086121932407515,32.89090673798434,10.66481641562472,-4.80030007233796,1.0801063889265183,-0.9605786030192304,-1.0,11.936666666666667,0.0,179.1093301273489,0.7384585664250147,93.93510215829484,1553.0,1133.0,1000.0,1528.0,1471.0,1011.0,137.0,293.01,1649154196.464681,1649154197.4095895,7b993413-8063-496e-881a-a78938a60d58
0.1084022964288884,0.3101295856364994,0.5325660619237427,1.1760106111514053,0.342633160496575,-1.3247666841328662,-0.211518644413019,-0.2329247244005566,-8.54398415945274,34.29623351422958,9.680370863924416,-5.378605046461255,1.027401252771263,-0.8500278678156681,-1.0,11.92688888888889,0.0,179.12266721006822,0.721338809921067,94.1323086923808,1553.0,1026.0,1000.0,1528.0,1471.0,1011.0,137.0,293.01,1649154199.3150556,1649154200.4552658,a1a6a464-aa24-4b13-b212-bdcb7d258a68
0.1232603228907722,0.3235938496948412,0.5325660619126137,1.1714611624041011,0.338806890132936,-1.3328399916518148,-0.2140826405759025,-0.2479142403235811,-8.371086630386568,34.276129013499315,9.8019521892977,-5.386511266855274,1.0761589243244876,-0.8392758352763982,-1.0,11.889777777777775,0.0,179.1275227156582,0.6721830471844288,94.17965404588752,1553.0,1026.0,1000.0,1528.0,1471.0,1011.0,137.0,293.01,1649154200.563346,1649154201.6821215,a1a6a464-aa24-4b13-b212-bdcb7d258a68
0.1352519336396034,0.3113655629997454,0.5369708747404732,1.1920914662953703,0.3471168655688085,-1.340571432135498,-0.2103878565943275,-0.2319911667928507,-8.313124650460312,34.33209870642925,9.730438956962487,-5.449813619977144,1.028259152686041,-0.8632411875412132,-1.0,11.893,0.0,179.11839151164776,0.6446101486165018,94.18748220158626,1553.0,1026.0,1000.0,1528.0,1471.0,1011.0,137.0,293.01,1649154201.7903187,1649154202.9105222,a1a6a464-aa24-4b13-b212-bdcb7d258a68
0.2171420109343611,0.3203987167276571,0.5111731351278914,-0.2132805698236995,0.199759435279576,0.001490247279695,0.1865449960757935,0.1690440819459948,-6.452070633445049,27.67038292976929,19.29681746177552,0.6931690333525874,1.1354632778196336,-1.1862190038209726,-1.0,11.901111111111112,0.0,179.12975239296722,1.1078325168386924,94.2505658287605,1553.0,1435.0,1000.0,1528.0,1471.0,1011.0,137.0,293.01,1649154204.8472328,1649154205.9961977,856b49a8-fa8e-4198-bb71-09a30a31ddd1
0.2152354500409403,0.3212007871438812,0.5093060204331126,-0.2095463396808511,0.1970771013599979,-0.0045318556808649,0.1819035064816356,0.1596822104794899,-6.445812706369124,27.79399668929716,19.014866900571416,0.6718977418368697,1.1403501258111244,-1.1737262237794672,-1.0,11.984666666666666,0.0,179.11711654300268,1.0868934810050257,94.2855204602029,1553.0,1435.0,1000.0,1528.0,1471.0,1011.0,137.0,293.01,1649154206.1051216,1649154207.220172,856b49a8-fa8e-4198-bb71-09a30a31ddd1
0.2200741700627583,0.319714984569065,0.5163274235822937,-0.2077712655152414,0.2039933152919536,-0.002480659023505,0.1895297500108506,0.1586566118270465,-6.419104702455751,27.829519513973533,19.387469228561905,0.6731608653756256,1.1315132374162875,-1.2032100456026606,-1.0,11.988555555555555,0.0,179.12371450574094,1.0886315625633496,94.2955874001296,1553.0,1435.0,1000.0,1528.0,1471.0,1011.0,137.0,293.01,1649154207.332904,1649154208.4395893,856b49a8-fa8e-4198-bb71-09a30a31ddd1
0.2867961298493252,0.3536627244586583,0.733783280498664,-0.2222638696415739,0.4002995028957986,-0.0360865360307085,0.4114211075796246,0.3887122150464526,-4.889974312755531,27.72611863480503,19.12633009211568,0.6412062279773518,1.2658977005734091,-2.078204364657665,-1.0,11.98788888888889,0.0,179.09634821446642,1.0859353928203563,94.25310590022184,1553.0,1435.0,1000.0,1435.0,1471.0,1011.0,137.0,293.01,1649154210.3742783,1649154211.5124004,45d7f373-8e6c-4e65-8880-db38fcf4b936
0.2841740608504068,0.3525472768091665,0.7472842509371987,-0.2188030228744664,0.4145433748214911,-0.0398098086584813,0.4251017770388169,0.4059309794337387,-4.890868013270929,27.67256117217712,19.000086113526294,0.6253293602639419,1.2632681932125285,-2.135748024595033,-1.0,11.981555555555556,0.0,179.07228318129074,1.0798593347972971,94.24060893077043,1553.0,1435.0,1000.0,1435.0,1471.0,1011.0,137.0,293.01,1649154211.6217344,1649154212.739395,45d7f373-8e6c-4e65-8880-db38fcf4b936
0.2802557495798324,0.351048325542069,0.734490570718341,-0.2173303686835627,0.4028147387057753,-0.0373510023552847,0.4120582714250925,0.3887061887198304,-4.959999184062132,27.687026446654887,19.23419116666,0.6269940502998206,1.255068519823637,-2.083655389260938,-1.0,11.981333333333334,0.0,179.08375789909638,1.0880529056166357,94.25444992966852,1553.0,1435.0,1000.0,1435.0,1471.0,1011.0,137.0,293.01,1649154212.8478613,1649154213.968407,45d7f373-8e6c-4e65-8880-db38fcf4b936
0.3826309436807868,0.4058876983613191,1.0554880226563863,-0.2014724915053952,0.6921320498584235,-0.1222105004996654,0.724949001059484,0.7015552812438194,-2.717386302007537,28.00820840244018,19.309844035499097,0.4197855593786677,1.462608867523968,-3.352442809083399,-1.0,11.972444444444443,0.0,179.02512451962136,1.0691828004871828,94.21856183903954,1553.0,1435.0,1000.0,1330.0,1471.0,1011.0,137.0,293.01,1649154215.9022224,1649154217.0427315,09fe2835-3c2f-4ead-9af4-02351ddffbc4
0.3815078259572828,0.4006282202808153,1.057857527162406,-0.1995823662494893,0.6949261475392113,-0.1191835608789175,0.7280992092313731,0.697021720816258,-2.710132560436746,28.086471483489166,19.2752731386335,0.4229587788488906,1.4430565141393077,-3.3646592235182964,-1.0,11.96577777777778,0.0,179.01229590654026,1.0684181276072915,94.2079029493848,1553.0,1435.0,1000.0,1330.0,1471.0,1011.0,137.0,293.01,1649154217.151038,1649154218.2692168,09fe2835-3c2f-4ead-9af4-02351ddffbc4
0.3806854846477353,0.4042873925824583,1.0556343019044157,-0.2018937977254941,0.6924410441910943,-0.1229095729011974,0.7253259303175577,0.697253466564022,-2.7067003726298475,28.006871911050524,18.93460766846185,0.419109002107657,1.459917948419774,-3.3543182797817845,-1.0,11.959,0.0,179.01551520236904,1.0763238699861368,94.19624988775084,1553.0,1435.0,1000.0,1330.0,1471.0,1011.0,137.0,293.01,1649154218.378009,1649154219.5065224,09fe2835-3c2f-4ead-9af4-02351ddffbc4
0.4356996253116265,0.4190928233555583,1.262266057082821,-0.1221469484575615,0.8854244411967458,-0.2242597323469219,0.907935007312134,0.8795206771958596,-1.5334337345333229,28.99643417112303,18.509076133716167,0.0288438774966469,1.514212287590827,-4.156522016685886,-1.0,11.961333333333332,0.0,178.95172882462015,1.043656415136272,94.12220456586864,1553.0,1435.0,1000.0,1210.0,1471.0,1011.0,137.0,293.01,1649154220.306638,1649154221.4410365,ef1603ac-649c-444f-98cb-2479d74bf95b
0.4290200881743511,0.4099150341185049,1.2513263418007978,-0.1207926326647401,0.8766937076093797,-0.21526602316934,0.8987046232825009,0.8712238504728177,-1.6479521288869676,29.06391985986881,18.608597643433946,0.0458598029196956,1.4788593539530417,-4.11764236087186,-1.0,11.939,0.0,178.95305539913898,1.0507654088336549,94.11436957998072,1553.0,1435.0,1000.0,1210.0,1471.0,1011.0,137.0,293.01,1649154221.5491326,1649154222.6217682,ef1603ac-649c-444f-98cb-2479d74bf95b
0.4270625761878788,0.4166531925319274,1.2659356390186831,-0.1254154954202646,0.8877736747132975,-0.2167578524684437,0.9133177543837516,0.8993198727883552,-1.4536106531360342,29.097676141946007,18.84085084887621,0.0540215780524687,1.502193486657676,-4.172229331595824,-1.0,11.941,0.0,178.95792760074696,1.060871563058237,94.08258870977266,1553.0,1435.0,1000.0,1210.0,1471.0,1011.0,137.0,293.01,1649154222.7299416,1649154223.901363,ef1603ac-649c-444f-98cb-2479d74bf95b
0.4655362059807622,0.4245150165194309,1.382657713564148,-0.0481669010996513,0.9985788252677285,-0.3061279086729346,1.0054681937887582,0.9896897595515792,-0.8301293708351078,29.92344246244925,18.134815100945733,-0.3095713907283153,1.5314274425270442,-4.612727670451423,-1.0,11.934666666666663,0.0,178.93988375877956,1.0435424363544972,94.01231137558256,1553.0,1435.0,1000.0,1071.0,1471.0,1011.0,137.0,293.01,1649154224.818352,1649154225.9555044,5f93d0a0-c0f8-4185-9fd4-029209d75736
0.4639611018817684,0.4293909909724154,1.388163730317138,-0.0517553995922136,1.0022084130369484,-0.3068401298269997,1.0093991058369258,0.9911552911829352,-0.8813500912197115,29.996507534482053,18.27863057254136,-0.3023214114700059,1.5495953182747668,-4.630077827289013,-1.0,11.919666666666666,0.0,178.9387484295575,1.0343299459781945,93.97656368328654,1553.0,1435.0,1000.0,1071.0,1471.0,1011.0,137.0,293.01,1649154226.0632858,1649154227.1781197,5f93d0a0-c0f8-4185-9fd4-029209d75736
0.4617696527038079,0.4336643168963059,1.3954229066904875,-0.0531798417374781,1.0080020569397192,-0.3103053597015255,1.016439136490302,0.9883064071522384,-0.7719029899930175,29.96388091670245,18.24966513527933,-0.3066994048406175,1.5657399879765797,-4.65733388020552,-1.0,11.909666666666666,0.0,178.9445677507304,1.0392179068246905,93.9098395652847,1553.0,1435.0,1000.0,1071.0,1471.0,1011.0,137.0,293.01,1649154227.2865772,1649154228.5106084,5f93d0a0-c0f8-4185-9fd4-029209d75736
0.1206305837080754,0.2682246932584883,0.2561015959873952,-0.1662476789660513,-0.0278839407647342,0.0194645153109279,-0.0819645304824016,-0.0949028488453214,-8.31837628916928,28.202751532159663,18.72956795433068,0.6172633374056704,0.936063836598632,-0.1543939323315425,-1.0,11.950444444444445,0.0,179.0573523877651,1.1076809720164829,93.9663259886306,1553.0,1435.0,1000.0,1613.0,1471.0,1011.0,137.0,293.01,1649154230.444888,1649154231.591221,9f0d82cc-f583-43e3-9648-6ebf7b9b3856
0.1224451037308914,0.2689347228115584,0.2551285925110621,-0.1653009727315033,-0.0280548738257031,0.0193593257449694,-0.083213656686349,-0.1125221025631648,-8.397583991823096,28.16279887015854,18.9296703999711,0.6145701513312636,0.9373350682339016,-0.1507188681427827,-1.0,11.987000000000002,0.0,179.0544746013948,1.1264153745680507,93.96993384633218,1553.0,1435.0,1000.0,1613.0,1471.0,1011.0,137.0,293.01,1649154231.6997688,1649154232.807914,9f0d82cc-f583-43e3-9648-6ebf7b9b3856
0.1311495404518718,0.2780862148732012,0.2643721254715063,-0.1714282657056516,-0.0218486890226889,0.0142181854620206,-0.0744171784773867,-0.0969540451559708,-8.231590775828293,28.09712414302865,18.740909679402765,0.6169173621487228,0.9734961276658848,-0.1833657661791439,-1.0,11.987333333333334,0.0,179.0550695867625,1.1211474844489726,93.96683749390846,1553.0,1435.0,1000.0,1613.0,1471.0,1011.0,137.0,293.01,1649154232.915408,1649154234.0468028,9f0d82cc-f583-43e3-9648-6ebf7b9b3856
0.0642133638229467,0.2483088024393013,0.0901546456466429,-0.120566913380985,-0.1769145596584573,0.0072082866763071,-0.2666270281513072,-0.2952391434231228,-9.685635507246312,28.6569237148877,18.84487356921583,0.4807551888409263,0.8538855818497625,0.5347259473724055,-1.0,11.987444444444444,0.0,179.08133849431036,1.1096733476837497,93.99330371803234,1553.0,1435.0,1000.0,1694.0,1471.0,1011.0,137.0,293.01,1649154235.7947018,1649154236.9183826,825d0ff1-6f11-428f-8eee-678401f8ad72
0.0671444273291034,0.2485279473597314,0.0911955840782603,-0.1215804587703043,-0.1752983656054625,0.0089477496426474,-0.2657504482953687,-0.2805427339419189,-9.810008194243771,28.64607027608328,18.998083743497915,0.4868920040334553,0.854420484945254,0.5300088528224758,-1.0,11.987666666666666,0.0,179.0845228802834,1.1102436566214782,93.99398521912951,1553.0,1435.0,1000.0,1694.0,1471.0,1011.0,137.0,293.01,1649154237.0312853,1649154238.1425946,825d0ff1-6f11-428f-8eee-678401f8ad72
0.062199969700843,0.2393923432575062,0.0894698177250565,-0.1171016838355759,-0.1759968901489954,0.0110981093743037,-0.2655176067569477,-0.2804742510911061,-9.664756498526213,28.70110596045465,18.610617350355085,0.4819113887033282,0.8219025601595128,0.5314475257009353,-1.0,11.98875,0.0,179.0776306502284,1.1174391052762656,93.99624288124144,1553.0,1435.0,1000.0,1694.0,1471.0,1011.0,137.0,293.01,1649154238.2561057,1649154239.378544,825d0ff1-6f11-428f-8eee-678401f8ad72
0.0104817641696,0.2219018387896839,-0.0811071258694472,-0.0709990651675647,-0.3305762695475965,-0.0050912231477047,-0.4565298470998437,-0.4854432898001414,-11.00312061349328,29.206582532076958,18.516936757847954,0.3357042250350723,0.7501241199591849,1.2434784538686254,-1.0,11.973333333333334,0.0,179.10252270547613,1.1070838047827989,93.99616404947476,1553.0,1435.0,1000.0,1774.0,1471.0,1011.0,137.0,293.01,1649154241.5042927,1649154242.6419804,c262b1c9-57bc-455b-b19c-2bd817e20ff4
0.013974386670112,0.2143961250251366,-0.0890100405554176,-0.0678899462193083,-0.3364110044483694,-0.0008589864533965,-0.4638438110948986,-0.4887715542162702,-11.111709120328982,29.263286817627293,18.42147892020058,0.3381137253262789,0.722704892997768,1.2714968656978574,-1.0,11.967555555555556,0.0,179.11676289098568,1.1054797063971,93.92329959140903,1553.0,1435.0,1000.0,1774.0,1471.0,1011.0,137.0,293.01,1649154242.7501898,1649154243.866515,c262b1c9-57bc-455b-b19c-2bd817e20ff4
0.0109748402876186,0.2201075896911308,-0.082243940276831,-0.0706566512077928,-0.3310830422876489,-0.0045981470484091,-0.4570092267486842,-0.4751982613143861,-10.997938638398026,29.177426086732805,18.376119824961147,0.3357701049396202,0.7444912541896302,1.24600371266161,-1.0,11.96,0.0,179.12146509677427,1.110112246627759,93.87564763829964,1553.0,1435.0,1000.0,1774.0,1471.0,1011.0,137.0,293.01,1649154243.9750044,1649154245.1037006,c262b1c9-57bc-455b-b19c-2bd817e20ff4
-0.04275676032757764,0.19481004707519567,-0.23453598747971346,-0.01125467464695439,-0.4677610277983895,-0.02545800624741401,-0.6313801642090474,-0.6649367458430746,-12.215037505207478,29.94881789273499,18.402543925337707,0.151820988366191,0.6410351428781831,1.8843513210101686,-1.0,11.961777777777778,0.0,179.1458564612103,1.0800590585406837,93.83498069198134,1553.0,1435.0,1000.0,1856.0,1471.0,1011.0,137.0,293.01,1649154246.7946777,1649154247.9679499,be85e1eb-2ebc-40f8-8310-c522eada17cf
-0.04212671859933607,0.19930251810613023,-0.22288021481565937,-0.015212980187149354,-0.45887195917013646,-0.02852603545449219,-0.6193819748015761,-0.6410773313177868,-12.005918069387134,29.948243734992733,18.16409886462821,0.1544995139732923,0.6597441334741418,1.8395921766171324,-1.0,11.951555555555554,0.0,179.15050706112515,1.090573126840697,93.76097103886482,1553.0,1435.0,1000.0,1856.0,1471.0,1011.0,137.0,293.01,1649154248.076232,1649154249.1940129,be85e1eb-2ebc-40f8-8310-c522eada17cf
-0.04075651481817141,0.203967017909896,-0.2265213084091475,-0.02287428737906429,-0.4631058404074768,-0.02438638749216369,-0.6218500955767943,-0.6435848980403023,-12.038640423031591,29.84369595229617,18.377182092870225,0.18022702073791952,0.6762925651469712,1.8546539552113765,-1.0,11.949333333333334,0.0,179.15426518298852,1.0849257936256969,93.7097408255402,1553.0,1435.0,1000.0,1856.0,1471.0,1011.0,137.0,293.01,1649154249.3023243,1649154250.4216564,be85e1eb-2ebc-40f8-8310-c522eada17cf
