raw_voltage_G-,raw_voltage_G0,raw_voltage_G1,raw_voltage_G2,raw_voltage_G3,raw_voltage_G4,raw_voltage_G5,raw_voltage_G6,load_x,load_y,load_z,load_l,load_m,load_n,rpm,voltage,current,roll,pitch,yaw,aileron1_pwm,elevator_pwm,throttle_pwm,rudder_pwm,aileron2_pwm,pbaro,pdiff,Tt,sample_start_time,sample_end_time,uid
0.3768372998465104,0.4228029468359031,0.9247269868022302,-0.3000192426365828,0.5467567910168188,-0.0338266037950653,0.6472073420611896,0.62733363743377,0.8947504177924207,26.21736901915733,20.528967425545986,0.8243231786575264,1.4934937485908046,-2.859344014173287,-1.0,11.984222222222222,0.0,178.98691492358446,1.2920784942413075,90.56366310682355,1553.0,1435.0,1000.0,1528.0,1471.0,1011.0,137.0,293.01,1649154878.7788785,1649154879.8828628,20aad18f-335f-482d-ba13-399ee2447c2f
0.3735501260077029,0.4159957577704212,0.9325203280172372,-0.3011012711122733,0.5551527806482618,-0.0248142680930168,0.6568086286977302,0.6423724573446113,0.7951602337578935,26.31839999890543,20.786458326654387,0.8480646087793247,1.467014380899722,-2.8956541244046377,-1.0,11.983888888888888,0.0,178.9936115446107,1.303516594643879,90.46019105326724,1553.0,1435.0,1000.0,1528.0,1471.0,1011.0,137.0,293.01,1649154879.9916508,1649154881.1105206,20aad18f-335f-482d-ba13-399ee2447c2f
0.371071049108798,0.4116813421728343,0.9276717466549432,-0.3004301394507603,0.5529339383672688,-0.0239650813209725,0.6516998128426831,0.6237040497944409,0.5472374620428017,26.27996152583422,20.35778453163158,0.8477695648869773,1.455996103959656,-2.880027334935912,-1.0,11.984111111111112,0.0,178.97699597108982,1.2940240665116052,90.38129022579506,1553.0,1435.0,1000.0,1528.0,1471.0,1011.0,137.0,293.01,1649154881.218961,1649154882.3463,20aad18f-335f-482d-ba13-399ee2447c2f
0.5902362381951448,0.807676207134229,0.9908375309132303,-0.361821412595545,0.5321584523770783,-0.3598491079453219,0.5932735867419678,0.5713284147876254,1.3253519191357603,25.7720879216525,19.75148083560456,0.2315504939106192,2.95263830238091,-2.8073711999786632,-1.0,11.9695,0.0,178.55487358436503,1.259933246484782,90.3127022250597,1647.0,1435.0,1000.0,1528.0,1543.0,1011.0,137.0,293.01,1649154883.456668,1649154884.5974047,b2911eb0-e907-4d3d-9747-c0c6181b7b66
0.5987039977650385,0.8168145501814046,0.9901012039454145,-0.3618871558906456,0.5304096759465722,-0.3663182673220987,0.589407870416565,0.5749969006815797,1.2394177353390203,25.74722789697012,20.07895406342138,0.216969209553801,2.9845794725392216,-2.796964508885265,-1.0,11.959,0.0,178.5472328794135,1.2462355451926517,90.405254323953,1647.0,1435.0,1000.0,1528.0,1543.0,1011.0,137.0,293.01,1649154884.706332,1649154885.822677,b2911eb0-e907-4d3d-9747-c0c6181b7b66
0.5934209616983138,0.8126206643252049,0.9883201036045324,-0.3741587267412162,0.5275268245572581,-0.3525455534395759,0.5907638295862987,0.5666989783615124,1.188679364292345,25.824549793861447,19.844126069147848,0.2759609098443336,2.972689531119522,-2.7935542021780453,-1.0,11.958333333333334,0.0,178.55032012491836,1.2502301623559855,90.49048521896594,1647.0,1435.0,1000.0,1528.0,1543.0,1011.0,137.0,293.01,1649154885.9311836,1649154887.0506442,b2911eb0-e907-4d3d-9747-c0c6181b7b66
0.8315082169344793,1.2416516407245972,1.0670205245086004,-0.4082083785145139,0.5160354129266876,-0.7494582421888202,0.5268967828783223,0.5084886097327256,2.07204773169096,25.57371607922089,18.77834663978194,-0.5366165039616232,4.594187427296027,-2.7434149932033733,-1.0,11.949333333333334,0.0,178.40657955274537,1.2008394636420363,90.67078172248678,1745.0,1435.0,1000.0,1528.0,1614.0,1011.0,137.0,293.01,1649154888.7810366,1649154890.123036,a84f1f87-613f-4d0c-9b45-0358c2e6252d
0.8273335062509152,1.2468557850758917,1.0660349201099053,-0.410708274563007,0.5151966357914474,-0.7523904022978235,0.5254920639975721,0.5026527807068178,2.0222094525003067,25.44451487058533,18.75178769268875,-0.5385011941386908,4.614537384553122,-2.7383405436614456,-1.0,11.930888888888887,0.0,178.4028062526839,1.1967078158084792,90.71521437976745,1745.0,1435.0,1000.0,1528.0,1614.0,1011.0,137.0,293.01,1649154890.2322848,1649154891.351083,a84f1f87-613f-4d0c-9b45-0358c2e6252d
0.8436115907381934,1.2450018189293457,1.0654169314510589,-0.413377460651721,0.5151703383931295,-0.7486956173308079,0.5264782160910828,0.5048223153349273,2.005095742943487,25.3921536995852,18.671569963147125,-0.5245767711338872,4.608704547385688,-2.7392177613799094,-1.0,11.928875,0.0,178.38548489294874,1.219005632400155,90.80112990638096,1745.0,1435.0,1000.0,1528.0,1614.0,1011.0,137.0,293.01,1649154891.460081,1649154892.5765712,a84f1f87-613f-4d0c-9b45-0358c2e6252d
1.0685819320319854,1.6608211498070788,1.1553633235586145,-0.4234526514422961,0.5177885722758626,-1.1555066598488075,0.4714531187500665,0.4410056715559716,2.955462662741501,25.355202951873945,17.571212939206564,-1.411471573898613,6.178247793933969,-2.7376930449081223,-1.0,11.915888888888889,0.0,178.2461141240247,1.1292125623345497,90.90129150005582,1849.0,1435.0,1000.0,1528.0,1686.0,1011.0,137.0,293.01,1649154893.491246,1649154894.6283,577aad2e-b886-4660-be72-7aedf7573001
1.0733061487418158,1.6631040925701814,1.1620072500421454,-0.4269469180683458,0.5228754736547958,-1.1565026738129704,0.4777885982571939,0.4565271582569475,2.992090052323259,25.38910254736341,17.339704792820957,-1.4052904596034914,6.189454811953364,-2.7627675867045163,-1.0,11.890888888888888,0.0,178.24330160390647,1.1126167323292018,90.9920859636027,1849.0,1435.0,1000.0,1528.0,1686.0,1011.0,137.0,293.01,1649154894.737077,1649154895.8619082,577aad2e-b886-4660-be72-7aedf7573001
1.0703871383479746,1.6570162451996178,1.1576155856095711,-0.4305233643208106,0.5188914190595615,-1.144629392747444,0.477972680039201,0.4577499869689241,3.133408346495528,25.358263999006585,17.69463842252628,-1.370837418720462,6.162637104957508,-2.7517728337021508,-1.0,11.895777777777775,0.0,178.222222122308,1.107669552793964,91.0350782098784,1849.0,1435.0,1000.0,1528.0,1686.0,1011.0,137.0,293.01,1649154895.9716427,1649154897.0852804,577aad2e-b886-4660-be72-7aedf7573001
1.1055352454160687,1.723441827728817,1.175949250983917,-0.4552971575568558,0.5103787346206072,-1.216250945458763,0.458838589186146,0.4347326481269502,2.902148449594472,26.644647792332588,13.50767422691125,-1.467240351725798,6.454753441641654,-2.7367009271665546,-1.0,11.874222222222222,0.0,178.1733164500309,1.1115908521454267,91.08359152573318,1962.0,1435.0,1000.0,1528.0,1760.0,1011.0,137.0,293.01,1649154897.7918122,1649154898.8719418,a78dee4b-18c7-4751-b92a-607fb46f407e
1.1220817410791375,1.7508676124457938,1.1785705612048756,-0.4548894228913853,0.5101237680167876,-1.239664706660488,0.455834828909133,0.4353279216948582,3.0227784517990504,26.31731196141372,14.054226806172384,-1.5226655282231052,6.552029362670582,-2.7313384069771467,-1.0,11.803875,0.0,178.13958271490262,1.1274083800197072,91.03961108389382,1962.0,1435.0,1000.0,1528.0,1760.0,1011.0,137.0,293.01,1649154898.9817476,1649154900.153901,a78dee4b-18c7-4751-b92a-607fb46f407e
1.1183689202648008,1.7485339281815266,1.1820168263009545,-0.4479558000403376,0.5125564872585456,-1.2446713292310267,0.4563184226119481,0.4333219027337767,3.047780560032766,26.548605800353524,13.937365110392372,-1.547857799247763,6.543504131339399,-2.740501878811868,-1.0,11.813222222222224,0.0,178.17401920060553,1.0783652072004226,91.00409040052396,1962.0,1435.0,1000.0,1528.0,1760.0,1011.0,137.0,293.01,1649154900.2622726,1649154901.3911555,a78dee4b-18c7-4751-b92a-607fb46f407e
0.0922365224583636,-0.090187944645571,0.8538062123161273,-0.1872554623705932,0.5808201290093727,0.368591972205748,0.7254146840090675,0.711594857759828,0.5900720703698396,27.299689811524445,21.05912489545544,1.477818586796883,-0.451437602569658,-2.9814100411576163,-1.0,11.832999999999998,0.0,179.11983040483292,1.279689396718518,90.97213725776682,1459.0,1435.0,1000.0,1528.0,1394.0,1011.0,137.0,293.01,1649154902.3016157,1649154903.4428003,6abfbf38-0753-452e-9897-60adabe97d27
0.0991943741582129,-0.0887361093636261,0.8481632306914123,-0.1854338198919229,0.5759304580538308,0.365195225931869,0.7172515358842594,0.6909267528132608,0.4079889843887914,27.332260723331007,20.96442058017984,1.4659046465468262,-0.4444457020186165,-2.955518174172846,-1.0,11.973666666666666,0.0,179.16280595509065,1.2681797216252697,90.9987757544398,1459.0,1435.0,1000.0,1528.0,1394.0,1011.0,137.0,293.01,1649154903.556419,1649154904.6640446,6abfbf38-0753-452e-9897-60adabe97d27
0.0936494594623739,-0.0924308932046399,0.8498309235060598,-0.1874696766579181,0.577245327556644,0.3699692980140704,0.7214865113848323,0.704485248797804,0.5529236068529454,27.33115951452393,20.883956844779345,1.481360887971191,-0.4582596897047687,-2.96608862419427,-1.0,11.971111111111112,0.0,179.15801571575275,1.2596124588241542,91.01764149583728,1459.0,1435.0,1000.0,1528.0,1394.0,1011.0,137.0,293.01,1649154904.7726028,1649154906.101924,6abfbf38-0753-452e-9897-60adabe97d27
-0.1565066857489091,-0.5354905276042478,0.7890351926194641,-0.0593706864588885,0.6090076438676895,0.694501554265087,0.77914627824258,0.7590397321458733,0.1169940802260785,28.58308904098241,22.048280894692216,1.9269063973042584,-2.1468412901275102,-3.06023756838135,-1.0,11.961666666666666,0.0,179.39668529265023,1.2708790337296,90.98177161904609,1364.0,1435.0,1000.0,1528.0,1312.0,1011.0,137.0,293.01,1649154908.4403405,1649154909.5813496,d0b159aa-84e3-4d97-96cf-0bf83d6e7523
-0.1533751043612578,-0.5389606886795119,0.7820494005258688,-0.0495003980908899,0.6047261000693,0.6891670191445791,0.7720432436206806,0.756475188740513,0.1577869452619836,28.4854787461056,22.04535890969396,1.891679184348472,-2.1617790895273568,-3.035039218444124,-1.0,11.94,0.0,179.39765062605295,1.265627649901016,90.88526332280352,1364.0,1435.0,1000.0,1528.0,1312.0,1011.0,137.0,293.01,1649154909.6895587,1649154910.8143227,d0b159aa-84e3-4d97-96cf-0bf83d6e7523
-0.1612730885023491,-0.5457903425857226,0.7768452566197226,-0.0386888823098395,0.6020087031021966,0.6845715502561852,0.7639841893177598,0.7420696976792202,-0.0291689473420451,28.62238984900146,21.80448457567357,1.857480384417444,-2.185595075129241,-3.014028086443178,-1.0,11.94,0.0,179.38554753084367,1.2553163054101182,90.84672284204686,1364.0,1435.0,1000.0,1528.0,1312.0,1011.0,137.0,293.01,1649154910.9269266,1649154912.0374825,d0b159aa-84e3-4d97-96cf-0bf83d6e7523
-0.4337184976306555,-1.0265277177188556,0.7279688180094763,0.0631050382577797,0.6452240805726706,1.0682833470925326,0.8514219156233773,0.8280698332276241,-0.2958575567340088,30.231499546755423,22.845469506713552,2.498374837824342,-4.011595411067893,-3.18741314465936,-1.0,11.906777777777778,0.0,179.56326905304735,1.2774860559548562,90.69023030669344,1262.0,1435.0,1000.0,1528.0,1222.0,1011.0,137.0,293.01,1649154913.9717553,1649154915.0203545,e0641d9d-5fad-4180-b761-1b1afc0c78ad
-0.4255663042424037,-1.0243318840358773,0.7347929907203833,0.0656427365461491,0.6513513724245847,1.0641678054123258,0.8579436684170263,0.8361562806993693,-0.1798229217230465,30.210086709615865,22.94942582780975,2.483675070629081,-4.004982518536756,-3.2138219204878533,-1.0,11.878888888888888,0.0,179.57055003470262,1.303139321555974,90.50618934168764,1262.0,1435.0,1000.0,1528.0,1222.0,1011.0,137.0,293.01,1649154915.1291358,1649154916.3356934,e0641d9d-5fad-4180-b761-1b1afc0c78ad
-0.4084729954757959,-1.026619758621218,0.728087156272185,0.067010201051234,0.6463548683378778,1.0662584479304498,0.8503700200278831,0.8347362215639325,-0.3948513162753241,30.233904723807747,23.05277845824623,2.485020580519586,-4.013550607245535,-3.187371672329734,-1.0,11.886555555555551,0.0,179.57551785895896,1.261448902221307,90.37027464848364,1262.0,1435.0,1000.0,1528.0,1222.0,1011.0,137.0,293.01,1649154916.4435525,1649154917.566317,e0641d9d-5fad-4180-b761-1b1afc0c78ad
-0.6270175352004668,-1.37370617852096,0.6804757317805823,0.1753554555486483,0.6643028369660381,1.3281278776745506,0.886752459518299,0.8604156231636633,-0.8463977729349804,32.19262506931975,26.05064434333399,2.8399402480422067,-5.355034495196976,-3.236657641933248,-1.0,11.793333333333331,0.0,179.69485795977704,1.309746640230413,90.0937779661428,1153.0,1435.0,1000.0,1528.0,1121.0,1011.0,137.0,293.01,1649154918.475254,1649154919.610193,d0f8718b-cb03-4695-a38c-0ab338f41d0a
-0.6117124474306574,-1.3666058753733124,0.6835393777037619,0.1805360419402697,0.6669457246539511,1.3160836713203836,0.8855296308121338,0.8564315685709029,-0.9222154312758096,32.19461423759697,26.01312047549833,2.801310763897524,-5.32797843812348,-3.241894589942193,-1.0,11.736777777777778,0.0,179.69404896181533,1.3074891559880182,89.75124322035676,1153.0,1435.0,1000.0,1528.0,1121.0,1011.0,137.0,293.01,1649154919.718631,1649154920.839834,d0f8718b-cb03-4695-a38c-0ab338f41d0a
-0.6346536429931496,-1.3789799065892974,0.6769973540953651,0.1763059969528043,0.6622324653702534,1.3299807477671932,0.8846234665891516,0.8694065912966334,-0.8482471870525728,32.166912457718574,25.68284974498717,2.84155649448694,-5.3718793165673775,-3.227204346463976,-1.0,11.748555555555557,0.0,179.6849739171381,1.298548070767485,89.49768534888848,1153.0,1435.0,1000.0,1528.0,1121.0,1011.0,137.0,293.01,1649154920.948431,1649154922.0717242,d0f8718b-cb03-4695-a38c-0ab338f41d0a
0.3675510338139762,0.412119632012453,0.9193990259215552,-0.2502459421666494,0.547975784622941,-0.0751491226686955,0.6279636791145004,0.6069805533786186,0.6504842725979568,26.538713442013588,19.58553131518721,0.6207811775381868,1.4570548556213323,-2.828832460237689,-1.0,11.880555555555556,0.0,178.89778095491582,1.1639334020934866,89.33165862836363,1553.0,1435.0,1000.0,1528.0,1471.0,1011.0,137.0,293.01,1649154922.9828513,1649154924.0840638,9527b83b-4746-4fde-8427-e60d3e450a50
0.3613327966773308,0.408695492638828,0.9103182082975506,-0.2499035280659114,0.5401550504073517,-0.0708484030688559,0.6171433988822997,0.5868466141794143,0.3580873693417714,26.67565503811296,19.68801795604168,0.6299978565044493,1.4447579165199016,-2.7909238640427083,-1.0,11.988111111111111,0.0,178.88115323883636,1.1772485119993743,89.80192398290816,1553.0,1435.0,1000.0,1528.0,1471.0,1011.0,137.0,293.01,1649154924.1971226,1649154925.3461273,9527b83b-4746-4fde-8427-e60d3e450a50
0.3646703738300282,0.4122160557738895,0.924817931910992,-0.246257503881258,0.5535776765671864,-0.078611612985333,0.6315494378073728,0.6112741501491461,0.5684668725088062,26.603727097670976,19.663125110895884,0.6046754520265378,1.4571628607056493,-2.848882323348219,-1.0,11.984,0.0,178.8916337846628,1.1904672166310395,90.13020867735584,1553.0,1435.0,1000.0,1528.0,1471.0,1011.0,137.0,293.01,1649154925.4548843,1649154926.5741012,9527b83b-4746-4fde-8427-e60d3e450a50
0.3884108909552765,0.4056685534399853,0.91586531409614,-0.6829477261261349,0.4976272398946714,0.3500331366635139,0.7433023878176108,0.7249216079908377,0.8935075901790995,25.921283033004585,22.92183474149321,2.5486768793671915,1.4546101177925912,-2.919102461663069,-1.0,11.977,0.0,178.89171119347338,1.3395724517943373,90.77337799400954,1553.0,1537.0,1000.0,1528.0,1471.0,1011.0,137.0,293.01,1649154928.922187,1649154930.0626304,36dd66e3-5a50-47ff-b533-b04dfc7c64df
0.3913419542552609,0.4112841420080137,0.9130438232226424,-0.6921518168566364,0.4940387418841239,0.3541421039599817,0.7413437801174378,0.7193608057903281,0.8161605137410728,25.817972026974257,23.06645781170221,2.5778312178496035,1.4758902431520278,-2.906789082322953,-1.0,11.96888888888889,0.0,178.88664015746957,1.3221276031876288,90.93087077262142,1553.0,1537.0,1000.0,1528.0,1471.0,1011.0,137.0,293.01,1649154930.1709988,1649154931.4983318,36dd66e3-5a50-47ff-b533-b04dfc7c64df
0.3985282640619437,0.4089025845875202,0.9227798841738656,-0.6896842439377366,0.503638932850577,0.3543354993517749,0.7535956245424478,0.7311639509110449,1.0497454148908414,25.75211022584182,23.169379750371217,2.57288173521119,1.464704790129459,-2.9505112162125413,-1.0,11.964000000000002,0.0,178.87110678947718,1.3095239950362183,90.93472755277276,1553.0,1537.0,1000.0,1528.0,1471.0,1011.0,137.0,293.01,1649154931.6301477,1649154932.7217662,36dd66e3-5a50-47ff-b533-b04dfc7c64df
0.4225246327632276,0.4052603960190319,0.9131681880220684,-1.11140261130228,0.4454559570650447,0.7668100630286265,0.8548405763851028,0.8419285577788491,1.1801452261972574,25.50535337333865,26.446727890301,4.449534158388882,1.4723834192264145,-3.0016368341246737,-1.0,11.96188888888889,0.0,178.8681151666207,1.461905444271399,91.2365604423848,1553.0,1645.0,1000.0,1528.0,1471.0,1011.0,137.0,293.01,1649154934.8611314,1649154936.0059736,1cb75b95-10e2-4a70-b2f3-fdfba894a4fd
0.4279813412598486,0.4189876337902374,0.919400669499364,-1.1245644657087197,0.4473888152798538,0.7671650777764991,0.8621906969083895,0.8480295523490039,1.39885030616303,25.371653236986685,26.738872357127576,4.479602524492873,1.5217450417469056,-3.0210645651386865,-1.0,11.95077777777778,0.0,178.85738721616437,1.4721306169138622,91.22905254666712,1553.0,1645.0,1000.0,1528.0,1471.0,1011.0,137.0,293.01,1649154936.134776,1649154937.227174,1cb75b95-10e2-4a70-b2f3-fdfba894a4fd
0.4285993299353234,0.4215253319515253,0.9263826266718832,-1.130192112054729,0.451438613365167,0.7672308212545117,0.8696460070568302,0.8405479448543528,1.580244560552832,25.437635984793147,26.41902376119968,4.493270236234604,1.5339505204525654,-3.046806113253144,-1.0,11.948333333333332,0.0,178.85026105213032,1.4630612047711102,91.23235532258576,1553.0,1645.0,1000.0,1528.0,1471.0,1011.0,137.0,293.01,1649154937.3355303,1649154938.4540665,1cb75b95-10e2-4a70-b2f3-fdfba894a4fd
0.4321494776141615,0.4033275378259691,0.9121162924060902,-1.5140555130111986,0.3919013216371164,1.1588910089820876,0.9564668414232598,0.936296742976578,1.5932512426437304,25.72900414504185,29.586151465905115,6.241017311113106,1.4838978300234842,-3.0710931723053547,-1.0,11.945666666666666,0.0,178.86192246177322,1.5889140806902882,91.2450860362888,1553.0,1761.0,1000.0,1528.0,1471.0,1011.0,137.0,293.01,1649154939.282977,1649154940.5072503,e5305b45-21f6-471e-aec2-077831694da8
0.4419507341244914,0.4115717697033439,0.905866827123812,-1.5114257713264987,0.3858085450205309,1.1472823542921455,0.9448472298101132,0.9320546451628264,1.3582595743054915,25.726423561916985,29.36109749494179,6.2085166086912125,1.517756568914019,-3.0371921143393705,-1.0,11.922333333333334,0.0,178.8579154174602,1.6116665910384298,91.16915330546594,1553.0,1761.0,1000.0,1528.0,1471.0,1011.0,137.0,293.01,1649154940.6398427,1649154941.7327805,e5305b45-21f6-471e-aec2-077831694da8
0.4552774844941695,0.4251313616009746,0.928068946849308,-1.518137092593401,0.4023539864672016,1.1415297998311686,0.9665151839241752,0.952010529534676,1.6932313103014938,25.721016849519174,29.720461707578988,6.212024523778427,1.5652911107452248,-3.1185168957840865,-1.0,11.932666666666668,0.0,178.82992530224146,1.598363659264968,91.11567747772418,1553.0,1761.0,1000.0,1528.0,1471.0,1011.0,137.0,293.01,1649154941.8407383,1649154942.9617317,e5305b45-21f6-471e-aec2-077831694da8
0.4246547213810516,0.3945179120420427,0.8468724671155354,-1.6137227515497443,0.3101821803847653,1.266092327826678,0.9041218857069696,0.8929323462173212,1.0875273570284574,26.899690460231,30.087235450267684,6.7110750811141,1.4581495855456428,-2.798393427107088,-1.0,11.903555555555556,0.0,178.8521704694583,1.6236831112283687,90.94902541543532,1553.0,1887.0,1000.0,1528.0,1471.0,1011.0,137.0,293.01,1649154944.8974388,1649154946.0357063,7a63ddc1-0391-4b62-82ed-5efed99db7af
0.4302127843933678,0.4061068432779723,0.8688861220471429,-1.6478299660218916,0.3240918564695432,1.2873433603558573,0.9341091287437,0.912756195598745,1.4774432969080002,26.80462849021663,30.4567107915692,6.8364876342470815,1.5011740081740446,-2.888105376448181,-1.0,11.837444444444444,0.0,178.8465697143389,1.6539726878937502,90.72373466130207,1553.0,1887.0,1000.0,1528.0,1471.0,1011.0,137.0,293.01,1649154946.1437533,1649154947.293019,7a63ddc1-0391-4b62-82ed-5efed99db7af
0.4377113756640309,0.4096257628252586,0.862650901252985,-1.6192583608230493,0.3219897088079401,1.2587816529329925,0.920097550364033,0.9074222082954816,1.4063817094191788,26.71856769657788,30.550154208200738,6.70695326786196,1.5101323503346742,-2.855999653216906,-1.0,11.850777777777775,0.0,178.84237446036866,1.6150291429702897,90.59905487037284,1553.0,1887.0,1000.0,1528.0,1471.0,1011.0,137.0,293.01,1649154947.401343,1649154948.4875405,7a63ddc1-0391-4b62-82ed-5efed99db7af
0.3367030989270803,0.4213281015247648,0.92297711459923,0.1505044207794026,0.5871725922686836,-0.4646836844535771,0.511764826384084,0.4881366213457689,0.2174185852459581,28.04266633475299,17.504760410090597,-1.14895125949904,1.4640105579807954,-2.7208816554825046,-1.0,11.941333333333334,0.0,178.84743790727336,1.0493096180450905,90.4538867886633,1553.0,1335.0,1000.0,1528.0,1471.0,1011.0,137.0,293.01,1649154950.4278488,1649154951.769695,7cd59306-2be8-4220-a7b6-c2793ca89cbb
0.3544845178990674,0.4169819099066951,0.9241517313665276,0.1360244193597532,0.5889284909122884,-0.4476544754104061,0.5197471799940977,0.4932306448088595,0.2257162164187812,27.863377963179,17.46210958349992,-1.0791536755956146,1.4498832034873097,-2.7368731764433734,-1.0,11.981111111111112,0.0,178.83848125254175,1.0499643912839616,90.78996245222424,1553.0,1335.0,1000.0,1528.0,1471.0,1011.0,137.0,293.01,1649154951.8782184,1649154952.9964297,7cd59306-2be8-4220-a7b6-c2793ca89cbb
0.3413221260174424,0.4195294695985139,0.9259185873051194,0.1201638049525123,0.5881066974698125,-0.4339168239146775,0.525609306521743,0.5094884584976415,0.312494951103526,27.829487274348377,17.722804384324505,-1.0125571275508662,1.4585775868357682,-2.74589723182352,-1.0,11.976555555555557,0.0,178.83710307214923,1.0448175472951735,91.08968253665302,1553.0,1335.0,1000.0,1528.0,1471.0,1011.0,137.0,293.01,1649154953.1045072,1649154954.4271698,7cd59306-2be8-4220-a7b6-c2793ca89cbb
0.3089725004043411,0.4131496131241423,0.9291832987406372,0.5751809824067564,0.6349023550232387,-0.866560586082818,0.3962009449699616,0.3746765308411728,-0.3126618587333541,29.617985611772248,14.392497976280591,-2.999999526895845,1.4128053173704185,-2.632485490581137,-1.0,11.968222222222222,0.0,178.8666519883185,0.8915315426687407,91.60937569349124,1553.0,1236.0,1000.0,1528.0,1471.0,1011.0,137.0,293.01,1649154956.3671358,1649154957.3517828,55dd1778-bb93-4bdb-9c8d-eee0b1013984
0.3121413359989371,0.4154374860930419,0.9303929786797924,0.5713547121956362,0.6346525298206592,-0.8652194180236839,0.3979497214776604,0.3834467105273201,-0.2248110009055199,29.62546221860421,14.41177597331594,-2.9881975228131226,1.4211414946585756,-2.635955190303887,-1.0,11.949444444444444,0.0,178.8500470395363,0.9011690166644164,91.75954347367322,1553.0,1236.0,1000.0,1528.0,1471.0,1011.0,137.0,293.01,1649154957.459707,1649154958.727481,55dd1778-bb93-4bdb-9c8d-eee0b1013984
0.3154904182771048,0.4080654509919969,0.927110187891807,0.5765057134588576,0.6347434749525023,-0.8636191112291693,0.3936977620387268,0.3655787293830411,-0.544291015298278,29.670735249391,14.25895614022918,-2.9962693357576806,1.396265978061767,-2.6268547637899027,-1.0,11.951,0.0,178.8601693798863,0.9072326831116372,91.88161716797912,1553.0,1236.0,1000.0,1528.0,1471.0,1011.0,137.0,293.01,1649154958.836393,1649154959.9656544,55dd1778-bb93-4bdb-9c8d-eee0b1013984
0.3026430471648403,0.426364051770775,0.9407793522104552,0.9213987233288612,0.6718337520080645,-1.2125939608999718,0.2963152374780792,0.2763456560270659,-0.7793802400141864,31.43624077168301,12.005434904282358,-4.546549729557016,1.4449664443936208,-2.556182878303139,-1.0,11.952111111111112,0.0,178.8505539913547,0.7851427433905095,92.11592756636632,1553.0,1133.0,1000.0,1528.0,1471.0,1011.0,137.0,293.01,1649154960.871142,1649154962.008251,05897538-9a5b-4db0-9a5a-f5a1f18fbb03
0.29598652009423,0.420460835507557,0.9331777627969888,0.9169199490222252,0.6660538048441802,-1.2010477523144905,0.2905489866201975,0.2678400935439539,-1.0171121693917315,31.461546030328503,12.187655363792455,-4.51080221764972,1.4229633490072329,-2.530411857194426,-1.0,11.936333333333332,0.0,178.83864062362238,0.7912733717791248,92.25127687168904,1553.0,1133.0,1000.0,1528.0,1471.0,1011.0,137.0,293.01,1649154962.1169434,1649154963.2382689,05897538-9a5b-4db0-9a5a-f5a1f18fbb03
0.3044099031044589,0.4275419557129047,0.929342726755387,0.903689074500785,0.6620681066865195,-1.1947336337250292,0.2865632882501323,0.2641557193488222,-1.3532448879542769,31.358333096419702,12.312452628336432,-4.46779241621049,1.452178977393511,-2.513356713626974,-1.0,11.942333333333332,0.0,178.8498891862755,0.7929027513511266,92.349904803304,1553.0,1133.0,1000.0,1528.0,1471.0,1011.0,137.0,293.01,1649154963.3466854,1649154964.3919437,05897538-9a5b-4db0-9a5a-f5a1f18fbb03
0.2734008963540402,0.4155574679258056,0.8801446923291666,1.053721167178433,0.6192800617968904,-1.325412615996381,0.1877700157454448,0.1680332753092782,-1.2395026929906956,33.00794872292136,11.116477409360575,-5.091528803730186,1.3954616420514034,-2.2497738799666003,-1.0,11.931222222222225,0.0,178.86753535945115,0.7232809137359271,92.5343829004167,1553.0,1026.0,1000.0,1528.0,1471.0,1011.0,137.0,293.01,1649154966.400214,1649154967.5371077,fbe38938-87c5-42f2-8f56-ef539ee8d888
0.2763593528363531,0.420118421567245,0.8947315259453102,1.0266704655511154,0.6297716246695778,-1.3051416903400563,0.2111089509481582,0.1952620332664002,-0.9715342444369522,32.80057250951584,11.239388145751358,-4.985451485621455,1.4138337525502311,-2.3164163432389646,-1.0,11.911777777777775,0.0,178.8647182858735,0.7681268626801891,92.57238834968835,1553.0,1026.0,1000.0,1528.0,1471.0,1011.0,137.0,293.01,1649154967.646211,1649154968.7669137,fbe38938-87c5-42f2-8f56-ef539ee8d888
0.2604028629760137,0.4073395334481644,0.8883626267976613,1.0681299457658575,0.6327985638089503,-1.331850003255478,0.1932897287686295,0.1668416750035214,-1.6581833096390508,33.006338134847795,10.99807216653447,-5.138328252908607,1.3673990493191457,-2.288574578907103,-1.0,11.916444444444444,0.0,178.86413392524452,0.6984522274655459,92.6229173302582,1553.0,1026.0,1000.0,1528.0,1471.0,1011.0,137.0,293.01,1649154968.8751771,1649154970.0006764,fbe38938-87c5-42f2-8f56-ef539ee8d888
0.3647021498290079,0.4109006383916747,0.9182074254246136,-0.2988276419496209,0.5387032153256052,-0.023348736276087,0.6369760137919777,0.6068572843599623,0.6020137767465776,26.849279047452622,20.446108550564546,0.8488841997358406,1.4511098492863692,-2.8269313046847784,-1.0,11.935,0.0,178.85013810872522,1.1573784719186186,92.68636143963866,1553.0,1435.0,1000.0,1528.0,1471.0,1011.0,137.0,293.01,1649154971.9303348,1649154973.0676086,edfb7642-a350-496d-861a-b233e145f030
0.3776481360494627,0.4102043054138681,0.9179937591122476,-0.301626671102173,0.5393770859518072,-0.0181670541128692,0.6385576922240244,0.6171647654987075,0.542372613672928,26.765710865875445,20.72574971516667,0.8662919872762274,1.4467715079892702,-2.8295316630808225,-1.0,11.979,0.0,178.84365398247317,1.1561869952213726,92.62448220248804,1553.0,1435.0,1000.0,1528.0,1471.0,1011.0,137.0,293.01,1649154973.176202,1649154974.292034,edfb7642-a350-496d-861a-b233e145f030
0.3630793816987707,0.4130575722662676,0.9197425355734342,-0.3145518415248076,0.5383909338249869,-0.0111325014481953,0.6437514267341661,0.6295245387796448,0.7510059221927228,26.703494883692606,20.457757743002457,0.9109925255247054,1.4600727173649957,-2.837941660031742,-1.0,11.982444444444448,0.0,178.85433639833505,1.155731115668176,92.61932009729532,1553.0,1435.0,1000.0,1528.0,1471.0,1011.0,137.0,293.01,1649154974.4012158,1649154975.5240953,edfb7642-a350-496d-861a-b233e145f030
0.4486072610251226,0.4506754412137834,1.1714978690506694,-0.2920615411551017,0.7681342461865501,-0.0821480645740359,0.8889104890405778,0.8670781765068675,2.4804366720662574,26.90626296063256,20.44772114537257,0.7154273259532,1.6022054129513883,-3.837223836765874,-1.0,11.976,0.0,178.81559556536274,1.142032032922854,92.51936559116156,1553.0,1435.0,1000.0,1435.0,1471.0,1011.0,137.0,293.01,1649154977.4601605,1649154978.5991125,4853a298-7737-4397-a5cd-c6cc5fa29067
0.4473362204977847,0.4462185814315648,1.1604557037304128,-0.2919886753120584,0.7595651320636349,-0.0773230405223575,0.8774826293169017,0.8514482130235471,2.191774637107521,26.927882027589867,20.43715460101025,0.7255519315650283,1.5869175898575891,-3.794994155397544,-1.0,11.967,0.0,178.83137785580493,1.1537771360990563,92.48614127430888,1553.0,1435.0,1000.0,1435.0,1471.0,1011.0,137.0,293.01,1649154978.70775,1649154979.8256445,4853a298-7737-4397-a5cd-c6cc5fa29067
0.4403148173043609,0.4468365701015437,1.1592197263823385,-0.2897008018117467,0.7583291547438609,-0.0790455198204398,0.8766148154645244,0.8558398771976187,2.3019251374368985,26.886408418939297,20.56959492698706,0.7162604902359111,1.5869212457373378,-3.790014669594503,-1.0,11.965,0.0,178.8363684473585,1.157695494674626,92.4514689573522,1553.0,1435.0,1000.0,1435.0,1471.0,1011.0,137.0,293.01,1649154979.935046,1649154981.0549345,4853a298-7737-4397-a5cd-c6cc5fa29067
0.5200758973775915,0.4762195207574042,1.4075032719959448,-0.2615729976705319,0.9853342540256348,-0.1480148189335952,1.1164103123302065,1.093372702128674,3.886916600788639,27.352529085174243,20.40506358388911,0.5140522816719625,1.699649855805892,-4.774572289421875,-1.0,11.945888888888888,0.0,178.77993742443584,1.1294108394059243,92.32482738431136,1553.0,1435.0,1000.0,1330.0,1471.0,1011.0,137.0,293.01,1649154981.966238,1649154983.1039722,d02f482c-eaa2-41f8-a2fd-dee70669d059
0.5160354129683095,0.4838895928865449,1.4028464419029951,-0.276666607185584,0.9783079199947808,-0.1417554911178085,1.1124520070922186,1.085866988174388,3.812881776365842,27.30574788875992,20.355234151231272,0.5615781045476457,1.7309452617665393,-4.752325730327882,-1.0,11.932666666666668,0.0,178.7746554114777,1.1145492015456229,92.2797306808614,1553.0,1435.0,1000.0,1330.0,1471.0,1011.0,137.0,293.01,1649154983.2132845,1649154984.5378635,d02f482c-eaa2-41f8-a2fd-dee70669d059
0.5057766915242685,0.4711791876382655,1.3922863946522204,-0.262901563834217,0.971856841317695,-0.1428786089053454,1.1014125812784694,1.0813882138769857,3.7165515505139815,27.38923021980587,20.14352912769523,0.5279491009920013,1.6834688458207838,-4.715244318153273,-1.0,11.931888888888889,0.0,178.77855165494424,1.1343006263793862,92.2324946103814,1553.0,1435.0,1000.0,1330.0,1471.0,1011.0,137.0,293.01,1649154984.6466837,1649154985.9697857,d02f482c-eaa2-41f8-a2fd-dee70669d059
0.567644040897414,0.500722661877891,1.5870103846901238,-0.2152649276824016,1.1487341892956684,-0.2259208514810221,1.2778516450354658,1.2555399515772512,4.9649467162861125,28.09346964340476,20.10329272259689,0.248871953143013,1.7922869332017726,-5.468279829975352,-1.0,11.91477777777778,0.0,178.7188041957246,1.1057555701485775,92.06075329825096,1553.0,1435.0,1000.0,1210.0,1471.0,1011.0,137.0,293.01,1649154987.9052763,1649154989.0430095,68a1b0dc-2d64-4119-a918-1b04252f7412
0.5717228756572733,0.5076624335451393,1.6001612740905942,-0.2251012492800078,1.159758822860757,-0.2243912197189421,1.2919163672230116,1.269392650545781,4.9675457710811415,28.00911084374594,20.105544280066724,0.2745948405915266,1.820320272649524,-5.520453973963523,-1.0,11.887555555555556,0.0,178.70540184675323,1.0966258009522227,91.96880605055416,1553.0,1435.0,1000.0,1210.0,1471.0,1011.0,137.0,293.01,1649154989.1511786,1649154990.2711728,68a1b0dc-2d64-4119-a918-1b04252f7412
0.5752730233070308,0.4962027979490047,1.606651252384195,-0.221921455711837,1.167306722163637,-0.2156210380683567,1.3035326926510638,1.2851519109723666,5.220069932979006,28.01114022196434,20.24058998628036,0.287615026419706,1.774375424922396,-5.557112715750847,-1.0,11.882555555555554,0.0,178.69084595472202,1.1128288950802951,91.87311206464264,1553.0,1435.0,1000.0,1210.0,1471.0,1011.0,137.0,293.01,1649154990.380561,1649154991.4981763,68a1b0dc-2d64-4119-a918-1b04252f7412
0.5912432090879762,0.5006541790899993,1.7159361121471204,-0.1315378576171484,1.2692775995673198,-0.3121954851149186,1.382356389738152,1.3654685322824098,5.850841811025179,29.26469366476445,19.66957486064322,-0.1193057991057226,1.787488436296604,-5.956743804899141,-1.0,11.892555555555557,0.0,178.6697604018443,1.0717604261309877,91.78367984438025,1553.0,1435.0,1000.0,1071.0,1471.0,1011.0,137.0,293.01,1649154992.4113195,1649154993.5527992,90638129-3f74-4ef8-a1c5-2e7088cb4efa
0.600474688691174,0.5084749133323577,1.7044173036988497,-0.1327431548844609,1.257745097024278,-0.3187972273607922,1.3664683808098668,1.3375823379425569,5.597460343854952,29.26581121414902,19.55854271792332,-0.1321333364065892,1.8190165772990017,-5.90211209021777,-1.0,11.899,0.0,178.68165897083338,1.0702598804093064,91.80723640791769,1553.0,1435.0,1000.0,1071.0,1471.0,1011.0,137.0,293.01,1649154993.6668978,1649154994.9777117,90638129-3f74-4ef8-a1c5-2e7088cb4efa
0.6070353396228593,0.5161175923202791,1.7350428147864558,-0.1413719875772262,1.283823344599919,-0.3168797091346933,1.4015863584726336,1.373426233246028,6.0786547201001495,29.125715132445617,20.01808540991276,-0.1074481775503277,1.843204091580248,-6.027486806629376,-1.0,11.878555555555554,0.0,178.7059270124094,1.0602198728908665,91.73910299421708,1553.0,1435.0,1000.0,1071.0,1471.0,1011.0,137.0,293.01,1649154995.089941,1649154996.2106276,90638129-3f74-4ef8-a1c5-2e7088cb4efa
0.2758509366015746,0.3604890887531421,0.6180720254614326,-0.2713846655306609,0.2683693288550166,0.0169794115857163,0.3270782539257528,0.3057773673845245,-1.6546975766870151,27.181969486948137,20.40903893623493,0.8637211273025795,1.2559367239225856,-1.616006989543353,-1.0,11.91,0.0,178.7649292220996,1.1463255894420494,91.8346118061111,1553.0,1435.0,1000.0,1613.0,1471.0,1011.0,137.0,293.01,1649154997.7749107,1649154998.873387,5dcd827d-baf0-4015-ba37-3502f7fa4fa4
0.2795325713518585,0.367484194637409,0.6269079484841326,-0.2787742337120423,0.2731423053467293,0.0171766421427872,0.3385702136759164,0.3170326506191399,-1.2164061860026456,27.10427412244293,20.520886885114205,0.8809967580117798,1.279547846460103,-1.649636630734957,-1.0,11.984444444444444,0.0,178.798057157394,1.15465795776874,91.90321194940498,1553.0,1435.0,1000.0,1613.0,1471.0,1011.0,137.0,293.01,1649154998.982674,1649155000.3069618,5dcd827d-baf0-4015-ba37-3502f7fa4fa4
0.2785332704934181,0.3687333206860252,0.6331930246780786,-0.2763680219861238,0.2802951956829891,0.0138631705730448,0.3428961344236672,0.3235149574566139,-1.4136752809651865,27.111589815154858,20.58060890435945,0.8683947920858638,1.2852020442343512,-1.673990048663203,-1.0,11.984,0.0,178.80605606782194,1.154068996248434,91.96943291013798,1553.0,1435.0,1000.0,1613.0,1471.0,1011.0,137.0,293.01,1649155000.4155636,1649155001.5314686,5dcd827d-baf0-4015-ba37-3502f7fa4fa4
0.2032608233306214,0.3328165637549931,0.4208169459728985,-0.2286738599510666,0.0904285767441368,0.0150838077684432,0.1150275956170306,0.0922228255065304,-2.947999645682012,27.53897361375176,20.302906753090983,0.7549930432903246,1.144484771402262,-0.8070244451924085,-1.0,11.986222222222224,0.0,178.84679283385174,1.141989035933391,92.08025652397096,1553.0,1435.0,1000.0,1694.0,1471.0,1011.0,137.0,293.01,1649155003.4697082,1649155004.6058042,2e15e620-9df2-4d2b-a400-69bdbd23d50c
0.202082919329393,0.3315016942201825,0.4263914448673782,-0.2305228955052825,0.0964002762355968,0.0170013260667485,0.1215060677137312,0.1030704999027852,-2.998995409623029,27.50930863766239,20.19739976435153,0.7635113658565652,1.1414297987324689,-0.8323283429554742,-1.0,11.987555555555556,0.0,178.8475745110567,1.1428404142702466,92.12876149181676,1553.0,1435.0,1000.0,1694.0,1471.0,1011.0,137.0,293.01,1649155004.722357,1649155005.7753117,2e15e620-9df2-4d2b-a400-69bdbd23d50c
0.203685416579,0.3324467566915023,0.4252546305956013,-0.2348236155336166,0.0941540406641321,0.0208911487084136,0.1202048946175007,0.0881138581494469,-3.046085883492836,27.587279687512165,20.308881015546746,0.7824080277713136,1.1447783619371308,-0.8256977469189536,-1.0,11.98922222222222,0.0,178.84235321089122,1.150623675704757,92.17806407397566,1553.0,1435.0,1000.0,1694.0,1471.0,1011.0,137.0,293.01,1649155005.8840904,1649155007.0644226,2e15e620-9df2-4d2b-a400-69bdbd23d50c
0.141681645905494,0.3096036378148186,0.2502372777512374,-0.1769375699467924,-0.0620968495971696,-0.000718733752016,-0.0770469178969532,-0.1017270222053432,-4.47733663986894,28.125045252210647,20.20056487698696,0.5973834955955668,1.05197976389617,-0.0970967733664101,-1.0,11.979888888888889,0.0,178.87712190940624,1.139004682010886,92.26248217647738,1553.0,1435.0,1000.0,1774.0,1471.0,1011.0,137.0,293.01,1649155007.9752674,1649155009.112807,595f576f-ee92-4744-ab86-ac3019995ffc
0.1376953995777609,0.3052180000441563,0.2485827335662268,-0.1762845182652179,-0.0630961505638382,0.0010722281140728,-0.0756558953730962,-0.0983647909794619,-4.268016237305782,28.032045066018764,19.92892737056318,0.5992980726919724,1.0362700826837743,-0.0961843887227346,-1.0,11.976666666666668,0.0,178.88056887820736,1.1479586212679826,92.2438888837368,1553.0,1435.0,1000.0,1774.0,1471.0,1011.0,137.0,293.01,1649155009.2205503,1649155010.3408537,595f576f-ee92-4744-ab86-ac3019995ffc
0.1523057921590273,0.3046728770418185,0.2511839838175438,-0.1755569567955773,-0.0604532625237745,0.0014245037083611,-0.0731680523801737,-0.0931146259363974,-4.288354878286963,28.05422079022668,20.017699001668618,0.5987289257754189,1.0336584142585254,-0.1068297472193097,-1.0,11.978777777777776,0.0,178.88261793495838,1.1342414076906446,92.22774079871908,1553.0,1435.0,1000.0,1774.0,1471.0,1011.0,137.0,293.01,1649155010.4491663,1649155011.567158,595f576f-ee92-4744-ab86-ac3019995ffc
0.08751120983241412,0.2835500457029992,0.09466081331261801,-0.128428738697429,-0.20229428517430534,-0.014678814511492522,-0.25099925293124864,-0.275762634483998,-5.632624835955177,28.756597606391153,19.667229139240444,0.45236269972624,0.9513422571107415,0.5490496070864491,-1.0,11.975111111111111,0.0,178.89786898846512,1.1406737501994715,92.20766611383848,1553.0,1435.0,1000.0,1856.0,1471.0,1011.0,137.0,293.01,1649155013.3001287,1649155014.4372017,46620c37-5f7b-4882-a20c-bf52b4d50688
0.10320746575147581,0.28445401850464247,0.09255154331194926,-0.12455261240949923,-0.2035543686725674,-0.01804816808031428,-0.25260175052549266,-0.281693245130153,-5.530794256260258,28.64323145743033,19.808011592928526,0.43526487611950965,0.9521513483857428,0.5563823371038902,-1.0,11.977555555555556,0.0,178.9176507341213,1.14079044445576,92.20996636976896,1553.0,1435.0,1000.0,1856.0,1471.0,1011.0,137.0,293.01,1649155014.5460415,1649155015.6736367,46620c37-5f7b-4882-a20c-bf52b4d50688
0.09982441582959374,0.2810983618537239,0.09585241390092743,-0.12960664301986594,-0.20084244981328916,-0.010802688564956829,-0.24576716691030445,-0.2751051998260248,-5.381571222959763,28.61302199602626,19.747633633960135,0.4629766804620445,0.939875564709031,0.5380394117911392,-1.0,11.975222222222222,0.0,178.90231012924545,1.1285833667311644,92.1960365784117,1553.0,1435.0,1000.0,1856.0,1471.0,1011.0,137.0,293.01,1649155015.7875016,1649155016.9014041,46620c37-5f7b-4882-a20c-bf52b4d50688
