raw_voltage_G-,raw_voltage_G0,raw_voltage_G1,raw_voltage_G2,raw_voltage_G3,raw_voltage_G4,raw_voltage_G5,raw_voltage_G6,load_x,load_y,load_z,load_l,load_m,load_n,rpm,voltage,current,roll,pitch,yaw,aileron1_pwm,elevator_pwm,throttle_pwm,rudder_pwm,aileron2_pwm,pbaro,pdiff,Tt,sample_start_time,sample_end_time,uid
-0.0280811712796888,0.1245094490579097,-0.0230846665045499,-0.0760607655926758,-0.2255088586211084,0.0829069747670007,-0.3914717277667223,-0.4143373153236652,-16.677695792775353,29.093754890001986,17.30446000002634,0.5439573521047645,0.4400524481493271,0.9111919205209144,-1.0,11.987555555555556,0.0,179.27929255465548,1.1417365798093817,95.7755163618124,1553.0,1435.0,1000.0,1528.0,1471.0,1011.0,137.0,293.01,1649153220.4577675,1649153221.5122817,7ada8ad4-2da4-40d5-9610-0288cc09fefb
-0.0317102115481917,0.1288090726347032,-0.0221642577353179,-0.0745092193858385,-0.2255220073102531,0.077042656295908,-0.3923921366833531,-0.4098536092589617,-16.637590890187777,29.10133304109409,17.272513841408912,0.5273906994470986,0.4560453850490591,0.911779415092993,-1.0,11.989,0.0,179.26550012599148,1.1260727978924925,95.9508093723112,1553.0,1435.0,1000.0,1528.0,1471.0,1011.0,137.0,293.01,1649153221.6213646,1649153222.8322914,7ada8ad4-2da4-40d5-9610-0288cc09fefb
-0.0323939437530123,0.125916359526686,-0.0245573205224241,-0.0739569741065429,-0.2269026205846963,0.0785810537365599,-0.3954294861065473,-0.4204514602801459,-16.793033016008675,29.15403725428236,17.139942886129734,0.5297327997200388,0.4472522995201025,0.9205839153915422,-1.0,11.986333333333334,0.0,179.26443006302154,1.120534332675356,96.13188224066772,1553.0,1435.0,1000.0,1528.0,1471.0,1011.0,137.0,293.01,1649153222.9453382,1649153224.0539074,7ada8ad4-2da4-40d5-9610-0288cc09fefb
0.1980698278437265,0.5414151336905251,-0.0025847528625935,-0.3010053949710699,-0.3048541284961892,-0.1116230600352978,-0.4569681370598689,-0.4895522582501511,-16.30770737748231,28.07535031868188,18.1114775991369,0.6088268798707834,2.0229087907058494,1.1348605753986454,-1.0,11.965333333333335,0.0,179.10351535963548,1.1142759228310186,96.46375202551972,1647.0,1435.0,1000.0,1528.0,1543.0,1011.0,137.0,293.01,1649153225.9884226,1649153227.1257813,8e15caf2-20d2-4ebb-b2c2-81ed4b41054a
0.2072602182669331,0.5479620880811669,0.0051811959812916,-0.3034570793264002,-0.2996631320367888,-0.1152115586105605,-0.4510786155343764,-0.4827039773389576,-16.26377643935844,28.14370732624652,18.243769986828028,0.6071764848215507,2.046775747566684,1.1097789229665789,-1.0,11.965111111111112,0.0,179.10384320871563,1.1088374084203303,96.54264678171263,1647.0,1435.0,1000.0,1528.0,1543.0,1011.0,137.0,293.01,1649153227.2345312,1649153228.350715,8e15caf2-20d2-4ebb-b2c2-81ed4b41054a
0.2026033885337302,0.5509616341275284,0.0056879686653156,-0.3046486801199863,-0.2992933248866059,-0.117348221887419,-0.4514895123665967,-0.4656243645701488,-16.326110234497637,28.11373571717049,18.20293414809169,0.6048517383579068,2.0590073091858887,1.1094330861918982,-1.0,11.962666666666664,0.0,179.11344190122924,1.1122500246901692,96.60092499135082,1647.0,1435.0,1000.0,1528.0,1543.0,1011.0,137.0,293.01,1649153228.463752,1649153229.6173184,8e15caf2-20d2-4ebb-b2c2-81ed4b41054a
0.4491375917187212,0.985591201409756,0.0275641122954967,-0.5262195984493557,-0.3841873486502433,-0.3330257624740356,-0.5260223679815919,-0.5529509056277139,-15.84285240378029,27.46777693085037,18.87955889749389,0.6171634781404028,3.708371149207085,1.3535659840231766,-1.0,11.929,0.0,178.8159416282807,1.1084451231458126,96.66872220796228,1745.0,1435.0,1000.0,1528.0,1614.0,1011.0,137.0,293.01,1649153230.493719,1649153231.559157,050fa666-6ca0-4e31-92d5-ca5248f8e8b8
0.4499906133207004,0.9883201035555952,0.0263423792712899,-0.5321348698154597,-0.3871704596641638,-0.3295764205945703,-0.5269712657902262,-0.5490775183671929,-15.81120582408174,27.51237551116235,18.966566104654056,0.6385226276229132,3.718262663538341,1.3610503488709167,-1.0,11.930666666666667,0.0,178.80385826472903,1.1116700159351818,96.71398738941176,1745.0,1435.0,1000.0,1528.0,1614.0,1011.0,137.0,293.01,1649153231.6692812,1649153232.860322,050fa666-6ca0-4e31-92d5-ca5248f8e8b8
0.4480593987284652,0.9881557448626485,0.029177566925536,-0.5263001342164745,-0.3842667886802969,-0.333493636992451,-0.5253413748619057,-0.5506800162831945,-15.769496168859176,27.55729051352144,19.16691095545988,0.6170502374484507,3.715037473135735,1.3512347292127902,-1.0,11.935222222222222,0.0,178.80511350171648,1.1107775497416008,96.73691253990596,1745.0,1435.0,1000.0,1528.0,1614.0,1011.0,137.0,293.01,1649153232.9693184,1649153234.0890124,050fa666-6ca0-4e31-92d5-ca5248f8e8b8
0.6384788000509982,1.3265631824152182,0.0628946591196022,-0.7191767816621925,-0.4407530517182927,-0.4944786374927588,-0.568795089385039,-0.5917001256289235,-15.47998462576314,27.55035523154184,18.13157771983825,0.6919915137473532,5.017282764631917,1.4820810209547892,-1.0,11.893999999999998,0.0,178.3929161387657,1.1308995538407227,96.75721110320931,1849.0,1435.0,1000.0,1528.0,1686.0,1011.0,137.0,293.01,1649153236.0241826,1649153237.157429,e7e03557-1623-403e-adce-08658a6b9be5
0.6357570201898872,1.3333216125440135,0.0688247211665981,-0.7218196709901591,-0.4365717653255885,-0.499632927808853,-0.565284386271797,-0.5915291926557336,-15.532500126799707,27.57849044421856,18.030619947545084,0.6868101070124604,5.044599272413118,1.4639080702407383,-1.0,11.892222222222223,0.0,178.41873577164816,1.1312892007175144,96.7776644841339,1849.0,1435.0,1000.0,1528.0,1686.0,1011.0,137.0,293.01,1649153237.2662015,1649153238.3880904,e7e03557-1623-403e-adce-08658a6b9be5
0.6132990491894206,1.302382729881366,0.0629604025547226,-0.7071851659454008,-0.4347440962024734,-0.4852482504099448,-0.5647978845791974,-0.5811680167347287,-15.603271306753252,27.62897714784114,17.6610546525821,0.6860706831825171,4.930163269528979,1.4645130126472106,-1.0,11.889444444444443,0.0,178.41709197278792,1.1466922140753109,96.779490421372,1849.0,1435.0,1000.0,1528.0,1686.0,1011.0,137.0,293.01,1649153238.4976704,1649153239.618227,e7e03557-1623-403e-adce-08658a6b9be5
0.6798188448882959,1.390711290547351,0.104371673206057,-0.7713316552267585,-0.4292189032585207,-0.5339154235247959,-0.5495295042944757,-0.5712933426410692,-15.194686722370498,28.49613160546673,14.856127894150791,0.7289768368903596,5.293954975118601,1.3848995169560885,-1.0,11.755333333333333,0.0,178.34939417337438,1.158462408710339,96.68227026763594,1962.0,1435.0,1000.0,1528.0,1760.0,1011.0,137.0,293.01,1649153240.5368636,1649153241.6666558,7a2e65c9-c0b9-4677-912f-e46117b35d50
0.6833815933632174,1.3856665737694194,0.1044971337001506,-0.7686816437929923,-0.427525460329192,-0.5311635098815131,-0.5482568196381306,-0.5739756773574525,-15.234342797535469,28.487416818130928,14.89722982649428,0.7291180434944964,5.274632143202257,1.3800565774393618,-1.0,11.763222222222222,0.0,178.35290489060776,1.1391404675945422,96.43900245560722,1962.0,1435.0,1000.0,1528.0,1760.0,1011.0,137.0,293.01,1649153241.77542,1649153242.90265,7a2e65c9-c0b9-4677-912f-e46117b35d50
0.6778985875608722,1.3835101874689792,0.1104140469147385,-0.7713902763725323,-0.4222396833047186,-0.5284548777470924,-0.5402098152580703,-0.5566588390665458,-15.104527225114603,28.47015476442175,14.680755255933514,0.7415257421337887,5.268252488091506,1.3528424113957278,-1.0,11.762666666666668,0.0,178.36704945346895,1.1475449560784066,96.28588023915428,1962.0,1435.0,1000.0,1528.0,1760.0,1011.0,137.0,293.01,1649153243.034893,1649153244.1244724,7a2e65c9-c0b9-4677-912f-e46117b35d50
-0.3218652569596364,-0.3927586566510459,-0.047892969894173,0.2116020271843816,-0.1299216634838475,0.3167641981740376,-0.3147841349868011,-0.3384928825178496,-16.99176675866834,30.777748228818552,16.33703043957358,0.4301847737306399,-1.526181825396953,0.6432858679235989,-1.0,11.978777777777776,0.0,179.42169440975118,1.0954505222383208,96.08472889136766,1459.0,1435.0,1000.0,1528.0,1394.0,1011.0,137.0,293.01,1649153245.035514,1649153246.3764522,0d45634f-07d5-46cd-babf-56a6a9824b1c
-0.3319459256983648,-0.4019490492856201,-0.0533031107354996,0.2090544673939386,-0.1343867418925346,0.3288034723617048,-0.318057613004886,-0.3347674177752256,-17.097991293436774,30.91196646781708,16.40037210769596,0.4635622874029917,-1.5604879886401395,0.6602284099510518,-1.0,11.978222222222222,0.0,179.4239984602312,1.0970462014672304,96.07048642912838,1459.0,1435.0,1000.0,1528.0,1394.0,1011.0,137.0,293.01,1649153246.4866073,1649153247.6143906,0d45634f-07d5-46cd-babf-56a6a9824b1c
-0.3272403352831417,-0.4043311552309149,-0.0511834312554871,0.213631309205707,-0.1305621146142938,0.3278014322061797,-0.3140521907868685,-0.3418222420813975,-16.99956724845384,30.771669448480434,16.549906242073497,0.450235216342034,-1.5718757828573615,0.6465161157084772,-1.0,11.976222222222225,0.0,179.43184558867765,1.103567964907535,96.07483725962966,1459.0,1435.0,1000.0,1528.0,1394.0,1011.0,137.0,293.01,1649153247.728549,1649153248.8355472,0d45634f-07d5-46cd-babf-56a6a9824b1c
-0.5790773729545368,-0.8644041981295111,-0.0742593941036574,0.479537374810762,-0.0480540414349465,0.5356691539631168,-0.2530027856703298,-0.2686497368487462,-17.500510919527198,32.72370420010907,16.949909612585323,0.3291256513173371,-3.3315975953017487,0.4247461696742146,-1.0,11.945222222222222,0.0,179.58467183026656,1.0770730089288536,95.94986604729586,1364.0,1435.0,1000.0,1528.0,1312.0,1011.0,137.0,293.01,1649153250.9742792,1649153252.115576,55d05fb0-c719-45be-b8cc-7e42684de538
-0.5816205506566897,-0.8667008382607029,-0.0802442426256949,0.4713161532134679,-0.0541659939600625,0.5435928862985594,-0.2550260415514656,-0.2793648296044496,-17.37758111909857,32.61625707924134,16.650220157288818,0.3644802196343095,-3.3377943403361634,0.4434669649411106,-1.0,11.94788888888889,0.0,179.58396149059288,1.0720579069568696,95.81627134167996,1364.0,1435.0,1000.0,1528.0,1312.0,1011.0,137.0,293.01,1649153252.2240446,1649153253.3401546,55d05fb0-c719-45be-b8cc-7e42684de538
-0.5778676925031903,-0.8635369316067235,-0.0741903634528655,0.476918045176216,-0.0481532045229694,0.53701853878785,-0.2511910047009082,-0.2845284335097494,-17.398356845716858,32.62769111387121,16.927518984465724,0.3374812725873908,-3.328544148999349,0.4223687841074688,-1.0,11.93911111111111,0.0,179.60280825924266,1.0769195549739072,95.71834691954946,1364.0,1435.0,1000.0,1528.0,1312.0,1011.0,137.0,293.01,1649153253.448472,1649153254.570371,55d05fb0-c719-45be-b8cc-7e42684de538
-0.8453752858717953,-1.3455191808660356,-0.0941736434126362,0.7514929290580238,0.0382309922077368,0.752876281344039,-0.1849544402719813,-0.2050883839808529,-17.749488356491884,34.96914646638499,16.573270989299232,0.217462311753527,-5.165678881954993,0.1800244703769303,-1.0,11.89011111111111,0.0,179.72369046499338,1.0570054032547618,95.49454818229492,1273.3333333333333,1435.0,1000.0,1528.0,1232.0,1011.0,137.0,293.01,1649153256.3336573,1649153257.4317715,82ea74e4-9c64-4776-988c-62649919bf21
-0.8523331410769334,-1.348751571785126,-0.0967349000061114,0.7492193005492619,0.0363956533502208,0.7593958426130611,-0.1853242473928903,-0.2040885348984796,-17.754538344217043,34.93820914730969,16.741222814563987,0.2369329950568799,-5.1791380857501546,0.1863770613577791,-1.0,11.892111111111111,0.0,179.75807515509504,1.0608369615096291,95.29958422698644,1262.0,1435.0,1000.0,1528.0,1222.0,1011.0,137.0,293.01,1649153257.5411022,1649153258.66593,82ea74e4-9c64-4776-988c-62649919bf21
-0.8595391781896906,-1.352444715447986,-0.1038308134881564,0.75592294354877,0.0317059516444826,0.7562779583129992,-0.1923741407003522,-0.2189608075428132,-17.764532565368867,34.864125004263265,16.607674529951865,0.213934155465275,-5.193011709613989,0.2119216273491325,-1.0,11.889555555555557,0.0,179.76391117228584,1.054066915949808,95.14357663506412,1262.0,1435.0,1000.0,1528.0,1222.0,1011.0,137.0,293.01,1649153258.7742393,1649153259.8949378,82ea74e4-9c64-4776-988c-62649919bf21
-0.9917625429377988,-1.5997062235695887,-0.0958890005489605,0.9178491234775344,0.0887449957825918,0.858601103140212,-0.1494699412580788,-0.173347975691703,-17.828189483122173,36.86308829083825,18.08074082811403,0.0924517249380454,-6.152397109139043,0.0350342012557123,-1.0,11.72,0.0,179.83977180666747,1.0329878138062871,94.73484369584229,1153.0,1435.0,1000.0,1528.0,1121.0,1011.0,137.0,293.01,1649153261.871795,1649153262.8277442,b3fc4fed-fd21-49c8-963c-2203606766ca
-0.984333524781654,-1.5936841128237966,-0.0934696402962092,0.911748128935464,0.0886661036402764,0.8567339884442083,-0.1478263540689977,-0.1655245009341648,-17.757942300924228,36.88040574779237,17.87067194654677,0.1022555598003747,-6.127541058273641,0.0299245993459816,-1.0,11.732333333333337,0.0,179.84703609230473,1.036866080594385,94.39793171356295,1153.0,1435.0,1000.0,1528.0,1121.0,1011.0,137.0,293.01,1649153262.9366071,1649153264.1955757,b3fc4fed-fd21-49c8-963c-2203606766ca
-0.994444878589721,-1.5946308200127886,-0.1028183638258911,0.9111038428335128,0.0816184025348771,0.861125652601293,-0.1563335611649128,-0.1752545367533415,-17.938284183215387,36.77238908446748,18.212084457646,0.1123596512301008,-6.133356466491671,0.0646591585757224,-1.0,11.743222222222222,0.0,179.8463454842887,1.048541079467856,94.07553691890956,1153.0,1435.0,1000.0,1528.0,1121.0,1011.0,137.0,293.01,1649153264.3041792,1649153265.421264,b3fc4fed-fd21-49c8-963c-2203606766ca
-0.0191028029403654,0.1439547267450197,-0.0152129801553525,-0.0817508641531783,-0.2204696202385964,0.0675553241463523,-0.3892112472958081,-0.4118790565949128,-16.825475091235294,28.98140202577828,17.12703061854638,0.5218400967558781,0.5168002502157302,0.8923753850192249,-1.0,11.982666666666669,0.0,179.27395590018398,1.0667658503004158,93.59890582805858,1553.0,1435.0,1000.0,1528.0,1471.0,1011.0,137.0,293.01,1649153267.3597956,1649153268.2986429,de244b6d-fe4a-43ff-a09b-b9913d45bc06
-0.0238418123576519,0.1315867346473734,-0.0250060197820423,-0.0783678140712186,-0.2273726865096509,0.0784577846827562,-0.396497817875634,-0.4177548814771309,-16.93073665826066,29.06053272742845,17.33075031569238,0.5387244762635907,0.4683162027690428,0.9242155003625716,-1.0,11.983,0.0,179.271478818245,1.0985218780669728,93.94441853632274,1553.0,1435.0,1000.0,1528.0,1471.0,1011.0,137.0,293.01,1649153268.4062805,1649153269.5216372,de244b6d-fe4a-43ff-a09b-b9913d45bc06
-0.0279096903475611,0.131737396785519,-0.0259099926869247,-0.0756421987573092,-0.2277424936399827,0.0754582383862001,-0.3981277086890605,-0.4232608993695697,-16.943022083509216,29.04392604846853,17.272667709453426,0.5256652324903943,0.4690898449980126,0.9282304552363244,-1.0,11.990222222222222,0.0,179.27918327162877,1.1243346214704295,94.2747295202242,1553.0,1435.0,1000.0,1528.0,1471.0,1011.0,137.0,293.01,1649153269.629657,1649153270.754431,de244b6d-fe4a-43ff-a09b-b9913d45bc06
-0.010619702208646,0.1242859212260063,-0.0539446575701955,-0.4531259776423009,-0.2925803666293785,0.4498213238882701,-0.3186279377918088,-0.3419668777017343,-16.694552940397884,28.14558498449724,20.244834782661343,2.2116676955664034,0.4577252851823102,0.9420885754469068,-1.0,11.97425,0.0,179.27079352259824,1.2265398913436345,94.63887232835948,1553.0,1537.0,1000.0,1528.0,1471.0,1011.0,137.0,293.01,1649153271.352458,1649153272.399971,00c4c352-a3d3-49de-8e3f-06db2fd7661d
-0.0236911502143606,0.1182736799940921,-0.0558369741749658,-0.452790685740647,-0.2934175004155468,0.4547981049939598,-0.3195094484476649,-0.3453548590955677,-16.764692399738646,28.20553614724298,20.147802080403668,2.2223472756149163,0.4363719257339594,0.9461282478174,-1.0,11.978111111111112,0.0,179.2741820553365,1.2438446943919317,94.77174872574768,1553.0,1537.0,1000.0,1528.0,1471.0,1011.0,137.0,293.01,1649153272.5081832,1649153273.5939834,00c4c352-a3d3-49de-8e3f-06db2fd7661d
-0.0120134640531648,0.1251142890712036,-0.0499343050697654,-0.4562027732133066,-0.2897533965398397,0.452516806391494,-0.3141310829761315,-0.3394160300938539,-16.660604339724998,28.18813262310649,20.372618312188457,2.225184502158641,0.4600931221313854,0.9266287860807388,-1.0,11.97577777777778,0.0,179.28641871868953,1.2439813337492338,94.88457662064712,1553.0,1537.0,1000.0,1528.0,1471.0,1011.0,137.0,293.01,1649153273.702411,1649153274.845639,00c4c352-a3d3-49de-8e3f-06db2fd7661d
-0.0016670834744491,0.1042484042371901,-0.092790290924979,-0.9116666642979334,-0.3789662195031013,0.9133177543629228,-0.230522895347892,-0.2482188513853759,-16.559425083097256,27.71348246730847,23.51049112375935,4.283351379324554,0.406658821171584,0.9856899888214136,-1.0,11.962666666666667,0.0,179.29709961673163,1.3829332555519611,95.17724415530292,1553.0,1645.0,1000.0,1528.0,1471.0,1011.0,137.0,293.01,1649153276.98447,1649153277.9347105,1c1d343a-f62d-4ab6-9d63-9647c83d3511
0.001770752789066,0.1137127260651455,-0.0795594146636413,-0.9130226243904356,-0.3688307642806545,0.9060996685737616,-0.2195382541462602,-0.2432880897622436,-16.45077456368661,27.73957427557029,23.71737996487825,4.271109536774685,0.440559287253522,0.9397005696639082,-1.0,11.966444444444445,0.0,179.3173124232154,1.399580608425267,95.19729227833672,1553.0,1645.0,1000.0,1528.0,1471.0,1011.0,137.0,293.01,1649153278.043155,1649153279.1462772,1c1d343a-f62d-4ab6-9d63-9647c83d3511
-0.0212257695661709,0.0957017518066236,-0.1008164746908052,-0.9049827400768358,-0.3841709127590603,0.916248817676137,-0.2379190378308606,-0.2568476843688037,-16.647791100696786,27.7468926502238,23.55232651137722,4.274644591851732,0.3735271404288752,1.0132580280700223,-1.0,11.964,0.0,179.32211632293166,1.4031834857805796,95.18392483922108,1553.0,1645.0,1000.0,1528.0,1471.0,1011.0,137.0,293.01,1649153279.25496,1649153280.3754995,1c1d343a-f62d-4ab6-9d63-9647c83d3511
0.0023580612422155,0.1044708363464518,-0.107354664288237,-1.2841240264067142,-0.4402928471417425,1.2726929733358587,-0.1516131788647251,-0.1803693805197543,-16.3612904915415,27.82093531218445,26.11686959853297,5.931590354308141,0.4279264542815601,0.9772529940806328,-1.0,11.931111111111113,0.0,179.29612517641002,1.520679803119757,95.20459223273964,1553.0,1761.0,1000.0,1528.0,1471.0,1011.0,137.0,293.01,1649153282.333953,1649153283.4470737,6ae0f959-8f61-48bb-b5b3-9bfc509de87c
0.0047511240069672,0.1055095833286311,-0.1060923893745648,-1.284768312671526,-0.4395433712907892,1.2701684235471389,-0.1498381047120962,-0.1720199572068645,-16.242462151632193,27.770175525539607,25.83017522758228,5.927111180336087,0.4336808002911219,0.9718038483204872,-1.0,11.932333333333332,0.0,179.29988329827336,1.520362578778305,95.0956856253337,1553.0,1761.0,1000.0,1528.0,1471.0,1011.0,137.0,293.01,1649153283.5546703,1649153284.676618,6ae0f959-8f61-48bb-b5b3-9bfc509de87c
0.0023843586293512,0.0991850605337863,-0.1128113735575743,-1.2749199309418189,-0.4434222375620733,1.2696030297913683,-0.1587003266712572,-0.1816973985793256,-16.47729047899053,27.88264414498756,26.097807212111707,5.903960591758218,0.4076134492191375,0.9983518098563358,-1.0,11.934555555555557,0.0,179.30446863193615,1.508977696933017,95.03943066950964,1553.0,1761.0,1000.0,1528.0,1471.0,1011.0,137.0,293.01,1649153284.7869098,1649153285.904456,6ae0f959-8f61-48bb-b5b3-9bfc509de87c
-0.0004754828713046,0.0854293329708978,-0.0975429970867225,-1.3027036996664367,-0.4386558342108388,1.310517937971989,-0.1411528424122715,-0.1589446736053056,-16.51901651371263,28.955619808078943,26.4745492586838,6.0664874282264,0.3573842860375684,0.9442171968314984,-1.0,11.84388888888889,0.0,179.29129243811727,1.5281239266892284,94.9134326520706,1553.0,1887.0,1000.0,1528.0,1471.0,1011.0,137.0,293.01,1649153287.0197458,1649153288.0679903,11bb4e2c-5649-4557-b15b-bcc25af94f91
0.0147687870589492,0.0998518089930429,-0.0921328561159547,-1.277611580962044,-0.4359850046186329,1.2695104410359972,-0.1464260178733971,-0.1649300702312746,-16.11988009979714,29.04042103751168,25.936293527499952,5.91868309553294,0.4106779328388398,0.9421629815535334,-1.0,11.848333333333333,0.0,179.29388335654244,1.5100116168186275,94.7481602879941,1553.0,1887.0,1000.0,1528.0,1471.0,1011.0,137.0,293.01,1649153288.179557,1649153289.3854887,11bb4e2c-5649-4557-b15b-bcc25af94f91
0.0021345333747453,0.0919795750668094,-0.0912475105306976,-1.2726977992894786,-0.4335344158338218,1.2729690960525843,-0.1449993841772326,-0.1693770694950095,-16.185204584100717,29.13592927965364,25.982755789094394,5.916022611239693,0.380655580374335,0.9346583381078066,-1.0,11.84988888888889,0.0,179.2917933186564,1.5200461607786306,94.58417655294096,1553.0,1887.0,1000.0,1528.0,1471.0,1011.0,137.0,293.01,1649153289.493374,1649153290.6161892,11bb4e2c-5649-4557-b15b-bcc25af94f91
-0.0453591065547453,0.1339562392312623,0.0119335994680943,0.4290211839202042,-0.1454809551552182,-0.412659760298359,-0.5046869589886466,-0.5257111823016732,-17.07159849901152,30.832645688096523,13.971330067300514,-1.6964470107895842,0.4478761109658913,0.9155330815673808,-1.0,11.988,0.0,179.2575771065543,0.9934149428418004,94.33732972178716,1553.0,1335.0,1000.0,1528.0,1471.0,1011.0,137.0,293.01,1649153292.3448555,1649153293.4792433,0917b761-2c65-4a09-89c8-796122f0656f
-0.0509073086636195,0.1287564778500316,0.0102735765307164,0.4330435889099673,-0.1437897039946968,-0.4105899359334303,-0.5048398126540253,-0.5334645325679803,-17.204536406435647,30.707149989072136,14.063034594294136,-1.7018362827718607,0.4278993622005457,0.915203938788062,-1.0,11.990333333333334,0.0,179.2813643787037,0.992545054217976,94.69132931955004,1553.0,1335.0,1000.0,1528.0,1471.0,1011.0,137.0,293.01,1649153293.5876262,1649153294.7141132,0917b761-2c65-4a09-89c8-796122f0656f
-0.0502235764999527,0.131149540502305,0.0101026434738979,0.4269557430526264,-0.1466955660739136,-0.4066847723724693,-0.5044190542697204,-0.5289545284806849,-17.065959994708724,30.799476373070423,14.15364201573101,-1.6786404394884484,0.4358312147299877,0.9192187514360868,-1.0,11.988111111111111,0.0,179.2784941814325,0.9886645462740566,94.96690847981236,1553.0,1335.0,1000.0,1528.0,1471.0,1011.0,137.0,293.01,1649153294.846358,1649153295.9441783,0917b761-2c65-4a09-89c8-796122f0656f
-0.0639042475546751,0.1498031570997532,0.0557214975597499,0.8421915316561378,-0.0680132152566448,-0.8263233632814687,-0.5869622100985302,-0.6132870052283345,-17.478817235746806,32.43964666120402,11.295332673020662,-3.5458136415488126,0.4858442389649631,0.8682955367476292,-1.0,11.959333333333332,0.0,179.2855201693587,0.8585992875508973,95.5268739498168,1553.0,1236.0,1000.0,1528.0,1471.0,1011.0,137.0,293.01,1649153297.87727,1649153299.0123692,d9f71e08-f8da-4967-ae2e-11a7323c5e9f
-0.070095092332587,0.1475843146650579,0.052078212974897,0.8403287998526645,-0.0714099619274825,-0.8232827257484464,-0.5891810532777744,-0.6126295695683422,-17.436223049906477,32.41777212865841,11.152232674673431,-3.535106846749685,0.4784870576501427,0.8805995085028658,-1.0,11.958444444444444,0.0,179.28746601436225,0.8414545285228787,95.67910900058754,1553.0,1236.0,1000.0,1528.0,1471.0,1011.0,137.0,293.01,1649153299.1207173,1649153300.241298,d9f71e08-f8da-4967-ae2e-11a7323c5e9f
-0.0590463519564288,0.1506490565323339,0.0534013005341318,0.8348019650212318,-0.0717479930135652,-0.8203823411359512,-0.5875582845003459,-0.6196148170849816,-17.409671551630673,32.445206752847014,11.278737576768462,-3.515840830635712,0.489437381899886,0.8774540348178241,-1.0,11.96,0.0,179.27685948949113,0.8404468503189229,95.83005086887547,1553.0,1236.0,1000.0,1528.0,1471.0,1011.0,137.0,293.01,1649153300.3498087,1649153301.670575,d9f71e08-f8da-4967-ae2e-11a7323c5e9f
-0.0727867401186917,0.1493604843214918,0.074741634413183,1.122534865237916,-0.0284361860825285,-1.097780552050177,-0.6558263386173495,-0.6721175799969542,-17.829431500674243,34.09641805940379,9.133499229330557,-4.776791151764706,0.4725433919400642,0.8849417728891515,-1.0,11.931,0.0,179.27348082258172,0.7408669195854827,96.06252091073632,1553.0,1133.0,1000.0,1528.0,1471.0,1011.0,137.0,293.01,1649153302.9945233,1649153304.1364214,82a29253-3ede-4bae-a343-6255e70fa4d9
-0.0682635884087928,0.1590247757846154,0.0784101206481372,1.111226987083241,-0.028672862619272,-1.094427632473204,-0.6516582004663714,-0.6764303534225868,-17.702500030822726,34.092899880678544,9.505338857139698,-4.743466379968083,0.5062211104206767,0.876013932622305,-1.0,11.936,0.0,179.27585469277324,0.746944845238393,96.12874490710897,1553.0,1133.0,1000.0,1528.0,1471.0,1011.0,137.0,293.01,1649153304.2453048,1649153305.360808,82a29253-3ede-4bae-a343-6255e70fa4d9
-0.0678428301097238,0.1529369295995864,0.077594901504289,1.1164996141448689,-0.0272528033765052,-1.0951639604239485,-0.6516450516321025,-0.6822420791869789,-17.722202069847345,34.054684857646414,9.240537076532574,-4.757360814954949,0.4851728616420036,0.8741103002394179,-1.0,11.939666666666668,0.0,179.26013615076332,0.7386859370191821,96.21064115198712,1553.0,1133.0,1000.0,1528.0,1471.0,1011.0,137.0,293.01,1649153305.4697983,1649153306.7946403,82a29253-3ede-4bae-a343-6255e70fa4d9
-0.0834629341557424,0.1579389126450714,0.1010708025633998,1.2777557696415631,-0.0003796070681594,-1.254820487947388,-0.6875771648330753,-0.719859966562297,-17.92792104958065,35.80826506331422,8.282639587027434,-5.467347338708325,0.4955430911472324,0.856472024576028,-1.0,11.900444444444444,0.0,179.25333024671033,0.6615851786294422,96.34673418901944,1553.0,1026.0,1000.0,1528.0,1471.0,1011.0,137.0,293.01,1649153307.3545198,1649153308.434589,ce514ff4-2816-4536-835e-b054a7962844
-0.0757243781608937,0.1579389126224955,0.0910586184077225,1.2629634859321537,-0.0092275840433519,-1.240247336148251,-0.6922613896640836,-0.7127925394231335,-18.019619373916697,35.56087865641474,8.364782383213281,-5.403403311730046,0.4966464118695111,0.8888638964433954,-1.0,11.910777777777776,0.0,179.2687285287392,0.6884012957947221,96.35030258340582,1553.0,1026.0,1000.0,1528.0,1471.0,1011.0,137.0,293.01,1649153308.5439568,1649153309.661765,ce514ff4-2816-4536-835e-b054a7962844
-0.0789008841729573,0.1657569080463775,0.0997504543917509,1.2464613250411425,-0.0045450044861545,-1.232791472785154,-0.6809272090752531,-0.707448140141658,-17.87721222408426,35.509470293058946,8.430370075611181,-5.349250016971289,0.5269613365674191,0.8555151455519066,-1.0,11.90611111111111,0.0,179.26582797507163,0.6859428605093242,96.3556566928052,1553.0,1026.0,1000.0,1528.0,1471.0,1011.0,137.0,293.01,1649153309.771003,1649153310.8907907,ce514ff4-2816-4536-835e-b054a7962844
-0.032443251373216,0.1230537788443617,-0.0187877820329255,-0.0727385282144882,-0.2198532750343251,0.0837172631540614,-0.3869924043672126,-0.4124817055857053,-16.766873379888636,29.06232134690828,17.68619901682575,0.5383055658148286,0.431703461513255,0.8915960221460222,-1.0,11.986666666666666,0.0,179.26760078861625,1.0942028624919642,96.35705536376524,1553.0,1435.0,1000.0,1528.0,1471.0,1011.0,137.0,293.01,1649153312.0064878,1649153313.1434476,7bbc6566-4069-4b4e-8f53-2527133d7152
-0.027649455721282,0.123314013450596,-0.02200647337957,-0.0714510516099908,-0.2230445735312027,0.0808135927772368,-0.3914848764594209,-0.4157414869535287,-16.79535168735332,29.09473044157016,17.44842081818695,0.5288787349769403,0.434626469984545,0.9064006347971422,-1.0,11.989555555555556,0.0,179.26190137520882,1.095243600708778,96.36036269314334,1553.0,1435.0,1000.0,1528.0,1471.0,1011.0,137.0,293.01,1649153313.2519495,1649153314.3805208,7bbc6566-4069-4b4e-8f53-2527133d7152
-0.0313749197772681,0.1272038360057998,-0.0168154775513491,-0.0739027357096018,-0.220113509677685,0.0782934260113576,-0.3869376181295619,-0.4031680437904865,-16.67066049918206,29.14149577831244,17.34736093404929,0.5293611292602397,0.4498605565383529,0.8892328366446867,-1.0,11.988111111111111,0.0,179.26702857054576,1.0985527680718126,96.3438116269646,1553.0,1435.0,1000.0,1528.0,1471.0,1011.0,137.0,293.01,1649153314.4951851,1649153315.6010764,7bbc6566-4069-4b4e-8f53-2527133d7152
0.0211513834247515,0.1500496951444196,0.1525561652833383,-0.0882293366714344,-0.0666572559114495,0.0611042450823682,-0.2112244422347887,-0.233508746385451,-15.474434147132529,29.03519873714384,17.53395644335605,0.5314128617060873,0.5379253986336244,0.2029516425741208,-1.0,11.991333333333332,0.0,179.2364399478028,1.0914862140394286,96.31227436683692,1553.0,1435.0,1000.0,1435.0,1471.0,1011.0,137.0,293.01,1649153316.5111358,1649153317.6485157,cf8d8e19-4e01-41e7-b34d-836240dd4629
0.0220285110624317,0.1536206618000068,0.1551196131144713,-0.0913658487457935,-0.0641743436576798,0.0612116261052067,-0.2088363100254003,-0.2303475799344966,-15.560252709764049,28.969936192125644,17.656270959437013,0.5384006720464322,0.5513896008245204,0.1932192432538236,-1.0,11.991888888888887,0.0,179.24395770934927,1.1078592565549743,96.30614085696224,1553.0,1435.0,1000.0,1435.0,1471.0,1011.0,137.0,293.01,1649153317.756832,1649153318.882192,cf8d8e19-4e01-41e7-b34d-836240dd4629
0.0265122165450191,0.1528185913518426,0.1583541922937668,-0.0871845631452593,-0.0615577529997155,0.0580690876977809,-0.2064038009607038,-0.2378817836065825,-15.460202187084294,29.0447898905347,17.66554236961799,0.52261612821241,0.5472825624987622,0.1817748242969675,-1.0,11.992,0.0,179.2666202770154,1.109849023469433,96.31342107970757,1553.0,1435.0,1000.0,1435.0,1471.0,1011.0,137.0,293.01,1649153318.9907887,1649153320.111284,cf8d8e19-4e01-41e7-b34d-836240dd4629
0.0991324657107284,0.1866764830427141,0.3815138524748661,-0.1036730291327212,0.1388283789329012,0.0268277853022029,0.0223046337608031,-0.0037692313923295,-13.780303920215236,28.993432430027354,17.513473002231898,0.5011994735533941,0.6799044663497033,-0.7160479657001991,-1.0,11.983,0.0,179.232479955904,1.1042293904660665,96.25356737310084,1553.0,1435.0,1000.0,1330.0,1471.0,1011.0,137.0,293.01,1649153321.0169914,1649153322.1538324,11975512-e9b1-457f-8e92-12dedce2b61a
0.1001668298052595,0.1876330506578121,0.3803162254809106,-0.1035557865718725,0.1375721306034644,0.0266710966745101,0.0208774523322177,-0.006529362125616,-13.785468452640586,28.989320080195284,17.629687488443746,0.5005119332674033,0.6824082957495445,-0.7103936512135484,-1.0,11.982222222222225,0.0,179.22795229939422,1.101213909379375,96.25914004855366,1553.0,1435.0,1000.0,1330.0,1471.0,1011.0,137.0,293.01,1649153322.262872,1649153323.3836737,11975512-e9b1-457f-8e92-12dedce2b61a
0.0925186715650172,0.1805228934242291,0.3813429194337635,-0.1009643975280728,0.1393148806776719,0.0311142603226143,0.0229094737926983,0.0009117044807389,-13.787444335105151,29.093606487845967,17.620707327142576,0.505390800058661,0.6555822590314152,-0.7179544590830781,-1.0,11.981666666666667,0.0,179.2267395613616,1.098803291347151,96.2685991016442,1553.0,1435.0,1000.0,1330.0,1471.0,1011.0,137.0,293.01,1649153323.492202,1649153324.617637,11975512-e9b1-457f-8e92-12dedce2b61a
0.1700055803458942,0.2252848885989752,0.6199374965651837,-0.0978580179047574,0.3529778965686945,-0.0287314838414347,0.2540476601564461,0.230119773381054,-12.334929599784637,29.40858513119294,17.551717475225686,0.3785908008714695,0.8285463730241863,-1.657060766948782,-1.0,11.96975,0.0,179.1922719603525,1.085207189118924,96.21713011628988,1553.0,1435.0,1000.0,1210.0,1471.0,1011.0,137.0,293.01,1649153326.384127,1649153327.3098686,a4ff4aec-63ec-4228-a515-ff0ff34074d4
0.1698138285122019,0.2242987364240461,0.6171023092133877,-0.1013232473928242,0.3492798260232568,-0.0234857017476686,0.2529519355392943,0.2379952941675259,-12.22910581781173,29.42671262219512,17.69046927399672,0.3982498651654506,0.8231161699767823,-1.6464865558784576,-1.0,11.97,0.0,179.18336482449234,1.0827307652971188,96.23540969464732,1553.0,1435.0,1000.0,1210.0,1471.0,1011.0,137.0,293.01,1649153327.4177942,1649153328.5020702,a4ff4aec-63ec-4228-a515-ff0ff34074d4
0.1770319146464215,0.2246822400452312,0.6186363236264265,-0.1013780336525225,0.3511288612941805,-0.0241294400145824,0.2555542815331923,0.2338315405343972,-12.16157903695015,29.337822724499176,17.661855151416788,0.396443435515335,0.8244326961967632,-1.6547119543975457,-1.0,11.968666666666667,0.0,179.1844075667057,1.083266579407945,96.23877014771897,1553.0,1435.0,1000.0,1210.0,1471.0,1011.0,137.0,293.01,1649153328.6115944,1649153329.7401626,a4ff4aec-63ec-4228-a515-ff0ff34074d4
0.217312943964426,0.247384010843444,0.7838902178786894,-0.0606241955487972,0.5004437999016674,-0.0938115063988022,0.4040901619942723,0.3863394234828601,-11.138583364567632,30.09840321299766,17.446639135003885,0.1616790181299251,0.9097165263748306,-2.291623035974577,-1.0,11.964444444444444,0.0,179.16249480202845,1.0891873692070595,96.21374509350994,1553.0,1435.0,1000.0,1071.0,1471.0,1011.0,137.0,293.01,1649153331.3526485,1649153332.3950176,5b802b8b-6366-451d-b6f6-3da04fbf7aed
0.2177243885538143,0.2484457680107348,0.7829676177481808,-0.0570833610654743,0.4992845233272167,-0.1001590398337782,0.4022855036714954,0.3840827786422872,-11.02009927998637,30.079888981300503,17.14496317058201,0.1392708884514546,0.9150391521021506,-2.286392515810357,-1.0,11.955444444444446,0.0,179.1622064162635,1.0851852340924515,96.18826621117609,1553.0,1435.0,1000.0,1071.0,1471.0,1011.0,137.0,293.01,1649153332.5029745,1649153333.622575,5b802b8b-6366-451d-b6f6-3da04fbf7aed
0.2323419030585276,0.25397150731397,0.7951060546846692,-0.0582311327118612,0.5103973621104818,-0.103331163014877,0.411992527936817,0.3888113782299938,-11.181813185908709,30.123833008552992,17.39774167674269,0.1355864108235805,0.9355798085539444,-2.3310114167418705,-1.0,11.959,0.0,179.1666263075664,1.0807746631518502,96.15603151284314,1553.0,1435.0,1000.0,1071.0,1471.0,1011.0,137.0,293.01,1649153333.7384708,1649153334.8485382,5b802b8b-6366-451d-b6f6-3da04fbf7aed
-0.1138632693981606,0.0834723687083441,-0.2471516151369589,-0.0345766273580384,-0.4264078208425019,0.0976598117748077,-0.6285690815413152,-0.6582719972273233,-18.324605589399408,29.576569003944805,17.34353546281536,0.4747517058967785,0.2781444974734224,1.821931076915196,-1.0,11.98088888888889,0.0,179.27827409755926,1.0973927505618375,96.2803622052148,1553.0,1435.0,1000.0,1613.0,1471.0,1011.0,137.0,293.01,1649153336.9920037,1649153338.1351776,9c92065c-86b1-43be-8b4f-c2bc84fe64fd
-0.1107601768859189,0.0756636867860921,-0.2531359162828484,-0.0294574014763204,-0.4292599928587026,0.099906595229082,-0.6335716143910972,-0.6510484297677779,-18.44010485884139,29.54580040370844,17.204164226835683,0.4676705059579542,0.2498997309349762,1.8399309606591352,-1.0,11.98388888888889,0.0,179.28329808114873,1.0981794199710873,96.2644509000883,1553.0,1435.0,1000.0,1613.0,1471.0,1011.0,137.0,293.01,1649153338.2676136,1649153339.365312,9c92065c-86b1-43be-8b4f-c2bc84fe64fd
-0.114875719018347,0.0831568000088836,-0.2456132174974234,-0.0355101848092002,-0.4234888096639483,0.0974494326461204,-0.6258341518010706,-0.6514346726254956,-18.37091405144747,29.4364108892634,17.165959778321575,0.4754806925555787,0.2790726218294325,1.8116926302895544,-1.0,11.985333333333331,0.0,179.28690593885034,1.102756239613361,96.2318784868464,1553.0,1435.0,1000.0,1613.0,1471.0,1011.0,137.0,293.01,1649153339.4778004,1649153340.7992756,9c92065c-86b1-43be-8b4f-c2bc84fe64fd
-0.1757229590539268,0.0549681868400018,-0.4479284063477988,0.0112350749259376,-0.6074796614537196,0.0935239989374845,-0.848950089358305,-0.8761103795735418,-19.977139170915727,30.171036921005804,17.16249433628981,0.3552007593691342,0.1661787771882656,2.6513116276048625,-1.0,11.97,0.0,179.28885937295294,1.0935317845480437,96.2120140200103,1553.0,1435.0,1000.0,1694.0,1471.0,1011.0,137.0,293.01,1649153341.9122078,1649153343.045335,f4a1542f-72dd-4c2d-af6c-a78b8fbae7b8
-0.1698635707551755,0.0555971328130047,-0.4382022039583406,0.0079068111418954,-0.5984585571477554,0.0940439203337456,-0.8366867324393559,-0.858671364007625,-19.80185783048018,30.056595569804184,16.973543175366814,0.3636606064903458,0.1699962071441944,2.608256234026032,-1.0,11.967444444444446,0.0,179.28368057174222,1.0956466411596453,96.16637014251684,1553.0,1435.0,1000.0,1694.0,1471.0,1011.0,137.0,293.01,1649153343.154333,1649153344.2737944,f4a1542f-72dd-4c2d-af6c-a78b8fbae7b8
-0.1811320044118433,0.0601465817018169,-0.442777951316945,0.0064867519663572,-0.6032183867824976,0.090769895040885,-0.8422749311885288,-0.8652983102060778,-19.827733826273526,29.989337046251595,16.917763524823684,0.3588111166213975,0.187620545127451,2.6294018144540097,-1.0,11.973444444444445,0.0,179.30322857314684,1.104423908561804,96.11050981984482,1553.0,1435.0,1000.0,1694.0,1471.0,1011.0,137.0,293.01,1649153344.3822744,1649153345.5103428,f4a1542f-72dd-4c2d-af6c-a78b8fbae7b8
-0.2286327701212576,0.0320812373638283,-0.6152593093715616,0.0672539998549044,-0.758484277382288,0.0704726911086025,-1.039565206643302,-1.0632054831269606,-21.318921646511765,30.87691418657867,16.651635618292733,0.1726269537847895,0.0768702914913732,3.352244414492892,-1.0,11.938666666666668,0.0,179.30173655626814,1.0859608044443,96.0074270870712,1553.0,1435.0,1000.0,1774.0,1471.0,1011.0,137.0,293.01,1649153347.4365604,1649153348.569899,bffb67f7-5a79-405f-b91a-c4a9ac50b46f
-0.2384997720733267,0.0254077261025051,-0.6317247698141619,0.0652745731981497,-0.7720082652789163,0.0811187520788021,-1.0534957118027102,-1.0827384330838477,-21.49162189079915,30.815753433252866,16.860891969740663,0.1997362875878991,0.0504071130616433,3.412317495455243,-1.0,11.945444444444444,0.0,179.30525789824026,1.0722014713670802,95.94550762769546,1553.0,1435.0,1000.0,1774.0,1471.0,1011.0,137.0,293.01,1649153348.6774766,1649153349.7987554,bffb67f7-5a79-405f-b91a-c4a9ac50b46f
-0.2463835121201577,0.018453161442894,-0.6364615892550671,0.0730202510021082,-0.7752488724799685,0.0821421589408496,-1.058274718276256,-1.0837503365844523,-21.481117530670385,30.91155413799884,17.013684274727847,0.1849925240972212,0.021642402522524,3.4294023522917,-1.0,11.94177777777778,0.0,179.31130489238546,1.0896824749161145,95.81917113643756,1553.0,1435.0,1000.0,1774.0,1471.0,1011.0,137.0,293.01,1649153349.9070923,1649153351.2373664,bffb67f7-5a79-405f-b91a-c4a9ac50b46f
-0.28118647197863317,0.004482671493851509,-0.7737011607906731,0.13317553539939667,-0.9015585986743755,0.0476405279883902,-1.2208940822038512,-1.246479276167837,-22.396787255266446,31.75260016159575,16.878027428804668,-0.029973598871910034,-0.039164616864619244,4.017708886590941,-1.0,11.885222222222222,0.0,179.32165035224827,1.0661946401571716,95.6179955035339,1553.0,1435.0,1000.0,1856.0,1471.0,1011.0,137.0,293.01,1649153353.1690435,1649153354.5180702,112ebca2-437c-4048-a0f0-39eb420de849
-0.29181774221891965,-0.001888967674616805,-0.782882242168354,0.14043251982494856,-0.9067298742403392,0.04553838017082789,-1.2313451131435107,-1.2581027333689523,-22.67337432635597,31.724499621789867,16.56807532391681,-0.05189945806991156,-0.05983342296939384,4.050820826425618,-1.0,11.896666666666667,0.0,179.31996860789266,1.0616689876438359,95.47695361499298,1553.0,1435.0,1000.0,1856.0,1471.0,1011.0,137.0,293.01,1649153354.6262772,1649153355.7411287,112ebca2-437c-4048-a0f0-39eb420de849
-0.28854371640130116,-0.004939465270442966,-0.7799500818415436,0.14458750768928647,-0.9032323194010823,0.04396053653977354,-1.2283340594708434,-1.2470972650374226,-22.6301268295234,31.747477908349147,16.48520101958709,-0.06451083113887292,-0.0711715208366302,4.037344321348031,-1.0,11.897666666666668,0.0,179.32603836933504,1.066650294408989,95.36591978311553,1553.0,1435.0,1000.0,1856.0,1471.0,1011.0,137.0,293.01,1649153355.8537362,1649153356.9718754,112ebca2-437c-4048-a0f0-39eb420de849
