raw_voltage_G-,raw_voltage_G0,raw_voltage_G1,raw_voltage_G2,raw_voltage_G3,raw_voltage_G4,raw_voltage_G5,raw_voltage_G6,load_x,load_y,load_z,load_l,load_m,load_n,rpm,voltage,current,roll,pitch,yaw,aileron1_pwm,elevator_pwm,throttle_pwm,rudder_pwm,aileron2_pwm,pbaro,pdiff,Tt,sample_start_time,sample_end_time,uid
-0.0008315934009706,0.1613904453227382,0.0679799174719495,-0.0208833555533592,-0.1458918519303887,-0.0049816506654459,-0.3162359704241278,-0.3318911397179311,-15.054520614866332,29.12335697624901,17.801487223325356,0.2276200953448257,0.5614650238524589,0.5782703336599154,-1.0,11.988444444444443,0.0,179.25951991591822,1.1091474942654622,96.02178035015702,1553.0,1435.0,1000.0,1528.0,1471.0,1011.0,137.0,293.01,1649152899.846646,1649152900.937935,135f6f3c-a0aa-4f2e-aa44-d3cb048f8a6c
0.0088009224766594,0.1624434367106712,0.0679043124573678,-0.0235974656628163,-0.1461696181728384,-0.0054522644253416,-0.3145386926356534,-0.3371544547197967,-14.916744347988878,29.002307788547487,17.53309358868306,0.2319052860860421,0.5671453204129123,0.576206257380986,-1.0,11.991125,0.0,179.24754014356893,1.0994342196960094,96.04229093391588,1553.0,1435.0,1000.0,1528.0,1471.0,1011.0,137.0,293.01,1649152901.0455282,1649152902.2086642,135f6f3c-a0aa-4f2e-aa44-d3cb048f8a6c
-0.0019810085793168,0.1639818341178142,0.0734793596414742,-0.0258721901859493,-0.1416201689339594,-0.0043609226152898,-0.3098183099471716,-0.3309482682634965,-14.987321049064828,29.07974165291052,17.643764233224484,0.2402619316637794,0.5730687082053733,0.5559306770482187,-1.0,11.992,0.0,179.23213844644553,1.0971419545532513,96.05766540514637,1553.0,1435.0,1000.0,1528.0,1471.0,1011.0,137.0,293.01,1649152902.32909,1649152903.440944,135f6f3c-a0aa-4f2e-aa44-d3cb048f8a6c
0.231297677483515,0.5579605749059628,0.0940718613483284,-0.2135939470974527,-0.2130049950132998,-0.2155251620551986,-0.3775143840328086,-0.4017162082349044,-14.59482344996565,28.153418736179137,17.75633489141561,0.1843021623164432,2.071355122043764,0.7683132700133356,-1.0,11.983,0.0,179.08778315724723,1.0935191558128594,96.03371193172713,1647.0,1435.0,1000.0,1528.0,1543.0,1011.0,137.0,293.01,1649152905.3697464,1649152906.5122516,89f77a8b-e046-4d94-90d6-25bb096773f3
0.232489278014443,0.5752593267571473,0.1041388317732009,-0.2234691668937144,-0.2075400675700917,-0.224578588259988,-0.3700908478946553,-0.3953062177245264,-14.494334054720758,28.07586391572504,17.65394672234977,0.1862553913974628,2.138284911452747,0.7385421777501238,-1.0,11.965,0.0,179.08468225136403,1.086191406334559,96.00042690208184,1647.0,1435.0,1000.0,1528.0,1543.0,1011.0,137.0,293.01,1649152906.6271603,1649152907.731238,89f77a8b-e046-4d94-90d6-25bb096773f3
0.2273530687993467,0.5656169504307985,0.0980712564115915,-0.2175522529421533,-0.2110326903615516,-0.2201682959170547,-0.3745970164999311,-0.394676175844897,-14.52255407197872,28.10812657785597,17.671412513998693,0.1827191261923904,2.101052469664657,0.7568626626734867,-1.0,11.965111111111112,0.0,179.09397737991452,1.0844405181715413,96.01981477349584,1647.0,1435.0,1000.0,1528.0,1543.0,1011.0,137.0,293.01,1649152907.8416617,1649152908.972469,89f77a8b-e046-4d94-90d6-25bb096773f3
0.4925732102391171,1.031286205044487,0.12698469106979,-0.4394091449532977,-0.2949926048698787,-0.4653093432002802,-0.4528454719763941,-0.468295194275081,-14.01082562103354,27.44566688742588,18.4584169637676,0.1297404691293405,3.866135264962736,0.9993565513528836,-1.0,11.955333333333336,0.0,178.75194275575768,1.0821937060997244,96.03666029671884,1745.0,1435.0,1000.0,1528.0,1614.0,1011.0,137.0,293.01,1649152910.8967288,1649152912.0360014,018498e3-7231-45bb-9612-a99b8788233b
0.4900826282504466,1.0335970882746972,0.1361591936548285,-0.4326666016498855,-0.2857956384193489,-0.4753078333910954,-0.4462492078562389,-0.4753604286054124,-14.007316698361688,27.454703595337573,18.30225243004389,0.0925566080688692,3.875913345512685,0.9650496441169868,-1.0,11.933,0.0,178.73791810066194,1.078527104028093,96.06766935555068,1745.0,1435.0,1000.0,1528.0,1614.0,1011.0,137.0,293.01,1649152912.1442947,1649152913.271681,018498e3-7231-45bb-9612-a99b8788233b
0.4925808803086369,1.030231022234828,0.1299267117873192,-0.4391226128944452,-0.2915284707769648,-0.4649335095442021,-0.4498125053445411,-0.4657618781979651,-14.068681870126303,27.43843783784564,18.42579676199708,0.1300029189485995,3.863027399810613,0.9861010130222015,-1.0,11.93,0.0,178.75062377033794,1.087458513147302,96.08090474434236,1745.0,1435.0,1000.0,1528.0,1614.0,1011.0,137.0,293.01,1649152913.3856685,1649152914.6942122,018498e3-7231-45bb-9612-a99b8788233b
0.6942555640998939,1.371597468310127,0.1706745202470644,-0.6172480506932067,-0.3421378105419121,-0.6440319538568336,-0.4922433584793184,-0.5242209971926745,-13.6788116685441,27.61656125176817,17.187024983164704,0.1325607014554419,5.176096187844755,1.0980974258401397,-1.0,11.929,0.0,178.3725485146607,1.0847044765238405,96.08940301748969,1849.0,1435.0,1000.0,1528.0,1686.0,1011.0,137.0,293.01,1649152915.3202598,1649152916.3355694,7e434971-4a80-4344-9254-3f13c9e20251
0.6806680314408017,1.3824796585453658,0.1746350169744743,-0.6208612042077403,-0.3414924286578595,-0.6507197119184859,-0.4910999695523677,-0.5065633887174139,-13.60261300690096,27.65189214763513,17.29785959680451,0.1261702484450774,5.21608590785963,1.0916720324028206,-1.0,11.886,0.0,178.33496426038786,1.1034183410760292,96.11540554765992,1849.0,1435.0,1000.0,1528.0,1686.0,1011.0,137.0,293.01,1649152916.446262,1649152917.5652149,7e434971-4a80-4344-9254-3f13c9e20251
0.6868177856487897,1.384465659592366,0.1711834843449207,-0.6190806508928728,-0.34476590663219,-0.6536370800761948,-0.4947706481429801,-0.5239717192294133,-13.541823789109872,27.589367802539403,17.365811116739774,0.1150531275107726,5.222063022158078,1.1064816413717846,-1.0,11.885666666666664,0.0,178.34073652914643,1.0972396879198123,96.14898123979988,1849.0,1435.0,1000.0,1528.0,1686.0,1011.0,137.0,293.01,1649152917.6740313,1649152918.799081,7e434971-4a80-4344-9254-3f13c9e20251
0.7285374990765515,1.434375921431583,0.2169299882239918,-0.6671555882128045,-0.3254126661774572,-0.6832353539114656,-0.467624062212788,-0.4920450324441199,-13.368174571071116,28.54891310437158,14.087091023187794,0.1651907102114981,5.445922427678132,0.9798342512148362,-1.0,11.848,0.0,178.33082971921033,1.1030574082670763,96.09592584814705,1962.0,1435.0,1000.0,1528.0,1760.0,1011.0,137.0,293.01,1649152919.9091885,1649152921.048827,80e1c691-4628-49a1-9114-d38cfbc998b0
0.7339202460930782,1.4467439146526626,0.2231345289917653,-0.680879544898182,-0.3238101685118711,-0.6820437529539776,-0.4608031743989051,-0.4841010265096697,-13.188146215713555,28.49135101186977,14.232485402267196,0.1988674375969453,5.491829170177117,0.9612134127020368,-1.0,11.784888888888888,0.0,178.3121893740554,1.0975793356774457,95.87306967699796,1962.0,1435.0,1000.0,1528.0,1760.0,1011.0,137.0,293.01,1649152921.158261,1649152922.480651,80e1c691-4628-49a1-9114-d38cfbc998b0
0.7255105599224403,1.432211865176085,0.2169984709955869,-0.6679773820756131,-0.3251113419084151,-0.6802905927325856,-0.4660078679500818,-0.4904425348423831,-13.31261223544282,28.524875621578648,14.103173168627537,0.1735363422439879,5.437375222979564,0.9768317182071464,-1.0,11.781999999999998,0.0,178.3161721332514,1.0890739833236505,95.74038718109118,1962.0,1435.0,1000.0,1528.0,1760.0,1011.0,137.0,293.01,1649152922.5898533,1649152923.708173,80e1c691-4628-49a1-9114-d38cfbc998b0
-0.2910682664242844,-0.3716171926512095,0.0469978854618442,0.2352740622234439,-0.047567539654935,0.2695001167244399,-0.2214196136354939,-0.2414713779331511,-15.228146422883452,30.73402151828364,16.37753252853085,0.2759070398029645,-1.4566296232010083,0.2729127989231605,-1.0,11.830555555555556,0.0,179.4341754420945,1.0836385045525934,95.52146671672386,1459.0,1435.0,1000.0,1528.0,1394.0,1011.0,137.0,293.01,1649152925.322523,1649152926.5853808,ee0cbd9c-3524-4bde-9155-5909549e38aa
-0.2889644747513088,-0.3715777465645618,0.0464456402213097,0.2312768587616612,-0.0482907179706666,0.2739049297120101,-0.2207753274506206,-0.2442851991920256,-15.247652056063194,30.712255427805147,16.48660763767551,0.2946577348102563,-1.456853587496889,0.2738520971385528,-1.0,11.977222222222222,0.0,179.40399511288194,1.0657103726302373,95.50108391442072,1459.0,1435.0,1000.0,1528.0,1394.0,1011.0,137.0,293.01,1649152926.701064,1649152927.8056872,ee0cbd9c-3524-4bde-9155-5909549e38aa
-0.282021962137494,-0.3699401857094578,0.049653922111369,0.2349683550446978,-0.0453180167900939,0.2681140250647211,-0.2190177848647253,-0.2358234643438318,-15.210642344557082,30.72169705167903,16.393578869921893,0.2735438287675902,-1.4504001267972095,0.2630488734388223,-1.0,11.97888888888889,0.0,179.4215684307065,1.0713174954780924,95.49685147386504,1459.0,1435.0,1000.0,1528.0,1394.0,1011.0,137.0,293.01,1649152927.914878,1649152929.0341704,ee0cbd9c-3524-4bde-9155-5909549e38aa
-0.54573226927979,-0.8285476854333411,0.0267620418330964,0.4722792951309305,0.0346512596406731,0.5000493391157331,-0.1477737592211332,-0.1769507186024048,-15.47251539841228,32.4148893193393,16.717721379116057,0.2694224718933631,-3.2021170393972294,0.0300640007944115,-1.0,11.956555555555552,0.0,179.56744457536,1.0751111200955386,95.43137576266147,1364.0,1435.0,1000.0,1528.0,1312.0,1011.0,137.0,293.01,1649152929.944451,1649152931.0827205,2813fd1f-b890-40c4-8526-234cf47ebad0
-0.5297697474875919,-0.830690923971162,0.0233959755617694,0.4674537240264227,0.0316402081773161,0.5089510056616084,-0.1491412237440381,-0.1771742465292475,-15.54318988820707,32.41041840515019,17.034956958832375,0.3001287589218503,-3.212086256653578,0.0407986589531426,-1.0,11.93511111111111,0.0,179.56066447424388,1.0702823067899798,95.31630073552508,1364.0,1435.0,1000.0,1528.0,1312.0,1011.0,137.0,293.01,1649152931.1921818,1649152932.1674063,2813fd1f-b890-40c4-8526-234cf47ebad0
-0.5343717924647955,-0.8327684189976974,0.0186492961569235,0.4667173971102166,0.0273142870696145,0.512040948999651,-0.1531515764145334,-0.1729535147362176,-15.554347704039255,32.41837602428644,17.05469026581795,0.3085471754175621,-3.22018417123749,0.0586297840318664,-1.0,11.938,0.0,179.5547237274858,1.0724066497754288,95.1957410664852,1364.0,1435.0,1000.0,1528.0,1312.0,1011.0,137.0,293.01,1649152932.275987,1649152933.3348837,2813fd1f-b890-40c4-8526-234cf47ebad0
-0.8221179700101474,-1.3168248632813633,0.0101552382787901,0.7234719643250845,0.1216561820257119,0.748743756081877,-0.068079506599908,-0.0901298716442743,-15.635148416260757,34.76830697243602,17.156986687787857,0.276405252011576,-5.068135511658948,-0.2366097651677038,-1.0,11.9055,0.0,179.71455774316317,1.05996766578417,94.9930517877705,1262.0,1435.0,1000.0,1528.0,1222.0,1011.0,137.0,293.01,1649152935.4742863,1649152936.6143458,619e662f-1944-4fb2-86c1-21706b9d0aa8
-0.7882606090990684,-1.2952527635890554,0.0052222856660702,0.7106087056022403,0.1132196499653048,0.7388920963620812,-0.0774638410975122,-0.0964746658227591,-15.770411522129086,34.619382202177334,17.02488129086796,0.2819616026006087,-4.9838303223589655,-0.2027558075535347,-1.0,11.89,0.0,179.70693525204945,1.0490170582756413,94.78034945173256,1262.0,1435.0,1000.0,1528.0,1222.0,1011.0,137.0,293.01,1649152936.7233474,1649152937.8402512,619e662f-1944-4fb2-86c1-21706b9d0aa8
-0.7880551607278687,-1.2698867142143346,0.0096051844790861,0.6962684101498592,0.1117952078979832,0.7261132084261206,-0.0790663385315021,-0.110568425207081,-15.855005703701885,34.5698226055199,16.876126843502774,0.2854173359619733,-4.884732461814945,-0.2018134906608275,-1.0,11.889111111111111,0.0,179.71659769299526,1.0611363633262154,94.6336893531443,1262.0,1435.0,1000.0,1528.0,1222.0,1011.0,137.0,293.01,1649152937.9498231,1649152939.0700796,619e662f-1944-4fb2-86c1-21706b9d0aa8
-0.8099148783683106,-1.3386298053457055,0.0380118472496015,0.7501780595645976,0.1528437929953384,0.7348790050832607,-0.04775600434067,-0.0687117403634641,-16.039902563439338,35.36211297832934,15.826065401244524,0.18991448286314,-5.13676869046876,-0.3508045291342498,-1.0,11.80488888888889,0.0,179.70356569205887,1.054269734622662,94.28158247669144,1153.0,1435.0,1000.0,1528.0,1121.0,1011.0,137.0,293.01,1649152941.0037715,1649152942.1367798,a9e71d86-f69d-446b-b86c-c89bfd5f05ac
-0.812448742996091,-1.3409171328087506,0.0378474885629637,0.7532460883930515,0.1531314207333568,0.7324821075593607,-0.0479066664608502,-0.0796689876773986,-15.981849019499828,35.36506735895101,15.566943248399625,0.1776069308089044,-5.143849964124986,-0.3513336881116251,-1.0,11.742555555555557,0.0,179.70239697080092,1.0525067987648582,94.0121087466372,1153.0,1435.0,1000.0,1528.0,1121.0,1011.0,137.0,293.01,1649152942.246479,1649152943.3734312,a9e71d86-f69d-446b-b86c-c89bfd5f05ac
-0.8213789033374818,-1.334315385218645,0.0339987555500784,0.741439656032608,0.1482006597583255,0.7359747296757462,-0.0510705716469373,-0.074053398133311,-16.077713534527586,35.25082762767974,15.412466405056485,0.2110659074125692,-5.115834069050299,-0.3344095778005469,-1.0,11.747222222222222,0.0,179.71532575998984,1.060955315881341,93.73363434507672,1153.0,1435.0,1000.0,1528.0,1121.0,1011.0,137.0,293.01,1649152943.4814112,1649152944.5992525,a9e71d86-f69d-446b-b86c-c89bfd5f05ac
0.0174396160183943,0.1789220397136569,0.0774031497188615,-0.0348127560138839,-0.1405228005761244,-0.0139802898489478,-0.307552350948628,-0.3373012815803231,-14.90605329479441,28.891797437892336,17.21287210460026,0.2377353502092798,0.633693690610695,0.5471168287151965,-1.0,11.811888888888893,0.0,179.22537655916722,1.0830336414981263,93.39943698353753,1553.0,1435.0,1000.0,1528.0,1471.0,1011.0,137.0,293.01,1649152946.3197591,1649152947.361529,ab95c3db-5a73-4d99-bee3-39661fd9d02e
0.0038800228493869,0.1674169309063353,0.0695276285823259,-0.0265537309554625,-0.1451111480400986,-0.0104191845314136,-0.3166468672410716,-0.340684331918779,-15.185912471505846,29.06827525103548,17.13179391809006,0.227731238343348,0.5917287700548032,0.5753479803575471,-1.0,11.991,0.0,179.23179997262665,1.0833423873929515,93.71958009249454,1553.0,1435.0,1000.0,1528.0,1471.0,1011.0,137.0,293.01,1649152947.470335,1649152948.490515,ab95c3db-5a73-4d99-bee3-39661fd9d02e
0.0127416963769968,0.1727996782427051,0.075334969375758,-0.0306626986456057,-0.140536497149181,-0.0133639447047847,-0.3100040353241463,-0.3413965530376388,-15.054746055547763,28.9392902450368,16.973933891553806,0.2298577650926629,0.6132599598431397,0.5522804216588825,-1.0,11.98911111111111,0.0,179.24272979311849,1.1039451905635704,94.02873494489684,1553.0,1435.0,1000.0,1528.0,1471.0,1011.0,137.0,293.01,1649152948.5988362,1649152949.7179718,ab95c3db-5a73-4d99-bee3-39661fd9d02e
0.0273970142461659,0.1639517016971796,0.0471200587638498,-0.4823067765707626,-0.2158949691733553,0.434718951812867,-0.2124571326043478,-0.234193573789512,-14.7515811922568,28.19271105864784,20.58978203521712,2.249933163714914,0.5996874876149519,0.5550830008409208,-1.0,11.987333333333332,0.0,179.23684520569358,1.2526780025475928,94.63038809504548,1553.0,1537.0,1000.0,1528.0,1471.0,1011.0,137.0,293.01,1649152951.8587844,1649152952.9987123,2d7ec243-8d90-4ff9-b86d-fce58379dbd9
0.0286028592784867,0.1490975104194642,0.0368207945158912,-0.4780690602951161,-0.2222085355076909,0.446047648399839,-0.2194999037956955,-0.2442851990851873,-14.88028433007858,28.226801445605112,20.61943376574711,2.265484103377184,0.5434492718208993,0.5859263655028284,-1.0,11.978333333333332,0.0,179.24246417465076,1.2589154949375976,94.71919952700334,1553.0,1537.0,1000.0,1528.0,1471.0,1011.0,137.0,293.01,1649152953.1067302,1649152954.2204666,2d7ec243-8d90-4ff9-b86d-fce58379dbd9
0.0396346154985796,0.164415741080462,0.0487598107494811,-0.4834074323213004,-0.2152791718440051,0.4356864766325021,-0.209454298810929,-0.2260874018892522,-14.574922526307848,28.17446597735238,20.664983626863787,2.2546517437764906,0.5997502174055523,0.548017297810111,-1.0,11.979111111111113,0.0,179.24980890473827,1.260429555777519,94.78439595936082,1553.0,1537.0,1000.0,1528.0,1471.0,1011.0,137.0,293.01,1649152954.3278043,1649152955.3789709,2d7ec243-8d90-4ff9-b86d-fce58379dbd9
0.0454764716572359,0.1499949089150615,0.0156179737740885,-0.9366081116317913,-0.2952939292131749,0.8885954681412329,-0.1195533679648396,-0.1421389954613853,-14.620495124429905,27.710666711865542,23.93714915256777,4.290482257259244,0.5706745825796727,0.5732314465537178,-1.0,11.974,0.0,179.2503279991152,1.4027121078641105,94.92481933632696,1553.0,1645.0,1000.0,1528.0,1471.0,1011.0,137.0,293.01,1649152956.366401,1649152957.411975,21ae3c0f-9ec1-4833-a616-fc74b5e51f17
0.0459421546618234,0.1484608943923003,0.0184120717530017,-0.9426346008906002,-0.2932805348209857,0.8950876363699919,-0.1141569235539465,-0.1444537134860927,-14.541904351474136,27.693214043285806,23.88884722914547,4.318720601951488,0.5657117727492917,0.5587526214655693,-1.0,11.956777777777775,0.0,179.26049283841996,1.4063045620661585,94.90748507512336,1553.0,1645.0,1000.0,1528.0,1471.0,1011.0,137.0,293.01,1649152957.521304,1649152958.52233,21ae3c0f-9ec1-4833-a616-fc74b5e51f17
0.0423262631765125,0.1522000547828454,0.0213157422105706,-0.9436070571789226,-0.2915547681889607,0.8925400766894739,-0.1120887430830969,-0.1319624514076468,-14.499166889672884,27.69916832458697,23.939031830401703,4.315403086045666,0.5792925358888722,0.5500415308948073,-1.0,11.961666666666666,0.0,179.26759623515676,1.4062434461026476,94.89089226889966,1553.0,1645.0,1000.0,1528.0,1471.0,1011.0,137.0,293.01,1649152958.635281,1649152959.7617695,21ae3c0f-9ec1-4833-a616-fc74b5e51f17
0.0601991764435521,0.1359488145244808,-0.0115269622421895,-1.3169169048144187,-0.367738326582089,1.2694978400413874,-0.0482381232334448,-0.0644373177258545,-14.531956751006112,27.952063247217925,26.50984775075681,6.005007488279968,0.539672175336065,0.6059244034238214,-1.0,11.948333333333332,0.0,179.2583785154169,1.514806540053617,94.8940880385213,1553.0,1761.0,1000.0,1528.0,1471.0,1011.0,137.0,293.01,1649152960.8702526,1649152962.0139072,92a67960-c3a9-4112-9c71-8dcaa30d0ddd
0.0531054548366496,0.1457763689796123,-0.0043379124227737,-1.3094835015348052,-0.3623385943458615,1.2521432046375411,-0.0459343619810708,-0.076244847709149,-14.424782305692654,27.95935603754816,26.42063883500732,5.949687408636447,0.5761042416951769,0.5866906886437216,-1.0,11.927,0.0,179.251243244464,1.5198372233946449,94.82673554311582,1553.0,1761.0,1000.0,1528.0,1471.0,1011.0,137.0,293.01,1649152962.1450715,1649152963.2317278,92a67960-c3a9-4112-9c71-8dcaa30d0ddd
0.0547819136090383,0.1485978599736274,0.0025421430213652,-1.3138927019583084,-0.3573771520781829,1.2528252932509614,-0.0376797197840626,-0.058743932337455,-14.247647962365024,27.928835673602133,26.39113265504769,5.961390947829217,0.586672855735602,0.5591994253453444,-1.0,11.920333333333334,0.0,179.2654227171809,1.5335500850979804,94.76228208355803,1553.0,1761.0,1000.0,1528.0,1471.0,1011.0,137.0,293.01,1649152963.3411312,1649152964.4228427,92a67960-c3a9-4112-9c71-8dcaa30d0ddd
0.0567761325039598,0.1374214684518095,0.0107830885110519,-1.294787080935258,-0.3558738175716152,1.2450209943379915,-0.0431539604938239,-0.0703416306527495,-14.389199109441073,29.23843107502448,26.22169679182785,5.90974959390967,0.5454504933389549,0.5516523945409442,-1.0,11.901666666666666,0.0,179.25984472935872,1.534120998792042,94.60652569081516,1553.0,1887.0,1000.0,1528.0,1471.0,1011.0,137.0,293.01,1649152965.375847,1649152966.5133946,63ba05ce-efa0-48f0-b26d-8d90c6aec165
0.059529140789314,0.1339288460855003,0.010755695330732,-1.3289737268520696,-0.3585446471037796,1.2805909583070756,-0.0317447269340275,-0.0506459786324946,-14.317377703383626,29.101582269050056,26.3615665903087,6.065946647594937,0.53480808961154,0.5386644896198346,-1.0,11.833333333333334,0.0,179.24761413728496,1.513092696180473,94.40889720282048,1553.0,1887.0,1000.0,1528.0,1471.0,1011.0,137.0,293.01,1649152966.6227386,1649152967.7418149,63ba05ce-efa0-48f0-b26d-8d90c6aec165
0.0567350428317531,0.1436807955593027,0.0046059404603569,-1.2936913559592709,-0.362119449445687,1.2394191021919587,-0.050522709335417,-0.07249199079921,-14.350820460629825,29.12591366197026,26.389535245141627,5.893682308185189,0.5666391793455041,0.5801475582934392,-1.0,11.841666666666663,0.0,179.24927159652356,1.5158248429962815,94.23850371468626,1553.0,1887.0,1000.0,1528.0,1471.0,1011.0,137.0,293.01,1649152967.850921,1649152968.9706137,63ba05ce-efa0-48f0-b26d-8d90c6aec165
-0.0270424241686667,0.1670191828520796,0.1063905459719472,0.401144854427465,-0.0701701493860745,-0.4225026572313983,-0.40176715895198,-0.4134169067290644,-15.350655629228134,30.60191879430716,14.281598871615731,-1.6515935985344017,0.5663682630650806,0.5431579555631808,-1.0,11.86925,0.0,179.2532433515259,1.0069101159812763,94.01664807138684,1553.0,1335.0,1000.0,1528.0,1471.0,1011.0,137.0,293.01,1649152970.904949,1649152971.8336887,9c9bd31e-bbf2-4c7b-a4b6-a2167da14797
-0.0183779388903549,0.1682450458738014,0.1062186014830667,0.4031515475943287,-0.070416434597504,-0.425431277107163,-0.4025474836587118,-0.4299953930821311,-15.31317865470267,30.590179948145227,14.294975253622123,-1.662766589262784,0.5703240210391523,0.5450546173286159,-1.0,11.99088888888889,0.0,179.25177751703902,0.9813949364094724,94.35163745027852,1553.0,1335.0,1000.0,1528.0,1471.0,1011.0,137.0,293.01,1649152971.9425793,1649152973.0675943,9c9bd31e-bbf2-4c7b-a4b6-a2167da14797
-0.0002585293338577,0.1743693038094221,0.1086784190690049,0.4012368952887839,-0.0695653093512075,-0.4279067725371341,-0.401333251911095,-0.4160729437469825,-15.285199999713653,30.59349503752704,14.559271244162892,-1.663809698845612,0.591144967297354,0.5399287643025834,-1.0,11.99177777777778,0.0,179.26306554300734,0.980913076049902,94.67550680688277,1553.0,1335.0,1000.0,1528.0,1471.0,1011.0,137.0,293.01,1649152973.1758292,1649152974.2937558,9c9bd31e-bbf2-4c7b-a4b6-a2167da14797
-0.0243759781459087,0.1821270343006026,0.1388870001725499,0.8423011041106007,-0.0019958008640686,-0.8615646261952282,-0.5043034553082143,-0.5264918871563196,-15.761946609667673,32.41677562491492,11.431710885961555,-3.620377193063929,0.5989764971323875,0.552639780886189,-1.0,11.976111111111113,0.0,179.24344316843178,0.8317502408104003,95.21535433414184,1553.0,1236.0,1000.0,1528.0,1471.0,1011.0,137.0,293.01,1649152976.4347277,1649152977.572789,9cd950de-3176-4215-a651-c259b55414ef
-0.0339498728814186,0.1691426972225022,0.1292583197360688,0.8370690191948942,-0.0090358320962727,-0.8440741119486455,-0.507878257981545,-0.5397364624306138,-15.78510342505563,32.373071130496264,11.37448243049475,-3.5700613159524246,0.5509814847269644,0.5787473123626904,-1.0,11.953444444444443,0.0,179.24396833408798,0.8343298170898275,95.37516785925172,1553.0,1236.0,1000.0,1528.0,1471.0,1011.0,137.0,293.01,1649152977.681338,1649152978.8013008,9cd950de-3176-4215-a651-c259b55414ef
-0.0223077977477642,0.1876193540938493,0.1484335012715507,0.8310836236270198,0.0047429061038941,-0.8578117671911419,-0.492236784020736,-0.5066318712448041,-15.589165250559432,32.330048832411755,11.3451992276886,-3.5866665172081684,0.6211047206999131,0.5138687404287742,-1.0,11.957333333333334,0.0,179.25087441424878,0.8349935964548698,95.49279282367824,1553.0,1236.0,1000.0,1528.0,1471.0,1011.0,137.0,293.01,1649152978.9097335,1649152980.03004,9cd950de-3176-4215-a651-c259b55414ef
-0.0366278240775495,0.191620392634693,0.1546199626495401,1.0760016313280405,0.0259862687088665,-1.0978068492246351,-0.5666387024086557,-0.5887285190476945,-15.861818571423612,34.02188009962852,9.565771909658084,-4.667340030716579,0.6240780724938845,0.5816709962288283,-1.0,11.951555555555558,0.0,179.25061334924052,0.7128427957165281,95.65194078479898,1553.0,1133.0,1000.0,1528.0,1471.0,1011.0,137.0,293.01,1649152980.9406471,1649152982.0780785,cfee03a1-636e-43fc-a361-132ff72e8073
-0.0290054150678935,0.1923857562996297,0.1702932080814205,1.0937699021555882,0.0435863466075331,-1.115457891730438,-0.5560490680521195,-0.5691155893723076,-15.972009422577251,34.05082266343657,9.590435896737045,-4.746164394718375,0.6263163956175491,0.5214515637699394,-1.0,11.937,0.0,179.24329138645027,0.7348751420650727,95.76909143053314,1553.0,1133.0,1000.0,1528.0,1471.0,1011.0,137.0,293.01,1649152982.2133243,1649152983.3063328,cfee03a1-636e-43fc-a361-132ff72e8073
-0.0310462023469144,0.191755714631014,0.1668553719412427,1.0902498866653316,0.0405731036418001,-1.1122802873277593,-0.5575693866100276,-0.5807850608980628,-15.937705050661044,33.95723841767475,9.475535156793418,-4.731876211262709,0.6249427823879787,0.5321997106824281,-1.0,11.941333333333334,0.0,179.25184278329112,0.7355204348590801,95.87508230607338,1553.0,1133.0,1000.0,1528.0,1471.0,1011.0,137.0,293.01,1649152983.4143405,1649152984.7406113,cfee03a1-636e-43fc-a361-132ff72e8073
-0.036113929198265,0.1929062254882783,0.1740323684095673,1.26318263113483,0.0540642138946329,-1.277885513150558,-0.6102874571569757,-0.635133023146277,-16.06247163190383,35.62655811957985,8.53722247170062,-5.482896056706179,0.617648778038228,0.5786603172813831,-1.0,11.93311111111111,0.0,179.25281115233344,0.671649942619132,96.02323062699078,1553.0,1026.0,1000.0,1528.0,1471.0,1011.0,137.0,293.01,1649152986.3191688,1649152987.4096706,edc01670-0cb6-400b-8dc7-9f9b034e4f3c
-0.0403461659295567,0.1976315380222476,0.173662561309569,1.2478972716309211,0.0520234266276845,-1.2688594722673547,-0.6072468201405524,-0.6224363090887307,-16.027633589822937,35.484616639955696,8.489441689053809,-5.429082752650781,0.6374045816694299,0.5780677796269565,-1.0,11.893666666666668,0.0,179.25756192835613,0.6624931194703616,95.99864649943817,1553.0,1026.0,1000.0,1528.0,1471.0,1011.0,137.0,293.01,1649152987.5232928,1649152988.6185007,edc01670-0cb6-400b-8dc7-9f9b034e4f3c
-0.0423047738689699,0.1914269972124296,0.1710465186112992,1.2501845977102146,0.0519412471187848,-1.264435482264087,-0.6098628638085836,-0.6229704750760173,-16.28323976438175,35.52287571053503,8.534271837556298,-5.424299260562383,0.6150987573893939,0.5846084346339775,-1.0,11.896444444444446,0.0,179.2555659952987,0.6662486266518927,95.98416042711848,1553.0,1026.0,1000.0,1528.0,1471.0,1011.0,137.0,293.01,1649152988.727042,1649152989.6655414,edc01670-0cb6-400b-8dc7-9f9b034e4f3c
0.0180839021544228,0.1651652167475613,0.076043355394612,-0.0913789974536997,-0.1464588895021568,0.0545320884189976,-0.2897008017395285,-0.3186542352679173,-14.887176767594724,28.923490999117003,17.694192729247483,0.5195200130015701,0.584576553293162,0.5301572417828105,-1.0,11.895,0.0,179.2537522006191,1.080515542850213,95.95284021522444,1553.0,1435.0,1000.0,1528.0,1471.0,1011.0,137.0,293.01,1649152991.3180726,1649152992.3219416,328f540e-f32b-482e-8024-9a79ccac6572
0.0100023846340899,0.1612808728504823,0.0718012572889791,-0.085517417943031,-0.1501103923037353,0.0526123787555262,-0.2957459157172641,-0.3089767935830529,-14.940195282011723,29.06271571953249,17.60660288666534,0.5026549406141587,0.570171209456034,0.5488837551161131,-1.0,11.986444444444446,0.0,179.25204465332658,1.0779705147585408,95.97914858608752,1553.0,1435.0,1000.0,1528.0,1471.0,1011.0,137.0,293.01,1649152992.4343295,1649152993.5544078,328f540e-f32b-482e-8024-9a79ccac6572
0.0119960557303061,0.1636399680327999,0.0742814301123969,-0.0841340654532653,-0.1479709896797286,0.0477342124512799,-0.2941976564879758,-0.3183781128218046,-14.900553912441785,29.036790285270204,17.438530336237555,0.4885173412231491,0.5802147713655559,0.5404835626354355,-1.0,11.990111111111112,0.0,179.26584922454907,1.083472647163842,96.02031337730529,1553.0,1435.0,1000.0,1528.0,1471.0,1011.0,137.0,293.01,1649152993.6681316,1649152994.7776463,328f540e-f32b-482e-8024-9a79ccac6572
0.054392931317796,0.1899066792933399,0.2310374429254039,-0.1003918813512457,-0.0072552794448193,0.0305883124605611,-0.1336745208099242,-0.1544795952012778,-13.898053114845766,28.998694313952345,17.748048131512537,0.494768696457281,0.6808307403777909,-0.0892137839617184,-1.0,11.989,0.0,179.2371001994226,1.090152406160572,96.00589029450794,1553.0,1435.0,1000.0,1435.0,1471.0,1011.0,137.0,293.01,1649152996.8194685,1649152997.7715046,69115c6a-762b-47e8-a7a2-b97770f73260
0.0585429885773386,0.1864277535383858,0.2275311240953908,-0.1029257448236214,-0.0107342053969411,0.0346972800736988,-0.1347702455726137,-0.1482613571596359,-13.77421309953498,28.969387432269382,17.49801999514753,0.5093714823665383,0.669211331392919,-0.0788329617060227,-1.0,11.994999999999996,0.0,179.2375282246106,1.10394536843308,96.0321113907316,1553.0,1435.0,1000.0,1435.0,1471.0,1011.0,137.0,293.01,1649152997.880492,1649152999.0768406,69115c6a-762b-47e8-a7a2-b97770f73260
0.0529137029964097,0.1833734210972746,0.2277365724677209,-0.0984606664761926,-0.0091180114434842,0.0349027284570645,-0.1350989629898925,-0.1600677916534613,-13.878050536936628,29.00014197182361,17.685884762763227,0.4999528126392332,0.6562894220734147,-0.0809969973588122,-1.0,11.983,0.0,179.23932228763255,1.103403293315514,96.03588848534262,1553.0,1435.0,1000.0,1435.0,1471.0,1011.0,137.0,293.01,1649152999.1848323,1649153000.3020642,69115c6a-762b-47e8-a7a2-b97770f73260
0.1476254043116892,0.2261203786343093,0.4760688586283627,-0.114581516872497,0.2130538623415534,-0.0038174431637621,0.1169725069451758,0.092715901816056,-12.049692705814104,28.98669471176194,17.942287641358785,0.4625454731443061,0.8191308796860256,-1.0743266220274423,-1.0,11.984666666666667,0.0,179.20060877541695,1.0877573932133269,95.9825128337087,1553.0,1435.0,1000.0,1330.0,1471.0,1011.0,137.0,293.01,1649153002.4445975,1649153003.589198,42de0a61-9d4f-46bd-968f-d19edd116c0f
0.1529944551280569,0.2289966557955334,0.4754525135470483,-0.1172523459821166,0.2115061512916573,-0.005269278399725,0.11541109929647,0.0846212357228153,-12.07006184486808,29.00522503868328,17.778509979004383,0.4653635311249492,0.8318044703510732,-1.0690835576540607,-1.0,11.981666666666666,0.0,179.20710352640768,1.093831968990472,95.98778649865784,1553.0,1435.0,1000.0,1330.0,1471.0,1011.0,137.0,293.01,1649153003.7029016,1649153004.7536266,42de0a61-9d4f-46bd-968f-d19edd116c0f
0.1311495404870932,0.2171288622691981,0.4637457920162935,-0.1100895932819246,0.2032175422485321,0.0006092846209195,0.104536579820681,0.0728087757291732,-12.214550909094676,29.09287265166316,17.81152471195884,0.4623466726088729,0.7864005329577262,-1.027817276813256,-1.0,11.984333333333334,0.0,179.21402326694684,1.087042357784591,95.99624151394045,1553.0,1435.0,1000.0,1330.0,1471.0,1011.0,137.0,293.01,1649153004.8866436,1649153006.0399182,42de0a61-9d4f-46bd-968f-d19edd116c0f
0.2252985851160709,0.2672785350440729,0.7146902796662719,-0.1147732687359212,0.4247204648789167,-0.0583434445128104,0.3499783504557284,0.3300909486578147,-10.380173945530688,29.4297792411477,17.700519322140227,0.3560716814093553,0.9789837821798836,-2.014018972644879,-1.0,11.978666666666664,0.0,179.1745174527875,1.08103751871319,95.982123512926,1553.0,1435.0,1000.0,1210.0,1471.0,1011.0,137.0,293.01,1649153007.975042,1649153009.1116245,63c8f95b-72d3-4ee7-b0f5-2ff22511cbf7
0.2175052436494531,0.2668265486369467,0.7163612596544437,-0.1130338056665931,0.4257614032407068,-0.0581516926706968,0.3514712752259175,0.3377199312359232,-10.315358474918604,29.4930314759508,17.90347680551407,0.3531462602958874,0.9749238421279768,-2.0195739226210554,-1.0,11.972,0.0,179.18975332809606,1.081380842440689,95.99413553894634,1553.0,1435.0,1000.0,1210.0,1471.0,1011.0,137.0,293.01,1649153009.2196934,1649153010.3385887,63c8f95b-72d3-4ee7-b0f5-2ff22511cbf7
0.2112596132027081,0.2611972633723005,0.710690884945992,-0.113650150883378,0.4226111950306523,-0.0542207802213895,0.3480882255019282,0.3172024878783048,-10.391071577401634,29.379346485004337,17.5646219052921,0.362241763415103,0.9570642267123824,-2.003907901074294,-1.0,11.974222222222222,0.0,179.17776710501258,1.095279364338182,96.01058339337764,1553.0,1435.0,1000.0,1210.0,1471.0,1011.0,137.0,293.01,1649153010.448844,1649153011.5765965,63c8f95b-72d3-4ee7-b0f5-2ff22511cbf7
0.2745623644598224,0.2976383250045173,0.9069094092021404,-0.0705909076955316,0.598546213398568,-0.1412257080201321,0.5238879231280754,0.4939483444506042,-9.1344449400007,30.13564748783593,17.32536254322386,0.0849773682505851,1.0941173391058086,-2.756288660543656,-1.0,11.963,0.0,179.1649369741117,1.0796281518666402,95.94886049166806,1553.0,1435.0,1000.0,1071.0,1471.0,1011.0,137.0,293.01,1649153013.5082548,1649153014.6414998,67f64380-2b81-417e-a90b-07a7ee0e1651
0.2626102002472258,0.2875006808192809,0.8959696947384047,-0.0599799093982611,0.5920113120127544,-0.1405945705536094,0.5123170715472383,0.4903061560360722,-9.361772596192536,30.168955281583862,17.30619839996739,0.0620183967768887,1.0558744346679714,-2.7173347193092896,-1.0,11.952333333333334,0.0,179.17451138150824,1.0829809684073397,95.91411456045029,1553.0,1435.0,1000.0,1071.0,1471.0,1011.0,137.0,293.01,1649153014.7496336,1649153015.8721216,67f64380-2b81-417e-a90b-07a7ee0e1651
0.2632939324283139,0.2946141250543549,0.9005322919557603,-0.0687500901469443,0.5919981633189476,-0.1417122098257771,0.5177606313006506,0.4904113456015711,-9.01488837340336,30.18908239384561,17.02668884432417,0.0797809603479331,1.0839456830161809,-2.7306626716947835,-1.0,11.954888888888888,0.0,179.16177231979626,1.0855541473134034,95.87521359748742,1553.0,1435.0,1000.0,1071.0,1471.0,1011.0,137.0,293.01,1649153015.979953,1649153017.100611,67f64380-2b81-417e-a90b-07a7ee0e1651
-0.0550151806959119,0.1262587734847678,-0.1494803505595706,-0.0499474537601689,-0.3504773725002755,0.0637339843251128,-0.5309432688711376,-0.5602265202074345,-16.51917358453074,29.53561744417417,17.21116069350614,0.438668271500586,0.4350979802117138,1.4525110934281968,-1.0,11.964666666666666,0.0,179.28125964913644,1.1070292344172428,96.03635749166564,1553.0,1435.0,1000.0,1613.0,1471.0,1011.0,137.0,293.01,1649153018.0100403,1649153019.1484463,9f65d71c-df63-4d5d-970c-998bab16e4ec
-0.0671229389645967,0.1209992951001247,-0.1482202670726141,-0.0460028447843615,-0.3476421843809346,0.0654460541139239,-0.5298475438931233,-0.5444617764640863,-16.643105255033895,29.594543612771755,17.247321514672453,0.4340142021341873,0.4155236201132184,1.4447100914495612,-1.0,11.990555555555554,0.0,179.27768366565098,1.1091224858124074,96.0008837658463,1553.0,1435.0,1000.0,1613.0,1471.0,1011.0,137.0,293.01,1649153019.2568471,1649153020.3750975,9f65d71c-df63-4d5d-970c-998bab16e4ec
-0.0581106030325775,0.1242727725290065,-0.143673009286864,-0.0487421565553085,-0.3444508856879522,0.0646790468638501,-0.5246154570628544,-0.5480365792046725,-16.515908750166492,29.55125898689204,17.2731366479604,0.438477477277797,0.427296891989581,1.4272308364436148,-1.0,11.98911111111111,0.0,179.27164274278508,1.1140630248859518,95.96456157875008,1553.0,1435.0,1000.0,1613.0,1471.0,1011.0,137.0,293.01,1649153020.4921277,1649153021.6055176,9f65d71c-df63-4d5d-970c-998bab16e4ec
-0.1342223832755634,0.0862922161579297,-0.3454507346822357,-0.0052829750057351,-0.5249304780431446,0.0709931603204341,-0.7400623982115775,-0.7539507149849918,-17.985827538802358,30.03043471505568,16.9653471043757,0.3469732143507373,0.279844107628056,2.248973035539717,-1.0,11.987000000000002,0.0,179.29582616590636,1.0962711884398455,95.93967844069384,1553.0,1435.0,1000.0,1694.0,1471.0,1011.0,137.0,293.01,1649153023.3193762,1649153024.480035,f87d8334-b3d1-4f52-b96d-39f90c4c1472
-0.1370164813933495,0.0911818875320057,-0.338150467720295,-0.0036941741351171,-0.5187670249866251,0.0655967162861721,-0.7343235377085072,-0.7572241938145104,-17.943275847910034,30.03079508504175,17.13713057677248,0.3316774347638125,0.2966268539023205,2.2233336840970632,-1.0,11.985888888888889,0.0,179.2940032643079,1.1041472977583855,95.89981973342736,1553.0,1435.0,1000.0,1694.0,1471.0,1011.0,137.0,293.01,1649153024.5942266,1649153025.7110977,f87d8334-b3d1-4f52-b96d-39f90c4c1472
-0.1220417589598215,0.0938203925433892,-0.3330389111755167,-0.0099491186342381,-0.5145961478076373,0.0670102011272813,-0.7288936717208807,-0.7456845647541838,-17.992722661795074,30.00598689854918,16.928058214998035,0.3489951935674296,0.3098195695994883,2.2028993518576594,-1.0,11.980444444444444,0.0,179.28582676896147,1.0993576631768165,95.85960661523396,1553.0,1435.0,1000.0,1694.0,1471.0,1011.0,137.0,293.01,1649153025.8230846,1649153026.933458,f87d8334-b3d1-4f52-b96d-39f90c4c1472
-0.1829821357767103,0.071541022687227,-0.5027831368791169,0.0449012162628014,-0.6689087481586989,0.0475309555191403,-0.9207474877796592,-0.9444973351459685,-19.211021677759863,30.72289792621908,16.84154321156771,0.177167119603472,0.218146017457028,2.914134597477034,-1.0,11.979444444444448,0.0,179.29910162106833,1.0854841971642477,95.81537279234914,1553.0,1435.0,1000.0,1774.0,1471.0,1011.0,137.0,293.01,1649153028.8650303,1649153029.9647634,555dc8ee-3e35-4b58-9460-f68aaa488001
-0.189172980799388,0.0662815442183628,-0.5136034210585336,0.049777191138798,-0.6763733753931384,0.0502291775735222,-0.9316362580895372,-0.9579610600634636,-19.43271576828584,30.690869879876782,17.048674658467707,0.1714017072221913,0.1968662425819412,2.954110821947592,-1.0,11.95188888888889,0.0,179.305292808096,1.089694890207887,95.72631319685144,1553.0,1435.0,1000.0,1774.0,1471.0,1011.0,137.0,293.01,1649153030.0729952,1649153031.4347043,555dc8ee-3e35-4b58-9460-f68aaa488001
-0.1910987171022905,0.061356261757495,-0.5083110693657868,0.0544006014516932,-0.6701058277967146,0.0495881786148158,-0.9267290522274908,-0.9503704220269455,-19.48873415328123,30.76501148096874,16.91549234935641,0.1602376052045598,0.1797378381113657,2.9305604548768214,-1.0,11.952333333333334,0.0,179.30312991485883,1.07913122003062,95.65414238244144,1553.0,1435.0,1000.0,1774.0,1471.0,1011.0,137.0,293.01,1649153031.5604703,1649153032.6667974,555dc8ee-3e35-4b58-9460-f68aaa488001
-0.24445613218976653,0.039923886862586806,-0.6623480943259663,0.11569982274681088,-0.8094426208120571,0.020279734513658942,-1.1045258379543221,-1.1311651171503037,-20.588082504990044,31.512951758137483,16.507627915514707,-0.04722863576428098,0.09344952343563896,3.5797494958402285,-1.0,11.936666666666667,0.0,179.31244173942727,1.0718105379008354,95.47728146407313,1553.0,1435.0,1000.0,1856.0,1471.0,1011.0,137.0,293.01,1649153035.007342,1649153035.9975564,c36e5dc5-4d63-406c-a67b-ea2578a2554b
-0.23705341531046728,0.044381294905076224,-0.655550215934672,0.11372751831932572,-0.805129846434891,0.017860374358508003,-1.0982144592131435,-1.1262080541923485,-20.429775519134616,31.55690787425957,16.57544170303416,-0.047495848521433404,0.10912055145759046,3.556333392475429,-1.0,11.911999999999999,0.0,179.30284760037316,1.069219370458364,95.3258015286606,1553.0,1435.0,1000.0,1856.0,1471.0,1011.0,137.0,293.01,1649153036.111058,1649153037.384763,c36e5dc5-4d63-406c-a67b-ea2578a2554b
-0.22740227120645035,0.04873351337028137,-0.6486208508968114,0.11314897570983459,-0.7983582650171789,0.016821627349832564,-1.0926525571879564,-1.1133354713993233,-20.57484391821026,31.54431790746361,17.00702055024194,-0.04826765323010636,0.12315600511549714,3.530779770499458,-1.0,11.899777777777777,0.0,179.31096338292693,1.060615786703381,95.22231202017637,1553.0,1435.0,1000.0,1856.0,1471.0,1011.0,137.0,293.01,1649153037.4974163,1649153038.8082416,c36e5dc5-4d63-406c-a67b-ea2578a2554b
