raw_voltage_G-,raw_voltage_G0,raw_voltage_G1,raw_voltage_G2,raw_voltage_G3,raw_voltage_G4,raw_voltage_G5,raw_voltage_G6,load_x,load_y,load_z,load_l,load_m,load_n,rpm,voltage,current,roll,pitch,yaw,aileron1_pwm,elevator_pwm,throttle_pwm,rudder_pwm,aileron2_pwm,pbaro,pdiff,Tt,sample_start_time,sample_end_time,uid
-0.2984052399583172,-0.0769417282667855,-0.6873832212389691,-0.0585861475915457,-0.7748878310240531,0.3070659395853067,-1.0527725330286826,-1.075046440592647,-27.12569290126036,28.89325557944064,18.35167776413159,0.968754929115871,-0.2951129435592041,3.476559804104141,-1.0,11.987222222222224,0.0,179.32580462508344,1.0889243950660468,95.8883791665676,1553.0,1435.0,1000.0,1528.0,1471.0,1011.0,137.0,293.01,1649154672.3044856,1649154673.4426277,182a1b3c-054b-4524-a563-9432a294122a
-0.2978266972215015,-0.0683819266353311,-0.6853320237788441,-0.0557723264571574,-0.7743092880807819,0.2957580615391166,-1.0544950133328337,-1.078649185251412,-27.105446525659413,28.896048860471943,18.30596192235177,0.9371208832814052,-0.2629629628975431,3.476437187638149,-1.0,11.987333333333334,0.0,179.32470420571718,1.0806159442594188,96.31928138201545,1553.0,1435.0,1000.0,1528.0,1471.0,1011.0,137.0,293.01,1649154673.5513678,1649154674.6706991,182a1b3c-054b-4524-a563-9432a294122a
-0.2969720318765043,-0.0739701227878095,-0.6828074731836637,-0.0572844265979979,-0.7715480606802718,0.3013725544665835,-1.0498403717581768,-1.0752568193225351,-27.06391392334118,28.933805997544788,18.154841470591776,0.9535211453686984,-0.2825298215876914,3.4617188138160966,-1.0,11.989666666666668,0.0,179.31340555501018,1.0602269046654804,96.6971615978464,1553.0,1435.0,1000.0,1528.0,1471.0,1011.0,137.0,293.01,1649154674.779288,1649154675.9008875,182a1b3c-054b-4524-a563-9432a294122a
-0.0704857182191541,0.3088804595758282,-0.6544851709360004,-0.3576795723148615,-0.8437081397344134,0.2187198543857283,-1.0733634054183367,-1.0924421777170854,-26.8018117762034,27.739223674892155,20.4392650636224,1.4393946607259116,1.1700510459336493,3.602475440787314,-1.0,11.972555555555555,0.0,179.18809738667727,1.066955482913622,97.26858281290872,1647.0,1435.0,1000.0,1528.0,1543.0,1011.0,137.0,293.01,1649154677.0138457,1649154678.1491249,d43731c2-220c-454b-8127-f79052e1fd1b
-0.0643836271472032,0.3182023367383388,-0.6470627293040475,-0.3612565660684676,-0.838403733921055,0.212095103267236,-1.0671500942938794,-1.0922696009376829,-26.712533340361336,27.65402033635989,20.38078578727519,1.4324171653208737,1.2058096651966317,3.57739812058211,-1.0,11.96288888888889,0.0,179.19008724845548,1.0546841350062115,97.4733101441808,1647.0,1435.0,1000.0,1528.0,1543.0,1011.0,137.0,293.01,1649154678.2573102,1649154679.3811862,d43731c2-220c-454b-8127-f79052e1fd1b
-0.067999518792483,0.3138331348400351,-0.6429811533728714,-0.3652422653180238,-0.835541151726534,0.2197651757287611,-1.0600415754774302,-1.084243412559587,-26.53892756059949,27.71456662223289,20.38224079597498,1.4593358278125,1.1889313687507128,3.5573495153795527,-1.0,11.955444444444446,0.0,179.18826890031644,1.0580049113192418,97.6563652852164,1647.0,1435.0,1000.0,1528.0,1543.0,1011.0,137.0,293.01,1649154679.4892552,1649154680.6101682,d43731c2-220c-454b-8127-f79052e1fd1b
0.1844280560331844,0.7568565008902347,-0.5943561626331451,-0.6927873375249491,-0.9074793501082764,0.0993954396362044,-1.0795695944234065,-1.1062483186325844,-25.86232697410256,26.8091323461286,22.22042359399105,1.9247629598533584,2.872852785710327,3.6710257575081457,-1.0,11.956,0.0,178.99727859728512,1.0690359158461256,97.8267094442066,1745.0,1435.0,1000.0,1528.0,1614.0,1011.0,137.0,293.01,1649154681.2836142,1649154682.2329311,ed4c8078-5a98-4d6d-8416-624b0461f746
0.1998514760878145,0.7585658312400773,-0.5941063373367566,-0.6836489900888486,-0.9049547990425058,0.0897311480367821,-1.0818706179289963,-1.1089175061433632,-25.98689941673188,26.71609974503123,22.274768706867384,1.8817738049335453,2.878552981200889,3.670837525322977,-1.0,11.931333333333336,0.0,178.99015243325107,1.0712607432465515,97.86446900666816,1745.0,1435.0,1000.0,1528.0,1614.0,1011.0,137.0,293.01,1649154682.3411524,1649154683.477473,ed4c8078-5a98-4d6d-8416-624b0461f746
0.1849803011789486,0.754253059281274,-0.6002730778764677,-0.6856344439099905,-0.9108717156720192,0.0952273030048379,-1.0873536281624032,-1.1078524608486455,-26.039144452645232,26.80031101461408,22.149947315820803,1.898808084487276,2.863708472135367,3.69432276199616,-1.0,11.930666666666667,0.0,178.99825455542654,1.0714418499812626,97.90159184371709,1745.0,1435.0,1000.0,1528.0,1614.0,1011.0,137.0,293.01,1649154683.586685,1649154684.7021334,ed4c8078-5a98-4d6d-8416-624b0461f746
0.4450324595240807,1.2064925752759466,-0.5304364960921842,-0.9697811965616858,-0.9645901973117338,-0.0754093574064326,-1.1044732430063249,-1.128770956392098,-25.26320919332624,26.50342601083821,23.890197963077096,2.15850748343077,4.578372718874203,3.752017561648236,-1.0,11.93,0.0,178.77168655591848,1.0925179994909238,97.96707362619992,1849.0,1435.0,1000.0,1528.0,1686.0,1011.0,137.0,293.01,1649154686.8461826,1649154687.9887617,da98cbf3-a84b-4d85-9573-cef18b19c298
0.454962463661917,1.2045564297928282,-0.5300327214801531,-0.9654651341339724,-0.962007024894442,-0.0788351406547212,-1.1052358679290584,-1.1291533643002425,-25.4425260567955,26.46147807418145,23.69869965437799,2.14069454951816,4.573570887584817,3.748459907557325,-1.0,11.885333333333334,0.0,178.76675819497737,1.1086304513168856,97.90884474570574,1849.0,1435.0,1000.0,1528.0,1686.0,1011.0,137.0,293.01,1649154688.0973024,1649154689.2149322,da98cbf3-a84b-4d85-9573-cef18b19c298
0.4447722249285852,1.2070130444892182,-0.5236840909208806,-0.9633301134601416,-0.9573994998383318,-0.0845449623718006,-1.1000081616963964,-1.1250454895941675,-25.277931480712496,26.51567722431424,23.55179712593205,2.123782581911174,4.583062241525088,3.726288908018233,-1.0,11.889,0.0,178.7732802667248,1.1214695349831192,97.87833201395355,1849.0,1435.0,1000.0,1528.0,1686.0,1011.0,137.0,293.01,1649154689.32858,1649154690.4412577,da98cbf3-a84b-4d85-9573-cef18b19c298
0.4866113727507073,1.2403603291868133,-0.4788448337156356,-1.0387691626526625,-0.9396936742788328,-0.0874475373192179,-1.0632652001082703,-1.080213881466174,-25.00411228683217,27.454840629672628,18.213339729700152,2.2951774967161587,4.765658081447685,3.584388124868541,-1.0,11.872222222222222,0.0,178.6438997878268,1.125527722709197,97.80478226024114,1962.0,1435.0,1000.0,1528.0,1760.0,1011.0,137.0,293.01,1649154691.334631,1649154692.498039,9b6a6add-9f9b-4fe7-b48d-be5c58c59081
0.4847179606522851,1.2348247281375562,-0.488693209687301,-1.0517337859618814,-0.9484770085228708,-0.070130703522764,-1.0667101609178316,-1.0816207932553068,-24.99523771874277,27.2997130614586,18.15755227246434,2.361812579896072,4.746297099950429,3.613888361142779,-1.0,11.801444444444444,0.0,178.65860746183955,1.1282154258635315,97.6225330815276,1962.0,1435.0,1000.0,1528.0,1760.0,1011.0,137.0,293.01,1649154692.6128583,1649154693.71957,9b6a6add-9f9b-4fe7-b48d-be5c58c59081
0.4686897013350651,1.23218184020496,-0.4926641168933504,-1.0312349542588537,-0.9497918788955436,-0.085922288350628,-1.077597288850746,-1.1055777345655715,-25.21293668643244,27.47847097256645,18.16971942459355,2.280966076702084,4.73504509829065,3.636244495142588,-1.0,11.806666666666665,0.0,178.6613334662283,1.134172477326677,97.46854343105004,1962.0,1435.0,1000.0,1528.0,1760.0,1011.0,137.0,293.01,1649154693.8280363,1649154694.945657,9b6a6add-9f9b-4fe7-b48d-be5c58c59081
-0.5873868036865503,-0.5764021601513311,-0.714449823020502,0.3484854256532121,-0.6717576333799737,0.4082298096653274,-1.01880121004925,-1.0502622266074864,-27.6436676054133,30.846344576616048,16.457700089774224,0.2888667972643453,-2.199742837283968,3.263918951864363,-1.0,11.850333333333332,0.0,179.44945533417774,1.005412134545026,97.24283603537742,1459.0,1435.0,1000.0,1528.0,1394.0,1011.0,137.0,293.01,1649154696.8938687,1649154698.0186756,4d4ce5c4-741d-4376-a985-4c29683fc94d
-0.584784456743443,-0.5752653454296951,-0.7176137293624013,0.3451571621581482,-0.6758118162477947,0.4109006383829708,-1.0216227030040217,-1.0443179166568006,-27.616893354618053,30.87109705014697,16.53650790737873,0.3024088386460912,-2.196157438695637,3.2779989415481467,-1.0,11.972333333333331,0.0,179.47439463156715,1.012080533609074,97.24113911282365,1459.0,1435.0,1000.0,1528.0,1394.0,1011.0,137.0,293.01,1649154698.1265726,1649154699.2472732,4d4ce5c4-741d-4376-a985-4c29683fc94d
-0.5888386393124557,-0.5827984549574905,-0.7249824809183533,0.3471157698388953,-0.6801262338725306,0.4194472902095077,-1.026567163961445,-1.0603976868947589,-27.75121056328924,30.821634297541195,16.912265220402595,0.3164936442334912,-2.227499967857554,3.300521620658184,-1.0,11.966888888888889,0.0,179.48821741662746,1.025795600894329,97.22718807198892,1459.0,1435.0,1000.0,1528.0,1394.0,1011.0,137.0,293.01,1649154699.3550951,1649154700.4758606,4d4ce5c4-741d-4376-a985-4c29683fc94d
-0.8548845373380428,-1.0301041654461789,-0.7519564947577968,0.7092976711515875,-0.5940668912742021,0.5162616800802627,-1.0005984721741703,-1.032457783816172,-28.16018678329578,32.9203255300226,15.75509746207365,-0.2707661046600945,-3.9382845203828105,3.129372526893783,-1.0,11.959,0.0,179.63985937930534,0.9832366536375856,97.17377409540468,1364.0,1435.0,1000.0,1528.0,1312.0,1011.0,137.0,293.01,1649154702.4109662,1649154703.549055,56a5ab9f-d1a0-42eb-9438-263e54c21b6e
-0.8486257547632111,-1.0315242255774983,-0.7466575679812933,0.7034990966715461,-0.5899644967928049,0.521915618949424,-0.9936033615618636,-1.0181651420506976,-28.11894576874676,32.96394446371632,15.648640893236117,-0.2444239894850348,-3.941908389062216,3.1062404711201737,-1.0,11.937555555555557,0.0,179.66021068684728,0.9901341041626672,97.01014742746317,1364.0,1435.0,1000.0,1528.0,1312.0,1011.0,137.0,293.01,1649154703.657652,1649154704.9779866,56a5ab9f-d1a0-42eb-9438-263e54c21b6e
-0.8590263787338616,-1.03978161231083,-0.7570318938215906,0.7148464204315007,-0.5956973301934235,0.5203772216437276,-1.0042932584172068,-1.0234509214238807,-28.295954342647462,32.91019853797381,15.685663414985124,-0.2744338163377929,-3.9740096031322776,3.142461119670809,-1.0,11.934111111111111,0.0,179.65888866578794,0.9909385605228804,96.8929952639092,1364.0,1435.0,1000.0,1528.0,1312.0,1011.0,137.0,293.01,1649154705.0861194,1649154706.207034,56a5ab9f-d1a0-42eb-9438-263e54c21b6e
-1.1320992222384858,-1.5093849808241486,-0.8036692446349294,1.0969201103550963,-0.5264918862130548,0.6202388208170098,-1.0036528066580606,-1.0282381463701211,-29.04265013519705,35.69420906652625,14.280253343639911,-0.8963626898305241,-5.767517501729208,3.053741781990071,-1.0,11.919333333333334,0.0,179.8066969950667,0.9610993613138642,96.5974871294686,1262.0,1435.0,1000.0,1528.0,1222.0,1011.0,137.0,293.01,1649154708.3503444,1649154709.486642,0fa61848-232a-417d-b73d-961dc17df8c8
-1.1295215277725938,-1.5035496923480969,-0.8051824414142783,1.0963032174301888,-0.5280341192717861,0.6155474760244737,-1.0054371958790105,-1.0308667908262534,-28.99593030304064,35.542676207005535,14.33423001218571,-0.906560963643331,-5.746463233238661,3.061317258057122,-1.0,11.890333333333333,0.0,179.81615908379683,0.9705331332181212,96.40591853708752,1262.0,1435.0,1000.0,1528.0,1222.0,1011.0,137.0,293.01,1649154709.5955143,1649154710.7170684,0fa61848-232a-417d-b73d-961dc17df8c8
-1.1303893424669718,-1.51136002691621,-0.8035914482549582,1.0940547904361124,-0.5259960706877639,0.624659521642606,-1.0023998448527809,-1.0270142201219998,-29.101349525091724,35.68441056856288,14.26406750541888,-0.8800585346644857,-5.774008662954243,3.0508525063719247,-1.0,11.885888888888893,0.0,179.8000003740404,0.9659258741737649,96.20082692905972,1262.0,1435.0,1000.0,1528.0,1222.0,1011.0,137.0,293.01,1649154710.8252869,1649154712.1567523,0fa61848-232a-417d-b73d-961dc17df8c8
-1.3517478343204132,-1.8735808072643128,-0.8522547968734842,1.4065072583940144,-0.4888772914784908,0.6963330579099244,-1.0255284165515466,-1.049327573380467,-29.8405328826684,38.6254923068482,14.592776378865056,-1.4070607567610176,-7.171743102527774,3.057209518400238,-1.0,11.868,0.0,179.94582187718055,0.946515105024856,95.822179455312,1153.0,1435.0,1000.0,1528.0,1121.0,1011.0,137.0,293.01,1649154713.822685,1649154715.0170257,e3cc5244-c816-4128-9fae-aac206644a4e
-1.3502718915566794,-1.8726182114012788,-0.8501006008803987,1.407462182361256,-0.4876895255166302,0.6937345470629049,-1.0238826367907767,-1.0454958215340229,-29.74476625302552,38.662261267532905,14.496196254260092,-1.4146702105923294,-7.167934991705667,3.050352602801252,-1.0,11.769777777777778,0.0,179.94756281650896,0.9389946161459142,95.54394183364276,1153.0,1435.0,1000.0,1528.0,1121.0,1011.0,137.0,293.01,1649154715.125759,1649154716.245917,e3cc5244-c816-4128-9fae-aac206644a4e
-1.3476322884348957,-1.8720424074777084,-0.8605121823484378,1.4086373471843947,-0.4960564814389032,0.6944396458357719,-1.035442540005144,-1.0607012027234255,-29.9814955924038,38.61070986927604,14.747610133336538,-1.416675897815448,-7.167133740672227,3.092689850460671,-1.0,11.772666666666666,0.0,179.94613758370218,0.9161566098534744,95.24954929676656,1153.0,1435.0,1000.0,1528.0,1121.0,1011.0,137.0,293.01,1649154716.3536088,1649154717.4754498,e3cc5244-c816-4128-9fae-aac206644a4e
-0.2841449290315643,-0.0531250554745681,-0.6732505588761527,-0.0191164995978951,-0.7580733804143792,0.2494045270070461,-1.0575214071195909,-1.0789017510604555,-27.50971458065236,28.81357779745278,18.677782108840432,0.7501823749945334,-0.2099231580335164,3.44460690538262,-1.0,11.832444444444445,0.0,179.34696606895196,1.0812772393803098,94.88474433973676,1553.0,1435.0,1000.0,1528.0,1471.0,1011.0,137.0,293.01,1649154719.4091778,1649154720.545777,e4801845-2a11-4470-911e-68818bbab154
-0.2942392941368438,-0.0612060253472356,-0.6806193101594827,-0.0209518384073925,-0.7637985444138078,0.2580607515898492,-1.0620823641438129,-1.082038264798161,-27.54323052488645,28.81569216139822,18.496812303758745,0.7733755251734151,-0.2386316940032829,3.467669596989572,-1.0,11.987555555555556,0.0,179.34000534727778,1.1078347224206118,95.16505226763444,1553.0,1435.0,1000.0,1528.0,1471.0,1011.0,137.0,293.01,1649154720.6544015,1649154721.7813897,e4801845-2a11-4470-911e-68818bbab154
-0.2865144339624328,-0.0584667135283663,-0.6871662676038044,-0.017020926047659,-0.7698935156295064,0.2532395632314688,-1.071176885295389,-1.0926804979796116,-27.632908159825348,28.834730428532666,18.64751339421031,0.7534535893813535,-0.2299572516660168,3.49835199894878,-1.0,11.988,0.0,179.3436648108531,1.1290305662522906,95.41918539281282,1553.0,1435.0,1000.0,1528.0,1471.0,1011.0,137.0,293.01,1649154721.9140356,1649154723.011901,e4801845-2a11-4470-911e-68818bbab154
-0.2751188956851385,-0.0673826256672068,-0.7424894294493317,-0.4589245540366147,-0.866481693366998,0.6921912189876099,-1.0024261421253646,-1.0273429379508805,-27.572061403375105,27.78480077909822,22.02074489083519,2.727516394097138,-0.2428420715347976,3.6077113680774455,-1.0,11.981333333333332,0.0,179.35784580138989,1.268777718916665,95.71524980821584,1553.0,1537.0,1000.0,1528.0,1471.0,1011.0,137.0,293.01,1649154723.9152167,1649154725.0524714,4a828dcc-5108-4953-af01-e666fdc6bd02
-0.2913312404008961,-0.0836212662738472,-0.7429364852596123,-0.4515744310911471,-0.8640228858237958,0.7012901159043284,-0.9997175088962008,-1.021491764541722,-27.562438469099696,27.90050040439027,22.02177457329357,2.7321324882763327,-0.3047554178543325,3.5991755189412493,-1.0,11.977555555555556,0.0,179.36754467001128,1.2739372390725054,95.80781480857756,1553.0,1537.0,1000.0,1528.0,1471.0,1011.0,137.0,293.01,1649154725.1604526,1649154726.281934,4a828dcc-5108-4953-af01-e666fdc6bd02
-0.2907526977285957,-0.0766787543372634,-0.7418582917036289,-0.4539280483705349,-0.8645751313580301,0.6957413666308574,-0.9997701037670444,-1.0148385203605432,-27.47156575580881,27.84511040119632,21.89610428165992,2.724685101976188,-0.277888946173796,3.599261328328572,-1.0,11.97466666666667,0.0,179.3748620793421,1.277657949048968,95.90587887013106,1553.0,1537.0,1000.0,1528.0,1471.0,1011.0,137.0,293.01,1649154726.3906643,1649154727.5112295,4a828dcc-5108-4953-af01-e666fdc6bd02
-0.2865056681858879,-0.1045408431160873,-0.8059713633788281,-0.8914642295596219,-0.9673191014797012,1.1471755209987768,-0.9371822719210934,-0.9674374405206864,-27.485709951535167,27.02850308833211,24.916764215604065,4.717960950465027,-0.3592688498322368,3.7348617274189975,-1.0,11.966,0.0,179.381290046261,1.4169343048372716,95.99777602977396,1553.0,1645.0,1000.0,1528.0,1471.0,1011.0,137.0,293.01,1649154728.42081,1649154729.536131,a84ddf17-a7fd-4b6f-91c5-bf00fcb14acf
-0.2979510620434588,-0.1056787532649352,-0.8055730671711862,-0.8804795835738076,-0.9656859227486696,1.138352198237982,-0.9410184061875728,-0.9659598544138038,-27.63999526509154,27.15416822387384,24.927970894579094,4.674132100992236,-0.3638690997071936,3.737371157647566,-1.0,11.956555555555555,0.0,179.38025792878642,1.429060202917669,95.9771458228409,1553.0,1645.0,1000.0,1528.0,1471.0,1011.0,137.0,293.01,1649154729.65098,1649154730.9928868,a84ddf17-a7fd-4b6f-91c5-bf00fcb14acf
-0.2897331257383361,-0.1011588886739509,-0.7985330327123753,-0.8806850322656418,-0.960837338059284,1.1352293830733846,-0.934334481712628,-0.9650421847938974,-27.455495446654027,27.17363584440878,25.13820801274752,4.6681841457112965,-0.3496141041355836,3.7126170427121608,-1.0,11.957222222222224,0.0,179.3631232608886,1.4158909697256177,95.9697327908617,1553.0,1645.0,1000.0,1528.0,1471.0,1011.0,137.0,293.01,1649154731.10087,1649154732.2199771,a84ddf17-a7fd-4b6f-91c5-bf00fcb14acf
-0.2832447910303866,-0.1093927123134294,-0.8302701657162508,-1.2698445289247262,-1.036349800484771,1.5183763739364775,-0.8635232353303856,-0.894422688357292,-27.32592980241993,26.988976727498496,27.66630308208833,6.404678860733083,-0.357920658606355,3.7572323960758593,-1.0,11.94,0.0,179.38055238583064,1.539272514819949,95.91290941151674,1553.0,1761.0,1000.0,1528.0,1471.0,1011.0,137.0,293.01,1649154733.9513464,1649154735.0875633,ca3299e1-eb52-4206-adda-cf0185937ff4
-0.2782482858553915,-0.1100501472011944,-0.833715125866918,-1.2639933542341415,-1.038940095358981,1.5136428429434448,-0.8685065938809906,-0.8925818696808979,-27.34167764810193,27.006266174056723,27.63521161166079,6.38077336259378,-0.3609379205829412,3.772461365411388,-1.0,11.93,0.0,179.369892737266,1.545333608088264,95.83514922563594,1553.0,1761.0,1000.0,1528.0,1471.0,1011.0,137.0,293.01,1649154735.1968508,1649154736.3167782,ca3299e1-eb52-4206-adda-cf0185937ff4
-0.2680317474474336,-0.1087089800687179,-0.8377649263327056,-1.2728161372609388,-1.0439234545991527,1.5217950353849927,-0.8702422227099769,-0.8884794742469708,-27.32039470643776,26.963517008917016,27.804001370075948,6.418547041370811,-0.3567255305321313,3.787595784482187,-1.0,11.936333333333334,0.0,179.35876863583775,1.54764365869974,95.77776880641866,1553.0,1761.0,1000.0,1528.0,1471.0,1011.0,137.0,293.01,1649154736.425006,1649154737.547614,ca3299e1-eb52-4206-adda-cf0185937ff4
-0.2519580121407767,-0.0973649417602948,-0.7315705283849526,-1.3555998595488472,-0.967151455493082,1.5852846187955818,-0.7515949054524689,-0.7686882183887228,-26.52162853275628,28.10786580650121,28.420130874610056,6.761330499546449,-0.3083486865459006,3.3709510982794817,-1.0,11.886222222222225,0.0,179.36430260688527,1.5789488702651415,95.65515628607824,1553.0,1887.0,1000.0,1528.0,1471.0,1011.0,137.0,293.01,1649154738.4581995,1649154739.5923052,7aef2c88-27cc-4aa1-8a07-997e44e68105
-0.2459178290580902,-0.0956939615089042,-0.7228595135743209,-1.3432318546782165,-0.9569749063888726,1.570136222698076,-0.7477050812029592,-0.769112812502517,-26.66787259387177,28.134086943512035,28.167580626963183,6.699884542019056,-0.2997781582108594,3.3395193166429977,-1.0,11.850555555555555,0.0,179.35849846391056,1.5972298952946151,95.425964735019,1553.0,1887.0,1000.0,1528.0,1471.0,1011.0,137.0,293.01,1649154739.7028687,1649154740.8206036,7aef2c88-27cc-4aa1-8a07-997e44e68105
-0.2345907738146229,-0.0892154889518442,-0.7231882311116976,-1.3508745407652054,-0.9602757789602956,1.570547119251361,-0.7469928599179095,-0.7790839110547081,-26.43947261943944,28.09087866769335,28.12871523093464,6.717853883323144,-0.2758326365727179,3.3442887781676167,-1.0,11.855,0.0,179.3475671255989,1.5783864705916075,95.27281747453908,1553.0,1887.0,1000.0,1528.0,1471.0,1011.0,137.0,293.01,1649154740.9292316,1649154742.0528233,7aef2c88-27cc-4aa1-8a07-997e44e68105
-0.2969457344912375,-0.0573370213316586,-0.6142895926429899,0.4093627888736192,-0.6617564026283226,-0.162158434153069,-1.115557601974429,-1.139067489029362,-27.26143480474988,30.208521228567733,15.66141837225426,-1.1293715853737205,-0.2497374017530591,3.3142746883673326,-1.0,11.859,0.0,179.35772134016503,1.0561404119714357,95.00701610952858,1553.0,1335.0,1000.0,1528.0,1471.0,1011.0,137.0,293.01,1649154743.7819736,1649154744.9246624,5aa8a9bd-fe58-4350-86a3-0cc3591f1f6b
-0.2981154208124778,-0.0541796905162179,-0.6128487142147323,0.4053398360445667,-0.6593485467503989,-0.159643197871081,-1.113156867398204,-1.1307843526426202,-27.395852120643863,30.05666538185454,15.949302202394009,-1.115601414189958,-0.2389115457254899,3.3063340128900385,-1.0,11.987777777777778,0.0,179.369176326313,1.0458923534520663,95.26536801488432,1553.0,1335.0,1000.0,1528.0,1471.0,1011.0,137.0,293.01,1649154745.0336502,1649154746.1463184,5aa8a9bd-fe58-4350-86a3-0cc3591f1f6b
-0.3070965294541924,-0.0557591777275767,-0.6162224517476613,0.4090735175931611,-0.6619010384550944,-0.1644331587746469,-1.1178717743615043,-1.1360564358691654,-27.427316066976417,30.072339775554216,15.506225885212132,-1.1349379159546895,-0.2413592220468123,3.3203106599084355,-1.0,11.987888888888888,0.0,179.36165249348733,1.0411283320798843,95.5303968096087,1553.0,1335.0,1000.0,1528.0,1471.0,1011.0,137.0,293.01,1649154746.2545393,1649154747.38082,5aa8a9bd-fe58-4350-86a3-0cc3591f1f6b
-0.3119078573250312,-0.0376342471932794,-0.5575967795606279,0.8376579711802936,-0.5717316322480093,-0.596892218247429,-1.1896385095571511,-1.2130596443613857,-27.50465909364367,31.83894606504369,12.587440250283905,-3.0593866791834508,-0.1959845784562282,3.2208191251424174,-1.0,11.975777777777775,0.0,179.36840679166656,0.8814036883639832,95.86224989844274,1553.0,1236.0,1000.0,1528.0,1471.0,1011.0,137.0,293.01,1649154748.4914596,1649154749.6386814,6d331ba9-d8b3-4c9e-bd06-53f9058e9afd
-0.3141968265507719,-0.0398361060021333,-0.565810334298737,0.8387202762001457,-0.5788143988301981,-0.5957893712259832,-1.1982761143607907,-1.2229956856679125,-27.60432365469814,31.855884226811536,12.512077570059354,-3.059663611448295,-0.2035207497104623,3.2535201445779585,-1.0,11.952222222222222,0.0,179.38321919524657,0.8749840931700137,96.0185777503462,1553.0,1236.0,1000.0,1528.0,1471.0,1011.0,137.0,293.01,1649154749.7478578,1649154750.8636825,6d331ba9-d8b3-4c9e-bd06-53f9058e9afd
-0.3173130680803059,-0.0409931913124675,-0.56548161679373,0.8369189049636252,-0.5784856813208529,-0.5917395714078997,-1.1968560539706647,-1.2212732034164555,-27.60697891261308,31.8587666726498,12.69741085811437,-3.0464360357203346,-0.2092416589424628,3.2507050322180966,-1.0,11.958555555555556,0.0,179.35690475310423,0.8725706114386844,96.1530512736353,1553.0,1236.0,1000.0,1528.0,1471.0,1011.0,137.0,293.01,1649154750.9763153,1649154752.0857918,6d331ba9-d8b3-4c9e-bd06-53f9058e9afd
-0.3162496670984612,-0.0269509311648811,-0.5103710327492339,1.1278058486686138,-0.508124796525819,-0.8890947238066302,-1.2370834285771657,-1.2512182901048348,-27.70462149217589,33.68874320235299,10.497586325238112,-4.356326984835849,-0.1686762227966929,3.1373520212777186,-1.0,11.949666666666666,0.0,179.3556540695762,0.7781348685093542,96.31846479495464,1553.0,1133.0,1000.0,1528.0,1471.0,1011.0,137.0,293.01,1649154752.9970171,1649154754.1347106,9df54303-91a7-4726-ab73-580110947b98
-0.3076882209093203,-0.0292645539058665,-0.5032488201075935,1.1185771078115687,-0.5017104222459892,-0.8774608606842407,-1.2267430655108118,-1.253737362960231,-27.74504423810628,33.696154476673975,10.68832584506473,-4.308952536627467,-0.1771702405147969,3.10406142194733,-1.0,11.931222222222225,0.0,179.37188259904417,0.761962029984871,96.40342931259,1553.0,1133.0,1000.0,1528.0,1471.0,1011.0,137.0,293.01,1649154754.2432663,1649154755.374563,9df54303-91a7-4726-ab73-580110947b98
-0.3130923358582,-0.0275552233537166,-0.5019470988548346,1.1213120365092268,-0.4992779127860728,-0.8812476871073396,-1.2240344318528225,-1.2488197454933685,-27.62208434266563,33.49512122315882,10.76326430939454,-4.324825386500497,-0.1725512847784801,3.0956223495449287,-1.0,11.934555555555557,0.0,179.37331238531044,0.7587045099984508,96.50874551722222,1553.0,1133.0,1000.0,1528.0,1471.0,1011.0,137.0,293.01,1649154755.481855,1649154756.793198,9df54303-91a7-4726-ab73-580110947b98
-0.2982249933495414,-0.006529361837061,-0.436793102187386,1.2614568647544375,-0.4389845520297529,-1.0407568089356898,-1.2146895365585435,-1.240384302163161,-27.337800755907825,35.129629451359754,9.628423882122108,-4.985354290532986,-0.0987422395979873,2.913083719205188,-1.0,11.929333333333334,0.0,179.3834392791198,0.6957337766019788,96.67579297157305,1553.0,1026.0,1000.0,1528.0,1471.0,1011.0,137.0,293.01,1649154758.9362197,1649154760.0773184,43bde5d1-90d2-4f4e-983f-dfe79dbc9847
-0.2931063146484677,-0.0052550340027795,-0.43429704088013,1.235166594535808,-0.4395565205207663,-1.014404612661274,-1.204271925771299,-1.2323970109337308,-27.26369145015692,35.04277775812555,10.160623751449007,-4.867162301146483,-0.0958104778881005,2.896389667809421,-1.0,11.922999999999998,0.0,179.3844683609548,0.7233380572803892,96.71452242089676,1553.0,1026.0,1000.0,1528.0,1471.0,1011.0,137.0,293.01,1649154760.1856103,1649154761.3034985,43bde5d1-90d2-4f4e-983f-dfe79dbc9847
-0.3002246911563823,-0.013541999980379,-0.4427784993984951,1.238186411692449,-0.4449014664656177,-1.009966924557738,-1.2113612695608778,-1.2323444153564191,-27.40363512425052,35.01428896481013,9.9737470963236,-4.864713600057517,-0.1251548352580185,2.9239985616016013,-1.0,11.909777777777778,0.0,179.37709631011063,0.7022284860898677,96.75953867989648,1553.0,1026.0,1000.0,1528.0,1471.0,1011.0,137.0,293.01,1649154761.4124248,1649154762.5306914,43bde5d1-90d2-4f4e-983f-dfe79dbc9847
-0.2997464072336445,-0.0698414319710099,-0.6837541796612545,-0.0617944295873314,-0.7674982604529569,0.3069607500279108,-1.047644537996494,-1.0678146525008303,-27.43915882284323,28.458608723245003,18.946006742623485,0.972991976517568,-0.2709137047715668,3.4558754139838577,-1.0,11.913222222222222,0.0,179.38242082202362,1.059246114402398,96.74769816751532,1553.0,1389.5555555555557,1000.0,1528.0,1471.0,1011.0,137.0,293.01,1649154763.4415965,1649154764.580827,3453e274-2407-4fa7-ac0e-4339831d2548
-0.2964723813610539,-0.0735493644845229,-0.6911568984853196,-0.0567321814139048,-0.7745591134644702,0.3074998465183894,-1.0566119548638446,-1.0834484630561174,-27.48585526392301,28.61977155675437,19.104025761564028,0.9634856519578682,-0.2869805495345448,3.488070760352806,-1.0,11.986,0.0,179.3852196817635,1.113856684396807,96.76984695317384,1553.0,1435.0,1000.0,1528.0,1471.0,1011.0,137.0,293.01,1649154764.6894922,1649154765.808028,3453e274-2407-4fa7-ac0e-4339831d2548
-0.3035392587626158,-0.0711086376351809,-0.6877278269237087,-0.0524539241575192,-0.7710577238485787,0.2990271559260233,-1.0558641225416046,-1.07283417095814,-27.53638962805043,28.63417129397816,18.81593074009524,0.9349905254573097,-0.2752244071646578,3.477448043151547,-1.0,11.987888888888888,0.0,179.38144941734166,1.1282491854964605,96.79045742844932,1553.0,1435.0,1000.0,1528.0,1471.0,1011.0,137.0,293.01,1649154765.9162416,1649154767.0455542,3453e274-2407-4fa7-ac0e-4339831d2548
-0.2089508133429916,-0.0269235380386662,-0.4596937529230799,-0.0878595296181856,-0.5685129400367998,0.2767017667975971,-0.817858886044048,-0.8511141477953776,-25.72915975659343,28.32325140064008,18.950293351680003,0.9749133472462854,-0.1046753413701137,2.5584873521491525,-1.0,11.989111111111113,0.0,179.37165796171146,1.1371194312202897,96.77673481949684,1553.0,1435.0,1000.0,1435.0,1471.0,1011.0,137.0,293.01,1649154767.9502306,1649154769.0842762,68c6999f-eb09-42ac-b36f-91e2c1b006b8
-0.2147663726866175,-0.0338928951188509,-0.4565314907751429,-0.0818198948721933,-0.5629176202822995,0.2798218426466714,-0.8132557444809727,-0.8382382797277045,-25.784032845964585,28.307858994800643,19.24389123807057,0.9683752389204956,-0.1335718389735185,2.5395936205332954,-1.0,11.990333333333332,0.0,179.38238591216785,1.1533204739200176,96.79115410774466,1553.0,1435.0,1000.0,1435.0,1471.0,1011.0,137.0,293.01,1649154769.192398,1649154770.5168345,68c6999f-eb09-42ac-b36f-91e2c1b006b8
-0.2161415073655321,-0.032046051098307,-0.4558587156159301,-0.0862296390907034,-0.5639793777599754,0.2805915892020305,-0.8127774603787872,-0.835842477430381,-25.733612751844788,28.368398099152007,19.03686581863192,0.9804794646627308,-0.1245804400264128,2.539344957129768,-1.0,11.989222222222224,0.0,179.38373677180368,1.1506584551228742,96.79913025087542,1553.0,1435.0,1000.0,1435.0,1471.0,1011.0,137.0,293.01,1649154770.625564,1649154771.7429333,68c6999f-eb09-42ac-b36f-91e2c1b006b8
-0.1301282076590197,0.0093794651885154,-0.1794226736997654,-0.0972170189296753,-0.313894406404353,0.2351688726414459,-0.5312949966186479,-0.5473495595545197,-23.711420887070577,28.27343023718913,19.049912528260965,0.917348508104301,0.0352379650315833,1.4275240774672409,-1.0,11.991111111111111,0.0,179.3643936760742,1.157980074032076,96.72223977574896,1553.0,1435.0,1000.0,1330.0,1471.0,1011.0,137.0,293.01,1649154773.8863068,1649154775.0323887,8f8856d5-f6dd-446b-a99c-72c58ebae4c7
-0.1292340962402157,0.0099448591332353,-0.1845375170868363,-0.098847457369076,-0.3184833021770279,0.2364311474124261,-0.5352527554277793,-0.5591044973556661,-23.68151707849629,28.17802928166257,19.060727783870423,0.9229925450326896,0.0369258990728862,1.446510856846161,-1.0,11.991,0.0,179.35863658551378,1.1608096577652636,96.74886537095348,1553.0,1435.0,1000.0,1330.0,1471.0,1011.0,137.0,293.01,1649154775.1445322,1649154776.2548206,8f8856d5-f6dd-446b-a99c-72c58ebae4c7
-0.1380831694699821,0.0069075102425353,-0.1838406360767825,-0.0938115064149612,-0.3170500940386966,0.2349847909102892,-0.5356998111323574,-0.5688608327880769,-23.73977611835461,28.261483485355512,19.09152459142182,0.9089460284075004,0.0250989463910148,1.443890441330337,-1.0,11.988,0.0,179.36170561718086,1.1393211237264955,96.75633228553612,1553.0,1435.0,1000.0,1330.0,1471.0,1011.0,137.0,293.01,1649154776.3626385,1649154777.4819489,8f8856d5-f6dd-446b-a99c-72c58ebae4c7
-0.0657806761955775,0.0369572122455231,0.0502428741152793,-0.0781760622817319,-0.10489804939593,0.1779632805969853,-0.3073195094596733,-0.3367808121908335,-22.19331446023889,28.68182519942871,18.9851281540439,0.7607451310558825,0.1407228296754913,0.5152172166072413,-1.0,11.988444444444443,0.0,179.33429986259114,1.1317456494531415,96.7529149142214,1553.0,1435.0,1000.0,1210.0,1471.0,1011.0,137.0,293.01,1649154779.4244833,1649154780.5590038,d83a6c91-a4a7-49cf-a25b-c05270758f8d
-0.0575216510090451,0.0451066646486756,0.0489827907215015,-0.0809016775413151,-0.1081167408442727,0.1717998294570438,-0.3094424763681018,-0.3353015836888822,-22.031772386819465,28.59798484364464,18.87447366993341,0.7524884992454286,0.1713798809618689,0.5252949732538501,-1.0,11.990625,0.0,179.33715734812142,1.129790101667845,96.77352757136283,1553.0,1435.0,1000.0,1210.0,1471.0,1011.0,137.0,293.01,1649154780.6667984,1649154781.9872036,d83a6c91-a4a7-49cf-a25b-c05270758f8d
-0.0600966041317805,0.0406826762037185,0.0491060597408586,-0.0813947536822795,-0.1072675541837226,0.1783056945582542,-0.3068538264241452,-0.3243032452623401,-21.99218124442858,28.58343998461638,19.128822059219807,0.7681904978979434,0.1523210109545323,0.5201374012310028,-1.0,11.990444444444444,0.0,179.3258182854618,1.1290565944905335,96.80118689672553,1553.0,1435.0,1000.0,1210.0,1471.0,1011.0,137.0,293.01,1649154782.0955436,1649154783.2158997,d83a6c91-a4a7-49cf-a25b-c05270758f8d
-0.0035982982744304,0.0714281630405924,0.2533140725173496,-0.063201340111159,0.0753333257732551,0.1185925358481441,-0.1123774665826796,-0.1451834663948838,-20.589522415926822,29.158967224872004,18.82501388167341,0.6076082428911218,0.2711157105761476,-0.2796265572524093,-1.0,11.983,0.0,179.3100830474339,1.1229435396094705,96.75590426034812,1553.0,1435.0,1000.0,1071.0,1471.0,1011.0,137.0,293.01,1649154785.3575656,1649154786.5015135,36e08fe6-4e65-4bee-b762-1d99521fe190
-0.0031874015430437,0.0712670915097192,0.2459392978693231,-0.0611375426574783,0.0688154074780961,0.1145619126177637,-0.1208134515363157,-0.1441660861512161,-20.62261414699996,29.131320404786816,18.43962291077942,0.5932668931564485,0.2734394320942797,-0.2492419913373917,-1.0,11.967666666666666,0.0,179.30837398232157,1.1087115598132795,96.72666725615092,1553.0,1435.0,1000.0,1071.0,1471.0,1011.0,137.0,293.01,1649154786.6097643,1649154787.9369514,36e08fe6-4e65-4bee-b762-1d99521fe190
0.005057926917638,0.0789645573789538,0.2538422117844193,-0.0670270630133625,0.0739242238364867,0.1125759116936834,-0.1124859433460815,-0.1418787603939268,-20.44093612307965,29.070650380628702,18.520710613503528,0.6021851002566413,0.3015301581611628,-0.2776834495273227,-1.0,11.971,0.0,179.31358465774838,1.1148945885594337,96.72510238392113,1553.0,1435.0,1000.0,1071.0,1471.0,1011.0,137.0,293.01,1649154788.0458012,1649154789.1630218,36e08fe6-4e65-4bee-b762-1d99521fe190
-0.3777970811291669,-0.1114833551426883,-0.9244543266047892,0.0040016482777008,-0.9849383651205508,0.2955213850178156,-1.312065031107615,-1.333313344693942,-29.08681791764315,29.31598150109716,18.186694808370262,0.7916143034514731,-0.432050217016049,4.449579091644406,-1.0,11.963444444444445,0.0,179.3914472964667,1.1379458366779918,96.82450364473212,1553.0,1435.0,1000.0,1613.0,1471.0,1011.0,137.0,293.01,1649154790.475695,1649154791.6135194,fc152bd1-8c5e-4e40-a686-cb3c95e0129f
-0.3764559138804155,-0.1071837312123087,-0.929871592436831,0.0026210350906803,-0.9900926571757612,0.2945746789371857,-1.3173113656899869,-1.3415575854406323,-29.082358243893346,29.192850794449413,18.43053350227358,0.7915563757614769,-0.4182922447434175,4.472359132450487,-1.0,11.955,0.0,179.38414506533405,1.124688973107526,96.7479698572623,1553.0,1435.0,1000.0,1613.0,1471.0,1011.0,137.0,293.01,1649154791.7219007,1649154793.0529268,fc152bd1-8c5e-4e40-a686-cb3c95e0129f
-0.3739576611146694,-0.1051193857827119,-0.9299241872670244,0.008564245962768,-0.989869129204528,0.2884210894669153,-1.320769476002977,-1.348552698179972,-29.2078111194577,29.27542567145962,18.60734217153844,0.7648318254555249,-0.4119624907150798,4.477479631274829,-1.0,11.958444444444446,0.0,179.38053417199285,1.108625032225825,96.67633559215712,1553.0,1435.0,1000.0,1613.0,1471.0,1011.0,137.0,293.01,1649154793.167435,1649154794.1259384,fc152bd1-8c5e-4e40-a686-cb3c95e0129f
-0.4399772784330995,-0.1301150589114322,-1.115820576173507,0.0892709436553101,-1.1565552679197346,0.2444650004067881,-1.5370526094240589,-1.5634420751938205,-30.56500871571966,30.10202588641168,17.89117594415252,0.4794279813613193,-0.511465731160145,5.261235219480898,-1.0,11.951,0.0,179.38541092706024,1.092415439931668,96.5521141828122,1553.0,1435.0,1000.0,1694.0,1471.0,1011.0,137.0,293.01,1649154795.7834806,1649154796.937574,28e08e78-4ce6-4c7f-96ff-5034bb730378
-0.4389779773128507,-0.1323503374199032,-1.1091541824060265,0.0972259047607626,-1.1490605054247955,0.2388899534786937,-1.5306491869779115,-1.5515030439189377,-30.46249220380288,30.08490931571423,17.878615922626967,0.4492237393929171,-0.5210207545689822,5.232683227660631,-1.0,11.922333333333333,0.0,179.37501082568403,1.0918290397323007,96.43629238832656,1553.0,1435.0,1000.0,1694.0,1471.0,1011.0,137.0,293.01,1649154797.0462294,1649154798.1672642,28e08e78-4ce6-4c7f-96ff-5034bb730378
-0.4394250330705064,-0.1287738918198561,-1.110692580950432,0.0968051465209995,-1.1515982056529426,0.23493219610618,-1.5348567746201918,-1.55528987304045,-30.545150390979664,30.1665929601395,17.73649444317869,0.4416798833903793,-0.5058065923105379,5.244364663831375,-1.0,11.928888888888888,0.0,179.39035294837973,1.102713420493408,96.33523063263732,1553.0,1435.0,1000.0,1694.0,1471.0,1011.0,137.0,293.01,1649154798.275092,1649154799.3960686,28e08e78-4ce6-4c7f-96ff-5034bb730378
-0.486470531467874,-0.1470149698298042,-1.2635315056466492,0.1646776192174932,-1.290691805618451,0.1987409591771985,-1.7156828084561486,-1.7396929118269129,-31.709930575698586,31.08227419126128,17.646261016237954,0.2051087711716722,-0.5832081585431683,5.896679498993294,-1.0,11.912,0.0,179.40597434992142,1.0953464922911185,96.21661453187124,1553.0,1435.0,1000.0,1774.0,1471.0,1011.0,137.0,293.01,1649154800.3061054,1649154801.4433644,3e90487f-ac04-4e0c-920c-61b2eab732d2
-0.4897303132999455,-0.1376465230817786,-1.256874972262651,0.1646502261079831,-1.286076061119279,0.1879891611263303,-1.712217574226235,-1.7417337010384184,-31.669199163901936,31.06516106841927,17.45822440161491,0.1812183724860524,-0.5462674392462546,5.877288986964348,-1.0,11.88211111111111,0.0,179.39876318797772,1.0870053846425212,96.07681725557909,1553.0,1435.0,1000.0,1774.0,1471.0,1011.0,137.0,293.01,1649154801.5512097,1649154802.6740324,3e90487f-ac04-4e0c-920c-61b2eab732d2
-0.4871553596136345,-0.1416048287783122,-1.2601210594705474,0.1641160603239171,-1.2888016787193723,0.1945772055455422,-1.7138474670101156,-1.7340636168378378,-31.67130465703885,31.098295066263905,17.754150793300727,0.1973316634137194,-0.5638608336660053,5.887665438731983,-1.0,11.882333333333332,0.0,179.4097051510281,1.0858177499266837,95.98123786506363,1553.0,1435.0,1000.0,1774.0,1471.0,1011.0,137.0,293.01,1649154802.7828217,1649154804.1130974,3e90487f-ac04-4e0c-920c-61b2eab732d2
-0.5157926796238604,-0.14882565502108894,-1.3585062705216833,0.23973146997671715,-1.3785054573173923,0.13393706400762256,-1.844706224527698,-1.878130265124636,-32.50778127748821,32.09020465074857,17.136590456589328,-0.10834761162479406,-0.595079675746144,6.328196290436872,-1.0,11.863111111111111,0.0,179.4296675172423,1.0690835967326753,95.81082085072227,1553.0,1435.0,1000.0,1856.0,1471.0,1011.0,137.0,293.01,1649154804.779848,1649154805.9608614,e30f97b1-c180-4390-a0c5-cab200bab38e
-0.5214789444245691,-0.14665885927691696,-1.3597636160582127,0.24284387580092134,-1.3790346930819137,0.12976509235821113,-1.8468686409159474,-1.8706459048412374,-32.52895169720019,32.02259931243406,17.24045090952068,-0.1252482860298381,-0.5881876071716875,6.334158749122807,-1.0,11.825666666666667,0.0,179.41573089569587,1.061922653280511,95.65316111193069,1553.0,1435.0,1000.0,1856.0,1471.0,1011.0,137.0,293.01,1649154806.0732148,1649154807.1771219,e30f97b1-c180-4390-a0c5-cab200bab38e
-0.5241684013550283,-0.14644574080684844,-1.3666453215456482,0.24116467782307743,-1.3862763446516422,0.13139936570645838,-1.8539760699982957,-1.8824035985019967,-32.535986427123234,32.05998135797546,17.22838118603776,-0.11788831435283481,-0.5874604038348812,6.363495905932061,-1.0,11.83625,0.0,179.41504028767974,1.0613288211001333,95.52297030697866,1553.0,1435.0,1000.0,1856.0,1471.0,1011.0,137.0,293.01,1649154807.28564,1649154808.4138205,e30f97b1-c180-4390-a0c5-cab200bab38e
