raw_voltage_G-,raw_voltage_G0,raw_voltage_G1,raw_voltage_G2,raw_voltage_G3,raw_voltage_G4,raw_voltage_G5,raw_voltage_G6,load_x,load_y,load_z,load_l,load_m,load_n,rpm,voltage,current,roll,pitch,yaw,aileron1_pwm,elevator_pwm,throttle_pwm,rudder_pwm,aileron2_pwm,pbaro,pdiff,Tt,sample_start_time,sample_end_time,uid
0.129929451040519,0.2540339636219478,0.3439929547837776,-0.1610265503637936,0.067527931026098,0.0211513835112464,0.0046059405097933,-0.0185960303910703,-9.554900784548076,28.19506942041852,18.35483386943831,0.6129196760615055,0.8998419282266896,-0.5304732608727949,-1.0,11.992,0.0,179.19636495121264,1.1803749362282092,93.885157538354,1553.0,1435.0,1000.0,1528.0,1471.0,1011.0,137.0,293.01,1649153733.812369,1649153734.8332577,bfd79dad-0d60-479f-9adb-80062776f493
0.1333453726925351,0.2529459090693379,0.3449736283122767,-0.1562809663641442,0.0686011933612299,0.0187018909504184,0.0038175665859904,-0.0154452738816768,-9.600096997032423,28.297799945328915,18.475955929317102,0.5974368653776997,0.8944870767935477,-0.5321423547701183,-1.0,11.988222222222223,0.0,179.19875551742214,1.1849987608528965,93.80493620764229,1553.0,1435.0,1000.0,1528.0,1471.0,1011.0,137.0,293.01,1649153734.942036,1649153736.060909,bfd79dad-0d60-479f-9adb-80062776f493
0.1312547300126707,0.252275325595125,0.3473140960808141,-0.1568332116599141,0.0712309326023488,0.020069355369023,0.0081434877252195,-0.0188113403877942,-9.49296574507713,28.202703394848392,18.53086039352005,0.6013042829788798,0.8909418691248595,-0.5449682559023354,-1.0,11.991,0.0,179.18196691244225,1.1847035686147047,93.69417861897126,1553.0,1435.0,1000.0,1528.0,1471.0,1011.0,137.0,293.01,1649153736.169197,1649153737.296016,bfd79dad-0d60-479f-9adb-80062776f493
0.3669713954992998,0.6766231641465263,0.3829602089478731,-0.2818773264168047,0.0146783898442272,-0.2798918729967898,-0.0742725428093405,-0.0978087107569468,-9.255075387407128,27.555058637192552,18.454020211384744,0.2069093605455582,2.4991459649558205,-0.3486148316842301,-1.0,11.975333333333332,0.0,178.98463364040168,1.1728381070703155,93.64589373499872,1647.0,1435.0,1000.0,1528.0,1543.0,1011.0,137.0,293.01,1649153739.429182,1649153740.7729828,ad01a4ee-2f04-43fa-9e9a-f55c72791119
0.3449736283146198,0.6723498382831962,0.3770827421756103,-0.2791949920163243,0.0091427886499323,-0.2782351370633104,-0.0800053746466871,-0.1076176383225843,-9.216575364616205,27.638383591241844,18.39956078631973,0.2048519895327649,2.482627133928186,-0.3254788157767615,-1.0,11.968,0.0,178.96632873342605,1.172096569084644,93.6641735979474,1647.0,1435.0,1000.0,1528.0,1543.0,1011.0,137.0,293.01,1649153740.881425,1649153742.0013058,ad01a4ee-2f04-43fa-9e9a-f55c72791119
0.3555714766948062,0.6719027826544341,0.3784502064753005,-0.2800628060637889,0.0108521191799815,-0.2764732115161136,-0.0770995126450902,-0.09395614208977,-9.16254524298003,27.562978426069485,18.4911775991932,0.2103788696479675,2.4799482516995,-0.3336720716219352,-1.0,11.97,0.0,178.97314070875825,1.1679427112783167,93.70346767624248,1647.0,1435.0,1000.0,1528.0,1543.0,1011.0,137.0,293.01,1649153742.110009,1649153743.4336903,ad01a4ee-2f04-43fa-9e9a-f55c72791119
0.6090651694023675,1.128201952963964,0.4351736775236853,-0.4073290586593618,-0.0351946160830305,-0.6061505470308197,-0.1500221864740076,-0.1705604519910948,-8.647861501981195,27.164516132846103,18.46276342660577,-0.2429310922631062,4.207215004665176,-0.1898689832036085,-1.0,11.957,0.0,178.5147667135587,1.155031981773602,93.73904385489936,1745.0,1435.0,1000.0,1528.0,1614.0,1011.0,137.0,293.01,1649153744.343324,1649153745.4828804,01761fea-2f46-4821-8a02-b7140a5607f6
0.6239231947224333,1.131613491644971,0.4376226219919938,-0.4173439843173449,-0.0342375005449653,-0.6008505249055892,-0.1457959760299318,-0.1721207639938241,-8.632724361176896,27.105469071396044,18.40675868927717,-0.2087008131109456,4.221786880858303,-0.2002471984696502,-1.0,11.938222222222224,0.0,178.51046824784106,1.1472422221730063,93.82008556722138,1745.0,1435.0,1000.0,1528.0,1614.0,1011.0,137.0,293.01,1649153745.5919514,1649153746.7104385,01761fea-2f46-4821-8a02-b7140a5607f6
0.6136507767796594,1.1272442896318946,0.4313085090091129,-0.4115914285618025,-0.0398393931854154,-0.5994808686616085,-0.1518224622758168,-0.1683816032271704,-8.553681593734945,27.17294498181975,18.69699521470732,-0.2183804102644704,4.201160513089755,-0.1754712535906209,-1.0,11.93288888888889,0.0,178.49820881719083,1.1623945462439218,93.90842951067604,1745.0,1435.0,1000.0,1528.0,1614.0,1011.0,137.0,293.01,1649153746.818611,1649153747.874822,01761fea-2f46-4821-8a02-b7140a5607f6
0.8466489393168092,1.5466066276617567,0.5030472415852326,-0.5254306767136777,-0.0672642874214051,-0.9130149544661772,-0.2026695708714662,-0.2174881536598789,-7.80722280274652,27.145745781624463,17.713874995627354,-0.6625290753150773,5.796017808632061,-0.1146185887183143,-1.0,11.914666666666667,0.0,178.31985588194377,1.1425103951820683,94.0805836697963,1849.0,1435.0,1000.0,1528.0,1686.0,1011.0,137.0,293.01,1649153748.9531395,1649153750.0925913,bff7e738-9fa3-4f02-beae-bf483fdbce19
0.8711818757558695,1.5440916863743956,0.4977715805607261,-0.5318598850315669,-0.0722370233899542,-0.9032980623949036,-0.2048618633104656,-0.2269744327363284,-7.80670658531903,27.09494378717985,17.875046864085327,-0.6267647162879879,5.7856093966777005,-0.0976450288003341,-1.0,11.898888888888887,0.0,178.30919319773952,1.1385257268533064,94.16057808644558,1849.0,1435.0,1000.0,1528.0,1686.0,1011.0,137.0,293.01,1649153750.2015955,1649153751.5239997,bff7e738-9fa3-4f02-beae-bf483fdbce19
0.8400351456815897,1.5446606204032802,0.5024686990057602,-0.5243130370047635,-0.0677770865799953,-0.9121602885992404,-0.2028799500270622,-0.2265870524793467,-7.768519609307706,27.173837996445705,17.707039534141924,-0.662953836637337,5.788331943625125,-0.1130517572327335,-1.0,11.893111111111113,0.0,178.2923423621472,1.1353959349617555,94.249072294062,1849.0,1435.0,1000.0,1528.0,1686.0,1011.0,137.0,293.01,1649153751.6329534,1649153752.7740586,bff7e738-9fa3-4f02-beae-bf483fdbce19
0.8559839649800138,1.5379766993685913,0.5228289054116445,-0.5783881619377332,-0.0632605092363143,-0.8861773551765603,-0.1831191012627181,-0.2068415439968011,-7.819036037431012,28.26957169402497,13.53509398986128,-0.474999390081592,5.8085636836615775,-0.182744028536703,-1.0,11.836555555555556,0.0,178.29670305847725,1.1216940655941157,94.3991937807396,1962.0,1435.0,1000.0,1528.0,1760.0,1011.0,137.0,293.01,1649153754.885953,1649153756.2343462,35f49248-d82f-4e5b-9506-55b4b4d8620a
0.8538018294374521,1.5237541913195032,0.512724681141246,-0.5708068404317405,-0.0678822761571011,-0.8760145030652865,-0.1894814272441375,-0.2114529009686682,-7.969555101725205,28.18503243646386,13.929387676966634,-0.4703401669369215,5.7512159425815925,-0.1547861482757843,-1.0,11.786666666666669,0.0,178.29532336026492,1.0922189178394548,94.28078258564864,1962.0,1435.0,1000.0,1528.0,1760.0,1011.0,137.0,293.01,1649153756.343084,1649153757.4640436,35f49248-d82f-4e5b-9506-55b4b4d8620a
0.833579136421651,1.5251742508156665,0.5234803136657247,-0.5711881528591255,-0.0585467015649981,-0.8813002820081638,-0.1775687074818548,-0.1936495645461008,-7.70492981495069,28.11431178872036,13.41288223551348,-0.4812402559268378,5.759974449145132,-0.1994697416313539,-1.0,11.791,0.0,178.29761526818643,1.0951008070664423,94.18279517399584,1962.0,1435.0,1000.0,1528.0,1760.0,1011.0,137.0,293.01,1649153757.572224,1649153758.6979644,35f49248-d82f-4e5b-9506-55b4b4d8620a
-0.1504034987528597,-0.2661777810038513,0.3100243960650323,0.0014376525043265,0.1430622589990901,0.3821975846232052,0.1115842808792302,0.0914536270988635,-9.621537677163309,29.35110933727408,18.754773507793185,1.0637615901336952,-1.0764780561532816,-0.8008433789143581,-1.0,11.818777777777775,0.0,179.31742474188175,1.1744461067272591,94.0777453467412,1459.0,1435.0,1000.0,1528.0,1394.0,1011.0,137.0,293.01,1649153760.8319197,1649153761.8535793,51aa9538-7c9e-4002-9654-c48064ac8f5b
-0.1479183949585875,-0.2656255356633819,0.3026216805664706,0.0060002502000423,0.1367640336718928,0.3777664743310317,0.1035109815384277,0.0780814031517999,-9.591566525842808,29.28219564011905,18.74013791761956,1.0426995017794356,-1.0755214287928316,-0.7705441663570193,-1.0,11.982,0.0,179.36778448554216,1.1764911554853126,94.065501853199,1459.0,1435.0,1000.0,1528.0,1394.0,1011.0,137.0,293.01,1649153761.9672744,1649153762.9158394,51aa9538-7c9e-4002-9654-c48064ac8f5b
-0.1456173729862611,-0.2629694986776307,0.3064216535245155,0.0039622022051031,0.1396041519718268,0.3741111370348904,0.1069559398829479,0.0775949014555042,-9.53042340050452,29.253262384444863,18.35182168326596,1.039049097033313,-1.0620594595975694,-0.7846867194946244,-1.0,11.977666666666668,0.0,179.36904124034945,1.1701979543648902,94.02056603864948,1459.0,1435.0,1000.0,1528.0,1394.0,1011.0,137.0,293.01,1649153763.0249665,1649153764.2285063,51aa9538-7c9e-4002-9654-c48064ac8f5b
-0.3973059151022089,-0.7325977705342656,0.2729215168539956,0.1717313466895909,0.2055755416695565,0.687160199575021,0.1900984310864054,0.1668416753183141,-9.992915448731685,30.77206985424077,19.576083579105184,1.3724286760440367,-2.853782152590817,-1.0018290743229394,-1.0,11.975555555555555,0.0,179.52424894122902,1.176169982440747,93.98308196048448,1364.0,1435.0,1000.0,1528.0,1312.0,1011.0,137.0,293.01,1649153766.3608615,1649153767.4997346,fd135579-6cde-407b-b925-71b9deef9c7f
-0.3951665122109506,-0.7283151288268592,0.2687637897680988,0.1664669376147916,0.2006272491936131,0.6894431417383603,0.1861110891189996,0.1591431139597095,-10.018985318265246,30.72797739455851,19.77720363135209,1.388953584491431,-2.8389338122544405,-0.9829891875945584,-1.0,11.92911111111111,0.0,179.53200044702706,1.1779768520674307,93.83800722469358,1364.0,1435.0,1000.0,1528.0,1312.0,1011.0,137.0,293.01,1649153767.6089184,1649153768.7276146,fd135579-6cde-407b-b925-71b9deef9c7f
-0.4004561242125317,-0.7360356081784015,0.2703328674308641,0.1682661174891229,0.2036991132249373,0.6927620914926728,0.1885918097069192,0.16092476210841,-10.103054327297745,30.788808283843554,19.424676288241045,1.392736070559512,-2.864291857850912,-0.9943433903335878,-1.0,11.927333333333332,0.0,179.53688934465293,1.1817328750705396,93.70171914781496,1364.0,1435.0,1000.0,1528.0,1312.0,1011.0,137.0,293.01,1649153768.8368409,1649153769.9034462,fd135579-6cde-407b-b925-71b9deef9c7f
-0.6789943499320578,-1.2251389228622869,0.2291730674585854,0.339359135379945,0.2614531150683102,1.0185155346739727,0.2679748680363498,0.2452802194486126,-10.244721746267489,32.656753883959794,20.127833844323906,1.7491777517925169,-4.727598886030688,-1.1874810125023236,-1.0,11.915,0.0,179.69568820721614,1.214263168812541,93.4471511672594,1262.0,1435.0,1000.0,1528.0,1222.0,1011.0,137.0,293.01,1649153771.8912604,1649153773.028799,f2ee8d46-6a16-4f8e-bb85-f30f36d001bb
-0.6766407325160151,-1.2230614271179288,0.2280422796171385,0.3375972101955272,0.2606247472386438,1.0187785085720469,0.2677118941083973,0.2512760245415241,-10.228512842632105,32.54964231244944,20.21972850182404,1.7529996072515166,-4.720592768307867,-1.1840161047903166,-1.0,11.892666666666663,0.0,179.71733687124546,1.2145199056627491,93.28562326466788,1262.0,1435.0,1000.0,1528.0,1222.0,1011.0,137.0,293.01,1649153773.1371467,1649153774.2584584,f2ee8d46-6a16-4f8e-bb85-f30f36d001bb
-0.6758386615669838,-1.2238240521336876,0.2302118144162643,0.342212402265858,0.263109850705048,1.01505742775064,0.2686454515127245,0.2522358793444069,-10.234641383669189,32.5904016981307,20.200173346855948,1.7345991243013703,-4.723666383374301,-1.1917878134618405,-1.0,11.89,0.0,179.71849648558452,1.2241934456659953,93.1238578232752,1262.0,1435.0,1000.0,1528.0,1222.0,1011.0,137.0,293.01,1649153774.367924,1649153775.490062,f2ee8d46-6a16-4f8e-bb85-f30f36d001bb
-0.732075657655549,-1.3183632623366313,0.2435445917328804,0.4008029883377467,0.2938383520127339,1.0424987551424028,0.2899857842497511,0.2601908399739714,-10.530698921805634,33.56766794088774,18.7268038941944,1.6708558514312857,-5.069443996666227,-1.2958109855108553,-1.0,11.851,0.0,179.74242643279663,1.2126188126278277,92.89618029748198,1153.0,1435.0,1000.0,1528.0,1121.0,1011.0,137.0,293.01,1649153776.397382,1649153777.544171,c37363b4-a8c9-499d-9c5e-ebb08eff5497
-0.7342714908518987,-1.3181660317472437,0.2460296951769449,0.4035773629234926,0.2958501023818006,1.0398032725964048,0.2908930442344821,0.263583203452554,-10.545513861895678,33.65591388338262,18.746337112756315,1.659244823723366,-5.068955073953922,-1.3032011141289157,-1.0,11.74711111111111,0.0,179.75012936836058,1.2087648190988114,92.5672588776217,1153.0,1435.0,1000.0,1528.0,1121.0,1011.0,137.0,293.01,1649153777.6771762,1649153778.763932,c37363b4-a8c9-499d-9c5e-ebb08eff5497
-0.7275163454782674,-1.3235909696688737,0.2368036937852723,0.4056822498971711,0.2897682828986818,1.042914582680077,0.282221479566719,0.2508700585200082,-10.7562282927941,33.59817811843048,18.64151045731909,1.660523334709442,-5.087726443642317,-1.2709044130484437,-1.0,11.752333333333333,0.0,179.74891663032795,1.203861229451402,92.25194319458804,1153.0,1435.0,1000.0,1528.0,1121.0,1011.0,137.0,293.01,1649153778.8723118,1649153780.0194724,c37363b4-a8c9-499d-9c5e-ebb08eff5497
0.1335820492074435,0.2672385410990065,0.3439348813823092,-0.1609487539057281,0.0654718036683656,0.0079199598798977,0.0011220838158361,-0.0287386065082012,-9.464495803821269,28.085616031593403,18.310555695551283,0.5823213886856728,0.949104577979316,-0.5209891800432698,-1.0,11.80811111111111,0.0,179.18032463140182,1.149464357814853,92.02684216793176,1553.0,1435.0,1000.0,1528.0,1471.0,1011.0,137.0,293.01,1649153780.8025243,1649153782.0424812,4e043682-2235-48e8-aa93-8ec1fdf5ef58
0.135436015347429,0.2550628490498426,0.3357695415861761,-0.1543086617690076,0.0612642208808195,0.0147178359395232,-0.005044654846809,-0.0272528033944303,-9.599201102016348,28.09655455282721,18.39555194244963,0.5822303778780779,0.9023034304716826,-0.4967417726911179,-1.0,11.988888888888887,0.0,179.18338910960944,1.159251817310037,92.44979783773526,1553.0,1435.0,1000.0,1528.0,1471.0,1011.0,137.0,293.01,1649153782.151414,1649153783.2691338,4e043682-2235-48e8-aa93-8ec1fdf5ef58
0.1386968919177042,0.2632939324411886,0.3426594579332184,-0.1585688396946656,0.0656558854085034,0.0095635469248464,4.444605729996276e-06,-0.0264770307245551,-9.563472754450247,28.100436600172447,18.297446868184785,0.5806290725211786,0.934752992864321,-0.5184603025632384,-1.0,11.991444444444443,0.0,179.19229415846732,1.1630991348034585,92.742128416392,1553.0,1435.0,1000.0,1528.0,1471.0,1011.0,137.0,293.01,1649153783.3777,1649153784.5054083,4e043682-2235-48e8-aa93-8ec1fdf5ef58
0.157774553909424,0.2598550007092779,0.3321591289956065,-0.5564462682512487,0.0128786620288541,0.3979436950125861,0.099166981077984,0.0854704222516541,-9.302441213551424,27.392047181914524,21.29237739884516,2.34627508149623,0.9417729461304988,-0.5726564055701152,-1.0,11.984000000000002,0.0,179.19908488432213,1.2893816485941778,93.15548235804226,1553.0,1537.0,1000.0,1528.0,1471.0,1011.0,137.0,293.01,1649153785.4091718,1649153786.7506535,f9f344cc-8cb8-4dfd-8529-3ac6df7d34f6
0.1602673275076291,0.2572115650435267,0.3270640095460603,-0.5536658660685841,0.0095640948000948,0.3988202746903185,0.093345943744602,0.0621314864643781,-9.47339232463893,27.40365990277232,21.37145095910995,2.3417227984980404,0.9317024446780322,-0.5532169868339135,-1.0,11.981222222222222,0.0,179.18722464028335,1.2801644624628206,93.29603702642244,1553.0,1537.0,1000.0,1528.0,1471.0,1011.0,137.0,293.01,1649153786.8595402,1649153787.979166,f9f344cc-8cb8-4dfd-8529-3ac6df7d34f6
0.152647658272486,0.2601513942180735,0.3283799748108166,-0.5569875564361028,0.0099711565346644,0.3984888179959857,0.0958584404333801,0.0705077541340029,-9.343070437231097,27.31621818046835,21.31412638290872,2.3480132180920124,0.942805184882062,-0.5587697166687591,-1.0,11.986,0.0,179.1968977059679,1.2937065575789384,93.43636629855996,1553.0,1537.0,1000.0,1528.0,1471.0,1011.0,137.0,293.01,1649153788.0875864,1649153789.4158611,f9f344cc-8cb8-4dfd-8529-3ac6df7d34f6
0.1800758377287954,0.2562462316460898,0.3226602923240527,-1.0133658642382903,-0.0483170153766571,0.8469119131855504,0.2131711048719597,0.1934743586679887,-8.983526697919663,26.910614283426508,25.205226364780795,4.382985086255174,0.9469474295953728,-0.6371789348270037,-1.0,11.976888888888888,0.0,179.18571440956683,1.4322466047451536,93.63621991040428,1553.0,1645.0,1000.0,1528.0,1471.0,1011.0,137.0,293.01,1649153790.3232682,1649153791.460295,aa844db7-ccb5-4a24-87cc-1ea48c727cd6
0.1853353160384916,0.2573638707600247,0.3275647556860454,-1.0215049124972684,-0.0453717073203556,0.8491997861402574,0.2204291848659549,0.2041773968773766,-8.7959448729698,26.863384323577016,24.667419627117773,4.40642575189129,0.9558903721789982,-0.6587539276569392,-1.0,11.962,0.0,179.1728235658733,1.4262753000053023,93.64913352139504,1553.0,1645.0,1000.0,1528.0,1471.0,1011.0,137.0,293.01,1649153791.568879,1649153792.6892755,aa844db7-ccb5-4a24-87cc-1ea48c727cd6
0.1784453994231626,0.2519992029897646,0.3246062992430319,-1.0167582300771765,-0.0455294916677952,0.8512115364791546,0.2175496205267468,0.1892010325624387,-8.983756627994087,26.849724715226504,24.80613146893449,4.399928780162239,0.9350972920031764,-0.6509440321158853,-1.0,11.963888888888889,0.0,179.16737762837508,1.4227688042082778,93.65758246539832,1553.0,1645.0,1000.0,1528.0,1471.0,1011.0,137.0,293.01,1649153792.798169,1649153793.921332,aa844db7-ccb5-4a24-87cc-1ea48c727cd6
0.2080409220975108,0.2632517470462974,0.3169696465294746,-1.379500376552946,-0.1028024758269361,1.1932480034812407,0.2958221614219554,0.2742363862767689,-8.775452924991727,27.155089066494355,27.77738412095249,5.989010333582762,0.9936750920783748,-0.6715779429661252,-1.0,11.958555555555556,0.0,179.1665974689899,1.5392710444320028,93.7254290111538,1553.0,1761.0,1000.0,1528.0,1471.0,1011.0,137.0,293.01,1649153794.8289096,1649153795.9657936,4a319f58-e2c4-4dc0-982c-ef80235988c1
0.1952231352219874,0.2511182403850487,0.3177163828560465,-1.3841462537991702,-0.1007277210156003,1.2059633403212222,0.3014908927394693,0.2801768572027726,-8.745168319855516,27.17499395744496,27.311306905721857,6.028173437569048,0.9527032322019702,-0.6856460258238957,-1.0,11.94475,0.0,179.17064075125109,1.5154858815185066,93.65056700734708,1553.0,1761.0,1000.0,1528.0,1471.0,1011.0,137.0,293.01,1649153796.074298,1649153797.4002278,4a319f58-e2c4-4dc0-982c-ef80235988c1
0.2108392342674792,0.2488440217743454,0.3074442174410244,-1.369520843507914,-0.1079028638256943,1.1974970973531287,0.2887831842926972,0.2648247439452144,-8.796660509053769,27.14087778962949,27.61754937272231,5.9754425683243735,0.9393712793478782,-0.6435150841231625,-1.0,11.943333333333332,0.0,179.168538760534,1.546470549993856,93.58518473692592,1553.0,1761.0,1000.0,1528.0,1471.0,1011.0,137.0,293.01,1649153797.512317,1649153798.6332238,4a319f58-e2c4-4dc0-982c-ef80235988c1
0.1873207691047135,0.2487251777879828,0.2886840633851291,-1.386697104494094,-0.1388983886653763,1.2143390600126511,0.2614399663094855,0.2405072429899859,-8.889209534611282,28.388926245816464,27.55476751458432,6.059316882740279,0.9410836531391804,-0.5376254629031624,-1.0,11.865444444444444,0.0,179.15607745984823,1.555212456937499,93.43740676404352,1553.0,1887.0,1000.0,1528.0,1471.0,1011.0,137.0,293.01,1649153800.9734137,1649153802.1645515,8aa94f79-4fb9-47ce-a690-b5c5646fe3b3
0.1946182952238462,0.2525120021051323,0.2955476824042498,-1.3758625678099314,-0.1300098693966423,1.1999938325923434,0.2640302593707251,0.2432027255032468,-9.074249263092447,28.317409632712994,27.49951995657134,6.00240690010615,0.9561858107250076,-0.5624006095547579,-1.0,11.863,0.0,179.15352752255816,1.5466882029838136,93.28146292055344,1553.0,1887.0,1000.0,1528.0,1471.0,1011.0,137.0,293.01,1649153802.273179,1649153803.336717,8aa94f79-4fb9-47ce-a690-b5c5646fe3b3
0.1926065447762054,0.2568510716295777,0.2942196641548782,-1.3819109752352676,-0.1335994637366146,1.201913542552331,0.2635700550032778,0.2434131045384233,-8.918411023797752,28.30902644855872,27.57738218533395,6.0203336271003005,0.9713272408217684,-0.5543517495668808,-1.0,11.863777777777775,0.0,179.16528000139,1.5620765836099502,93.22287962913232,1553.0,1887.0,1000.0,1528.0,1471.0,1011.0,137.0,293.01,1649153803.445511,1649153804.5835063,8aa94f79-4fb9-47ce-a690-b5c5646fe3b3
0.1114264965037419,0.2620316576716396,0.3613174565622781,0.3332055459953414,0.1294007639509531,-0.4595425428420326,-0.1226071528583129,-0.1478789490478821,-9.921029503110397,29.90931929940012,15.391757778417162,-1.5705602988395535,0.8989679851753762,-0.4570747249077386,-1.0,11.920222222222222,0.0,179.15780322097856,1.024351395339825,93.14957576223,1553.0,1335.0,1000.0,1528.0,1471.0,1011.0,137.0,293.01,1649153805.3022685,1649153806.627104,450e650e-3041-4d93-8ac3-caf8295ed27f
0.1005130787878419,0.2604932603018831,0.3554794358582241,0.3234360653528581,0.1235758916431024,-0.4480374309790754,-0.1248950261477769,-0.1499695918989503,-9.939648009724024,29.83696381610715,15.50376249103105,-1.5234310870815388,0.8931686476605784,-0.4380228868426871,-1.0,11.986222222222224,0.0,179.1646060893919,1.0060194521987262,93.47216711454952,1553.0,1335.0,1000.0,1528.0,1471.0,1011.0,137.0,293.01,1649153806.7363422,1649153807.841421,450e650e-3041-4d93-8ac3-caf8295ed27f
0.1106857866171827,0.2619779671663181,0.3632640113223913,0.3160656737279891,0.1308334239398828,-0.4431483063298922,-0.1148280549576465,-0.1387148554721613,-9.943031002738111,29.7426918447557,15.510654527619517,-1.4960566981224537,0.900099415890938,-0.4726912922626564,-1.0,11.985333333333331,0.0,179.18519531518996,1.0193877095140933,93.69682949127912,1553.0,1335.0,1000.0,1528.0,1471.0,1011.0,137.0,293.01,1649153807.9503849,1649153809.0787036,450e650e-3041-4d93-8ac3-caf8295ed27f
0.0924660768234061,0.2682246932587249,0.3940182616289172,0.7687692185607371,0.2000224091950695,-0.8876774027599055,-0.2198154725304638,-0.2463889908067043,-10.360577945034356,31.59724328202161,12.144623731098486,-3.50308256182522,0.902560388791316,-0.4604463384161348,-1.0,11.986,0.0,179.19468472467682,0.8734615064515969,94.12864695207575,1553.0,1236.0,1000.0,1528.0,1471.0,1011.0,137.0,293.01,1649153810.802476,1649153811.9414394,caf5c529-9c87-4b01-a2cc-0b7df8ae29d8
0.0825914060073313,0.2666994445805889,0.3879041183483105,0.7632073205794042,0.1940397526375697,-0.8813660252194784,-0.2239310149048114,-0.2383156902969654,-10.365204460774454,31.55896352959219,12.06245465576037,-3.476927406325363,0.8978973220949316,-0.4384405775959936,-1.0,11.960666666666668,0.0,179.1718263582545,0.8677909553366054,94.308652034192,1553.0,1236.0,1000.0,1528.0,1471.0,1011.0,137.0,293.01,1649153812.04986,1649153813.170007,caf5c529-9c87-4b01-a2cc-0b7df8ae29d8
0.0953061951507537,0.264871775909939,0.3905864521725577,0.7675726873164037,0.1978265770040054,-0.8815369583409429,-0.2218009259032943,-0.2432990472293617,-10.451569788922226,31.580428548239443,12.373570156939492,-3.486876737688481,0.8885292567031695,-0.4501007565828933,-1.0,11.955444444444444,0.0,179.16694656754746,0.8744146557928821,94.4328696489874,1553.0,1236.0,1000.0,1528.0,1471.0,1011.0,137.0,293.01,1649153813.278735,1649153814.3949957,caf5c529-9c87-4b01-a2cc-0b7df8ae29d8
0.0647617740430877,0.2740627140572996,0.3996984979398382,1.0638259393023517,0.2277924543964584,-1.1760153538586182,-0.3100549865586761,-0.3291863429438055,-10.970245413329506,33.34539443305994,10.250410816505182,-4.805329406674209,0.9096219004977374,-0.3780530539631734,-1.0,11.954,0.0,179.16261926325333,0.7500467294038818,94.77592121242066,1553.0,1133.0,1000.0,1528.0,1471.0,1011.0,137.0,293.01,1649153816.3369937,1649153817.4760218,45d806f7-1f97-4922-9a65-56996aa83f3b
0.0745969987377857,0.2733789818902398,0.4044188795274507,1.0618273375387606,0.2318291039645224,-1.1735828429440291,-0.304309005432515,-0.3345641605495195,-10.913391020168216,33.36200131369548,10.279123859493904,-4.794976545351203,0.9069462040905168,-0.3981933836248107,-1.0,11.937222222222225,0.0,179.16196356509298,0.756789110325971,94.86190342824231,1553.0,1133.0,1000.0,1528.0,1471.0,1011.0,137.0,293.01,1649153817.604613,1649153818.7041252,45d806f7-1f97-4922-9a65-56996aa83f3b
0.0773845223753686,0.2719457740802789,0.4042216490864312,1.0658508384037624,0.2324339439401301,-1.176646491841587,-0.3044010463468923,-0.3189829531348188,-10.853126918697123,33.321286799168575,10.169786395843218,-4.811203821482572,0.9016047511812936,-0.3988508006713522,-1.0,11.936666666666666,0.0,179.1685281357953,0.7533866859790344,94.94117460374947,1553.0,1133.0,1000.0,1528.0,1471.0,1011.0,137.0,293.01,1649153818.8135316,1649153819.931857,45d806f7-1f97-4922-9a65-56996aa83f3b
0.0530331369912691,0.2770211705271289,0.4163447460072728,1.2395188133976769,0.2516047420160394,-1.3478163721801004,-0.3543003568477538,-0.3759431147506956,-11.166174623712182,34.929795442141184,9.115059513000851,-5.5766568626525554,0.9116178401736854,-0.3706710726457324,-1.0,11.936666666666664,0.0,179.1652101816785,0.6586234556375464,95.09902786456756,1553.0,1026.0,1000.0,1528.0,1471.0,1011.0,137.0,293.01,1649153821.8630507,1649153823.0015404,4ec96b03-493b-4fc8-a186-b78e4a3480cf
0.0605804885994053,0.2702364436646094,0.3990016170689175,1.2183625607956368,0.2348138577915728,-1.3192573748327074,-0.3633729587755084,-0.3856337062057716,-11.235908827286924,34.81922535638284,9.360299618781108,-5.466350224016876,0.8859944444714096,-0.3119071853793729,-1.0,11.913444444444444,0.0,179.16835965779575,0.7049259661382486,95.1014912861282,1553.0,1026.0,1000.0,1528.0,1471.0,1011.0,137.0,293.01,1649153823.110011,1649153824.2295196,4ec96b03-493b-4fc8-a186-b78e4a3480cf
0.0788703250534371,0.2707886888736017,0.4095468705559431,1.2369811149432404,0.2470552932682545,-1.33762612235623,-0.3573640037597898,-0.3815839065646955,-11.218473856785808,34.8295210693185,9.326755562600566,-5.549029384973525,0.8866159443781689,-0.3513195487682841,-1.0,11.907,0.0,179.1751913647856,0.6710999967757648,95.11507994748196,1553.0,1026.0,1000.0,1528.0,1471.0,1011.0,137.0,293.01,1649153824.3376667,1649153825.4578383,4ec96b03-493b-4fc8-a186-b78e4a3480cf
0.1459812694722949,0.2659894150208907,0.3422255509908015,-0.1510477848581619,0.0633811609691623,0.0019504516788423,-0.0051498444120999,-0.0217960944783635,-9.54883730945676,28.34776566842956,18.550458157080254,0.5482214411237181,0.9415673569479056,-0.5067742978198061,-1.0,11.925666666666668,0.0,179.16183151476903,1.1166031674950925,95.08856173802938,1553.0,1435.0,1000.0,1528.0,1471.0,1011.0,137.0,293.01,1649153826.3690186,1649153827.430549,786eff17-6059-48a5-aef6-6a3b09a1ea4e
0.1321882874587172,0.2548787673079751,0.3359799207075942,-0.1407523549302202,0.0605147451927624,0.0037912691908202,-0.0116847465941353,-0.0333143529370519,-9.696341068364172,28.451665622475247,18.56258760191858,0.5294394948663349,0.8991703998204404,-0.4864351521473123,-1.0,11.991,0.0,179.16973176690902,1.1114952176390789,95.09326090817834,1553.0,1435.0,1000.0,1528.0,1471.0,1011.0,137.0,293.01,1649153827.5388658,1649153828.7349494,786eff17-6059-48a5-aef6-6a3b09a1ea4e
0.1381314979966316,0.2629126202780074,0.3440663683312178,-0.1409495853956535,0.0661160897734098,-0.0051103983215654,-0.0055443053221594,-0.0174175784716025,-9.540072793337664,28.438894623713203,18.44452740041994,0.510258995605696,0.9297792735153396,-0.5129114063960614,-1.0,11.988666666666669,0.0,179.17403478608614,1.1263447959466273,95.0957835247118,1553.0,1435.0,1000.0,1528.0,1471.0,1011.0,137.0,293.01,1649153828.8439264,1649153829.9654758,786eff17-6059-48a5-aef6-6a3b09a1ea4e
0.199009959591135,0.2980985293424106,0.5483313472639552,-0.1697583811369196,0.2498296682198612,-0.0219407299202813,0.2066099057299834,0.1903581175810356,-8.230971231375277,28.223127189040984,18.78046294792738,0.5468777805632161,1.0659975685938792,-1.3381512359638854,-1.0,11.986444444444444,0.0,179.13956965153426,1.1138924598841784,94.9896704646764,1553.0,1435.0,1000.0,1435.0,1471.0,1011.0,137.0,293.01,1649153831.904542,1649153833.0352132,2b82b77b-2a5c-4c71-ac04-358bb5701c20
0.2110278674364968,0.307039642223479,0.5593893997621595,-0.1719805109907628,0.2573770194617278,-0.0295801226381643,0.2175627692246413,0.1961698412264524,-7.884208171417132,28.15807526568821,18.73268726191512,0.5350099417235997,1.0984748191273317,-1.3778346812395288,-1.0,11.989666666666668,0.0,179.1410070268996,1.1214730093675405,94.99765875036567,1553.0,1435.0,1000.0,1435.0,1471.0,1011.0,137.0,293.01,1649153833.144158,1649153834.264616,2b82b77b-2a5c-4c71-ac04-358bb5701c20
0.1991808926198528,0.2914715868502401,0.5479105890245715,-0.1621715827620228,0.2506054412615743,-0.0227033543094358,0.20620229616972,0.1930536003933086,-8.182940073275905,28.305956855047462,18.737714591434017,0.5285956036144485,1.0402220636171444,-1.3388500151770526,-1.0,11.985333333333331,0.0,179.15936353974894,1.1248589807848357,94.9932418947024,1553.0,1435.0,1000.0,1435.0,1471.0,1011.0,137.0,293.01,1649153834.3729277,1649153835.431425,2b82b77b-2a5c-4c71-ac04-358bb5701c20
0.2953701749996482,0.3358024133274049,0.8395070064162128,-0.1661901534063064,0.5132413152795707,-0.0801072770636604,0.4984216402296106,0.475644265280805,-6.065679548162524,28.43179200890897,18.461186065107537,0.4250416613353896,1.212937595773151,-2.5037378805712573,-1.0,11.97175,0.0,179.12514315364234,1.1061992552646425,94.86766659008198,1553.0,1435.0,1000.0,1330.0,1471.0,1011.0,137.0,293.01,1649153837.4281335,1649153838.5653522,bd95bca9-376f-4f3f-b803-dbe5e19cbce2
0.3032456956948338,0.3489921983185479,0.8453417398622713,-0.1717646532099573,0.5154190678887901,-0.0876951708627495,0.5015718484144389,0.4701108560933403,-5.9781959655375765,28.416763488228487,18.52425159781709,0.4208103515236807,1.2622851496509824,-2.5174392841999693,-1.0,11.969111111111111,0.0,179.1401494587038,1.1139974503267327,94.86089787261452,1553.0,1435.0,1000.0,1330.0,1471.0,1011.0,137.0,293.01,1649153838.6736765,1649153839.800969,bd95bca9-376f-4f3f-b803-dbe5e19cbce2
0.2904196911812107,0.3366242067867788,0.8412316769141135,-0.1696400428637269,0.5141315915098823,-0.07692857958048,0.5005226921327357,0.4792218060961004,-6.078065654913372,28.46443301936956,18.590248533468827,0.4402833211265515,1.2154982530265566,-2.510063673954867,-1.0,11.971555555555556,0.0,179.11870114689012,1.1220897422472842,94.8436797246268,1553.0,1435.0,1000.0,1330.0,1471.0,1011.0,137.0,293.01,1649153839.9135163,1649153841.0221329,bd95bca9-376f-4f3f-b803-dbe5e19cbce2
0.3812245811532617,0.375636385700869,1.112831127729807,-0.1530858329282866,0.7594336451167778,-0.1456436702758187,0.7647325692038364,0.7365417671563153,-4.262815877099396,28.92537052065286,18.470643772697542,0.2660032301189055,1.3652174019996608,-3.584795251042028,-1.0,11.962333333333332,0.0,179.08927213848628,1.1148839163888558,94.6907715207678,1553.0,1435.0,1000.0,1210.0,1471.0,1011.0,137.0,293.01,1649153843.3688662,1649153844.5027516,78141179-753d-484d-9ef6-b8a70b3e4521
0.3843145245271305,0.3833809671931833,1.1152636364599684,-0.1527702641996631,0.7597755111925946,-0.1531384277557197,0.7657581674186044,0.7425112746839363,-4.079261363854545,28.88465417657142,18.538039890431484,0.2484040127365201,1.3924824717443327,-3.588856902283772,-1.0,11.943666666666664,0.0,179.0958974219812,1.1055760049496166,94.657219354835,1553.0,1435.0,1000.0,1210.0,1471.0,1011.0,137.0,293.01,1649153844.616922,1649153845.7331326,78141179-753d-484d-9ef6-b8a70b3e4521
0.3711921266622695,0.3712973162638229,1.1087681807816134,-0.1511792718437681,0.7565146348283708,-0.1427115108085385,0.7616557745771361,0.7396711565662725,-4.270993567388052,28.93286577057784,18.505106433472463,0.2681402056446066,1.3482035109328123,-3.571369009055327,-1.0,11.953,0.0,179.0792089931091,1.1039587086463027,94.6316881077175,1553.0,1435.0,1000.0,1210.0,1471.0,1011.0,137.0,293.01,1649153845.8413744,1649153846.962138,78141179-753d-484d-9ef6-b8a70b3e4521
0.3985463435170985,0.3838362407662086,1.2260786538089696,-0.0406337936252227,0.8673931972696526,-0.2669694421901094,0.840191834294607,0.8189758670046796,-3.697311211795617,30.198907753830785,17.79449586215847,-0.2460379471413889,1.3913176575119148,-3.992749509076463,-1.0,11.953555555555557,0.0,179.07576505994763,1.079813349600073,94.55093629898025,1553.0,1435.0,1000.0,1071.0,1471.0,1011.0,137.0,293.01,1649153848.8018448,1649153850.0342884,a99595cb-f182-40bd-a44b-5363097c9926
0.391598901673286,0.3715602901750759,1.2303015767227805,-0.0385738311259286,0.874708254661126,-0.2568159080615888,0.8481215931624415,0.8275964802347109,-3.800660255792757,30.190556057154893,17.845054476891082,-0.2277574259168837,1.3455727021603523,-4.021224345134533,-1.0,11.946,0.0,179.06582485797554,1.0674412564024047,94.56552785977712,1553.0,1435.0,1000.0,1071.0,1471.0,1011.0,137.0,293.01,1649153850.1422892,1649153851.263032,a99595cb-f182-40bd-a44b-5363097c9926
0.3894162182766193,0.3743872596528037,1.2170608397723448,-0.0336036237963697,0.861296585641176,-0.2642843684861327,0.8304760443633602,0.8085703184360392,-3.898710382476895,30.31301462158412,17.707962800240196,-0.25567034054876,1.3566353170435943,-3.959711624382149,-1.0,11.949333333333334,0.0,179.05098816927844,1.0531258558061944,94.55945278596532,1553.0,1435.0,1000.0,1071.0,1471.0,1011.0,137.0,293.01,1649153851.3713958,1649153852.4971592,a99595cb-f182-40bd-a44b-5363097c9926
0.0545583857438418,0.2181807579212078,0.1156340792584195,-0.113311024036942,-0.1386091172882699,0.0245925069201675,-0.2430229240296691,-0.2724497099763488,-11.354846264932023,28.86008996198081,18.2652698832184,0.5051352331749583,0.7585637239654723,0.4085640040154065,-1.0,11.964222222222222,0.0,179.1782649499121,1.1011703076335797,94.76017762638376,1553.0,1435.0,1000.0,1613.0,1471.0,1011.0,137.0,293.01,1649153854.4275086,1649153855.564893,f30ab641-31be-4176-b1ca-691a7990a0c0
0.0552815640253231,0.2121718040055612,0.1195260932771622,-0.1098397680075695,-0.133467976683201,0.0270250157591137,-0.2370139691318126,-0.2595902834512467,-11.274422042887617,28.836317192091,18.266463119241795,0.5028479796541416,0.7352656387234154,0.3870719042825534,-1.0,11.987333333333332,0.0,179.18510424600103,1.106790580967181,94.7562404017822,1553.0,1435.0,1000.0,1613.0,1471.0,1011.0,137.0,293.01,1649153855.673702,1649153856.7941906,f30ab641-31be-4176-b1ca-691a7990a0c0
0.052770163055047,0.2075303144377103,0.1148977522918515,-0.1075518947493115,-0.136386987448431,0.0283793314763357,-0.2406824558113448,-0.2643238147890964,-11.302513484808369,28.80281736866202,18.080691985817303,0.5002341379960538,0.7191268735895001,0.4017703137761625,-1.0,11.987111111111112,0.0,179.1775530924186,1.0956164863487785,94.75595125710736,1553.0,1435.0,1000.0,1613.0,1471.0,1011.0,137.0,293.01,1649153856.9152348,1649153858.0306518,f30ab641-31be-4176-b1ca-691a7990a0c0
-0.0169179278769385,0.1834156064912246,-0.0621099982581391,-0.0686580492735333,-0.2966038682648474,0.0256444026236153,-0.4344548246982469,-0.4562027740434986,-12.700221773727796,29.31612365810305,17.998143233651497,0.4002256370229901,0.6233050133102433,1.1332817050863238,-1.0,11.984222222222222,0.0,179.21265722911284,1.0987027120684356,94.73394211087184,1553.0,1435.0,1000.0,1694.0,1471.0,1011.0,137.0,293.01,1649153859.8002098,1649153860.8895447,40f300ba-d7b7-4894-a2d3-7064c4849d03
0.000214823692972,0.196577450925736,-0.0546678359034787,-0.0754953716059863,-0.292277946588918,0.0205032623577691,-0.4281828952414735,-0.4482083644821105,-12.600776136969769,29.21449870729345,18.258899626524407,0.4038846428178611,0.6709668938139179,1.110326927356069,-1.0,11.979111111111113,0.0,179.20594239424884,1.1038171245166324,94.69528020452994,1553.0,1435.0,1000.0,1694.0,1471.0,1011.0,137.0,293.01,1649153860.997887,1649153862.12228,40f300ba-d7b7-4894-a2d3-7064c4849d03
0.0027130760390453,0.1952099865632227,-0.0531557357629721,-0.0748773828616504,-0.2910682663466887,0.021542009364696,-0.4262105903547517,-0.4571231829648688,-12.542454379267667,29.24762572614948,18.309663965608976,0.4051571601578881,0.6649956941793572,1.1037487420250571,-1.0,11.981333333333332,0.0,179.20804305687352,1.100307474500304,94.62969293356994,1553.0,1435.0,1000.0,1694.0,1471.0,1011.0,137.0,293.01,1649153862.2306674,1649153863.3472316,40f300ba-d7b7-4894-a2d3-7064c4849d03
-0.0535764941080432,0.1681368220011591,-0.2318859770184095,-0.0227033543005159,-0.4521398251260649,0.0083801642638172,-0.6241379694210835,-0.6515924568039503,-13.81259536954979,29.835644372868547,18.04710185351253,0.2522061744376158,0.5570273823131305,1.844251152129792,-1.0,11.977333333333334,0.0,179.23003323036136,1.0929891402480467,94.64183093863495,1553.0,1435.0,1000.0,1774.0,1471.0,1011.0,137.0,293.01,1649153865.4858634,1649153866.6248484,96a534ea-bbad-4386-b80e-f301b1aa30d1
-0.0681189527475806,0.1635873732481658,-0.2339634712617937,-0.0207967932960943,-0.4520346355333569,0.011101944417406,-0.6250846758612183,-0.6461488947462845,-13.914964327290022,29.780327214526963,18.03948332611228,0.2534987495119779,0.5403888699139467,1.8476942436828447,-1.0,11.972333333333331,0.0,179.23596487020055,1.0896065957833037,94.58371665353688,1553.0,1435.0,1000.0,1774.0,1471.0,1011.0,137.0,293.01,1649153866.734094,1649153867.778882,96a534ea-bbad-4386-b80e-f301b1aa30d1
-0.0605190060094717,0.1631929123734239,-0.2274943119713443,-0.0166155077932942,-0.4463806948441082,0.0080645955454511,-0.6191151657273443,-0.6391274886625162,-13.788244369549613,29.84445627223163,18.146483234628807,0.2380695495875424,0.5369605636530441,1.822878029951648,-1.0,11.973555555555556,0.0,179.2411831347264,1.0810727724499998,94.529097907474,1553.0,1435.0,1000.0,1774.0,1471.0,1011.0,137.0,293.01,1649153867.8872316,1649153869.0818665,96a534ea-bbad-4386-b80e-f301b1aa30d1
-0.11751258070946118,0.13550395030897652,-0.37545989988197354,0.04525732678744821,-0.578360768644295,-0.016623725720808034,-0.7893289410649081,-0.8068605449610669,-14.966926883684089,30.616814663774438,17.651768132746444,0.040101818846727554,0.42885219287303933,2.442034309966093,-1.0,11.954,0.0,179.26045033946514,1.0749661920190872,94.4977162238774,1553.0,1435.0,1000.0,1856.0,1471.0,1011.0,137.0,293.01,1649153869.9917152,1649153871.129326,f8a2d32b-04b4-431d-863b-36aba71c7672
-0.11118477022095911,0.14088669770264498,-0.37463810623983057,0.03761464704556936,-0.5787853621265109,-0.014678814378392054,-0.7881510365253623,-0.8108873348337129,-14.998179274252132,30.554065112941277,17.68615245034872,0.06132700223716316,0.4499492282839368,2.4404520366995164,-1.0,11.936555555555556,0.0,179.24034378036845,1.074829896542837,94.39822237605766,1553.0,1435.0,1000.0,1856.0,1471.0,1011.0,137.0,293.01,1649153871.2378795,1649153872.3696182,f8a2d32b-04b4-431d-863b-36aba71c7672
-0.12041132049658815,0.14198406594825333,-0.37064418904489066,0.04102837733302197,-0.5751327627833637,-0.017864633970947355,-0.7854199415495943,-0.8138474364022951,-14.986588358660029,30.59895024816139,17.85817516023095,0.046997176457950346,0.4522920068204786,2.4265394388072847,-1.0,11.935444444444444,0.0,179.24869482499363,1.0720935757225352,94.34491882086496,1553.0,1435.0,1000.0,1856.0,1471.0,1011.0,137.0,293.01,1649153872.503939,1649153873.5523016,f8a2d32b-04b4-431d-863b-36aba71c7672
