raw_voltage_G-,raw_voltage_G0,raw_voltage_G1,raw_voltage_G2,raw_voltage_G3,raw_voltage_G4,raw_voltage_G5,raw_voltage_G6,load_x,load_y,load_z,load_l,load_m,load_n,rpm,voltage,current,roll,pitch,yaw,aileron1_pwm,elevator_pwm,throttle_pwm,rudder_pwm,aileron2_pwm,pbaro,pdiff,Tt,sample_start_time,sample_end_time,uid
-0.1436976632075972,-0.0874212397272605,0.0179524151643629,0.4562904818314156,-0.0599141660093126,-0.1912959477271229,-0.3534325427065654,-0.3829645200158993,-14.573275856362493,25.57151215431909,18.82653756607924,-1.2930712749045858,-0.4462032253798569,0.5596363005081032,7520.261935763889,12.04811111111111,0.17,179.44471821853338,0.639636905269119,87.63414716048091,1525.0,1435.0,1200.0,1528.0,1475.0,1018.02,306.0,295.54999999999995,1637187842.9881496,1637187844.0683784,290ea611-5803-4f83-bb56-423f0f6c109b
-0.1493433852014543,-0.095488513223073,0.0172478642296552,0.4577565613338136,-0.0590830587515712,-0.1878033249542803,-0.3518470287006354,-0.3715289873875109,-14.531754764350842,25.563298310631875,18.39479757541781,-1.288667455043248,-0.4731530911284098,0.5556674391599956,7555.617296006944,12.04588888888889,0.17,179.41445592705077,0.6344438092788427,87.26940822861306,1525.0,1435.0,1200.0,1528.0,1475.0,1018.02,306.0,295.54999999999995,1637187844.177487,1637187845.296605,290ea611-5803-4f83-bb56-423f0f6c109b
-0.1565965351922372,-0.0945609822228459,0.0163351255212533,0.4591568973359736,-0.0597432329344428,-0.190178308619635,-0.3524989850370011,-0.380624051483834,-14.463073681656065,25.49629396017299,18.36411519431108,-1.297623122258775,-0.4701198670448258,0.5588957954941111,7578.6259765625,12.046,0.17,179.42351882916944,0.653636836503039,86.94738681763427,1525.0,1435.0,1200.0,1528.0,1475.0,1018.02,306.0,295.54999999999995,1637187845.404519,1637187846.6180756,290ea611-5803-4f83-bb56-423f0f6c109b
-0.0455026227760773,0.1179985577764881,0.0334896008430722,0.3373959779067771,-0.0939384199530801,-0.2802354544557444,-0.3775358221871057,-0.3965442688957172,-14.401287349401832,24.990250934615005,19.20500784148644,-1.227666048135923,0.335287819734599,0.6438235778712934,7585.3330078125,12.046,0.1733333333333333,179.38489790396258,0.6498737580093814,86.27137871036106,1559.0,1435.0,1200.0,1528.0,1502.0,1018.02,306.0,295.54999999999995,1637187848.5523698,1637187849.5970714,863caa5d-325b-4793-957e-7c71ac210780
-0.0370315987471901,0.1215197642781423,0.0320675407797666,0.3369666205956316,-0.0944338781047821,-0.281583672489538,-0.3786785918103755,-0.4011546492608762,-14.44756690027553,24.84018916870457,19.439648459120143,-1.2307786287237203,0.3467025935020718,0.6488463599763264,7585.3330078125,12.041444444444446,0.1855555555555555,179.36449840564148,0.6530192261337144,86.06260790710036,1559.0,1435.0,1200.0,1528.0,1502.0,1018.02,306.0,295.54999999999995,1637187849.7061074,1637187850.7137325,863caa5d-325b-4793-957e-7c71ac210780
-0.0293302977284854,0.1234049585038698,0.0337965943242529,0.345552170811755,-0.0934827890365439,-0.2942765489574064,-0.3826620996869191,-0.4113394122844434,-14.53088269968652,25.043060205219795,19.01131563896668,-1.2773473805884386,0.3572151981004111,0.6504234535566711,7573.420247395833,12.044888888888888,0.1888888888888888,179.3907232964147,0.6658319198937016,85.86937578420144,1559.0,1435.0,1200.0,1528.0,1502.0,1018.02,306.0,295.54999999999995,1637187850.8226776,1637187851.938297,863caa5d-325b-4793-957e-7c71ac210780
0.1609521553295169,0.4645774469625103,0.0496265289548095,0.1642119361328227,-0.1594651426193017,-0.4646108187937536,-0.4376011988665287,-0.4607620858236589,-14.010058669544255,24.11789141005024,18.43867423972967,-1.256226030945547,1.6615232102547677,0.8365656014457366,7553.397406684027,12.037999999999998,0.2088888888888889,179.2636271363391,0.6643465197607661,85.44884027809385,1593.0,1435.0,1200.0,1528.0,1529.0,1018.02,306.0,295.54999999999995,1637187853.4853508,1637187854.6058767,7cac0dd3-e06b-4f80-b5ae-109dee241ab7
0.1518850338126167,0.4521546693960234,0.0374228951852082,0.1872084572189176,-0.1636288967841574,-0.4709523268292171,-0.4500102837996175,-0.4762802910614243,-14.196249461392592,23.94504141729421,18.72530479200024,-1.3241522997317416,1.6100997140034303,0.875583052757948,7551.91748046875,12.03133333333333,0.24,179.27221647867535,0.6788102575990287,85.25888133362716,1593.0,1435.0,1200.0,1528.0,1529.0,1018.02,306.0,295.54999999999995,1637187854.714186,1637187855.9479067,7cac0dd3-e06b-4f80-b5ae-109dee241ab7
0.1636268191589765,0.4715561168779256,0.0607514216717321,0.1552116538363793,-0.1527571155874953,-0.4632241788726358,-0.42439607003695,-0.461869863157668,-13.651662458042829,24.098079960183064,18.52162272776444,-1.232191391233208,1.686238705075619,0.7946045450301794,7545.26953125,12.032,0.24,179.29014344851691,0.6675211822006142,85.10338297025295,1593.0,1435.0,1200.0,1528.0,1529.0,1018.02,306.0,295.54999999999995,1637187856.0556,1637187857.1757667,7cac0dd3-e06b-4f80-b5ae-109dee241ab7
0.327314930366112,0.763562335349513,0.062723726072006,0.0209503178301176,-0.2138985587084897,-0.6217317573620563,-0.4883513435179396,-0.5161082486497233,-13.699468945776392,23.153978510541982,18.85937239140653,-1.2916489848609884,2.79542392488503,1.001237592461156,7548.226779513889,12.030444444444443,0.2566666666666666,179.20367021798492,0.6948071891074661,84.80349137218501,1627.0,1435.0,1200.0,1528.0,1556.0,1018.02,306.0,295.54999999999995,1637187858.997475,1637187860.0424857,f636bbd2-92e8-4741-a264-af3e46a54887
0.326263034807586,0.7704391028295884,0.0707312820831041,0.0041857299828154,-0.2131490829663803,-0.6147366485816559,-0.4783188857108071,-0.5020391401465403,-13.291043362656936,23.325156656374816,18.68240423743378,-1.2364023738645842,2.8224683313982712,0.9756683821118696,7551.91748046875,12.023999999999996,0.28,179.2099023861476,0.6937020443412136,84.68774546869015,1627.0,1435.0,1200.0,1528.0,1556.0,1018.02,306.0,295.54999999999995,1637187860.1520824,1637187861.1616335,f636bbd2-92e8-4741-a264-af3e46a54887
0.333560560638332,0.7847580317095432,0.0762274370923075,0.0033047670801995,-0.2103352616375553,-0.6311593760000253,-0.4775562610958747,-0.5028543594489095,-13.248129101487988,23.2621977652435,18.25182971820202,-1.2715099230932143,2.880141279611658,0.9644316070887524,7563.765625,12.024,0.28,179.2157353676988,0.6976657537127569,84.573656265524,1627.0,1435.0,1200.0,1528.0,1556.0,1018.02,306.0,295.54999999999995,1637187861.2696202,1637187862.389182,f636bbd2-92e8-4741-a264-af3e46a54887
0.529988917676778,1.1185508103568762,0.1006971604758899,-0.1443945443500256,-0.2632456215231466,-0.8107706397304878,-0.5301905060211638,-0.5561328913146464,-12.996292137067057,22.61531843879816,19.77518900214049,-1.3446471664902624,4.136508434743378,1.1197665435143451,7643.968804253473,12.022333333333332,0.2866666666666667,179.10692590076107,0.6700053552040564,84.45156283956048,1661.0,1435.0,1200.0,1528.0,1583.0,1018.02,306.0,295.54999999999995,1637187862.9878924,1637187864.1358874,d7c1c5b7-7670-4660-89c7-6fb8afe482a9
0.5290159142459985,1.1254670242716514,0.1028009519073971,-0.1432111614967885,-0.2641134354743586,-0.8199221367147933,-0.5300458702062549,-0.5640352603780271,-12.730904879429904,22.652475082247747,19.59939933738946,-1.367424585984604,4.162116415093322,1.118644552305733,7669.041666666667,12.013333333333334,0.31,179.0983380762446,0.6890332187305886,84.31688668732596,1661.0,1435.0,1200.0,1528.0,1583.0,1018.02,306.0,295.54999999999995,1637187864.2447257,1637187865.3680675,d7c1c5b7-7670-4660-89c7-6fb8afe482a9
0.5065573952647284,1.0941397090261489,0.0863333057710084,-0.1327979411687867,-0.2728863563690764,-0.8007244831908354,-0.5409280630589007,-0.5775663686361273,-12.971958895973687,22.78514811484796,19.222675257230964,-1.347896434732408,4.047341151950605,1.1640810592931534,7659.8984375,12.01311111111111,0.3177777777777777,179.113575469373,0.6758564675872628,84.24133948273628,1661.0,1435.0,1200.0,1528.0,1583.0,1018.02,306.0,295.54999999999995,1637187865.4773197,1637187866.597202,d7c1c5b7-7670-4660-89c7-6fb8afe482a9
-0.2377239989623893,-0.2345946088942426,0.0116804870088215,0.5099240090008778,-0.0337088134513948,-0.1188071796088292,-0.3250445026318946,-0.3567986095033394,-14.586142619332,25.78241112217896,15.73704603680641,-1.250576616117552,-0.9777171524103098,0.470283731732313,7648.511555989583,12.022333333333334,0.2766666666666666,179.4902087962255,0.6825476873093972,84.15156651192527,1491.0,1435.0,1200.0,1528.0,1448.0,1018.02,306.0,295.54999999999995,1637187867.5077655,1637187868.650933,f08a01eb-1453-4747-a88f-433d3dd20a89
-0.2239310150981005,-0.2383682850970317,0.0087088816136742,0.5082146786930809,-0.0361676197067803,-0.1129823066942299,-0.3233351718985889,-0.3410333203091605,-14.319800022442749,25.6347261032993,15.81115364723474,-1.2346126232242656,-0.9943930872843576,0.4751294091733132,7583.148654513889,12.039555555555555,0.2055555555555555,179.4926023980746,0.6795754581584654,84.22390200978523,1491.0,1435.0,1200.0,1528.0,1448.0,1018.02,306.0,295.54999999999995,1637187868.7592914,1637187869.8737175,f08a01eb-1453-4747-a88f-433d3dd20a89
-0.2141555062234907,-0.229906550187749,0.012618427289585,0.500599392820083,-0.0370452952918522,-0.120539520341221,-0.3228240163213183,-0.348929661708258,-14.208819425107109,25.799167069907167,14.933571311757175,-1.2332157307547764,-0.9544757021222152,0.4699973858409036,7518.794921875,12.040111111111113,0.2,179.48099562994503,0.6617838766586565,84.29158159536098,1491.0,1435.0,1200.0,1528.0,1448.0,1018.02,306.0,295.54999999999995,1637187869.981856,1637187871.102001,f08a01eb-1453-4747-a88f-433d3dd20a89
-0.3379176264373505,-0.4293284757216382,0.0030856224186345,0.5920102162706667,0.0009352626563952,-0.005310368383877,-0.2863637718517159,-0.311442174681046,-14.593619913471503,26.227620015077395,15.603116851870467,-1.1782022356206872,-1.7174915039935703,0.3565199505768071,7512.20556640625,12.041555555555556,0.2088888888888889,179.56734591707198,0.6832092136606507,84.3799399581039,1457.0,1435.0,1200.0,1528.0,1421.0,1018.02,306.0,295.54999999999995,1637187872.0127945,1637187873.1495988,4aac5c85-3937-41f6-9c05-d2f489114696
-0.3294098705774198,-0.4256057503425025,0.0009511506387778,0.5928791258636541,-0.0021782391920808,-0.0167075488124699,-0.2926592590067992,-0.3174840025758206,-14.66107700278475,26.303481401773965,14.582806643171054,-1.205573256652208,-1.6942496010296944,0.371574306914385,7517.330620659723,12.033,0.24,179.54861298490837,0.6712928992234566,84.38967525440088,1457.0,1435.0,1200.0,1528.0,1421.0,1018.02,306.0,295.54999999999995,1637187873.2581787,1637187874.3783948,4aac5c85-3937-41f6-9c05-d2f489114696
-0.3429168710317793,-0.4270548465217836,0.0083040112874928,0.6035564140729432,0.0062221343240286,-0.0217051492096369,-0.2860213578876909,-0.3088261316099233,-14.585601544947238,26.30297491381137,15.121365873177924,-1.2404022706053843,-1.7058405054967782,0.3413898378802969,7528.335503472223,12.03422222222222,0.24,179.52206631633422,0.6636168634583384,84.37078978134579,1457.0,1435.0,1200.0,1528.0,1421.0,1018.02,306.0,295.54999999999995,1637187874.4871435,1637187875.6996124,4aac5c85-3937-41f6-9c05-d2f489114696
-0.5043138647732414,-0.7275656530129926,-0.0104224717783944,0.7511894133756623,0.0550711848790311,0.1346733907655655,-0.2424706788285952,-0.2579203989302809,-14.918116114785215,27.386177880589145,14.903986032161818,-1.2159764888807558,-2.848004221351599,0.2023239595471455,7545.26953125,12.029777777777776,0.2533333333333333,179.6320505758092,0.6832050870880271,84.37122843127251,1423.0,1435.0,1200.0,1528.0,1394.0,1018.02,306.0,295.54999999999995,1637187876.5182188,1637187877.5402005,a1eec815-0922-4855-a5d8-979fea146b7b
-0.5028516199260845,-0.7133130082619784,-0.0140761658243696,0.7667782870105898,0.0500648188080021,0.1055769702977432,-0.2564367873589251,-0.2828985422949376,-14.945113300633627,27.47210917026249,14.724987665197638,-1.3161791140536885,-2.794920091934159,0.2355626082339671,7545.26953125,12.028333333333332,0.27,179.64294093298588,0.6920169797547283,84.32150844866436,1423.0,1435.0,1200.0,1528.0,1394.0,1018.02,306.0,295.54999999999995,1637187877.648445,1637187878.8910675,a1eec815-0922-4855-a5d8-979fea146b7b
-0.4877859495606405,-0.7142591668930208,-0.0095283603852488,0.771517295852341,0.0562677162643172,0.1037608066754961,-0.251122521955907,-0.2844150252653079,-14.941708897138762,27.359311323796337,14.994520994236996,-1.3314269404369004,-2.8011788044714603,0.2137043915150693,7543.794813368056,12.027444444444445,0.26,179.63720205626325,0.678332950698905,84.28243748988216,1423.0,1435.0,1200.0,1528.0,1394.0,1018.02,306.0,295.54999999999995,1637187879.0041006,1637187880.1106465,a1eec815-0922-4855-a5d8-979fea146b7b
-0.6523945278724174,-0.9902504416927388,-0.0225192726254427,0.8720127721667627,0.1019857327251677,0.2782177017896259,-0.1951485159686534,-0.2094280016083869,-15.040547733473382,28.11481195790724,14.664597858915752,-1.1618330766108915,-3.84587411475337,0.0560894473923898,7538.63330078125,12.025,0.28,179.71359240976048,0.6987732463565366,84.16296837437974,1389.0,1435.0,1200.0,1528.0,1367.0,1018.02,306.0,295.54999999999995,1637187882.052087,1637187883.1820843,e1ae423f-4983-4fb9-9a83-018d01cf0dac
-0.6373392651981226,-0.9899348727791246,-0.0253593910857565,0.8784687814787303,0.0996847109063347,0.2670150132182777,-0.2023408535211246,-0.2268500262346415,-15.165054789533729,28.20848741207668,13.922484174291272,-1.201271592842691,-3.8382053068862727,0.0722578604895394,7533.481282552083,12.017777777777775,0.3,179.6967172890511,0.6949830842655449,84.05344401430885,1389.0,1435.0,1200.0,1528.0,1367.0,1018.02,306.0,295.54999999999995,1637187883.2938626,1637187884.41078,e1ae423f-4983-4fb9-9a83-018d01cf0dac
-0.6570754654236702,-1.0075541368786596,-0.0319600368256373,0.8728016938949859,0.0973836890914454,0.2937200136707744,-0.2022488126958172,-0.22723133868462,-15.469721100240848,28.230392346087697,14.498732602045957,-1.128723291537142,-3.906959516177752,0.0826673701884143,7542.322808159723,12.018,0.3,179.68572979140626,0.7061518665145927,83.97022954292086,1389.0,1435.0,1200.0,1528.0,1367.0,1018.02,306.0,295.54999999999995,1637187884.51905,1637187885.6460145,e1ae423f-4983-4fb9-9a83-018d01cf0dac
-0.1505875805460576,-0.0949422944322828,0.003304767335177,0.4495977959908203,-0.0733521341476498,-0.1827755918678485,-0.3631362822036931,-0.3821098552615689,-14.418814366663009,25.447264495203505,18.02146221942209,-1.2604314275934236,-0.4684763083019579,0.6097765066004569,7566.733181423611,12.024,0.2733333333333333,179.43091820077032,0.7164859842317077,83.85261216759343,1525.0,1435.0,1200.0,1528.0,1475.0,1018.02,306.0,295.54999999999995,1637187887.5780518,1637187888.598632,aed6ab9e-ceb4-4424-9726-0627b4fc9624
-0.1620811855794269,-0.1155265795836533,-0.0016396904481919,0.4649883436507029,-0.0708484031373424,-0.1727508057404498,-0.3648861548916743,-0.4011683461075295,-14.68354649037436,25.43818021002264,18.56949527498028,-1.2729740210306957,-0.5508718991691693,0.6138334127954178,7592.804796006944,12.043444444444445,0.1855555555555555,179.4460857741872,0.6991788659152935,84.04756246252357,1525.0,1435.0,1200.0,1528.0,1475.0,1018.02,306.0,295.54999999999995,1637187888.7074063,1637187889.6385193,aed6ab9e-ceb4-4424-9726-0627b4fc9624
-0.1622636238129638,-0.1048169658009767,0.0018321133548464,0.4558565749048522,-0.0696310529049316,-0.1732953808643159,-0.3602698658830406,-0.3808081334331431,-14.552361403642868,25.253871388218577,18.820935171915504,-1.2545415376443478,-0.5125200530710029,0.6026080897023778,7580.861653645833,12.043333333333337,0.18,179.43021696801554,0.6839274388825926,84.2335060146682,1525.0,1435.0,1200.0,1528.0,1475.0,1018.02,306.0,295.54999999999995,1637187889.7472374,1637187890.8568974,aed6ab9e-ceb4-4424-9726-0627b4fc9624
-0.1385433740173973,-0.115401666907033,-0.0336430699295207,-0.0041636923611475,-0.150140524820302,0.2721430044735243,-0.2697147808430689,-0.3055844302404243,-14.495229279739076,24.33840983634145,20.6719925320608,0.7765997030473819,-0.5146554814005936,0.6294025133849115,7528.382649739583,12.044111111111112,0.1844444444444444,179.45492859243262,0.8395301582981295,84.55736171089407,1525.0,1507.0,1200.0,1528.0,1475.0,1018.02,306.0,295.54999999999995,1637187892.485345,1637187893.631565,a4e614cd-eb23-4b92-b671-e711ee448419
-0.1370164815820459,-0.0926944150499337,-0.0085838457216796,-0.0184453682298055,-0.1328253341888354,0.2586086138580368,-0.2475614163514559,-0.2713660385646483,-14.207743798686316,24.278461949361738,20.222555787891512,0.779325532253623,-0.4241949015839267,0.5423325610782849,7492.50537109375,12.043666666666669,0.1933333333333333,179.47250494589682,0.8448434407160667,84.62748043291342,1525.0,1507.0,1200.0,1528.0,1475.0,1018.02,306.0,295.54999999999995,1637187893.7399037,1637187894.8597136,a4e614cd-eb23-4b92-b671-e711ee448419
-0.1202535361764085,-0.0861195187796816,-0.0143933781542992,-0.017286091609858,-0.1397267566480731,0.2584946584205063,-0.2552380644760699,-0.280378375330083,-14.225834973983565,24.317170067619983,21.22103297688646,0.7765717964040563,-0.4087668449887239,0.5727669450936476,7490.33203125,12.042555555555554,0.19,179.44405493127394,0.819991939716583,84.70282576746763,1525.0,1507.0,1200.0,1528.0,1475.0,1018.02,306.0,295.54999999999995,1637187894.9688113,1637187896.0848806,a4e614cd-eb23-4b92-b671-e711ee448419
-0.1071968801570401,-0.1063685120721633,-0.0600588016542384,-0.5771313654287518,-0.23818420336173,0.8142374059801193,-0.1436713658026947,-0.1775687075399446,-14.209145776682774,23.183811122348107,24.38273021963261,3.2789991161652883,-0.4468382753097764,0.6078465506902275,7598.039333767361,12.038111111111112,0.2033333333333333,179.459665708077,1.039759732924943,84.7391912124286,1525.0,1579.0,1200.0,1528.0,1475.0,1018.02,306.0,295.54999999999995,1637187897.0923023,1637187898.2295828,d259370c-6dd6-49ab-ad7d-e19956b0a8f5
-0.1062814020301383,-0.1144856410310995,-0.0627537365851287,-0.57393677924385,-0.2390147627378723,0.8205920607362641,-0.1424677121335622,-0.1722851232694588,-14.059570557388206,23.113349375882496,24.56784271558507,3.285576181294651,-0.4805471095177948,0.610377991385883,7631.107096354167,12.037222222222224,0.22,179.45470699073954,1.047870796007745,84.65004206556178,1525.0,1579.0,1200.0,1528.0,1475.0,1018.02,306.0,295.54999999999995,1637187898.3383095,1637187899.395116,d259370c-6dd6-49ab-ad7d-e19956b0a8f5
-0.1313115905624929,-0.1347959952121016,-0.0607556825502515,-0.5687424947405286,-0.2331482520474794,0.8355514406854334,-0.1358215935462214,-0.1584110556500446,-14.15393690489426,23.232438866143788,24.577710959960488,3.308317892026825,-0.5566536884292048,0.5876884055125557,7629.596516927083,12.037444444444445,0.22,179.43736741716663,1.0230776599233562,84.5894628410832,1525.0,1579.0,1200.0,1528.0,1475.0,1018.02,306.0,295.54999999999995,1637187899.5050375,1637187900.7949493,d259370c-6dd6-49ab-ad7d-e19956b0a8f5
-0.094127075262552,-0.1307856425051484,-0.098387253011957,-1.0876954950173263,-0.3277268371633463,1.3260109370889777,-0.0405066896262525,-0.076823390874695,-14.163183045486711,22.591028050064843,27.153885838056684,5.575356904222632,-0.502881855370381,0.6319209893935366,7605.5244140625,12.037666666666668,0.2155555555555555,179.46095889055985,1.2284962513996918,84.49581942974253,1525.0,1650.0,1200.0,1528.0,1475.0,1018.02,306.0,295.54999999999995,1637187901.504907,1637187902.530042,c8248ee5-7998-4b83-babe-a3eea4be34e3
-0.1108390691411935,-0.130088761551053,-0.1068550138687642,-1.0746519789948594,-0.3342748889973295,1.3115605196707327,-0.0510650930696117,-0.0730234168422111,-14.010919456852871,22.470826342413748,26.83174674759,5.512268735543514,-0.500635487143285,0.6673152349045146,7601.029622395833,12.025,0.2633333333333333,179.44840348504556,1.239088202828991,84.29354110074287,1525.0,1650.0,1200.0,1528.0,1475.0,1018.02,306.0,295.54999999999995,1637187902.637643,1637187903.8675003,c8248ee5-7998-4b83-babe-a3eea4be34e3
-0.1071716784062058,-0.1254702817274211,-0.0948721680090991,-1.0638492217329492,-0.3216735051336782,1.297821227725774,-0.0410172972917629,-0.0582886589863004,-13.887578321850654,22.3447914104558,27.02160227408514,5.456879854137102,-0.4864415823462374,0.6205711494117534,7592.05126953125,12.027333333333337,0.2622222222222222,179.4380838281196,1.2208405461195249,84.09251345527123,1525.0,1650.0,1200.0,1528.0,1475.0,1018.02,306.0,295.54999999999995,1637187903.975585,1637187905.0957966,c8248ee5-7998-4b83-babe-a3eea4be34e3
-0.0833319951126214,-0.1339281811401406,-0.1191358968903436,-1.5041282365365365,-0.3954689323047253,1.732621262988989,0.0439210904777246,0.0301149587750061,-14.445213517199834,22.503063294668355,30.2518689704304,7.427170432822372,-0.4901745513105752,0.632440422948166,7365.882486979167,12.021666666666668,0.2933333333333334,179.45816154863977,1.3745881280524463,83.64748033734054,1525.0,1722.0,1200.0,1528.0,1475.0,1018.02,306.0,295.54999999999995,1637187907.0340395,1637187908.172341,20519866-dfb1-46cc-9f05-4a6f0092116d
-0.0895381799468164,-0.1244216731194283,-0.1160591017955665,-1.5296498851098386,-0.4003470996257299,1.7439422926270174,0.0459985844501194,0.0276167070064012,-14.453570365225035,22.83445891589048,29.860635157050748,7.51246437827961,-0.4476497893324382,0.6321656004301981,7370.819498697917,12.013777777777776,0.3377777777777778,179.4790998729954,1.3809528801476116,83.35628888245537,1525.0,1722.0,1200.0,1528.0,1475.0,1018.02,306.0,295.54999999999995,1637187908.28078,1637187909.400246,20519866-dfb1-46cc-9f05-4a6f0092116d
-0.0771652562941703,-0.1259469220866273,-0.1178867706942046,-1.5388671325276295,-0.4060141888684814,1.7531332334025178,0.0470636288635309,0.0232381908811499,-14.131879365470637,22.985515711405792,29.7417662341054,7.554962852034001,-0.4535721800484824,0.6405892410646346,7460.646918402777,12.017,0.32,179.48229640152698,1.3939102114638509,83.12137666851132,1525.0,1722.0,1200.0,1528.0,1475.0,1018.02,306.0,295.54999999999995,1637187909.5097628,1637187910.6256115,20519866-dfb1-46cc-9f05-4a6f0092116d
-0.1806537207294648,-0.1048295666297018,0.0465037135737411,1.0804568477581291,0.0352314458112034,-0.7764267773038332,-0.4895796511171371,-0.5079193484226615,-14.787239210186383,26.99026478956597,14.499536593291836,-4.005875482815981,-0.546644733052234,0.5815020222941115,7575.650499131944,12.032555555555554,0.2422222222222222,179.48160124005142,0.5112005814441875,82.98162948027306,1525.0,1363.0,1200.0,1528.0,1475.0,1018.02,306.0,295.54999999999995,1637187911.5412912,1637187912.76927,b443dc41-97d4-4d68-b287-6f17ae29185d
-0.1907042563188151,-0.1093269688466575,0.053296110877703,1.0837462131433713,0.0441972130329018,-0.7797922971763847,-0.4811590048773438,-0.508810720826218,-14.76338946204922,26.84544346012977,13.885809841459409,-4.021565906040837,-0.5582189292901751,0.5467374958948669,7598.7822265625,12.044,0.19,179.49864180312068,0.5192657186196011,83.40499723815645,1525.0,1363.0,1200.0,1528.0,1475.0,1018.02,306.0,295.54999999999995,1637187912.8777456,1637187913.998849,b443dc41-97d4-4d68-b287-6f17ae29185d
-0.2074425481296609,-0.1039360031167097,0.0496013272049776,1.0725566732052427,0.0388325448982494,-0.7700491089503976,-0.4829340793113368,-0.5107698773425764,-14.78416555629861,26.796459342667816,14.536272738283104,-3.9748462683196655,-0.5424749067336253,0.5630852842737919,7630.35107421875,12.045666666666667,0.1833333333333333,179.46667651780504,0.5386491195799608,83.77346545331115,1525.0,1363.0,1200.0,1528.0,1475.0,1018.02,306.0,295.54999999999995,1637187914.107007,1637187915.3409126,b443dc41-97d4-4d68-b287-6f17ae29185d
-0.1876663593790397,-0.0669311871725042,0.1023445825300702,1.5841067140642444,0.1308745135401599,-1.296416972634126,-0.5919340626152664,-0.6278464521772705,-15.344828456484231,28.72769867372143,11.592592014814656,-6.296919483819337,-0.4332327115679582,0.5246450854953474,7582.352105034723,12.041333333333334,0.1977777777777777,179.43338769361023,0.3522897352022472,84.1330544225448,1525.0,1291.0,1200.0,1528.0,1475.0,1018.02,306.0,295.54999999999995,1637187915.9823596,1637187917.182724,dd56c7e4-ba89-4f65-a7bf-ab0753303306
-0.2025408234787907,-0.0710401548988007,0.0981534357015685,1.574710873747757,0.126149200953431,-1.2862815101277751,-0.5927284631730109,-0.6129308942496134,-15.299922462514678,28.72793908263004,11.211921921712827,-6.253194206410105,-0.4446966661601544,0.5368400181133438,7563.765625,12.035777777777778,0.23,179.42088389396966,0.3884914661020501,84.30506742442222,1525.0,1291.0,1200.0,1528.0,1475.0,1018.02,306.0,295.54999999999995,1637187917.290498,1637187918.4115798,dd56c7e4-ba89-4f65-a7bf-ab0753303306
-0.2088889049178483,-0.0920364323903089,0.085707646980377,1.5827261006730402,0.1189081044828688,-1.2717642402934397,-0.5998917657152607,-0.6188784893359974,-15.327898377008149,28.75570308982406,11.32457757983416,-6.239084141545065,-0.5260213017656179,0.5715243081078759,7558.5771484375,12.03611111111111,0.23,179.4246359445537,0.3837769487788916,84.4951439999246,1525.0,1291.0,1200.0,1528.0,1475.0,1018.02,306.0,295.54999999999995,1637187918.5199082,1637187919.5282362,dd56c7e4-ba89-4f65-a7bf-ab0753303306
-0.2101287176371661,-0.0656163174661003,0.1374899512048551,2.117231711723184,0.2079724392782592,-1.811805396900595,-0.720722849513226,-0.7577035751621094,-16.0098525253743,31.51957609519278,7.909441687328585,-8.638329641465143,-0.4543143262476006,0.5531236331408069,7554.877332899306,12.031,0.2433333333333333,179.44403823525602,0.2127991444830631,84.83351384813676,1525.0,1219.0,1200.0,1528.0,1475.0,1018.02,306.0,295.54999999999995,1637187921.5763876,1637187922.712422,8cee3a02-4ca4-40ec-bd31-4db1d4b3ecf0
-0.2068245595349392,-0.0532083306811227,0.149478822528422,2.107385525106132,0.2172472004822449,-1.8140697152530325,-0.7078294519527456,-0.7445011821005003,-15.888281538017033,31.32070592252161,8.124360208697208,-8.621833196118216,-0.408573164681372,0.5076762674325864,7560.80078125,12.026333333333334,0.2666666666666667,179.4415824027944,0.2170309906581363,84.96509896031687,1525.0,1219.0,1200.0,1528.0,1475.0,1018.02,306.0,295.54999999999995,1637187922.820613,1637187923.9375415,8cee3a02-4ca4-40ec-bd31-4db1d4b3ecf0
-0.2238800638903576,-0.0697526782961533,0.1274914636746262,2.113122742246936,0.2004941185773102,-1.8001770008918303,-0.7276670075256334,-0.7552792827930723,-16.188589201793643,31.41017378416757,8.385225846445488,-8.604167482358095,-0.4729098070827873,0.5868798463618033,7558.5771484375,12.026777777777776,0.27,179.46303830370718,0.2061515902432985,85.05565057269327,1525.0,1219.0,1200.0,1528.0,1475.0,1018.02,306.0,295.54999999999995,1637187924.046387,1637187925.1703784,8cee3a02-4ca4-40ec-bd31-4db1d4b3ecf0
-0.2214722084799366,-0.0623729722261037,0.1730544341934706,2.5381239400143314,0.2756011113880299,-2.2174855909077493,-0.8185152254795929,-0.8395662986581758,-16.85525634670622,33.9670628267116,5.52427419552042,-10.482187157728008,-0.4645513056460457,0.5508912320505651,7553.397406684027,12.008555555555557,0.3533333333333333,179.375611882331,0.1040790013896835,85.28168581744603,1525.0,1148.0,1200.0,1528.0,1475.0,1018.02,306.0,295.54999999999995,1637187927.3104866,1637187928.4474103,d267e8aa-0243-4753-b551-5464cc84e79e
-0.2454422845521998,-0.0588622702351171,0.168426093219924,2.5299717415515515,0.2697499418403479,-2.2122655477423607,-0.8215131298246027,-0.8499143278763783,-16.805940477181533,33.904543824418404,5.659234173728651,-10.452666230058306,-0.4522199934729812,0.5700418636824701,7545.26953125,12.020333333333332,0.3,179.37545251125036,0.0719463245607516,85.349026170293,1525.0,1148.0,1200.0,1528.0,1475.0,1018.02,306.0,295.54999999999995,1637187928.556934,1637187929.6771996,d267e8aa-0243-4753-b551-5464cc84e79e
-0.2270604051413277,-0.0583100249299172,0.1703063567646751,2.535257521532183,0.2732737922875508,-2.2150530770626085,-0.820093069766903,-0.8393953655046024,-16.873839392520434,33.820060525506776,6.045673727456371,-10.47129260856025,-0.4536261967509706,0.5613027798913992,7545.26953125,12.02,0.31,179.3541286606616,0.0792453688646887,85.40632462724024,1525.0,1148.0,1200.0,1528.0,1475.0,1018.02,306.0,295.54999999999995,1637187929.7857616,1637187931.106437,d267e8aa-0243-4753-b551-5464cc84e79e
-0.1544385054564248,-0.1000631640308966,0.0107146056767269,0.4572360921133762,-0.0639590338184545,-0.1842833091062334,-0.3598869100415622,-0.3864719361916998,-14.856203064283823,25.6752230099572,18.13429525456773,-1.2793716532775348,-0.4860538169008475,0.5814629792206817,7551.91748046875,12.019222222222222,0.3044444444444444,179.382401090366,0.6965051670203509,85.48526871257715,1525.0,1435.0,1200.0,1528.0,1475.0,1018.02,306.0,295.54999999999995,1637187932.019923,1637187933.0458343,f279efc0-7680-43c6-bb8d-08dd92760f4d
-0.1631632138958671,-0.1112806461215362,0.0050305337802873,0.4656457784082703,-0.0690952435330622,-0.1807906862498522,-0.3659270933801014,-0.3858418938950587,-14.801336787371524,25.9515259939832,18.12043501263865,-1.2889194293576234,-0.5297827482730374,0.6034284734948357,7551.91748046875,12.045555555555556,0.18,179.4070535198103,0.703288066616735,85.49600349322269,1525.0,1435.0,1200.0,1528.0,1475.0,1018.02,306.0,295.54999999999995,1637187933.153582,1637187934.2732985,f279efc0-7680-43c6-bb8d-08dd92760f4d
-0.1448646101758698,-0.100624722926567,0.0160014773831367,0.4638104397033372,-0.0591789346778898,-0.1889264428353045,-0.354161747518914,-0.3840750379318898,-14.596765157690882,25.66705975508333,18.29764296066661,-1.3042697434518142,-0.4919184103819354,0.5599991765965339,7558.5771484375,12.045,0.1822222222222222,179.39454972016972,0.6998995813103703,85.49798804263153,1525.0,1435.0,1200.0,1528.0,1475.0,1018.02,306.0,295.54999999999995,1637187934.3816805,1637187935.6146245,f279efc0-7680-43c6-bb8d-08dd92760f4d
-0.0829013754012436,-0.0666709525513892,0.2574581030436305,0.4330205785291667,0.157486926176044,-0.2101698074729923,-0.1029531380082724,-0.131236533645537,-12.869933355337302,25.55868932175028,17.865771585957013,-1.2704471094139358,-0.3538694380692759,-0.4174256352284837,7558.5771484375,12.047555555555554,0.18,179.4199792733596,0.6766795646720859,85.46397977184412,1525.0,1435.0,1200.0,1454.0,1475.0,1018.02,306.0,295.54999999999995,1637187936.5263584,1637187937.659057,c6d2ee69-b0ab-49b2-9ea9-2291471b87d4
-0.0718268854084504,-0.0588491215210717,0.269342332333947,0.4455479979366024,0.1705035871827037,-0.2232604315081695,-0.0955734318965499,-0.1122065343170507,-13.012578584582249,25.496881235550035,18.80934205254523,-1.3278616498388445,-0.3326760943691888,-0.4595487210316279,7558.5771484375,12.043333333333331,0.1877777777777777,179.43860140467666,0.6819874102120118,85.48716826407632,1525.0,1435.0,1200.0,1454.0,1475.0,1018.02,306.0,295.54999999999995,1637187937.7677462,1637187938.888141,c6d2ee69-b0ab-49b2-9ea9-2291471b87d4
-0.0776649068105764,-0.0767707952857609,0.2526171916225401,0.4495452012257221,0.1576047165638036,-0.2118210645130978,-0.108380262818452,-0.1305621151433769,-13.03323484945716,25.56018010626481,18.34840748075948,-1.3116696340498613,-0.3972131683381151,-0.4037715952082871,7553.397406684027,12.045666666666667,0.18,179.41768432979845,0.6989159510641172,85.49070250751684,1525.0,1435.0,1200.0,1454.0,1475.0,1018.02,306.0,295.54999999999995,1637187938.9966986,1637187940.1208687,c6d2ee69-b0ab-49b2-9ea9-2291471b87d4
0.0208845744250184,-0.0028093764758717,0.5410732676123324,0.410454130553765,0.4079690272152419,-0.2638373129686568,0.1796550794609259,0.1552905458677536,-10.881837297641932,25.59281611745372,18.3464398058498,-1.3247150316702472,-0.1119224251193669,-1.5379802364728072,7551.91748046875,12.044666666666666,0.1833333333333333,179.4218249422553,0.6902579214522347,85.41815906834215,1525.0,1435.0,1200.0,1380.0,1475.0,1018.02,306.0,295.54999999999995,1637187941.0314114,1637187942.1700065,76edcb45-2053-4317-840b-27e78c589aeb
0.0132320331393218,-0.0118688283832106,0.5400213720043747,0.4043531359898971,0.408836841084239,-0.2484007416157401,0.1850986395053989,0.1548040440688836,-10.83303190420204,25.46336251301713,18.498444628316648,-1.2771263888549036,-0.1469112423605458,-1.5463268888190442,7551.91748046875,12.041555555555556,0.19,179.4076925219526,0.694857988639418,85.42272846489689,1525.0,1435.0,1200.0,1380.0,1475.0,1018.02,306.0,295.54999999999995,1637187942.2780132,1637187943.2854035,76edcb45-2053-4317-840b-27e78c589aeb
0.0307937607456278,0.0037841468869015,0.5514136205069703,0.3962590183874412,0.4164203510382434,-0.2576283881509589,0.1915502662052589,0.1599523062713325,-10.98709414203937,25.502022252921595,18.37653721327129,-1.2788772422228152,-0.0843127686036815,-1.5798430381309565,7563.766872829861,12.04211111111111,0.1911111111111111,179.41442557065443,0.6850935513877645,85.43104915312578,1525.0,1435.0,1200.0,1380.0,1475.0,1018.02,306.0,295.54999999999995,1637187943.3939726,1637187944.5132573,76edcb45-2053-4317-840b-27e78c589aeb
0.130347469936837,0.0423038008175884,0.8440980924640341,0.4050105707339667,0.683828648990998,-0.3167345254519141,0.4846127710794317,0.4710301689590696,-8.984462800892988,25.58511313508519,18.728440345262023,-1.4152492615008052,0.0603448530634858,-2.75368219224238,7551.91748046875,12.041666666666666,0.1944444444444444,179.4287993243078,0.6754527868061607,85.37925886428921,1525.0,1435.0,1200.0,1306.0,1475.0,1018.02,306.0,295.54999999999995,1637187946.5613296,1637187947.5859368,62e19189-523e-41d2-b372-736aca91ff57
0.1069559397303529,0.0428428973074323,0.8387860196705523,0.3996196057308822,0.675715904197919,-0.3111594773198016,0.4765920670692284,0.4604849154472845,-9.124113575484762,25.91316981229648,18.83576522549832,-1.3887036545501923,0.0627365385318276,-2.724034594246408,7551.91748046875,12.039,0.2033333333333333,179.4066846895951,0.6643372290433796,85.36836243583332,1525.0,1435.0,1200.0,1306.0,1475.0,1018.02,306.0,295.54999999999995,1637187947.6944933,1637187948.7453911,62e19189-523e-41d2-b372-736aca91ff57
0.1095805338173834,0.0451662148646405,0.8540825254845257,0.4119862393753356,0.6904241487223932,-0.3273992631947418,0.4879342457888249,0.4742567443229162,-9.011259120669353,25.983080733411185,18.57089519169163,-1.451853019390312,0.0724474775245572,-2.7810012152786463,7551.91748046875,12.04288888888889,0.2,179.41640784333356,0.6526415617328886,85.3906926009598,1525.0,1435.0,1200.0,1306.0,1475.0,1018.02,306.0,295.54999999999995,1637187948.8545034,1637187949.951686,62e19189-523e-41d2-b372-736aca91ff57
0.199391843325825,0.0775663173277006,1.114169436306918,0.4011957340711802,0.921812597551232,-0.3614429586686323,0.7479496892475784,0.7303990401413022,-7.314790683177869,26.58906284802329,18.81774775794404,-1.486151983297044,0.197599468726624,-3.815782683497687,7663.704861111111,12.035999999999998,0.2122222222222222,179.4449337489472,0.6509582046936958,85.37400644881747,1525.0,1435.0,1200.0,1232.0,1475.0,1018.02,306.0,295.54999999999995,1637187952.090829,1637187953.224743,4d066d5b-1091-4fe8-b528-579c2bdeba00
0.1983628149912773,0.0716636961604527,1.1066661046316577,0.3899764669568165,0.9158956847720112,-0.3466506726802032,0.747906813100987,0.7116764416701988,-7.198063815731151,26.3346716718082,18.603270684577904,-1.4296392609283253,0.1774371377959265,-3.798363774466688,7653.05859375,12.032333333333334,0.24,179.44575337164758,0.6385520909878177,85.3290364833221,1525.0,1435.0,1200.0,1232.0,1475.0,1018.02,306.0,295.54999999999995,1637187953.3327868,1637187954.344704,4d066d5b-1091-4fe8-b528-579c2bdeba00
0.1872495468849329,0.0656515024750439,1.089551362119347,0.3911091127512598,0.9035795020258192,-0.3386983303940535,0.734783129190534,0.7189499090775487,-7.313209634475482,26.06346023108732,18.93184887485173,-1.4169799349416126,0.1515615137586233,-3.7397974091340807,7637.14990234375,12.033333333333331,0.23,179.43063588628462,0.6443278163438568,85.29462599028358,1525.0,1435.0,1200.0,1232.0,1475.0,1018.02,306.0,295.54999999999995,1637187954.452863,1637187955.6827404,4d066d5b-1091-4fe8-b528-579c2bdeba00
-0.2521875665547523,-0.144131570155253,-0.3199954025464721,0.498050737425994,-0.3665154978200736,-0.1591605312567652,-0.7058177006341713,-0.725869470835865,-16.790434858366435,26.14401243722065,18.30967824208658,-1.329290431893277,-0.6651839882104152,1.9306095954249816,7600.280490451389,12.033,0.2311111111111111,179.51691028242078,0.6287534019975921,85.58443774695638,1525.0,1435.0,1200.0,1602.0,1475.0,1018.02,306.0,295.54999999999995,1637187956.4845362,1637187957.6175034,3295fd97-bc8e-4ecf-b95e-faa076cdd268
-0.2613785064274974,-0.1471294731671601,-0.3186936813899041,0.5030735389065814,-0.3640040963031238,-0.1605411445114212,-0.7050287784842452,-0.7165864885319376,-16.841885004804862,26.16787992173485,18.36134960366172,-1.3435176882838769,-0.6770572451133919,1.923999725235448,7602.527886284723,12.040111111111113,0.1911111111111111,179.50405131294335,0.6338364145483548,85.5234365685691,1525.0,1435.0,1200.0,1602.0,1475.0,1018.02,306.0,295.54999999999995,1637187957.7263138,1637187958.7582395,3295fd97-bc8e-4ecf-b95e-faa076cdd268
-0.2750230199452463,-0.1492885987778149,-0.3205777803083076,0.4990516818518705,-0.3640506646185404,-0.1595473220544071,-0.7073002167787868,-0.7211611412857021,-17.131766000805623,26.12082451643081,17.661941460013832,-1.3328752722979371,-0.676529798897668,1.928399051036741,7568.226182725694,12.041999999999998,0.19,179.47586691678828,0.6152469993630745,85.45609166226268,1525.0,1435.0,1200.0,1602.0,1475.0,1018.02,306.0,295.54999999999995,1637187958.8673165,1637187959.9875438,3295fd97-bc8e-4ecf-b95e-faa076cdd268
-0.3638726094207015,-0.1946653012755336,-0.6089178006924182,0.5657128263179478,-0.6246414552535816,-0.1609991573578212,-1.0175959123217793,-1.0534672265717422,-18.943833765816024,26.81368670309876,17.557878667190725,-1.4972020277271891,-0.8594472289489231,3.1115628186734763,7479.4296875,12.041666666666666,0.1933333333333333,179.5130793052063,0.6272084748687653,85.43726310745068,1525.0,1435.0,1200.0,1676.0,1475.0,1018.02,306.0,295.54999999999995,1637187962.0144126,1637187963.0595324,149babfc-5e15-4756-bdbd-d93cfd2e31e4
-0.3717046603433306,-0.2081034130907392,-0.6233164616134601,0.5773310799010722,-0.6342356000894585,-0.157909689935629,-1.0317266013960489,-1.0616113245445895,-19.12834234762803,26.87119163684651,17.536626485529034,-1.5168995301850232,-0.9106963333955844,3.1626696912546346,7518.131998697917,12.037,0.2155555555555555,179.5097218877743,0.6297277415264584,85.38779735966162,1525.0,1435.0,1200.0,1676.0,1475.0,1018.02,306.0,295.54999999999995,1637187963.1680453,1637187964.2875865,149babfc-5e15-4756-bdbd-d93cfd2e31e4
-0.3768706460090056,-0.201130077598622,-0.6213542801784194,0.5783273555575185,-0.6319006338547775,-0.162615351458577,-1.0324429916534736,-1.0574392292906316,-19.329456632769663,26.812894965506576,17.975719395062697,-1.5300411277314925,-0.8870095771472221,3.1591897941953686,7566.733181423611,12.03977777777778,0.2122222222222222,179.47190844270932,0.6325973636862648,85.31978916609582,1525.0,1435.0,1200.0,1676.0,1475.0,1018.02,306.0,295.54999999999995,1637187964.3960516,1637187965.6082983,149babfc-5e15-4756-bdbd-d93cfd2e31e4
-0.4827176739019819,-0.2577516571913749,-0.9326771972956492,0.6593424917862584,-0.913419825071097,-0.1695595073627367,-1.3687759603592606,-1.3942926756865637,-21.1228722897321,27.75998591711344,17.21209274041515,-1.7386437804823718,-1.109608415466551,4.437002220125527,7586.825954861111,12.037555555555556,0.2188888888888888,179.49650623064022,0.6419438609511272,85.26863712049168,1525.0,1435.0,1200.0,1750.0,1475.0,1018.02,306.0,295.54999999999995,1637187966.5193367,1637187967.565898,cb68bf21-b019-44ff-84a3-bbd4c506ea39
-0.4770960567991529,-0.2500574774642415,-0.9282674507106832,0.6573471773288903,-0.9115817458698644,-0.1699424630866834,-1.3658826963347377,-1.3914700859990004,-21.075915061812584,27.82609804379822,17.99477712685324,-1.7341971498615794,-1.087493485598593,4.4263914417347126,7592.05126953125,12.029222222222222,0.251111111111111,179.5088612839389,0.6360183753969585,85.19481567703227,1525.0,1435.0,1200.0,1750.0,1475.0,1018.02,306.0,295.54999999999995,1637187967.674199,1637187968.7942293,cb68bf21-b019-44ff-84a3-bbd4c506ea39
-0.4710739524907379,-0.2452450540622025,-0.9180114620139772,0.6632114952859621,-0.9007209169676392,-0.1846953015200466,-1.3577304968720434,-1.3750736443568503,-21.030434368057723,27.671481743139594,17.408379324202368,-1.781162083947729,-1.0646431144082102,4.3859134869373495,7598.7822265625,12.031555555555556,0.2422222222222222,179.48054331964,0.61694517293242,85.06376180178762,1525.0,1435.0,1200.0,1750.0,1475.0,1018.02,306.0,295.54999999999995,1637187968.9026787,1637187970.0232172,cb68bf21-b019-44ff-84a3-bbd4c506ea39
-0.5388817966637921,-0.2757368845203346,-1.1508750270638184,0.7495589752046621,-1.109601238515827,-0.2218009260980646,-1.6238735578187116,-1.6610975678176507,-22.86293757173763,28.58456722572657,17.267261411611017,-2.065809163593438,-1.1901633317503564,5.361978012048631,7571.93115234375,12.033,0.25,179.52639969190764,0.5839166607649453,84.96156319905653,1525.0,1435.0,1200.0,1824.0,1475.0,1018.02,306.0,295.54999999999995,1637187970.9826806,1637187971.940053,4f2a8718-cea2-4f2b-b9b5-0dc199e97f77
-0.5444173993640625,-0.2919229317836102,-1.1530708609083768,0.7598938494730423,-1.1090358441287085,-0.2180798447280557,-1.6232950142477178,-1.647107335023894,-22.71904840742416,28.677480385689968,16.88668940500143,-2.080241981739574,-1.2499263347020435,5.361035197281665,7551.91748046875,12.014333333333331,0.3299999999999999,179.51390499918597,0.5716736533994032,84.789139626919,1525.0,1435.0,1200.0,1824.0,1475.0,1018.02,306.0,295.54999999999995,1637187972.053632,1637187973.1926622,4f2a8718-cea2-4f2b-b9b5-0dc199e97f77
-0.5595909993988526,-0.2947893479881943,-1.1572390013051264,0.7583554521500484,-1.112296723555107,-0.2110715887885876,-1.6273448185101678,-1.6535502045701398,-22.91630738034874,28.748945066244588,17.25065551850261,-2.0607983218369217,-1.2625804264413367,5.376910063757872,7551.91748046875,12.011666666666663,0.3333333333333333,179.5011871869514,0.5859068782821617,84.61546840689309,1525.0,1435.0,1200.0,1824.0,1475.0,1018.02,306.0,295.54999999999995,1637187973.3247583,1637187974.3232892,4f2a8718-cea2-4f2b-b9b5-0dc199e97f77
-0.1646435380337267,-0.1125615483407307,-0.0122238431923167,0.465560311871634,-0.0659625664765399,-0.1811714507326498,-0.357416598230694,-0.3838586316424232,-14.33527645008195,23.4681931289921,17.87058594277426,-1.3067089572834754,-0.5367965933030119,0.6114011418032976,8854.779296875,11.878,6.139999999999999,179.45590758621367,0.4125705420755141,73.1160230397465,1525.0,1435.0,1350.0,1528.0,1475.0,1018.02,306.0,295.54999999999995,1637187977.487712,1637187978.6206028,30480230-22dc-45bf-84ee-e6d5c32e4380
-0.1612456956259837,-0.1137460268448891,-0.0158567184673875,0.4620572802958715,-0.0687802226223456,-0.1772021877283473,-0.3605032552364633,-0.399552152089361,-14.474396950313656,23.446009568901072,17.786488197794615,-1.2902988981589198,-0.5393084739314297,0.6242048069737014,8854.779296875,11.878,6.156666666666666,179.46134138115335,0.3508701349299097,67.7523179834903,1525.0,1435.0,1350.0,1528.0,1475.0,1018.02,306.0,295.54999999999995,1637187978.7293005,1637187979.9443614,30480230-22dc-45bf-84ee-e6d5c32e4380
-0.1524662007124555,-0.1092124656650179,-0.0003796069531196,0.4620983700237024,-0.0548097323185431,-0.1791607956811411,-0.3449713551292945,-0.3739395824217013,-14.379694609323485,23.42289841715504,18.26378771517628,-1.2940516348488018,-0.5262297212284478,0.5632631945475834,8854.779296875,11.878,6.163333333333333,179.48704414191005,0.3280347047808679,63.710149043154416,1525.0,1435.0,1350.0,1528.0,1475.0,1018.02,306.0,295.54999999999995,1637187980.0528612,1637187981.2875912,30480230-22dc-45bf-84ee-e6d5c32e4380
-0.0341279281879797,0.1067822674685375,-0.0058719270543094,0.3430204991402963,-0.110116438588292,-0.2767898761733607,-0.3958677761779601,-0.4127419401409666,-14.462687868160168,22.85602466523206,18.67299223974356,-1.2488346144807163,0.2951457252559107,0.7443882860081236,8854.779296875,11.877,6.23,179.41240383466013,0.3458374505568984,56.6908740545239,1559.0,1435.0,1350.0,1528.0,1502.0,1018.02,306.0,295.54999999999995,1637187982.988013,1637187983.9492705,ae7a0ebb-6778-4019-b837-f40c14aec8cc
-0.0326623964718015,0.1298472716668066,0.0062906172187344,0.3281597340870429,-0.1074866991379715,-0.2883771664170347,-0.3876909290610563,-0.4095917310262054,-14.07445933452815,22.961804242954752,18.368292226702128,-1.2398968652489373,0.384208789471199,0.7150444095761866,8854.779296875,11.870666666666663,6.216666666666667,179.40753618651166,0.3669828179862342,54.554667504805295,1559.0,1435.0,1350.0,1528.0,1502.0,1018.02,306.0,295.54999999999995,1637187984.0578444,1637187985.177209,ae7a0ebb-6778-4019-b837-f40c14aec8cc
-0.037456192046067,0.1259848422614764,0.0060988653500433,0.3268859541541464,-0.1043227940039225,-0.2841038395631014,-0.3861569142331343,-0.4123858296438847,-14.331664693911955,22.80170164924026,18.27955967153608,-1.228635296283098,0.3724711598590908,0.708094491811989,8870.053385416666,11.869999999999996,6.233333333333333,179.4026730918226,0.415279503600742,52.72047142961715,1559.0,1435.0,1350.0,1528.0,1502.0,1018.02,306.0,295.54999999999995,1637187985.2923572,1637187986.4066918,ae7a0ebb-6778-4019-b837-f40c14aec8cc
0.1562268427038788,0.4692479730297055,0.0166178224620349,0.1571719052681064,-0.1743396065617298,-0.4618030236115902,-0.4489830416923747,-0.4758283032689895,-13.805151361071369,21.86916581543044,18.421879266853058,-1.2504861744166558,1.6764751581196788,0.9195709125044612,8863.9375,11.872,6.23,179.3354276027141,0.4875911965913431,49.72575791255213,1593.0,1435.0,1350.0,1528.0,1529.0,1018.02,306.0,295.54999999999995,1637187987.9825752,1637187989.0323725,50b931d3-a50f-4c7b-b25c-f207083cb78e
0.147519666752888,0.4569216192421939,0.0057898709815015,0.1649942835726093,-0.1823022385255722,-0.4624221081419603,-0.4590954871763559,-0.489048224953248,-13.788925997210097,21.929094235791343,17.56001004388443,-1.269793815436953,1.6361192028600104,0.9569222203174492,8869.034071180555,11.86488888888889,6.251111111111111,179.335280374192,0.5423588253627606,48.61277099819947,1593.0,1435.0,1350.0,1528.0,1529.0,1018.02,306.0,295.54999999999995,1637187989.1406174,1637187990.183184,50b931d3-a50f-4c7b-b25c-f207083cb78e
0.1608288863153024,0.4704806632091889,0.0167273949742192,0.1685263519541307,-0.1709017699955126,-0.4665968201988815,-0.4509690431170224,-0.4848406417722655,-14.030863416766124,21.769872829600427,19.39304572994254,-1.287482902664972,1.6726958932974174,0.9190681012635532,8873.111328125,11.862444444444444,6.312222222222221,179.3263449689378,0.552446795394474,47.78461890934442,1593.0,1435.0,1350.0,1528.0,1529.0,1018.02,306.0,295.54999999999995,1637187990.2914703,1637187991.4147406,50b931d3-a50f-4c7b-b25c-f207083cb78e
0.3011638188480658,0.7452062092723217,0.0109611437403465,0.0148920559506982,-0.2433839654405366,-0.5970565772354376,-0.5139869248884136,-0.548406387036438,-13.7067530415654,21.123800929807064,18.74381532354745,-1.2385924164968152,2.725083025603144,1.146846418554694,8873.111328125,11.864,6.26,179.2482334077697,0.6098500352698375,46.80325657048707,1627.0,1435.0,1350.0,1528.0,1556.0,1018.02,306.0,295.54999999999995,1637187991.982527,1637187992.9605937,8b851cbc-0944-4d65-b3a3-8821fbee5808
0.2926944154187264,0.7386850044262626,0.0139157653984825,0.0317191001883068,-0.2378291884543872,-0.6018509221753097,-0.5156743412873678,-0.5327939487189259,-13.998176354453276,21.37137760379376,19.35974721815774,-1.2855838147298122,2.69534791298242,1.1375774412196027,8873.111328125,11.855666666666666,6.35,179.25627937061196,0.6567239159963425,46.22750008257654,1627.0,1435.0,1350.0,1528.0,1556.0,1018.02,306.0,295.54999999999995,1637187993.0691216,1637187994.1901734,8b851cbc-0944-4d65-b3a3-8821fbee5808
0.305685326465589,0.7595388346797786,0.0297204984370508,0.0137711295923282,-0.2309524195548632,-0.6160383700666714,-0.5005007418683046,-0.5115193535732275,-13.393233375935647,21.26288603233289,18.016299350942614,-1.27682055411091,2.7843976375091137,1.086002179508903,8875.154730902777,11.856111111111112,6.367777777777778,179.24917597387517,0.6867281899682681,45.72394704220203,1627.0,1435.0,1350.0,1528.0,1556.0,1018.02,306.0,295.54999999999995,1637187994.2993107,1637187995.4208324,8b851cbc-0944-4d65-b3a3-8821fbee5808
0.5102965554106541,1.0906196936395007,0.0560365183670171,-0.1507541307730404,-0.2835559769065319,-0.7780977582396877,-0.5441878448587755,-0.5787168805256345,-12.958985940532807,20.502888763660483,19.496425734831632,-1.2731341812021564,4.031872322015115,1.225301050126704,8889.473741319445,11.851111111111113,6.354444444444444,179.13779228453024,0.7183974589170082,45.12716571420638,1661.0,1435.0,1350.0,1528.0,1583.0,1018.02,306.0,295.54999999999995,1637187995.9833062,1637187997.0524871,d9517154-2f3e-4f96-8de9-8873f3e0dbf7
0.5130271010876285,1.0994589042624163,0.0547950622553501,-0.1386485635309357,-0.2845596609275871,-0.7947555201665583,-0.5511626824622208,-0.5782621537988571,-13.004286073942994,20.489170111428884,19.91280505779896,-1.3379827787406615,4.060085611028496,1.240027933363082,8882.306640625,11.848,6.38111111111111,179.14637707340702,0.7349457266154799,44.79363353720137,1661.0,1435.0,1350.0,1528.0,1583.0,1018.02,306.0,295.54999999999995,1637187997.1611395,1637187998.284436,d9517154-2f3e-4f96-8de9-8873f3e0dbf7
0.5036520815090677,1.0930291921278732,0.0499694907886906,-0.1365447719468043,-0.2874786718176189,-0.7905610843699455,-0.5543183703691734,-0.5780123284392443,-13.035007358969349,20.472841060579604,19.858543867241373,-1.3336756021906575,4.036103420355016,1.2542236813972965,8882.306640625,11.846,6.39,179.1305492483704,0.7558280398625234,44.45656408111619,1661.0,1435.0,1350.0,1528.0,1583.0,1018.02,306.0,295.54999999999995,1637187998.3929703,1637187999.510657,d9517154-2f3e-4f96-8de9-8873f3e0dbf7
-0.2353572334204205,-0.2383156903113051,-0.0155241660347139,0.4960258383897527,-0.0427156706432108,-0.0991893236157075,-0.3254258149156617,-0.3599017030597041,-14.345865285011502,23.577950696267145,16.107048902426456,-1.190930120970139,-0.9967042739559174,0.5211997688864333,8882.306640625,11.856333333333332,6.359999999999999,179.48742663250357,0.7586958299663807,43.81447507271621,1491.0,1435.0,1350.0,1528.0,1448.0,1018.02,306.0,295.54999999999995,1637188001.5447166,1637188002.6803267,d63e625b-8e83-4c41-9c1c-27c1608ba730
-0.2482429572642392,-0.2623909560494655,-0.0269503833291521,0.4978929530993668,-0.0478831084176806,-0.0823984376280647,-0.3308562272932822,-0.346529476846531,-14.56309786779124,23.56653050052316,15.321848891836703,-1.1582896815053945,-1.0794588681222137,0.5473935251346121,8882.306640625,11.868444444444444,6.302222222222222,179.48755412936805,0.8012269732542759,43.68795909926512,1491.0,1435.0,1350.0,1528.0,1448.0,1018.02,306.0,295.54999999999995,1637188002.7882824,1637188004.019349,d63e625b-8e83-4c41-9c1c-27c1608ba730
-0.234055512380718,-0.2471516152232674,-0.0236632092379788,0.503257620612381,-0.0499606025718922,-0.0993997028533715,-0.3342880376901614,-0.3685141006145488,-14.306495082557442,23.760681589239656,15.725425033291367,-1.206950940045594,-1.0281439545868365,0.5531885074975949,8882.306640625,11.871666666666666,6.253333333333334,179.48945292195734,0.7967786346877955,43.57615497383127,1491.0,1435.0,1350.0,1528.0,1448.0,1018.02,306.0,295.54999999999995,1637188004.127834,1637188005.453252,d63e625b-8e83-4c41-9c1c-27c1608ba730
-0.3329337217582913,-0.4274071220552545,-0.0268977885902454,0.5788100222464122,-0.0115927057812493,-0.004663342768547,-0.2943159948807052,-0.3212182316928234,-14.374949903210016,23.993926105230344,14.11530977049622,-1.1633993716506854,-1.698959999464171,0.4248644507341431,8860.9150390625,11.866333333333332,6.336666666666667,179.55067418421788,0.833758933040684,43.45522078275188,1457.0,1435.0,1350.0,1528.0,1421.0,1018.02,306.0,295.54999999999995,1637188006.56926,1637188007.7031505,38f9c35d-4b1b-4429-827a-e1ff10c49b3d
-0.3424928256289365,-0.4379392300887487,-0.0223351908666651,0.5978098864995808,-0.0048605731871115,-0.0055706028332442,-0.2919886753035064,-0.3208895144285125,-14.435920504111047,24.267762954524592,15.029497007386816,-1.2061396247687115,-1.7481780930507775,0.406188673633377,8836.5224609375,11.860777777777775,6.416666666666667,179.5892510926501,0.8502560929000536,43.36101198352989,1457.0,1435.0,1350.0,1528.0,1421.0,1018.02,306.0,295.54999999999995,1637188007.8117716,1637188008.935568,38f9c35d-4b1b-4429-827a-e1ff10c49b3d
-0.3455192175650848,-0.4332730854072011,-0.0248142680326897,0.589065456474844,-0.0066115412517035,-0.0002015517733277,-0.2921437203700137,-0.3152772114521216,-14.538787845250472,24.03892386444892,15.291013498711882,-1.1759998954382234,-1.7313513725472771,0.4130523218076997,8836.5224609375,11.858555555555556,6.395555555555556,179.6126361425484,0.8560303953000158,43.28115872412346,1457.0,1435.0,1350.0,1528.0,1421.0,1018.02,306.0,295.54999999999995,1637188009.0437746,1637188010.2563426,38f9c35d-4b1b-4429-827a-e1ff10c49b3d
-0.5003429576554681,-0.7275919503820525,-0.0419793436527347,0.7346089089939339,0.0429612356148203,0.1522006025259568,-0.2470332769580724,-0.2744877584708204,-14.778050812595506,24.996677415495768,15.110309183334827,-1.1564971625557516,-2.850922483923895,0.2695508914285239,8845.6416015625,11.856444444444444,6.387777777777777,179.67272359340672,0.8184583606624708,43.24215037540866,1423.0,1435.0,1350.0,1528.0,1394.0,1018.02,306.0,295.54999999999995,1637188011.0746586,1637188012.2014844,ec013d12-8e1b-4507-ba6a-a19afa74f9d0
-0.4911125706907758,-0.7228058230524605,-0.0350499805518418,0.7204477645153967,0.0467086140404038,0.1509120302474931,-0.2397357497796392,-0.2542519128900009,-14.71757193107226,24.98545068505522,13.795407104354116,-1.1273572308735371,-2.8195630729388794,0.2432585222859395,8854.779296875,11.856888888888893,6.387777777777777,179.6748546124278,0.8365828249495633,43.17836285929496,1423.0,1435.0,1350.0,1528.0,1394.0,1018.02,306.0,295.54999999999995,1637188012.3090246,1637188013.4403746,ec013d12-8e1b-4507-ba6a-a19afa74f9d0
-0.4992779129941931,-0.7294064711559558,-0.0402305670499324,0.7309404231043222,0.0435134808196128,0.1501757033028139,-0.2465336264631192,-0.2681632347550282,-14.815384642681654,25.123415507924857,14.097428738985888,-1.1520251884686927,-2.847921984910658,0.2639451171439819,8862.919921875,11.857888888888889,6.402222222222222,179.6775699920778,0.834724100431837,43.16282873239263,1423.0,1435.0,1350.0,1528.0,1394.0,1018.02,306.0,295.54999999999995,1637188013.5487292,1637188014.5534122,ec013d12-8e1b-4507-ba6a-a19afa74f9d0
-0.6548697709912897,-1.0190066587338753,-0.0431539605240376,0.879336595391225,0.1048647493095812,0.2944388089977429,-0.1908439610891601,-0.2221132080002101,-15.042287622493026,26.24551066569957,13.883932540483643,-1.1554474458759918,-3.9490376314679576,0.0704163350946471,8906.934895833334,11.854222222222225,6.38,179.75677893697255,0.889476888957167,43.23168918178487,1389.0,1435.0,1350.0,1528.0,1367.0,1018.02,306.0,295.54999999999995,1637188016.4913204,1637188017.5433476,16040ab4-3a6a-4214-82cf-c0ae13578686
-0.6803749639303247,-1.051681190555802,-0.0609134669813421,0.908237427405156,0.0950826672703861,0.3008334578435915,-0.2079027526048373,-0.2332402933017217,-15.190877266983172,26.58158987734901,13.887697222994698,-1.2050016036574895,-4.07524714639857,0.1282993787958725,8933.740885416666,11.851777777777777,6.325555555555556,179.75553887818324,0.8690407732330121,43.30167357675055,1389.0,1435.0,1350.0,1528.0,1367.0,1018.02,306.0,295.54999999999995,1637188017.658683,1637188018.766578,16040ab4-3a6a-4214-82cf-c0ae13578686
-0.661005831268577,-1.0185820651012392,-0.0471944454839064,0.8871162400287353,0.1012762509895799,0.2920966976563182,-0.195363825878721,-0.2207572487842844,-14.92656865395424,26.244727026167727,14.594521602027266,-1.1782943170923668,-3.95577610979264,0.088450008117879,8947.208984375,11.853,6.33,179.7343652917562,0.8762926198625672,43.38674130613334,1389.0,1435.0,1350.0,1528.0,1367.0,1018.02,306.0,295.54999999999995,1637188018.874191,1637188019.9946315,16040ab4-3a6a-4214-82cf-c0ae13578686
-0.1544932916797859,-0.1029668345470853,-0.0281014421718022,0.4590166446201341,-0.0789293729842177,-0.1747231102846931,-0.37350129167465,-0.3985112139192456,-14.790925492948553,23.18058165348538,19.14918320262143,-1.2801805211612307,-0.5091235536951538,0.6763128217763154,8937.87890625,11.862000000000002,6.313333333333333,179.44474553929004,0.8118687340752567,43.516298611039865,1525.0,1435.0,1350.0,1528.0,1475.0,1018.02,306.0,295.54999999999995,1637188020.9972746,1637188022.141689,1d3e4385-216b-40ae-a280-70132aa412a3
-0.1622592408603497,-0.0923656977003295,-0.0226228186134385,0.4496071096935807,-0.0782034553788719,-0.1799688925516109,-0.3689540333934425,-0.3913068216654733,-14.542739874497082,23.190811202187216,18.685764567194703,-1.2703512183983274,-0.4655061700479355,0.6620977894998203,8918.256944444445,11.874888888888888,6.295555555555556,179.4628941108247,0.8064751317157517,43.58542202271517,1525.0,1435.0,1350.0,1528.0,1475.0,1018.02,306.0,295.54999999999995,1637188022.262936,1637188023.271096,1d3e4385-216b-40ae-a280-70132aa412a3
-0.1530463871071002,-0.0844233369087503,-0.0249649301900125,0.4393549625364137,-0.0815700696479798,-0.1787915363871359,-0.3707230812506422,-0.4006232227958478,-14.596702376908096,23.0345686788906,18.60376072518192,-1.2457718170172694,-0.43349762525957,0.6731764060023419,8854.779296875,11.874000000000002,6.337777777777778,179.46693151153406,0.8254784196050361,43.66562779577376,1525.0,1435.0,1350.0,1528.0,1475.0,1018.02,306.0,295.54999999999995,1637188023.378926,1637188024.592646,1d3e4385-216b-40ae-a280-70132aa412a3
-0.1371101659871733,-0.1008197619161048,-0.0544311594668984,-0.0307766542947536,-0.1563598586779202,0.2881581154951227,-0.2659936993411411,-0.3032571107876725,-14.34431401457384,22.01646088486267,21.456971997709147,0.8563936267527056,-0.4660704738311886,0.6646086190704562,8882.306640625,11.875666666666667,6.296666666666667,179.48130222954777,0.9668860967925496,43.80254500896592,1525.0,1507.0,1350.0,1528.0,1475.0,1018.02,306.0,295.54999999999995,1637188026.5276089,1637188027.661204,212c42b7-4fb8-4241-b339-586957d55af4
-0.1336389098982886,-0.0883942433210654,-0.0489350041560576,-0.0443461093022456,-0.1575563900460469,0.2801900060382119,-0.2626670786787692,-0.2858219362401567,-14.053275235610498,22.11464765884736,20.310610189147084,0.869985915481211,-0.4093461671183689,0.6539409756192707,8901.791666666666,11.873888888888889,6.300000000000001,179.47625699648086,0.9462635619643291,43.87541439994602,1525.0,1507.0,1350.0,1528.0,1475.0,1018.02,306.0,295.54999999999995,1637188027.7698004,1637188028.8001833,212c42b7-4fb8-4241-b339-586957d55af4
-0.1370049764006203,-0.0891174217279461,-0.049671331204947,-0.035352400636595,-0.1556235315808635,0.2797823965065643,-0.2637847180096793,-0.2752635322427397,-14.169910719644545,22.03728746867516,21.323058254326043,0.8483355436858231,-0.4213616194316399,0.6552728334075495,8911.037977430555,11.87022222222222,6.306666666666667,179.46081317985758,0.927003958182676,43.93736725135767,1525.0,1507.0,1350.0,1528.0,1475.0,1018.02,306.0,295.54999999999995,1637188028.908796,1637188030.0302727,212c42b7-4fb8-4241-b339-586957d55af4
-0.1180314064395621,-0.1134819571753992,-0.0820039766180165,-0.6197988985183679,-0.2436935076869459,0.8685678140715518,-0.1285898101429629,-0.1498644024603745,-14.00948230987792,20.873944809482563,25.529627977411536,3.4812125200778654,-0.4812732085271634,0.6252615888097663,8913.098307291666,11.869333333333332,6.25,179.4533166677885,1.1270411906507531,44.09664043261319,1525.0,1579.0,1350.0,1528.0,1475.0,1018.02,306.0,295.54999999999995,1637188031.1457646,1637188032.4877284,7039b34c-11df-4609-9f11-45579a50eeef
-0.1221283213187892,-0.1158142073087684,-0.0911193107944338,-0.6218610529816458,-0.2504650871172096,0.8654482861664584,-0.1353318046782103,-0.1646150496391216,-13.95318175484183,20.61334161381834,24.43380187518736,3.4765264459796072,-0.4810351548026069,0.6548095712945935,8910.0078125,11.867777777777778,6.308888888888889,179.4639414064974,1.1127291695752262,44.09763498404735,1525.0,1579.0,1350.0,1528.0,1475.0,1018.02,306.0,295.54999999999995,1637188032.5970404,1637188033.7125938,7039b34c-11df-4609-9f11-45579a50eeef
