raw_voltage_G-,raw_voltage_G0,raw_voltage_G1,raw_voltage_G2,raw_voltage_G3,raw_voltage_G4,raw_voltage_G5,raw_voltage_G6,load_x,load_y,load_z,load_l,load_m,load_n,rpm,voltage,current,roll,pitch,yaw,aileron1_pwm,elevator_pwm,throttle_pwm,rudder_pwm,aileron2_pwm,pbaro,pdiff,Tt,sample_start_time,sample_end_time,uid
-0.0182190772664736,0.1069650867819502,0.024271221308829,0.2523153432290885,-0.0638679220006569,0.0366481463437981,-0.2623132072509195,-0.2934556144910152,-13.763365741920024,19.721290358006645,52.02653827880081,-0.3534997539683661,0.0082956396716052,0.4981991076232187,7478.705132378473,12.037999999999998,0.1988888888888889,179.20181847780995,-4.139365567864804,97.66225139046112,1525.0,1435.0,1200.0,1528.0,1475.0,1018.02,306.0,295.54999999999995,1637190133.4644554,1637190134.4784565,58f0f5de-f6fc-4c36-bf9a-6d8daa34285e
-0.0163896933620551,0.1032348588904241,0.0317316773188287,0.2525583081279742,-0.0575794147790995,0.0380630603074377,-0.2558246106300522,-0.2779916020098632,-13.7931017729091,19.92749420182995,51.79142587432568,-0.349182338196718,-0.0029541872228947,0.469339873700293,7537.196343315973,12.04,0.2,179.238718195346,-4.167738932586945,97.41663475226784,1525.0,1435.0,1200.0,1528.0,1475.0,1018.02,306.0,295.54999999999995,1637190134.588029,1637190135.8308997,58f0f5de-f6fc-4c36-bf9a-6d8daa34285e
-0.0128845653246986,0.1045086388130798,0.0263560757746655,0.2614848909101981,-0.0615758325506387,0.030615705386818,-0.2624495773264562,-0.2882538978920395,-13.72343131399007,19.84578339753431,52.03294461121809,-0.3867894928661042,-0.0022516465537028,0.492198512142543,7597.287868923611,12.040777777777778,0.19,179.27327591690658,-4.176172793255834,97.25460217458765,1525.0,1435.0,1200.0,1528.0,1475.0,1018.02,306.0,295.54999999999995,1637190135.961902,1637190137.0516777,58f0f5de-f6fc-4c36-bf9a-6d8daa34285e
0.0281558034683429,0.1884252595129872,0.0266962982805512,0.2134866734801632,-0.0806628095625201,-0.0024543617152073,-0.2801416983504486,-0.315222426194911,-13.911426808291798,19.700448283981387,52.67287967104795,-0.3537692563512466,0.3140742709749546,0.5534855320933135,7607.025499131944,12.033,0.2122222222222222,179.32189775687823,-4.236134312501337,97.03270071210254,1559.0,1435.0,1200.0,1528.0,1502.0,1018.02,306.0,295.54999999999995,1637190138.1687706,1637190139.401344,e064652c-f19d-4d20-b4a5-4d442776846a
0.0389979993528939,0.2182859474135373,0.0319990579218134,0.1941800052142931,-0.0832574858382819,-0.0132406757916611,-0.2775020972691993,-0.2916095551910656,-13.628004236218452,19.505544560711296,52.80281149723306,-0.3353210495593619,0.425622353307684,0.5499384177219419,7578.6259765625,12.037,0.21,179.34329598063795,-4.251462774818661,96.86691077146892,1559.0,1435.0,1200.0,1528.0,1502.0,1018.02,306.0,295.54999999999995,1637190139.5145729,1637190140.5359726,e064652c-f19d-4d20-b4a5-4d442776846a
0.0441889950219519,0.2083833360145184,0.0344370453925092,0.1912078521731731,-0.0797785597248273,-0.0069128655894541,-0.2715851831356022,-0.2975812552727539,-13.574346456180024,19.5096317406749,51.96629273653132,-0.3143550121116048,0.396036368295013,0.5310840579565718,7571.93115234375,12.034333333333333,0.2166666666666666,179.34408372912222,-4.270137365783122,96.74568857407952,1559.0,1435.0,1200.0,1528.0,1502.0,1018.02,306.0,295.54999999999995,1637190140.6448553,1637190141.856562,e064652c-f19d-4d20-b4a5-4d442776846a
0.2437286733738561,0.5578510024366434,0.0672337289054291,0.0295627139309503,-0.128629256277594,-0.2026038276005025,-0.3162348748283135,-0.3479363870999977,-12.9894579941508,18.573059283975727,51.627207710885166,-0.3938021344916222,1.7275834247753756,0.6576700979838818,7571.93115234375,12.023,0.25,179.29702827920028,-4.283466906835225,96.628960641164,1593.0,1435.0,1200.0,1528.0,1529.0,1018.02,306.0,295.54999999999995,1637190142.4829063,1637190143.498071,985e2773-5c1b-4e4c-94bf-d27b6ba7f233
0.2391047154634433,0.5490304195367016,0.0596250166920521,0.0022775253719872,-0.1392490206608399,-0.189967381294249,-0.3170029779219586,-0.3370136537354932,-12.736739538057728,18.56156058927285,48.59156705300223,-0.3046694278632947,1.7224938474170235,0.6781931457722621,7547.567220052083,12.023,0.25,179.29844895854765,-4.29700747227356,96.4918537004949,1593.0,1435.0,1200.0,1528.0,1529.0,1018.02,306.0,295.54999999999995,1637190143.6342494,1637190144.631616,985e2773-5c1b-4e4c-94bf-d27b6ba7f233
0.2237919637321651,0.537484221730038,0.0607070448031269,0.0077013625605906,-0.1347017629387058,-0.1831875842266679,-0.3130172788163497,-0.3353563695832771,-12.814504747752522,18.536560869336824,48.67728139571404,-0.3018064965010128,1.6783796849769772,0.6635771420397197,7421.248860677083,12.025666666666666,0.2466666666666666,179.2859770331232,-4.293596931148,96.36640133927956,1593.0,1435.0,1200.0,1528.0,1529.0,1018.02,306.0,295.54999999999995,1637190144.7396977,1637190145.8661048,985e2773-5c1b-4e4c-94bf-d27b6ba7f233
0.4024334264996261,0.8468856158040873,0.0924397793649625,-0.1251974463173794,-0.1742420870780662,-0.3474761822947843,-0.346805598653573,-0.3803216318315058,-12.09831838655229,17.641078274955433,51.01940120159888,-0.3748200866645084,2.831355074770457,0.7627287047018487,7378.571451822917,12.013333333333334,0.29,179.17106896616653,-4.301108953438283,96.2049007574447,1627.0,1435.0,1200.0,1528.0,1556.0,1018.02,306.0,295.54999999999995,1637190146.481742,1637190147.6995409,7a57787d-e7da-42a6-b670-2200f7c93386
0.4177900067336101,0.8612982292305292,0.0977425389081173,-0.1321952926033543,-0.1749285586782971,-0.3524222843649738,-0.3466971218190202,-0.3705017461000075,-12.082461008874802,17.889852390279714,51.42526476672642,-0.3681633368020398,2.8829037151406887,0.7584450036188883,7432.590657552083,12.013444444444444,0.2888888888888888,179.13549430532944,-4.302588827758452,96.09803637660058,1627.0,1435.0,1200.0,1528.0,1556.0,1018.02,306.0,295.54999999999995,1637190147.809888,1637190148.9303775,7a57787d-e7da-42a6-b670-2200f7c93386
0.4085344210435338,0.8569838136563626,0.0926107124709855,-0.1241718479678311,-0.1806980974310481,-0.3574823418587989,-0.3533799477614247,-0.3691189405070853,-11.895901748247116,18.063942895369305,51.10690290082278,-0.3966911902087994,2.866913010456673,0.7819717881589091,7455.576334635417,12.015,0.2833333333333333,179.14325340022663,-4.311555490614471,95.95796968729113,1627.0,1435.0,1200.0,1528.0,1556.0,1018.02,306.0,295.54999999999995,1637190149.043742,1637190150.1607227,7a57787d-e7da-42a6-b670-2200f7c93386
0.6023511170331566,1.1961516737906297,0.1316552174035449,-0.2737492399480102,-0.2284273217061732,-0.5423251125320111,-0.3974702738087054,-0.4196724001326858,-11.314797043309412,18.089752968203715,52.468660192532525,-0.4720227878195433,4.143708391160941,0.8985782524814128,7515.134168836806,12.001555555555557,0.33,179.0759866616407,-4.340334540114189,95.69015038083585,1661.0,1435.0,1200.0,1528.0,1583.0,1018.02,306.0,295.54999999999995,1637190152.0953455,1637190153.2322414,db169d66-1536-4bbc-97d5-6932d357e473
0.5873040791967986,1.1633221194368406,0.1140167896119859,-0.26991201143583,-0.2389073817312154,-0.5135574009157398,-0.4030951777061108,-0.4364928741014664,-11.194603270346516,18.019128254925945,52.39838633249477,-0.4173309013657351,4.0187579106246805,0.94097944711505,7518.794921875,12.005111111111113,0.3288888888888889,179.08609230597267,-4.316162548073383,95.52641253259286,1661.0,1435.0,1200.0,1528.0,1583.0,1018.02,306.0,295.54999999999995,1637190153.340884,1637190154.5504942,db169d66-1536-4bbc-97d5-6932d357e473
0.5924348095606673,1.1855642342346469,0.1282173812839177,-0.2818302105653643,-0.2316460133916446,-0.5238621463141097,-0.3947172649627473,-0.4201517797140859,-11.201628635421152,18.12461062600939,52.557041424951954,-0.412174398736797,4.103192348045222,0.9025662310789524,7516.598470052083,12.008,0.32,179.04695228638886,-4.297443608311188,95.39848840180788,1661.0,1435.0,1200.0,1528.0,1583.0,1018.02,306.0,295.54999999999995,1637190154.6591852,1637190155.6969967,db169d66-1536-4bbc-97d5-6932d357e473
-0.1756681728577902,-0.1965143368893268,-0.0012014004701071,0.3909858437134905,-0.0213764317198558,0.1809628267936027,-0.2268659138556193,-0.2621756469739438,-14.175448145503218,20.727205917471,48.45366003695532,-0.3373890723802267,-1.1140248408054567,0.3833313352814109,7515.136881510417,12.031666666666666,0.23,179.44558337582825,-4.316987578006878,95.19057137219342,1491.0,1435.0,1200.0,1528.0,1448.0,1018.02,306.0,295.54999999999995,1637190157.4881546,1637190158.5544064,95dc20b0-474e-4b04-ade2-1141546841c8
-0.1792018853380713,-0.1928162657125293,0.0021131666661239,0.404120842299388,-0.0169798364435194,0.1709369461541409,-0.2286327701752512,-0.2534098477984368,-14.354441336744658,20.81235947652527,49.26833834569766,-0.3887786032059548,-1.107514058410723,0.3768920656101346,7584.612575954861,12.031,0.2222222222222222,179.37497136236885,-4.308501020531269,95.18163369020948,1491.0,1435.0,1200.0,1528.0,1448.0,1018.02,306.0,295.54999999999995,1637190158.6624153,1637190159.9982786,95dc20b0-474e-4b04-ade2-1141546841c8
-0.1778870156190981,-0.1759694971019391,0.0017296630730413,0.3866577314243498,-0.0224995496809749,0.1704575667273793,-0.2295093499812409,-0.2464519957404317,-14.233710551006205,20.721027888958584,49.25638206576704,-0.351029010282629,-1.0429527462646668,0.388171328457009,7638.666829427083,12.032,0.2255555555555556,179.37326836853578,-4.301868337664756,95.18038300668148,1491.0,1435.0,1200.0,1528.0,1448.0,1018.02,306.0,295.54999999999995,1637190160.1347375,1637190161.2194488,95dc20b0-474e-4b04-ade2-1141546841c8
-0.2675857876550054,-0.3467929977691426,-0.0104191846261742,0.4837800203601749,0.0078383282612465,0.2461721393223185,-0.208896027111275,-0.2250168791009602,-14.583816730311426,21.15807827146731,48.96895312840695,-0.3979020689168538,-1.69133988533818,0.3134135907144126,7659.8984375,12.017111111111111,0.27,179.4392495137379,-4.292835697078629,95.17927955167556,1457.0,1435.0,1200.0,1528.0,1421.0,1018.02,306.0,295.54999999999995,1637190163.0422103,1637190164.094526,a04b703c-b74f-4204-8cc9-1c5cb4dd3e23
-0.2656545725279119,-0.3381367712022066,-0.0110629228621275,0.4630982187340932,0.0043183127144145,0.2559103919568262,-0.2077044263653067,-0.2316734067886391,-14.689637814324364,21.07678533386896,48.85542287477643,-0.3300081571648861,-1.6546143971721523,0.3180541804816611,7643.964518229167,12.018333333333333,0.2733333333333333,179.4325164650361,-4.299642644632716,95.05956530827297,1457.0,1435.0,1200.0,1528.0,1421.0,1018.02,306.0,295.54999999999995,1637190164.2082374,1637190165.2876232,a04b703c-b74f-4204-8cc9-1c5cb4dd3e23
-0.2771322901630776,-0.3464642802211357,-0.0150486214942048,0.4702615182452188,0.0022775254388553,0.2612657460655074,-0.2112244423046843,-0.2228391259544446,-14.7626094631912,21.194910488517284,49.36426371610195,-0.3335036252601995,-1.6909736114304998,0.3309518477605854,7605.5244140625,12.021,0.26,179.4062839851638,-4.28584680087415,94.99073976873645,1457.0,1435.0,1200.0,1528.0,1421.0,1018.02,306.0,295.54999999999995,1637190165.3955338,1637190166.4323566,a04b703c-b74f-4204-8cc9-1c5cb4dd3e23
-0.3606539176033758,-0.5011258528984951,-0.0211025005503725,0.5566730984952248,0.0318894854283754,0.304985158515026,-0.1941585285910113,-0.2176892189799696,-15.03650450745125,21.79741106166154,45.38721723716253,-0.4272628517251757,-2.2448741987392467,0.2505686727991023,7565.248046875,11.988,0.38,179.46294723451825,-4.291228136166476,94.82079783199735,1423.0,1435.0,1200.0,1528.0,1394.0,1018.02,306.0,295.54999999999995,1637190167.9819467,1637190169.0004766,4b370a47-4529-4f22-8634-b24530a5f2fb
-0.3543398029896301,-0.5093437903013595,-0.0191575892185718,0.5483729847426103,0.0336426449095457,0.3196678683038091,-0.1869952278320701,-0.2234691681139619,-14.94413268590968,21.81868141829037,45.27766441240669,-0.3752789376437766,-2.2742337021904064,0.2341648700375271,7565.248046875,11.9915,0.37,179.4930068970555,-4.333639555487435,94.5432257743172,1423.0,1435.0,1200.0,1528.0,1394.0,1018.02,306.0,295.54999999999995,1637190169.1132708,1637190170.2362964,4b370a47-4529-4f22-8634-b24530a5f2fb
-0.3487242128587695,-0.5072208231035563,-0.0258141168937172,0.5409220575746501,0.0257397304978195,0.3208594688672878,-0.1913644304817705,-0.2155799489972708,-14.73915597896682,21.703709659936816,44.72557780756324,-0.3568722239273244,-2.2623354991297693,0.2598267297574851,7551.91748046875,11.991555555555555,0.37,179.51762821119354,-4.323369630876347,94.3343654196874,1423.0,1435.0,1200.0,1528.0,1394.0,1018.02,306.0,295.54999999999995,1637190170.3676574,1637190171.346028,4b370a47-4529-4f22-8634-b24530a5f2fb
-0.4478139032478139,-0.6693169057249435,-0.0328935943503307,0.618269255866455,0.0559784447716091,0.3834072645349869,-0.1725853512463495,-0.1973837954346298,-15.392924378515335,22.38796725174589,41.20642698569976,-0.3875018525376034,-2.844437297795823,0.1769162721096322,7552.657443576389,11.974444444444444,0.4311111111111111,179.5144362361214,-4.293491727262035,93.98654562530356,1392.7777777777778,1435.0,1200.0,1528.0,1370.0,1018.02,306.0,295.54999999999995,1637190172.9626095,1637190174.0192254,05921eff-b40e-4851-afac-12d916647f2f
-0.4413403603262973,-0.6609236516042184,-0.038209502727788,0.615184791177013,0.0512975090392321,0.3761935615700448,-0.1787225056421163,-0.1912411619050652,-15.445473324395609,22.139456344369574,40.905624240915095,-0.3987407167226638,-2.809881007332676,0.199905573009127,7470.7578125,11.972333333333331,0.44,179.53391289999468,-4.29757637011318,93.69578826688566,1389.0,1435.0,1200.0,1528.0,1367.0,1018.02,306.0,295.54999999999995,1637190174.150431,1637190175.1541226,05921eff-b40e-4851-afac-12d916647f2f
-0.4453671495043932,-0.6612797624172181,-0.0311283816998811,0.6253613332242968,0.0582553608126027,0.369249406927497,-0.1726823227437861,-0.2070059024349235,-15.262577788063744,22.17512574214476,41.24991789705136,-0.4365649483412461,-2.816366034928401,0.1728214456195217,7430.445041232639,11.973555555555556,0.43,179.5691339088147,-4.323927382226696,93.42083217165764,1389.0,1435.0,1200.0,1528.0,1367.0,1018.02,306.0,295.54999999999995,1637190175.267957,1637190176.375969,05921eff-b40e-4851-afac-12d916647f2f
-0.0764157805014171,-0.0113165830975918,0.0063947110251196,0.3121939307551395,-0.0529059106551148,0.0922162514697311,-0.2578941014030137,-0.2729362125560856,-14.121512297278612,20.07735341597797,51.2352204486806,-0.3625383936237912,-0.4342838063856221,0.48604448542875,7512.937717013889,12.039444444444444,0.19,179.37975401260766,-4.321542270682154,93.07359218444336,1525.0,1435.0,1200.0,1528.0,1475.0,1018.02,306.0,295.54999999999995,1637190177.9878848,1637190179.045316,14ae8271-9ff0-4df1-b9ea-4179e3a7d71a
-0.0755052333077006,-0.0037900501147702,0.0046744231791061,0.3123676030330377,-0.0545221046719638,0.0881275549173219,-0.2587378096431356,-0.2781869256647356,-13.980478403880172,19.83610662890693,51.71707281643168,-0.3736551128425622,-0.4114581114502426,0.4935814874399609,7532.00927734375,12.041,0.19,179.34482290737236,-4.295192586660976,93.44326478962168,1525.0,1435.0,1200.0,1528.0,1475.0,1018.02,306.0,295.54999999999995,1637190179.1778204,1637190180.2665882,14ae8271-9ff0-4df1-b9ea-4179e3a7d71a
-0.0751535056322086,-0.0050841009776288,0.0032784700047211,0.3159413088952314,-0.0574685083644164,0.0796198006227487,-0.2643238146175477,-0.2922779470017781,-13.992152474184945,20.08529720817164,50.765950893070304,-0.399409663034052,-0.4083234627139831,0.5058735587703684,7538.63330078125,12.042,0.19,179.31840677130242,-4.320525805724422,93.73898465992654,1525.0,1435.0,1200.0,1528.0,1475.0,1018.02,306.0,295.54999999999995,1637190180.3756588,1637190181.426761,14ae8271-9ff0-4df1-b9ea-4179e3a7d71a
-0.0571518440421329,-0.0026806288459291,-0.0267728759786048,-0.15165810375205,-0.1310995677415311,0.5308139983100233,-0.1633960552727908,-0.1885155468476978,-13.909227997958885,18.617122377594843,54.31852437628512,1.6586526341205066,-0.3757407673298378,0.5052874056756518,7529.812717013889,12.038222222222224,0.2022222222222222,179.29977097960696,-4.139405695226178,94.04303811992877,1525.0,1507.0,1200.0,1528.0,1475.0,1018.02,306.0,295.54999999999995,1637190181.984243,1637190183.1403286,5cac6923-e5d6-43b5-b36b-bd0ab3da615c
-0.0522210827025273,-0.0034476361547323,-0.0231706810010005,-0.1555616235059916,-0.129990146508349,0.5337587581312974,-0.1591501218029567,-0.1846942058555867,-13.74940565347196,18.752294782600284,54.1471588056852,1.675203860126523,-0.3775186263895484,0.4925084009366374,7536.437065972223,12.037,0.2044444444444444,179.28427403929015,-4.124504783778149,94.16014702561796,1525.0,1507.0,1200.0,1528.0,1475.0,1018.02,306.0,295.54999999999995,1637190183.2755024,1637190184.362398,5cac6923-e5d6-43b5-b36b-bd0ab3da615c
-0.0473998939402343,0.0105365504556773,-0.0173222502585148,-0.1565888652527232,-0.129017690659385,0.5231028365240722,-0.1564929891787635,-0.1680391895989995,-13.456288750914403,18.801073205281863,54.4761177986126,1.6543903435898966,-0.3295615269011117,0.4817606481967333,7532.00927734375,12.034,0.21,179.24092510535783,-4.134250325358895,94.27938922705796,1525.0,1507.0,1200.0,1528.0,1475.0,1018.02,306.0,295.54999999999995,1637190184.4705963,1637190185.479386,5cac6923-e5d6-43b5-b36b-bd0ab3da615c
-0.0161169532545246,0.0002504347530983,-0.0480436321227498,-0.725064660735964,-0.2142513821138824,1.071444512611622,-0.0310872920717039,-0.0604390186058117,-13.499956156418056,17.51338346181949,56.95705491441766,4.159236946849593,-0.3217980027065858,0.458945677542756,7545.26953125,12.027111111111113,0.24,179.25150279165243,-3.913004608465988,94.46686577721628,1525.0,1579.0,1200.0,1528.0,1475.0,1018.02,306.0,295.54999999999995,1637190187.527034,1637190188.4798305,a437a10c-6564-4ee5-be27-1f06e0d7bbe3
-0.0263893723595306,-0.0078716246171325,-0.0526593725454543,-0.7263384410022442,-0.2163606523569314,1.0808951375454532,-0.0329774172107583,-0.0655478353133059,-13.642371922376729,17.48584953617897,56.97850138528977,4.182866470591963,-0.3515790099371935,0.4697494929864836,7538.63330078125,12.027888888888889,0.2355555555555555,179.2746024914254,-3.8996508297287056,94.41876379053151,1525.0,1579.0,1200.0,1528.0,1475.0,1018.02,306.0,295.54999999999995,1637190188.588786,1637190189.6954644,a437a10c-6564-4ee5-be27-1f06e0d7bbe3
-0.0310872922030345,-0.0138981105279562,-0.0552343256614061,-0.7207639397693927,-0.2163058661191977,1.089387003510396,-0.0333472242915005,-0.066931187643449,-13.716564256134244,17.460344613452737,58.06469732702558,4.1892126269414645,-0.3841338195649033,0.4745215823245058,7532.00927734375,12.02888888888889,0.23,179.28038538492268,-3.891258045058576,94.40774745431018,1525.0,1579.0,1200.0,1528.0,1475.0,1018.02,306.0,295.54999999999995,1637190189.8077428,1637190190.917227,a437a10c-6564-4ee5-be27-1f06e0d7bbe3
-0.0129941377664733,-0.027430310776443,-0.0922972148111043,-1.2242771355074025,-0.3131816374811388,1.577313220204065,0.0535985309761091,0.0409018205717168,-13.91439227641443,17.822693383599173,59.817779645752445,6.422186832189184,-0.3893753370429194,0.5293317121776803,7522.462456597223,12.013,0.2899999999999999,179.28441064307356,-3.700278319334072,94.34743233047952,1525.0,1650.0,1200.0,1528.0,1475.0,1018.02,306.0,295.54999999999995,1637190191.4825528,1637190192.6473446,498d92ae-e746-4911-bd50-dee7e6331bab
-0.0119668958382972,-0.0067622033565711,-0.0819152229381563,-1.2224965814300115,-0.307497564893772,1.5542208195504834,0.0567213462588586,0.0448464295694936,-13.7792049606183,17.821765779996223,59.698311457894725,6.366838441430349,-0.3113164242926889,0.505434654809527,7518.794921875,12.01311111111111,0.29,179.30942431363394,-3.686006354472115,94.15797350764208,1525.0,1650.0,1200.0,1528.0,1475.0,1018.02,306.0,295.54999999999995,1637190192.755411,1637190193.9854815,498d92ae-e746-4911-bd50-dee7e6331bab
-0.0113231575464472,-0.0218832043727906,-0.0817508642216161,-1.21562090344403,-0.3027996446274479,1.5677119314175283,0.0614603555196724,0.0483390520795819,-13.886022003212828,17.80075410519061,60.42929602935548,6.381576575397344,-0.3745885246455637,0.4912600961630947,7524.66796875,12.012999999999998,0.2811111111111111,179.3200126246673,-3.687587543264973,94.00784215513568,1525.0,1650.0,1200.0,1528.0,1475.0,1018.02,306.0,295.54999999999995,1637190194.0958176,1637190195.2238305,498d92ae-e746-4911-bd50-dee7e6331bab
0.0033047672776794,-0.0293341324814993,-0.0993646394568807,-1.7051090514812317,-0.3823629668311494,2.041736247712368,0.1620752731810454,0.1379282406158918,-14.023702551806617,18.381414250296743,63.01317844123938,8.554252642330969,-0.3653007545330995,0.4784998278171863,7523.195963541667,11.991,0.36,179.3078199780889,-3.4986356959618594,93.69744572612426,1525.0,1722.0,1200.0,1528.0,1475.0,1018.02,306.0,295.54999999999995,1637190197.1523397,1637190198.1839476,bbabe230-dc78-4c9e-9498-4b8191eb7613
0.0062495274761623,-0.0273344348784425,-0.0979812869649798,-1.704958389047624,-0.3831436708364353,2.0431332975455514,0.1625546527021241,0.1357367915422449,-13.927559215304592,18.52876660856828,63.51462273857448,8.558226169837669,-0.3628537933718871,0.4779522656914041,7523.195963541667,11.995333333333331,0.3466666666666666,179.36512526522532,-3.5163831598942945,93.4279993168267,1525.0,1722.0,1200.0,1528.0,1475.0,1018.02,306.0,295.54999999999995,1637190198.318905,1637190199.32083,bbabe230-dc78-4c9e-9498-4b8191eb7613
-0.0055706028836024,-0.0331039733946361,-0.1122591282946768,-1.7048170399930742,-0.3965208281562314,2.04782190504025,0.1488345364862791,0.1271391880451624,-13.955840350585174,18.60888669372563,63.287538276033295,8.568212998044238,-0.3832014431879731,0.5340994106017262,7543.061414930556,11.994666666666667,0.3488888888888888,179.38317517847193,-3.4921477751602548,93.2299116883378,1525.0,1722.0,1200.0,1528.0,1475.0,1018.02,306.0,295.54999999999995,1637190199.4559486,1637190200.4266536,bbabe230-dc78-4c9e-9498-4b8191eb7613
-0.1015013027753846,0.0198639069314986,0.0534889584736725,0.9540513165405834,0.0537902827361575,-0.5517346509864165,-0.3909370140986698,-0.4163715290476832,-13.906931103670113,21.19017785119712,47.71450507525972,-3.2481862404944875,-0.3636747381466956,0.4700789168236358,7565.248046875,12.040555555555557,0.19,179.35981744933028,-4.370626191923851,92.84892070079486,1525.0,1363.0,1200.0,1528.0,1475.0,1018.02,306.0,295.54999999999995,1637190202.569661,1637190203.6217625,8eb56685-ee28-41df-bcd2-212722fc866f
-0.102019281783184,-0.0072440732222356,0.0510883252590658,0.9364587109526958,0.0531054547732655,-0.5154860760451392,-0.3817279443848698,-0.4123285542068148,-13.905009286298805,21.328920625340945,46.813777905022974,-3.1263886512390595,-0.4553604332624055,0.4564119346256115,7558.5771484375,12.041,0.19,179.32240015523715,-4.397470448045555,93.3129220129606,1525.0,1363.0,1200.0,1528.0,1475.0,1018.02,306.0,295.54999999999995,1637190203.735038,1637190204.8501194,8eb56685-ee28-41df-bcd2-212722fc866f
-0.0990841339795058,0.007209930233749,0.0580559389715838,0.9432524026581368,0.0609880982298494,-0.5252202974374214,-0.3781389472882936,-0.4015962260745017,-14.068237675226808,21.1066846276399,48.375853558284,-3.164547100221071,-0.4142369873176559,0.435056631517122,7545.26953125,12.04,0.19,179.24114367141124,-4.386786324636362,93.69483431713158,1525.0,1363.0,1200.0,1528.0,1475.0,1018.02,306.0,295.54999999999995,1637190204.984019,1637190206.0722773,8eb56685-ee28-41df-bcd2-212722fc866f
-0.1061033467933325,0.0319305751854044,0.0991258913562219,1.4504556823299015,0.1381199928845542,-1.0426743278728845,-0.497948250533809,-0.533627796733562,-14.388227610062804,23.481521215181,44.32675357153088,-5.454480168267314,-0.3431713458319823,0.4451293104873952,7557.097222222223,12.032777777777778,0.2122222222222222,179.25239071624455,-4.54691702665581,94.48090788723992,1525.0,1291.0,1200.0,1528.0,1475.0,1018.02,306.0,295.54999999999995,1637190208.0048783,1637190209.1465874,99ac8d2d-486e-4a40-96fe-05de43b2337a
-0.1160333523365296,0.0296158567733242,0.0903737904743262,1.450003696024598,0.1338466666457081,-1.0380037981085697,-0.5034131789355276,-0.5161235898023,-14.559870902750262,23.15305957181981,44.55911440093684,-5.445627863213289,-0.3532022641847666,0.4707191585406987,7545.26953125,12.031777777777778,0.22,179.2647169309667,-4.554668058135174,94.70052047744316,1525.0,1291.0,1200.0,1528.0,1475.0,1018.02,306.0,295.54999999999995,1637190209.2543538,1637190210.4647322,99ac8d2d-486e-4a40-96fe-05de43b2337a
-0.1107738734993151,0.0412168419600178,0.0995093949429284,1.4368549989752004,0.1385308895577888,-1.0362232445458677,-0.4947980412893877,-0.5184109156452368,-14.511813070715728,23.172651168661897,44.77462762571335,-5.411323170203669,-0.309743379279038,0.4412380837761263,7543.057454427083,12.031333333333333,0.22,179.2379790170958,-4.5549117156474415,94.91064669379917,1525.0,1291.0,1200.0,1528.0,1475.0,1018.02,306.0,295.54999999999995,1637190210.573451,1637190211.8024094,99ac8d2d-486e-4a40-96fe-05de43b2337a
-0.134611913498657,0.0314824237180769,0.1367508849274738,1.9720853859212264,0.2233481952395742,-1.536421471436112,-0.6169850763326651,-0.6363005182129029,-15.526956700848864,25.809898186597003,42.02409046541619,-7.724296436643703,-0.378183166463739,0.4467613048815141,7518.794921875,12.015,0.27,179.2470995963675,-4.695897207695868,95.2139640111908,1525.0,1219.0,1200.0,1528.0,1475.0,1018.02,306.0,295.54999999999995,1637190213.4808056,1637190214.470176,dc65e06b-0a8b-49c9-bdfa-664c8dbfd7f5
-0.1252785299811646,0.0494347771143727,0.1444478027709616,1.9591048785815568,0.2254355506560677,-1.5481051977955536,-0.6111914302372675,-0.6465833505106008,-15.262147093989762,25.69044293010947,41.21697923430303,-7.721674473485638,-0.3034876811559246,0.4263318649633134,7510.012858072917,12.017333333333331,0.27,179.21922331763494,-4.705966756375366,95.27452274510183,1525.0,1219.0,1200.0,1528.0,1475.0,1018.02,306.0,295.54999999999995,1637190214.5786045,1637190215.702328,dc65e06b-0a8b-49c9-bdfa-664c8dbfd7f5
-0.1389476963406641,0.0376557367209533,0.1358052745481111,1.948353076338777,0.216820415719694,-1.5324500126216842,-0.6170672557531569,-0.6339140293178191,-15.412472442758396,25.894419939840105,40.33730457450128,-7.661535797575536,-0.3380263979485227,0.4552635475203472,7505.62744140625,12.018555555555556,0.2622222222222222,179.23602710081298,-4.729610309961012,95.35929146398098,1525.0,1219.0,1200.0,1528.0,1475.0,1018.02,306.0,295.54999999999995,1637190215.8107913,1637190216.9331448,dc65e06b-0a8b-49c9-bdfa-664c8dbfd7f5
-0.1508910963934074,0.0525028062635174,0.1721970296416691,2.4720001890984715,0.2925212909940619,-2.033909161456012,-0.7465408732079547,-0.7764541713282552,-16.430683513054223,28.802211467860417,39.27957910168853,-9.94919403431802,-0.3278754286343935,0.4898836787189333,7576.394368489583,12.009333333333332,0.2933333333333333,179.27133766100212,-4.926250033209602,95.53478254996574,1525.0,1148.0,1200.0,1528.0,1475.0,1018.02,306.0,295.54999999999995,1637190219.0663118,1637190220.2083318,bec0a596-0619-4e9f-8dc4-dc39c972b411
-0.1616456350656189,0.0379515823661008,0.1625354775185841,2.456680850568856,0.2858833912179953,-2.0065406486209736,-0.7433703924457887,-0.7634879069002198,-16.230090945817427,28.472373230770337,39.11602158345436,-9.855729374352885,-0.3811534503003214,0.505730354670919,7576.953735351562,12.007,0.3,179.23517237852937,-4.898572719310535,95.59979285966836,1525.0,1148.0,1200.0,1528.0,1475.0,1018.02,306.0,295.54999999999995,1637190220.3168552,1637190221.436395,bec0a596-0619-4e9f-8dc4-dc39c972b411
-0.1446180720294259,0.0622766704375691,0.1720419845614914,2.417445112152347,0.2854494842106136,-2.0023856532573925,-0.732456970121474,-0.759714229361111,-16.011890333152344,28.36283932659712,38.03820439622163,-9.758201058492451,-0.2764797208312002,0.4791012452380465,7560.851453993056,12.011333333333331,0.2844444444444445,179.22912709193145,-4.915449891448257,95.62275007410616,1525.0,1148.0,1200.0,1528.0,1475.0,1018.02,306.0,295.54999999999995,1637190221.549572,1637190222.6619196,bec0a596-0619-4e9f-8dc4-dc39c972b411
-0.0729850664016144,0.0071671969283578,0.0163028016250271,0.341746719150967,-0.0442496853405919,0.0496813150493543,-0.2616551768624199,-0.2748723588533465,-14.059497027404234,20.167171975853154,51.65375089988621,-0.5235972173349303,-0.3721156843322801,0.4691960123157763,7499.060546875,12.017777777777775,0.2677777777777777,179.29159903772,-4.257616870124581,95.67353556622484,1525.0,1435.0,1200.0,1528.0,1475.0,1018.02,306.0,295.54999999999995,1637190223.4595811,1637190224.7123382,65c24529-dff0-4748-8827-99c77ad140fd
-0.0614251703868828,0.0133580415428993,0.0241920195420517,0.34704728703526,-0.0371274745170494,0.0384912266463174,-0.2567244150657273,-0.282364377521539,-14.018548773301148,20.14637053648356,51.66856459650408,-0.5604217137779156,-0.3494701999119811,0.4425747125914294,7526.146647135417,12.039444444444444,0.19,179.2895636413474,-4.255530010173796,95.6859126279108,1525.0,1435.0,1200.0,1528.0,1475.0,1018.02,306.0,295.54999999999995,1637190224.849213,1637190225.8214772,65c24529-dff0-4748-8827-99c77ad140fd
-0.0666161663609194,0.007797238637616,0.0139059038921241,0.3551830422567227,-0.0434963745206159,0.0374091985932616,-0.2654902137214265,-0.2811453828072446,-14.029449630228124,19.97481877554372,51.73392233365459,-0.5828499318454768,-0.3724853820301175,0.4773045655198176,7525.396484375,12.037222222222224,0.19,179.31003751283944,-4.273227978950683,95.71382836995856,1525.0,1435.0,1200.0,1528.0,1475.0,1018.02,306.0,295.54999999999995,1637190225.9303246,1637190227.1705875,65c24529-dff0-4748-8827-99c77ad140fd
-0.0055979960651343,0.0233017431909809,0.2368173903003107,0.3357887166744704,0.1594181408731065,0.0207541832041738,-0.0344703421833652,-0.0595761356638486,-12.659753572268633,20.13582199912908,50.72613638704807,-0.5638314915290205,-0.2985744671636797,-0.4306719215070751,7537.897298177083,12.04022222222222,0.19,179.37856100623264,-4.30446817328133,95.7102516275632,1525.0,1435.0,1200.0,1454.0,1475.0,1018.02,306.0,295.54999999999995,1637190227.9656684,1637190229.011,758bf0a2-e3fe-4927-94c9-a2f1a246c3ef
-0.0054336371706285,0.0370119983743777,0.2406524265499586,0.3258998020044,0.1591168165940674,0.0190147201517213,-0.0300737466847294,-0.0560287266469486,-12.39910228432238,20.012639318968503,51.1255950369709,-0.5458640809965564,-0.2510793233281764,-0.4393804259569607,7532.00927734375,12.04011111111111,0.19,179.38493281381835,-4.294307460549159,95.74804685879042,1525.0,1435.0,1200.0,1454.0,1475.0,1018.02,306.0,295.54999999999995,1637190229.1191208,1637190230.245267,758bf0a2-e3fe-4927-94c9-a2f1a246c3ef
-0.0011131947193865,0.0376623109990677,0.246055992538991,0.3289322198525558,0.1649416888139893,0.019214689907535,-0.0262929485773472,-0.0500920898151164,-12.565163359929295,20.081559345550204,51.67664800908435,-0.5515249231656002,-0.2523785141516454,-0.4593247471766783,7532.00927734375,12.038444444444444,0.19,179.3333815816027,-4.316642606021923,95.78784257653452,1525.0,1435.0,1200.0,1454.0,1475.0,1018.02,306.0,295.54999999999995,1637190230.3601143,1637190231.3561914,758bf0a2-e3fe-4927-94c9-a2f1a246c3ef
0.0889767414971415,0.0851143120883817,0.522390615554215,0.298766921114337,0.4120100594552697,-0.0132406759420771,0.2552392606135167,0.2227647214812207,-10.824402016026106,20.09145056674079,51.86199175942477,-0.5416799510920521,-0.0671357340705612,-1.5664052753408282,7535.689290364583,12.038000000000002,0.1955555555555556,179.32607783265027,-4.300756060331166,95.79231179698144,1525.0,1435.0,1200.0,1380.0,1475.0,1018.02,306.0,295.54999999999995,1637190233.4954517,1637190234.751721,a4e9bb32-f1a0-496c-af28-8a2c13778741
0.0832789731546098,0.075732169505145,0.5203635250779975,0.3023280262820296,0.4114895903195357,-0.0108985642059045,0.255444709021799,0.2319688081246303,-10.718674824466529,20.10811663037327,51.34680104488509,-0.5444692523062568,-0.0990733341682054,-1.564989294557105,7526.131239149306,12.03677777777778,0.2088888888888888,179.33505118339983,-4.334241205032762,95.79843695884712,1525.0,1435.0,1200.0,1380.0,1475.0,1018.02,306.0,295.54999999999995,1637190234.8897903,1637190235.9699554,a4e9bb32-f1a0-496c-af28-8a2c13778741
0.1040155626641424,0.0955373930494713,0.5265269758794862,0.3020814882096325,0.4150096055897784,-0.0283616768676216,0.2576087651477279,0.2247918122175782,-10.594709657550547,19.891882810067653,51.62451191869863,-0.5841749404728788,-0.0277130270022565,-1.5783049020046949,7518.794921875,12.037,0.2,179.33572357757814,-4.311685833391134,95.8041014623988,1525.0,1435.0,1200.0,1380.0,1475.0,1018.02,306.0,295.54999999999995,1637190236.0814266,1637190237.2952197,a4e9bb32-f1a0-496c-af28-8a2c13778741
0.1969056203863247,0.1359833297951321,0.8175651215536769,0.2893847790837407,0.674216952971388,-0.0757654680422009,0.5478525155956527,0.5143644327932805,-8.647919865640247,20.40204857813381,51.07913664970719,-0.6432901880732865,0.1350607296466764,-2.7361514781255267,7525.396484375,12.037888888888888,0.2,179.34063524250126,-4.307811123993228,95.72781507955892,1525.0,1435.0,1200.0,1306.0,1475.0,1018.02,306.0,295.54999999999995,1637190237.9479592,1637190238.9878776,ec908ff9-5f72-4f63-93fb-945392187e40
0.1879617679577736,0.1453517756417232,0.8186471495704398,0.2839472458048686,0.6726555454426159,-0.0759435231184191,0.5490030264202119,0.5140494120840092,-8.500791927772807,20.34198383207813,51.65514130331554,-0.6316029784878668,0.1647887003296298,-2.7351119385064204,7523.195963541667,12.035666666666666,0.21,179.34728936457267,-4.291416962437904,95.72842296639504,1525.0,1435.0,1200.0,1306.0,1475.0,1018.02,306.0,295.54999999999995,1637190239.0967796,1637190240.270512,ec908ff9-5f72-4f63-93fb-945392187e40
0.1820722479706913,0.1283954365104842,0.8201537708964463,0.2914803524476279,0.6772164990163246,-0.0682186640473848,0.5543172906446917,0.5369911456244745,-8.429404300415626,20.413456682683,51.40273510264681,-0.6306925101289488,0.102093162155677,-2.753265267991337,7518.794921875,12.035666666666666,0.21,179.31513131614045,-4.300944317420165,95.73078393511815,1525.0,1435.0,1200.0,1306.0,1475.0,1018.02,306.0,295.54999999999995,1637190240.3786304,1637190241.5035884,ec908ff9-5f72-4f63-93fb-945392187e40
0.2511182402904467,0.1565791183151497,1.0566993462897174,0.2997947109452281,0.8931427252669321,-0.1177815811533967,0.7898991714649389,0.7672176725941376,-6.850555224020567,20.598698702979537,51.1782876315335,-0.7470568020193932,0.2125888653247289,-3.701025987231242,7518.794921875,12.029555555555554,0.2266666666666666,179.3302563906025,-4.3119036879665344,95.62753955453417,1525.0,1435.0,1200.0,1232.0,1475.0,1018.02,306.0,295.54999999999995,1637190242.6189177,1637190243.7564306,a1ccbffc-92e1-4c17-9d56-d741fabd1979
0.2579555620027138,0.1587355044155736,1.0575145654524445,0.2979933396170784,0.8924195470523573,-0.1184916108680902,0.7869801611983666,0.7554101445061653,-7.068687544654612,20.82607480633665,51.13226234124495,-0.743158124034672,0.222905756266417,-3.69706182797106,7518.794921875,12.025555555555554,0.2422222222222222,179.31373036845065,-4.285468152262039,95.54943785919488,1525.0,1435.0,1200.0,1232.0,1475.0,1018.02,306.0,295.54999999999995,1637190243.8655484,1637190245.0191915,a1ccbffc-92e1-4c17-9d56-d741fabd1979
0.2504608055508943,0.1500968112747709,1.0666266114473284,0.313745476674806,0.906475502179569,-0.1190570048749756,0.7982617415056436,0.7739366557349129,-7.090531643745447,20.667321418957822,51.99066108504942,-0.7804344401365522,0.181687583005363,-3.7443364268416177,7530.539767795139,12.026222222222222,0.23,179.27968111652825,-4.280400341625366,95.49956685351508,1525.0,1435.0,1200.0,1232.0,1475.0,1018.02,306.0,295.54999999999995,1637190245.127948,1637190246.306491,a1ccbffc-92e1-4c17-9d56-d741fabd1979
-0.1800921617225913,-0.0277453316350694,-0.3257961699804696,0.4098186102463801,-0.3555040105981885,0.0376420400462062,-0.6339140286214464,-0.6600881623700366,-16.433152230259896,20.79764349983227,51.24521756913625,-0.7183193174688078,-0.5126955894954481,1.8833490270769293,7551.91748046875,12.02777777777778,0.2266666666666666,179.3751914462421,-4.28336910232086,95.6917645822097,1525.0,1435.0,1200.0,1602.0,1475.0,1018.02,306.0,295.54999999999995,1637190247.9574287,1637190248.968381,8864d32a-9c26-469d-b0b8-e47cc6a0ac94
-0.1916641112330755,-0.0469232535719537,-0.3359710709857132,0.4267716612338778,-0.3581397767207839,0.0406733624616313,-0.6403108714410726,-0.6571938040206217,-16.48047369724575,20.64952074131934,51.162369689231625,-0.7512750534140357,-0.5862900784295033,1.9076552521535648,7568.218315972223,12.036888888888887,0.1955555555555555,179.36548195288196,-4.266128851082103,95.6636500057661,1525.0,1435.0,1200.0,1602.0,1475.0,1018.02,306.0,295.54999999999995,1637190249.0766037,1637190250.307581,8864d32a-9c26-469d-b0b8-e47cc6a0ac94
-0.1725453573232188,-0.0397572139349449,-0.3247552314133532,0.426144906778734,-0.3490118407954605,0.0390116959050147,-0.6298461494242883,-0.6661283465304718,-16.40036098022172,20.65127697540285,51.92482656603667,-0.7528632525856644,-0.5659495059594887,1.8670269933468984,7565.248046875,12.039444444444444,0.1977777777777777,179.34269188835137,-4.2781995977565455,95.64835189984508,1525.0,1435.0,1200.0,1602.0,1475.0,1018.02,306.0,295.54999999999995,1637190250.423303,1637190251.5387964,8864d32a-9c26-469d-b0b8-e47cc6a0ac94
-0.2816384586175202,-0.0828739820761504,-0.6155195443060091,0.4702341251130377,-0.6142320674471344,0.0410250900046455,-0.9421552214523188,-0.9692196390747428,-18.42244448550148,21.3391733857857,49.658786838842246,-0.859090420173767,-0.7171175055394402,3.059548847541848,7569.707411024306,12.037333333333333,0.1933333333333333,179.36133223350623,-4.297129324745629,95.63648634343696,1525.0,1435.0,1200.0,1676.0,1475.0,1018.02,306.0,295.54999999999995,1637190253.4741707,1637190254.5045793,3699c3fb-5fdd-4092-8b23-1c95ca7122e6
-0.2750504130733662,-0.0741081841551135,-0.6001520004526752,0.4607287142393024,-0.6011655462293014,0.0351492663127388,-0.925102996063382,-0.9589746063697436,-18.21610643082933,21.104371896278632,48.92716125503176,-0.8516563888537201,-0.6770759069238368,2.996711472601849,7489.686306423611,12.026666666666667,0.2255555555555556,179.36757199076797,-4.300616515771873,95.55128201027075,1525.0,1435.0,1200.0,1676.0,1475.0,1018.02,306.0,295.54999999999995,1637190254.617218,1637190255.726631,3699c3fb-5fdd-4092-8b23-1c95ca7122e6
-0.2586282370874184,-0.0658217658235331,-0.5901535096027396,0.4578387406520329,-0.5940570301024137,0.0353547146627099,-0.9153236479195286,-0.9285271384997764,-18.078024841966585,21.112183467933423,49.80705560958785,-0.8439162376667135,-0.6537827879975261,2.961788354067405,7431.881673177083,12.027666666666669,0.23,179.3480528279399,-4.316893994928876,95.46551532486292,1525.0,1435.0,1200.0,1676.0,1475.0,1018.02,306.0,295.54999999999995,1637190255.8355553,1637190256.8646224,3699c3fb-5fdd-4092-8b23-1c95ca7122e6
-0.3694608062900924,-0.1175810634483632,-0.8907383115907478,0.5582071128683719,-0.8600580043373318,0.0165219464046323,-1.2475476078718186,-1.2715850900811183,-20.44500660350445,22.010192933068463,50.62392984263126,-1.122717806837116,-0.8697963830336852,4.200583041721478,7440.47412109375,12.026333333333334,0.2433333333333333,179.33284427338805,-4.292903097764813,95.32719336943146,1525.0,1435.0,1200.0,1750.0,1475.0,1018.02,306.0,295.54999999999995,1637190258.4448252,1637190259.6188452,7f11d793-8b7f-4f71-b591-c50ae20c1787
-0.3727742783717842,-0.1243427809275213,-0.8989984366221896,0.551697413146316,-0.8706629811021989,0.0174527645992987,-1.2568667544916727,-1.2936568411541904,-20.39519082836308,22.30150956937282,48.89185360514648,-1.1046729992580948,-0.8798753944603288,4.236152430881872,7454.140028211806,12.020555555555555,0.2555555555555555,179.34002052547598,-4.301758627751212,95.23034963500966,1525.0,1435.0,1200.0,1750.0,1475.0,1018.02,306.0,295.54999999999995,1637190259.7275257,1637190260.7617383,7f11d793-8b7f-4f71-b591-c50ae20c1787
-0.3778496760227461,-0.1156514921945347,-0.902338207144196,0.5537223121900046,-0.874660186738104,0.0161773411293847,-1.2599829980948989,-1.2867406195590596,-20.246404170380405,22.156074202269263,50.16155364733222,-1.112959836183549,-0.860047670824922,4.253610051976071,7481.607096354167,12.022333333333332,0.25,179.38345749295763,-4.322796985919059,95.13973806875056,1525.0,1435.0,1200.0,1750.0,1475.0,1018.02,306.0,295.54999999999995,1637190260.8711808,1637190262.057523,7f11d793-8b7f-4f71-b591-c50ae20c1787
-0.4553793361195602,-0.1466725558951231,-1.147220234543312,0.6687246335125744,-1.092310690578049,-0.0421404152510085,-1.5451741306667357,-1.5712524101020915,-22.082867752212763,23.15262000253776,50.56138270254902,-1.5098726441463717,-0.996607718639844,5.2860359107220285,7536.456705729167,12.015,0.2633333333333333,179.3294989985145,-4.36177445648699,95.01010790849288,1525.0,1435.0,1200.0,1824.0,1475.0,1018.02,306.0,295.54999999999995,1637190264.1278088,1637190265.1554923,42917170-4f87-4124-b023-1b198e950709
-0.4649943224049506,-0.1546302570661555,-1.1515894400525022,0.6964875550768284,-1.09336532639444,-0.0605759837866544,-1.5549534853702245,-1.589057958156405,-22.041051814075058,23.31601313250017,50.40992000676604,-1.613063676714132,-1.02909991232381,5.306380892035929,7597.287868923611,12.005000000000004,0.3011111111111111,179.3420802069657,-4.350588598765018,94.85562572548515,1525.0,1435.0,1200.0,1824.0,1475.0,1018.02,306.0,295.54999999999995,1637190265.2849514,1637190266.379658,42917170-4f87-4124-b023-1b198e950709
-0.4593453126382926,-0.1533751043100135,-1.148705490408042,0.7011323315827537,-1.091995121543604,-0.0691971460461402,-1.5567362312463118,-1.5843879740008264,-22.10460904738544,23.54565053827428,49.96928846468723,-1.641350394010607,-1.0204223275235202,5.302554165899604,7604.775282118056,12.000777777777778,0.3111111111111111,179.36965595737476,-4.376612805299497,94.70227583605984,1525.0,1435.0,1200.0,1824.0,1475.0,1018.02,306.0,295.54999999999995,1637190266.5124156,1637190267.5142996,42917170-4f87-4124-b023-1b198e950709
-0.062288053660216,0.0164945534652049,-0.0012150970373926,0.4250217890650007,-0.0386203994909321,-0.0322104099533652,-0.2829944179386764,-0.3180576137780739,-13.655813567825325,18.333010632883603,52.08256148129825,-0.9082266056831328,-0.3551847270487041,0.5192887317630649,8919.279296875,11.868333333333332,6.1,-179.6995783794034,-4.481292521678459,81.88531885223392,1525.0,1435.0,1350.0,1528.0,1475.0,1018.02,306.0,295.54999999999995,1637190270.9429665,1637190272.019635,6fa32c89-c6ce-4794-94b1-8eadd80c147c
-0.0839149207217884,0.0090025358259244,-0.0088714734941044,0.4219537602078356,-0.0449892995132575,-0.0256360615511986,-0.2864048615723931,-0.3090452772606692,-13.510962293154948,18.23684300556918,51.53008335221224,-0.8875663425899493,-0.3795222346593632,0.5416837423940543,8919.279296875,11.866333333333332,6.12,-179.43842078411865,-4.435355278073761,76.2387354402224,1525.0,1435.0,1350.0,1528.0,1475.0,1018.02,306.0,295.54999999999995,1637190272.1283896,1637190273.3405268,6fa32c89-c6ce-4794-94b1-8eadd80c147c
-0.0805896343622056,0.0098219473550134,-0.0017546223642209,0.4242345348119239,-0.0368988015859393,-0.0266656855362623,-0.2793064702127243,-0.2914690177770991,-13.587308706399048,18.169254687708204,51.85217136847905,-0.8951056814762954,-0.3785940280573612,0.5114043157166409,8919.279296875,11.869999999999996,6.08,-179.30854397814093,-4.370830575848389,72.16815443075907,1525.0,1435.0,1350.0,1528.0,1475.0,1018.02,306.0,295.54999999999995,1637190273.4489365,1637190274.4774446,6fa32c89-c6ce-4794-94b1-8eadd80c147c
0.0254521027719706,0.1995764492112185,0.0066741208382379,0.3217086553901176,-0.0741355772978237,-0.1245389156999661,-0.3107436496623092,-0.3353015834791,-13.303044957613713,17.646207643768197,50.86527386536661,-0.8868285058544485,0.3529842194671843,0.6164755773027533,8894.611111111111,11.864222222222224,6.17,-179.40150588838443,-4.246531757692866,63.66851752234337,1559.0,1435.0,1350.0,1528.0,1502.0,1018.02,306.0,295.54999999999995,1637190276.5037768,1637190277.549125,b8ecfa14-4482-4b91-9840-4cf5334eb267
0.0231784740957014,0.1966590823718272,0.0052085890208132,0.3241740357955268,-0.0735603218306636,-0.1199094785790887,-0.3111134568057575,-0.3396433932775555,-13.42246214815428,17.5950677161976,51.43359915239186,-0.8823683403781803,0.3374531576144968,0.6186239314932576,8863.9375,11.857666666666669,6.266666666666667,-179.5508608760552,-4.177466639784858,61.14618937465029,1559.0,1435.0,1350.0,1528.0,1502.0,1018.02,306.0,295.54999999999995,1637190277.657344,1637190278.7773893,b8ecfa14-4482-4b91-9840-4cf5334eb267
0.0436411327371645,0.2070136802260783,0.0022912220060125,0.3145453557685646,-0.079559414778348,-0.1274288898320243,-0.314647169472464,-0.3479982957768107,-13.22699864315286,17.470972529458752,50.52266857199326,-0.8785602420091109,0.3839777537422975,0.6358741775071489,8846.656901041666,11.857111111111111,6.272222222222222,-179.6895273765848,-4.1513644552573545,59.07255684410284,1559.0,1435.0,1350.0,1528.0,1502.0,1018.02,306.0,295.54999999999995,1637190278.8860247,1637190280.0131528,b8ecfa14-4482-4b91-9840-4cf5334eb267
0.1167911644452626,0.3669056519976007,0.0062632240527699,0.2493694638011733,-0.1082882218482897,-0.1987512591128071,-0.340888684287211,-0.367672584643109,-13.024194258553832,16.75753480869841,54.04277932604207,-0.8956787578986265,0.9593000606465788,0.7311268177236133,8854.779296875,11.852666666666668,6.256666666666667,-179.96733393742645,-4.131632513063881,55.96002635840465,1593.0,1435.0,1350.0,1528.0,1529.0,1018.02,306.0,295.54999999999995,1637190281.122792,1637190282.347914,30c5a0ae-23b0-41c3-8e48-07d297b8a85c
0.1363695727246568,0.3805934437689947,0.0204638162247869,0.2440310933186914,-0.09866337563975,-0.2106639790845374,-0.330382874150271,-0.3651480335161706,-12.907950264901164,16.790519338589338,53.6513866033394,-0.9094842972674126,1.0148418281985423,0.6848275705381404,8855.796875,11.854111111111113,6.239999999999999,179.89360128642622,-4.133355902600709,54.73497615088465,1593.0,1435.0,1350.0,1528.0,1529.0,1018.02,306.0,295.54999999999995,1637190282.4567316,1637190283.489279,30c5a0ae-23b0-41c3-8e48-07d297b8a85c
0.1334768596035918,0.3924376788598411,0.0176450644358206,0.2463091048262068,-0.1041173455823897,-0.2196478267782513,-0.338205254001058,-0.3632973541165961,-12.914041391251734,16.884775065523417,54.27979659100489,-0.934229254773552,1.0532808733603036,0.709532246300283,8873.111328125,11.850666666666667,6.316666666666666,179.75367651326954,-4.095717670860661,53.5566026972426,1593.0,1435.0,1350.0,1528.0,1529.0,1018.02,306.0,295.54999999999995,1637190283.5977466,1637190284.8089097,30c5a0ae-23b0-41c3-8e48-07d297b8a85c
0.2369132661542018,0.5584536509589472,0.044654678154637,0.1644858673459343,-0.118443946709117,-0.2832957422745556,-0.3392872823010195,-0.3624344707831891,-12.25053746852724,16.44024556621386,57.7445876568342,-0.8933970849639477,1.652316150572138,0.7186728417491519,8900.75390625,11.852,6.28,179.424329344951,-4.09843153269088,51.78711583425114,1627.0,1435.0,1350.0,1528.0,1556.0,1018.02,306.0,295.54999999999995,1637190286.4379456,1637190287.3672707,b51ff947-b404-45f5-94b8-96ef74a54fc2
0.2304074011795271,0.5550158150793728,0.0324510443258268,0.1727585884489832,-0.1269905999561285,-0.2894181047982151,-0.3541480510212753,-0.3838832856197229,-12.519838967506388,16.407168053714383,57.37618542869456,-0.9268373022841372,1.642800609977425,0.7670693621633102,8905.894965277777,11.850222222222222,6.264444444444444,179.33833878112034,-4.104858408676776,51.15767595673909,1627.0,1435.0,1350.0,1528.0,1556.0,1018.02,306.0,295.54999999999995,1637190287.4758866,1637190288.707121,b51ff947-b404-45f5-94b8-96ef74a54fc2
0.2379815977258456,0.5545775252407131,0.0435452568661112,0.1761416383330695,-0.1147869654303609,-0.2852817437239838,-0.3427388157346439,-0.3711043945476258,-12.666211166575872,16.404632267600945,58.432825407001616,-0.92454331617109,1.633114514638074,0.7204462242523609,8907.951388888889,11.848222222222224,6.28888888888889,179.24707531125043,-4.106924588332575,50.63142771557244,1627.0,1435.0,1350.0,1528.0,1556.0,1018.02,306.0,295.54999999999995,1637190288.842951,1637190289.843506,b51ff947-b404-45f5-94b8-96ef74a54fc2
0.3223934833072436,0.7165941011291878,0.0436959190361937,0.1039196867075019,-0.1513704759039371,-0.3596129788696462,-0.3736519539098338,-0.3986070887651773,-12.210466524800694,15.850470496795674,60.86346603961008,-0.9317097329666622,2.2248990453703694,0.8370277702791413,8911.037977430555,11.848333333333334,6.27,178.98095292734897,-4.189481037398649,49.57993830668676,1661.0,1435.0,1350.0,1528.0,1583.0,1018.02,306.0,295.54999999999995,1637190291.975291,1637190293.0091372,e8901fa5-3774-457e-ad24-f51b96fe6a42
0.3251464913760541,0.712498830508063,0.0456408303818826,0.0977425388622428,-0.1516581036367381,-0.3515320079889005,-0.3681459363509785,-0.3998945660283277,-11.926189473636484,15.927423989438331,60.65955753424979,-0.898899009046873,2.210219624695833,0.8262589392650526,8910.0078125,11.841777777777777,6.314444444444444,178.91234898950552,-4.182715023547713,49.25109315727219,1661.0,1435.0,1350.0,1528.0,1583.0,1018.02,306.0,295.54999999999995,1637190293.1336343,1637190294.2294655,e8901fa5-3774-457e-ad24-f51b96fe6a42
0.336692689512917,0.7333860803442854,0.0531876341291679,0.082744807366109,-0.148685950284052,-0.3612291730464574,-0.3639000024949023,-0.3907041733973666,-11.96172890999002,15.784771983930847,60.274680485901904,-0.8875077441391088,2.294544755475,0.8077650457798686,8919.279296875,11.84122222222222,6.2844444444444445,178.83925078718826,-4.204205359997512,48.91459895489711,1661.0,1435.0,1350.0,1528.0,1583.0,1018.02,306.0,295.54999999999995,1637190294.3514364,1637190295.5724475,e8901fa5-3774-457e-ad24-f51b96fe6a42
-0.150452806489039,-0.1185809123277392,-0.0243211919231761,0.459427541287627,-0.0335526727040934,0.0253973165358883,-0.2792141673203931,-0.3011560576183966,-13.981892452164558,18.70259082327451,45.88780097991605,-0.8562374578902964,-0.8102825566390751,0.5133408307197699,8916.188802083334,11.849333333333334,6.293333333333333,178.9497404806618,-4.213367963905346,48.584757736228575,1491.0,1435.0,1350.0,1528.0,1448.0,1018.02,306.0,295.54999999999995,1637190296.4844277,1637190297.6251478,5054f4d4-5ab1-4576-b1bf-47c282e48df7
-0.1413993805234722,-0.1041584352309737,-0.0246909989776609,0.4485935644136156,-0.0348675423325143,0.0204802519468303,-0.2802961955290676,-0.3083604486116947,-14.086932009606002,18.415646999507715,45.77797910107034,-0.8448389407496962,-0.7531671217578474,0.5187159402287267,8910.0078125,11.867444444444445,6.195555555555555,178.95584363414017,-4.250444792041114,48.49557671514563,1491.0,1435.0,1350.0,1528.0,1448.0,1018.02,306.0,295.54999999999995,1637190297.737393,1637190298.845775,5054f4d4-5ab1-4576-b1bf-47c282e48df7
-0.1414886821523263,-0.109497901937493,-0.0292514052630019,0.4588413287038538,-0.0383240059560743,0.0156250957983537,-0.2875049692637123,-0.3181545850247956,-14.132856657679868,18.58430441036013,45.63851430361903,-0.8780199466349226,-0.7731802161737042,0.539049600394051,8902.810329861111,11.865222222222222,6.23,178.96347978563225,-4.242476522600648,48.42080549593664,1491.0,1435.0,1350.0,1528.0,1448.0,1018.02,306.0,295.54999999999995,1637190298.954614,1637190300.073498,5054f4d4-5ab1-4576-b1bf-47c282e48df7
-0.1817236959165296,-0.1768455290993706,-0.0322887542160129,0.4786038174143081,-0.0283967400426342,0.0501930185273831,-0.2753950183988659,-0.3073200579644913,-14.130014729719704,18.818036351439115,43.79199047585708,-0.843815259817108,-1.0120509585572128,0.5017524665372884,8854.779296875,11.863444444444443,6.328888888888889,178.92549027346865,-4.215742023824356,48.16742065592732,1457.0,1435.0,1350.0,1528.0,1421.0,1018.02,306.0,295.54999999999995,1637190302.0126054,1637190303.149868,95473fcc-9a50-447c-ac6e-6f24503a8e0f
-0.1777774432334713,-0.1725864469601789,-0.0336759416907413,0.4692753660849604,-0.0303202847468802,0.0575979259664225,-0.2754887027965595,-0.3037584041223222,-14.254593299900328,18.742988039405287,44.21237848736001,-0.8066950177687704,-0.9978616439147252,0.5073668371096497,8845.6416015625,11.865,6.292222222222222,178.93506468086517,-4.227862858552713,48.104949848503615,1457.0,1435.0,1350.0,1528.0,1421.0,1018.02,306.0,295.54999999999995,1637190303.258187,1637190304.4707203,95473fcc-9a50-447c-ac6e-6f24503a8e0f
-0.178297912451556,-0.1755175106763662,-0.0321556236949732,0.4813420331528721,-0.0291286841865437,0.0481746937035098,-0.2763515861977061,-0.3068401304346575,-14.063600511540196,18.887662738145742,44.04397980850772,-0.8539856585034779,-1.010101033032852,0.5044878552257677,8850.718098958334,11.863333333333332,6.2877777777777775,178.8997161751806,-4.239079546989689,48.03355236328966,1457.0,1435.0,1350.0,1528.0,1421.0,1018.02,306.0,295.54999999999995,1637190304.5863454,1637190305.8087046,95473fcc-9a50-447c-ac6e-6f24503a8e0f
-0.2804441185056714,-0.3541557211011648,-0.0433994028967118,0.5714336043385776,0.0001096340493054,0.1191842271084954,-0.258157075334958,-0.2937374532421294,-14.564496556420863,19.672244332617232,41.07124184325181,-0.8937270565194976,-1.6620021029781986,0.4283952199442564,8900.75390625,11.866333333333332,6.257777777777778,178.92936223181812,-4.221902617296362,48.06600031530666,1423.0,1435.0,1350.0,1528.0,1394.0,1018.02,306.0,295.54999999999995,1637190307.4402332,1637190308.6857083,8b5feef4-e287-45f3-845d-7b5e83685306
-0.2941056158216195,-0.3636359326903853,-0.0503682121401266,0.5687644192805087,-0.0060045097553665,0.1292429795465106,-0.262114833404748,-0.2980239285559709,-14.542557948340988,19.745945736734527,40.78836369705077,-0.8649951429258226,-1.6953186961667497,0.4502727719857025,8900.75390625,11.861222222222224,6.252222222222222,178.9658855300399,-4.232706790766591,48.10914168737923,1423.0,1435.0,1350.0,1528.0,1394.0,1018.02,306.0,295.54999999999995,1637190308.820656,1637190309.9055357,8b5feef4-e287-45f3-845d-7b5e83685306
-0.2878430004076264,-0.3595855857542685,-0.0498241848144426,0.5631652666227304,-0.0036119948693659,0.1289432987516656,-0.261394942224263,-0.2874594969478673,-14.810760245893556,19.53029721571973,40.58599441029522,-0.8546079853018883,-1.6757153620431933,0.4453040597451136,8904.866753472223,11.863666666666669,6.26,178.99868106279467,-4.2427122115588825,48.14821340507134,1423.0,1435.0,1350.0,1528.0,1394.0,1018.02,306.0,295.54999999999995,1637190310.0139494,1637190311.2294495,8b5feef4-e287-45f3-845d-7b5e83685306
-0.3995247581122671,-0.5473654473900501,-0.0586173758378831,0.6594931539188392,0.0295336773073693,0.2014939672143954,-0.2387408316052134,-0.2628193850064557,-15.183556809688028,20.345746283542585,37.40104185906027,-0.9045965473817328,-2.36154093250201,0.3529256702312921,8900.75390625,11.859222222222222,6.304444444444444,179.08831135854302,-4.2655690127295065,48.18007358136477,1389.0,1435.0,1350.0,1528.0,1367.0,1018.02,306.0,295.54999999999995,1637190312.047186,1637190313.2768333,1a18ab66-c34a-483b-863b-c34d42a92792
-0.3888277438389795,-0.5388461855055582,-0.0556041328345538,0.653713206754239,0.0279585730002108,0.1959331647203565,-0.2390558524865043,-0.2689965335325754,-15.080964442713883,20.52585572187962,37.0484404377352,-0.902714826077028,-2.326283833532805,0.3518928242376371,8900.75390625,11.858333333333333,6.306666666666668,179.1307177263699,-4.2318846067452505,48.258056127848526,1389.0,1435.0,1350.0,1528.0,1367.0,1018.02,306.0,295.54999999999995,1637190313.3857725,1637190314.6172097,1a18ab66-c34a-483b-863b-c34d42a92792
-0.4002232828937325,-0.5509539467853142,-0.0643973238395926,0.6669714741812226,0.0250685991407784,0.2023705470355145,-0.2469724643564938,-0.2661202560602051,-15.37531954812502,20.513833800853607,37.949484477778974,-0.9186786477090096,-2.3797878791128504,0.3788078658168797,8900.75390625,11.860666666666669,6.296666666666666,179.1509396397726,-4.247967615238384,48.2727801184243,1389.0,1435.0,1350.0,1528.0,1367.0,1018.02,306.0,295.54999999999995,1637190314.7394412,1637190315.741914,1a18ab66-c34a-483b-863b-c34d42a92792
-0.0422291690361411,0.0704683081318017,-0.0175622140759399,0.3886009991062039,-0.0663964736010544,-0.0697888372747696,-0.3135130943602453,-0.3366548041519822,-13.848849227069364,18.096938450230347,49.31593980571045,-0.9134310834642662,-0.1234197191174877,0.6251270682966807,8900.75390625,11.857,6.3,179.0127284851877,-4.263567150688393,48.32701030261439,1525.0,1435.0,1350.0,1528.0,1475.0,1018.02,306.0,295.54999999999995,1637190316.446048,1637190317.4041998,0be8a168-43aa-4708-b789-934ef4171b64
-0.0394679426168227,0.0876010592620176,-0.0242680492385129,0.3869837096363128,-0.0760476169249216,-0.0849492848059076,-0.3239794580676868,-0.3540505317472943,-13.664821169793838,17.951598030814313,49.27015068759883,-0.9450624735515422,-0.0602866194245771,0.6644975859517294,8900.75390625,11.868222222222222,6.182222222222222,179.04058806790223,-4.268373327134359,48.41129559588225,1525.0,1435.0,1350.0,1528.0,1475.0,1018.02,306.0,295.54999999999995,1637190317.5395343,1637190318.5027487,0be8a168-43aa-4708-b789-934ef4171b64
-0.0463973057465886,0.0676281897478128,-0.0161684521936304,0.3984625205604166,-0.0599667607925296,-0.0739569742139207,-0.3125137932074082,-0.3452277550866671,-14.12467034341906,17.89016185364302,49.63171098108566,-0.946432472598054,-0.1360476818298929,0.613127080366148,8915.158637152777,11.865111111111112,6.234444444444445,179.0594606394889,-4.266120597936856,48.494041440402185,1525.0,1435.0,1350.0,1528.0,1475.0,1018.02,306.0,295.54999999999995,1637190318.611779,1637190319.7387438,0be8a168-43aa-4708-b789-934ef4171b64
-0.0138937277552872,0.0773450762351523,-0.0472651197059921,-0.2065878831277916,-0.1570567395828523,0.4978929530792158,-0.1793832276989511,-0.2099670984636671,-13.413875575050724,16.537430295628532,53.4771858664856,1.6938911007612776,-0.0662162763862059,0.6005523345523204,8910.0078125,11.861444444444446,6.267777777777777,179.10741767438128,-4.0714031460528,48.58583500884267,1525.0,1507.0,1350.0,1528.0,1475.0,1018.02,306.0,295.54999999999995,1637190320.6580088,1637190321.6698906,a94a5264-e87e-452f-baec-c38be434c65b
0.0110099033882752,0.099290250006976,-0.0465024952977407,-0.2252721823263011,-0.161474701881004,0.4909241447264367,-0.1829333760182339,-0.2178300197822622,-13.56078172926402,16.4756298532158,53.08842345104469,1.71987083042597,0.0229245603125234,0.6124507292096044,8919.279296875,11.861666666666668,6.286666666666666,179.1445511361689,-4.0957801386324455,48.5873406860997,1525.0,1507.0,1350.0,1528.0,1475.0,1018.02,306.0,295.54999999999995,1637190321.777705,1637190322.8069365,a94a5264-e87e-452f-baec-c38be434c65b
-0.0011466142982368,0.0931678884576245,-0.0459069688490623,-0.2232774153235527,-0.1600267015151092,0.4888477466119115,-0.1789279540014896,-0.2048555421776871,-13.257394709707771,16.346249797751206,52.21976338925231,1.7098914060632868,0.0053035560927769,0.6022806460655324,8900.75390625,11.860555555555557,6.302222222222222,179.13649606640774,-4.079487386413549,48.637399142526725,1525.0,1507.0,1350.0,1528.0,1475.0,1018.02,306.0,295.54999999999995,1637190322.9153702,1637190324.0394185,a94a5264-e87e-452f-baec-c38be434c65b
0.0129060550506359,0.0770607357285376,-0.0942284296936929,-0.8125720122387884,-0.2675173046746305,1.0686093251524642,-0.06816387747368,-0.0922150357776075,-13.391217165952758,15.535160766599802,55.50132380061604,4.334670160285019,-0.013767584766176,0.6546014546665038,8900.75390625,11.857,6.33888888888889,179.17365533113227,-3.891636077056388,48.69214918000364,1525.0,1579.0,1350.0,1528.0,1475.0,1018.02,306.0,295.54999999999995,1637190325.0420496,1637190326.0873358,8c967174-2055-4fca-98a5-5f6233543144
0.015056414686469,0.0767731079504601,-0.0976525695667447,-0.8067920618997843,-0.2681062567836784,1.070882953795505,-0.0705881684213434,-0.0941188575395986,-13.488693996524988,15.382897638461166,56.52031866181627,4.325674651898276,-0.0241190626045724,0.6649701843372466,8900.75390625,11.851666666666668,6.336666666666666,179.1901676929057,-3.864886874400633,48.64462092920915,1525.0,1579.0,1350.0,1528.0,1475.0,1018.02,306.0,295.54999999999995,1637190326.195968,1637190327.3246386,8c967174-2055-4fca-98a5-5f6233543144
