raw_voltage_G-,raw_voltage_G0,raw_voltage_G1,raw_voltage_G2,raw_voltage_G3,raw_voltage_G4,raw_voltage_G5,raw_voltage_G6,load_x,load_y,load_z,load_l,load_m,load_n,rpm,voltage,current,roll,pitch,yaw,aileron1_pwm,elevator_pwm,throttle_pwm,rudder_pwm,aileron2_pwm,pbaro,pdiff,Tt,sample_start_time,sample_end_time,uid
-0.1644506905707743,-0.0908179864850307,4.498632644501661e-05,0.4948879283936718,-0.078765014347482,-0.4796770368507475,-0.4386558342526666,-0.4691854711040381,-14.901224276766987,26.06742089642692,-17.968740986626795,-2.0318031629455056,-0.136385324173034,0.6786594932704105,7499.060546875,12.048,0.22,179.6515014367456,5.4740141291717,76.10094320390657,1525.0,1435.0,1200.0,1528.0,1475.0,1018.02,303.0,296.1,1637190876.9715958,1637190878.0320752,868f6ce4-ac37-4faa-a551-13b2a190664b
-0.1748874690215225,-0.1015286958870859,-0.0014479385679915,0.5007774480738796,-0.0796552906567617,-0.476321379382195,-0.4387380135876884,-0.4734587987409793,-14.758424844992726,26.22516142515216,-18.22120872072888,-2.0365448859064017,-0.1761471748367797,0.6804587914910689,7499.060546875,12.047,0.22,179.60498936631762,5.508078416996669,75.59258208981133,1525.0,1435.0,1200.0,1528.0,1475.0,1018.02,303.0,296.1,1637190878.1408997,1637190879.2614002,868f6ce4-ac37-4faa-a551-13b2a190664b
-0.1830911604400236,-0.1050404936310087,-0.0041768409890515,0.5049275049604307,-0.0795583191081567,-0.4764386217435106,-0.4400824681752058,-0.4612387255990058,-14.808840628357782,26.07810469522654,-18.19742970743556,-2.047302182173957,-0.1898589264837842,0.6856308202307614,7512.20556640625,12.051,0.22,179.57302256318215,5.515431542525011,75.21708940455022,1525.0,1435.0,1200.0,1528.0,1475.0,1018.02,303.0,296.1,1637190879.3695557,1637190880.4867313,868f6ce4-ac37-4faa-a551-13b2a190664b
-0.0668079181489574,0.0927843847715346,0.0142757109335258,0.4101199345425337,-0.1048295666773418,-0.5740737448016912,-0.4633370385254529,-0.476595311702458,-14.807491728457077,25.435922358200585,-16.944302569125654,-2.055976544956968,0.5538204062324926,0.7531453480646354,7505.62744140625,12.045,0.24,179.51031687314196,5.538619607870381,74.38493558375146,1559.0,1435.0,1200.0,1528.0,1502.0,1018.02,303.0,296.1,1637190882.517266,1637190883.561334,cb730761-ecf5-4ff8-85c1-b629d4c0ce52
-0.0649040964300536,0.0903190042975803,0.0048524784998288,0.3900818708998434,-0.1149924137535185,-0.549502111303704,-0.4677473313413471,-0.4978934651695563,-15.008550747091077,25.450065899820363,-16.470374640423245,-1.955960957358128,0.5436663372541957,0.786159749996218,7491.783528645833,12.042444444444444,0.25,179.51235682297408,5.574595162866222,74.12504688583248,1559.0,1435.0,1200.0,1528.0,1502.0,1018.02,303.0,296.1,1637190883.670189,1637190884.7914877,cb730761-ecf5-4ff8-85c1-b629d4c0ce52
-0.0766146545718509,0.0917982325721276,0.0046470301057396,0.3805764599133155,-0.1172660426024056,-0.547187392295943,-0.4658435093128845,-0.4840873303581243,-14.830819479315863,25.40771436324174,-17.173057566262408,-1.929631126074162,0.555340842427332,0.7860721702790691,7468.57275390625,12.041,0.25,179.4889611483371,5.574076115921171,73.84365675240628,1559.0,1435.0,1200.0,1528.0,1502.0,1018.02,303.0,296.1,1637190884.9008589,1637190886.1120198,cb730761-ecf5-4ff8-85c1-b629d4c0ce52
0.0725956576155501,0.347006197435013,0.0078109352112249,0.2769209116501732,-0.1701758523172218,-0.6859746667401354,-0.5250948368683019,-0.5416128922708373,-14.973003702372043,24.94812741655002,-15.13474875140097,-2.0103189115496845,1.5084217382336769,0.97112113209084,7464.233235677083,12.030333333333331,0.3,179.4240971185192,5.588031899942799,73.5253995345701,1593.0,1435.0,1200.0,1528.0,1529.0,1018.02,303.0,296.1,1637190887.1366377,1637190888.1669545,1b69f62b-cc6d-45c3-8708-ff04688e38e2
0.0724669099565536,0.3487867499303114,0.0120223531313611,0.2802688981712819,-0.1679175635375795,-0.6915382110673431,-0.5220909067920505,-0.5367517083698375,-14.763639011234009,25.037836355189903,-15.213740163630142,-2.0294759867857697,1.5141744537790311,0.9582706661775856,7477.981879340277,12.033,0.3,179.43304618415175,5.617086765762126,73.29849989143236,1593.0,1435.0,1200.0,1528.0,1529.0,1018.02,303.0,296.1,1637190888.2801173,1637190889.3895233,1b69f62b-cc6d-45c3-8708-ff04688e38e2
0.0661034886983807,0.3558130839650359,0.0115637922865162,0.2701000258815121,-0.1688472860755445,-0.6906314984036103,-0.5240265050818617,-0.553446721589557,-15.05989412024464,24.97551719075736,-15.444046799119812,-2.005121791891042,1.545887379746029,0.9631725272731352,7529.808756510417,12.031333333333334,0.2933333333333333,179.41572330659676,5.606316174055316,73.12757061290326,1593.0,1435.0,1200.0,1528.0,1529.0,1018.02,303.0,296.1,1637190889.4983325,1637190890.6175437,1b69f62b-cc6d-45c3-8708-ff04688e38e2
0.2487909211854946,0.6554143191701719,0.040357793783002,0.1317938265036513,-0.2098619085312184,-0.8540430203683216,-0.5615107094178371,-0.5845340840731751,-14.6384322071059,24.20849446621675,-15.074486811873715,-2.0637242743031323,2.682156594530413,1.0693259215765112,7551.178819444444,12.025444444444444,0.33,179.3226794340832,5.612591837242088,72.89910078516634,1627.0,1435.0,1200.0,1528.0,1556.0,1018.02,303.0,296.1,1637190891.5286992,1637190892.5704937,d87ad675-52fd-463c-859e-926987cdf872
0.2332973748687457,0.6366335998625225,0.020096748377919,0.1294226783354937,-0.223140449607445,-0.8307199609669351,-0.5731286818703277,-0.611191432047309,-14.83270594484187,23.971530816638225,-14.804301216431393,-2.0085999651112285,2.609701330290262,1.129620534530679,7523.226888020833,12.024333333333333,0.3366666666666666,179.3441110498789,5.6358738176885455,72.72858055907753,1627.0,1435.0,1200.0,1528.0,1556.0,1018.02,303.0,296.1,1637190892.678931,1637190893.8022442,d87ad675-52fd-463c-859e-926987cdf872
0.2357342664034514,0.6532710818906744,0.0416069199129061,0.110151072910435,-0.206719369780595,-0.8250501307767582,-0.5496505819286941,-0.5622864836384543,-14.74855300176636,23.82067158295084,-14.029492218387691,-1.9521502110257751,2.668373095773167,1.0475636140143565,7412.595594618056,12.02511111111111,0.33,179.34249912523475,5.627165990542949,72.57733360900667,1627.0,1435.0,1200.0,1528.0,1556.0,1018.02,303.0,296.1,1637190893.9108837,1637190895.0321226,d87ad675-52fd-463c-859e-926987cdf872
0.4046002218475497,0.967802660277297,0.0492841149183492,-0.0322241065497726,-0.2748586610990787,-1.0050224637403264,-0.6189847747217145,-0.639406352534499,-14.419555900396512,23.45851340224356,-14.674879380738345,-2.037364337708949,3.869459221096508,1.264902492415943,7425.43896484375,12.017666666666663,0.3566666666666667,179.24786002409508,5.653881753730892,72.39677907611718,1661.0,1435.0,1200.0,1528.0,1583.0,1018.02,303.0,296.1,1637190896.0353346,1637190897.1713943,f8155152-6778-425f-a976-8722650c8384
0.4208717321430256,0.9659947146749722,0.0542833588102097,-0.0258141169513609,-0.2672707666306099,-1.0074878457962688,-0.6142594604380245,-0.6510347337130725,-14.560564561340351,23.36609852031351,-14.3989439516239,-2.057754441363297,3.860756892948109,1.2411910878235453,7447.662977430556,12.021888888888888,0.35,179.23448044242093,5.660902808742711,72.31032330051306,1661.0,1435.0,1200.0,1528.0,1583.0,1018.02,303.0,296.1,1637190897.2794917,1637190898.3081543,f8155152-6778-425f-a976-8722650c8384
0.3939853898382106,0.9459429544032488,0.0268080622246067,-0.0269920210029217,-0.2908836368021463,-0.9895453425219872,-0.6376668868449165,-0.6589239539632455,-14.714633976113433,23.509010185932965,-14.991921110017074,-2.015370964078937,3.790302269191287,1.340692378899597,7460.622938368056,12.017111111111111,0.36,179.2397229920639,5.654676711859291,72.24639197097184,1661.0,1435.0,1200.0,1528.0,1583.0,1018.02,303.0,296.1,1637190898.4156835,1637190899.5327766,f8155152-6778-425f-a976-8722650c8384
-0.297668913063722,-0.3257282349478743,-0.0086342491192273,0.5768377180009058,-0.0380873294750817,-0.3370492643060745,-0.3872641443203589,-0.402621825261762,-14.780813520633348,26.5867754414501,-19.527599527366927,-1.8933353449208248,-1.0151088764426404,0.5318817529183478,7472.185438368056,12.045333333333332,0.24,179.59745339093337,5.668393961010531,72.14860491153468,1491.0,1435.0,1200.0,1528.0,1448.0,1018.02,303.0,296.1,1637190900.5409892,1637190901.5858858,87000fbd-be68-4cd9-8c27-9837749d0f90
-0.2886248954388457,-0.3322871486897464,-0.0144888491074699,0.593738364512106,-0.0406719058495549,-0.3451928822643051,-0.3939859878108548,-0.4288443343232286,-14.688888371288696,26.5550940992359,-19.435080869122096,-1.9501993783239544,-1.0436319239452758,0.5525153111979051,7470.738932291667,12.045666666666667,0.24,179.59173272804856,5.680611841343345,72.23048673712462,1491.0,1435.0,1200.0,1528.0,1448.0,1018.02,303.0,296.1,1637190901.693803,1637190902.8104973,87000fbd-be68-4cd9-8c27-9837749d0f90
-0.2943028462981475,-0.3149463022984823,-0.0049789114218175,0.576403811065165,-0.0346160735017178,-0.3453197956662705,-0.3853181368419105,-0.4117864678785098,-14.820216571311027,26.38825244541013,-19.234317987857548,-1.9120486506789875,-0.976708750096636,0.5211688293362998,7466.3994140625,12.045333333333334,0.2366666666666666,179.630332403778,5.691926334294687,72.31580035331751,1491.0,1435.0,1200.0,1528.0,1448.0,1018.02,303.0,296.1,1637190902.9182422,1637190904.131827,87000fbd-be68-4cd9-8c27-9837749d0f90
-0.3742682992545594,-0.4746503985494644,-0.0111177090871297,0.6586302708135287,-0.0058582304628373,-0.2614634250631094,-0.355490313885773,-0.3869239222205056,-14.603002721721078,26.893569221494403,-18.71116358454635,-1.905858068266924,-1.5923747351855564,0.42997813186131,7468.569173177083,12.036,0.28,179.66074495942237,5.698340735698976,72.43191356920774,1457.0,1435.0,1200.0,1528.0,1421.0,1018.02,303.0,296.1,1637190905.0457306,1637190906.1653292,580ad1f9-c9d9-4924-95bb-c133b5b3cd4d
-0.3706250138865162,-0.4697607259034641,-0.0119668957563619,0.6467553556671206,-0.0097617497876318,-0.2608881696978888,-0.3585857366758911,-0.3951555557801242,-14.739867377546512,27.042792956039108,-19.518552468872983,-1.8770291517523632,-1.564500175112072,0.4400514464672815,7467.845920138889,12.035777777777778,0.28,179.6598023933169,5.683472599672588,72.41250900177573,1457.0,1435.0,1200.0,1528.0,1421.0,1018.02,303.0,296.1,1637190906.2736006,1637190907.3230374,580ad1f9-c9d9-4924-95bb-c133b5b3cd4d
-0.3829250737899964,-0.4849458302343921,-0.0083712751031709,0.678043223206557,-0.0010868972484512,-0.2743825689060901,-0.3581266280401054,-0.3732476322238872,-14.715127701589015,27.19939729268329,-19.44274073225634,-1.9766889070492248,-1.6259221747677857,0.4211779733344201,7543.076931423611,12.03611111111111,0.27,179.6802732291693,5.697640878468395,72.43283109128623,1457.0,1435.0,1200.0,1528.0,1421.0,1018.02,303.0,296.1,1637190907.4317238,1637190908.548405,580ad1f9-c9d9-4924-95bb-c133b5b3cd4d
-0.5484540505634318,-0.7863534993710428,-0.0166286566177282,0.8175114310563955,0.0545452370039857,-0.1127061840678681,-0.298050225234778,-0.3158930088090442,-14.436092816972698,28.207325037720384,-19.998946254806665,-1.9216642809353848,-2.77110739488401,0.2348742142486079,7625.096408420139,12.027888888888889,0.3,179.74618607247976,5.705854750127766,72.54245259182532,1423.0,1435.0,1200.0,1528.0,1394.0,1018.02,303.0,296.1,1637190910.483056,1637190911.6208248,db61b842-6811-4541-898d-a1de47e9822e
-0.5563093029574319,-0.7845077503317944,-0.016870263886127,0.8160311071499601,0.0552010282436586,-0.1114587015449898,-0.2982523864096133,-0.3170166749773488,-14.5685523530084,28.12912053799303,-19.75849900488945,-1.9160805786693595,-2.7652126590087125,0.2350871249042221,7574.909342447917,12.032555555555554,0.3,179.74795736820454,5.685899214102711,72.5099849081507,1423.0,1435.0,1200.0,1528.0,1394.0,1018.02,303.0,296.1,1637190911.7295964,1637190912.8546245,db61b842-6811-4541-898d-a1de47e9822e
-0.541585498356156,-0.772167145560207,-0.0221845288324429,0.8011840389791791,0.0461749960610795,-0.1081167409297613,-0.3023613547078266,-0.3316309054068317,-14.415700489050725,28.008330782975104,-19.543815248391784,-1.8760335799272472,-2.7204234254227213,0.2622974243033115,7563.036187065973,12.02988888888889,0.3,179.72494418416105,5.691076734652928,72.51059051825712,1423.0,1435.0,1200.0,1528.0,1394.0,1018.02,303.0,296.1,1637190912.9675913,1637190914.1702664,db61b842-6811-4541-898d-a1de47e9822e
-0.6597594440140389,-1.0115968156475563,-0.0101863431088125,0.9106606222822412,0.1093572204347401,0.0204665554736237,-0.235727588312872,-0.2723795844272564,-14.330702752049964,28.76779558414977,-19.990405962631453,-1.8284384841802743,-3.627779140740431,0.03612056905808,7453.4140625,12.02,0.3400000000000001,179.7615357842745,5.708552579986182,72.5400309103096,1389.0,1435.0,1200.0,1528.0,1367.0,1018.02,303.0,296.1,1637190914.9887245,1637190916.013673,8ffdda48-f88c-4ed0-82ba-3859bfdd3b1a
-0.6683745826635047,-1.0042143658944065,-0.0148705663020867,0.9151120034716312,0.1048099630484606,0.010837874624813,-0.2440961866362099,-0.2661202558674843,-14.418472772196177,28.72437537003985,-19.797570900439982,-1.860651164114652,-3.602024094791632,0.0617750356705549,7436.889051649306,12.021444444444445,0.3444444444444444,179.74795129692524,5.687022400766225,72.46609866600365,1389.0,1435.0,1200.0,1528.0,1367.0,1018.02,303.0,296.1,1637190916.121701,1637190917.249356,8ffdda48-f88c-4ed0-82ba-3859bfdd3b1a
-0.6786333085708005,-1.0208693918359193,-0.0321556236108404,0.9141395478991896,0.0902231283853785,0.0281777179339453,-0.2549438622924661,-0.2686404235359761,-14.290822750998975,28.738126886531777,-19.888858271561364,-1.8202124153825343,-3.665560783197373,0.1185801320186412,7440.47412109375,12.018999999999998,0.3499999999999999,179.75376302899906,5.649929493226786,72.43535826127916,1389.0,1435.0,1200.0,1528.0,1367.0,1018.02,303.0,296.1,1637190917.3630762,1637190918.5846343,8ffdda48-f88c-4ed0-82ba-3859bfdd3b1a
-0.1888579599914586,-0.1441386923658182,-0.0314023129073583,0.5018046898670488,-0.0967896863804418,-0.4188643028318113,-0.4475175096253792,-0.4765131323027852,-14.81167718456318,25.857276058548035,-15.99966273714676,-1.913351331910868,-0.3573048294803453,0.7552279331414194,7475.082356770833,12.044,0.24,179.50496655829218,5.657503603833899,72.36916462130282,1525.0,1435.0,1200.0,1528.0,1475.0,1018.02,303.0,296.1,1637190920.5189028,1637190921.6626318,e193aae3-2313-4fa2-8093-809e479c1dff
-0.1885155460151907,-0.1297710014855598,-0.0110081366062445,0.5043796426372099,-0.0808194981758554,-0.437135516084555,-0.4338209479517303,-0.4688293611980462,-14.764860491648353,25.9924946575315,-16.129257493216823,-1.9583028678543344,-0.3016218717393251,0.6877309981329168,7479.4296875,12.04588888888889,0.2311111111111111,179.49090092206137,5.631244704410439,72.52809932873949,1525.0,1435.0,1200.0,1528.0,1475.0,1018.02,303.0,296.1,1637190921.8003235,1637190922.8850527,e193aae3-2313-4fa2-8093-809e479c1dff
-0.195980171210637,-0.1242923776247017,-0.014788386870033,0.5061875882091611,-0.0836957755912022,-0.4412718775806556,-0.4402035456366208,-0.4551054056222994,-14.972164340207229,25.937526597177705,-15.755073356391437,-1.9722734321939832,-0.2833860168995996,0.7069730556927213,7479.4296875,12.043444444444445,0.23,179.5082480847334,5.656962738229,72.66074160242113,1525.0,1435.0,1200.0,1528.0,1475.0,1018.02,303.0,296.1,1637190922.993554,1637190924.113105,e193aae3-2313-4fa2-8093-809e479c1dff
-0.180982438188924,-0.1463849281259022,-0.0521525999232846,0.0558584628777857,-0.1643274214131603,0.0117555439415587,-0.3478065433628567,-0.3829930097019557,-14.67339611433569,25.073517015561208,-13.162024159888682,0.0545474757525072,-0.3382814418521754,0.7337732435176791,7479.4296875,12.04611111111111,0.24,179.51659761153877,5.78810758779886,72.84304769937776,1525.0,1507.0,1200.0,1528.0,1475.0,1018.02,303.0,296.1,1637190925.025359,1637190926.0484407,10279bd5-d2c3-4e69-949e-7be8dad71511
-0.1742163376828336,-0.1386326754258985,-0.0465096174687591,0.0415455593116466,-0.1589857629849061,0.0148509664183346,-0.3409171730050624,-0.3544767694972663,-14.885700498196208,24.851647789654223,-13.46356499648262,0.0924449561043137,-0.3029143968095637,0.7093265293595606,7472.90869140625,12.044777777777776,0.2377777777777777,179.51531505379464,5.819569383822578,72.8604070046083,1525.0,1507.0,1200.0,1528.0,1475.0,1018.02,303.0,296.1,1637190926.1569006,1637190927.3918438,10279bd5-d2c3-4e69-949e-7be8dad71511
-0.1806849489621238,-0.1537169704497907,-0.0547993229509904,0.0548739543317574,-0.1651300397861192,0.0193593255537517,-0.3482388067176931,-0.3613743575357728,-14.773321080982598,25.07515335143185,-13.242535161385211,0.0736709231116807,-0.3644067933878943,0.7380097491765105,7479.4296875,12.04577777777778,0.24,179.5208611674007,5.810520616400911,72.89389162755933,1525.0,1507.0,1200.0,1528.0,1475.0,1018.02,303.0,296.1,1637190927.5008452,1637190928.6155882,10279bd5-d2c3-4e69-949e-7be8dad71511
-0.1659710087020185,-0.1738191372671375,-0.0902290344321557,-0.4998520731378469,-0.2557108697270622,0.5705340144393892,-0.2251812369938289,-0.2515471157557751,-14.299594909142504,23.974476267359066,-9.958895951799857,2.555261260709711,-0.4062239440587225,0.7325890079466495,7479.4296875,12.039333333333332,0.26,179.4876543054759,5.9817450160204055,72.96611708348267,1525.0,1579.0,1200.0,1528.0,1475.0,1018.02,303.0,296.1,1637190930.471389,1637190931.5797098,d33d6f69-ddb8-4f42-adeb-cb72b564bbde
-0.163765862371994,-0.1473436874824485,-0.0804222980394294,-0.5068784093405811,-0.2522319434319903,0.5502905027858893,-0.2253318991860192,-0.2440003112655989,-14.465165621459189,24.09192159176958,-10.031996210350428,2.5267929526397266,-0.3036163769125428,0.7175722680221495,7472.90869140625,12.039444444444444,0.2522222222222222,179.47627369249884,5.995172314155004,72.85078782152719,1525.0,1579.0,1200.0,1528.0,1475.0,1018.02,303.0,296.1,1637190931.688222,1637190932.9192734,d33d6f69-ddb8-4f42-adeb-cb72b564bbde
-0.1503772015820809,-0.1451045737864147,-0.0720898592384294,-0.5089422071982432,-0.2458630428898259,0.5530517287375613,-0.2154764024242008,-0.2325171153161298,-14.269688468543889,24.10227334100052,-9.529187174210708,2.5383152900787334,-0.3002757567813908,0.6846018950502991,7472.90869140625,12.04,0.2566666666666666,179.4776731223688,5.992738537512626,72.76026352990749,1525.0,1579.0,1200.0,1528.0,1475.0,1018.02,303.0,296.1,1637190933.0270357,1637190934.1481102,d33d6f69-ddb8-4f42-adeb-cb72b564bbde
-0.1308393332162302,-0.1573832655552971,-0.1175947600510558,-1.0059538300607715,-0.3395886066925737,1.041394264729378,-0.1243882535361409,-0.158451597951347,-14.29110894573502,23.16313212617638,-6.69371908408868,4.748772312303671,-0.3130153160631544,0.7431236460348668,7466.3994140625,12.032111111111112,0.29,179.43873952627987,6.156282626569788,72.5589862030762,1525.0,1650.0,1200.0,1528.0,1475.0,1018.02,303.0,296.1,1637190935.970931,1637190937.017279,574dea42-5b1a-40c0-9596-d0114486256c
-0.1359070601734243,-0.1529592767700297,-0.1092809485188328,-1.008693144367973,-0.3348222035631765,1.0368059179820237,-0.1176358497787966,-0.1468643090023611,-14.113051337740258,23.29510777018883,-7.032688983820609,4.745965357158844,-0.2938120769012706,0.715788560282296,7472.90869140625,12.028888888888888,0.2944444444444444,179.4367511823215,6.188178661356364,72.37863278131229,1525.0,1650.0,1200.0,1528.0,1475.0,1018.02,303.0,296.1,1637190937.1257231,1637190938.245425,574dea42-5b1a-40c0-9596-d0114486256c
-0.1434478381327092,-0.165550798071708,-0.1333496385679707,-0.99862616659928,-0.3516180222773397,1.0404738560389624,-0.1420540760874613,-0.1535197408055816,-14.579088149201556,23.230756652237883,-7.130677574799133,4.729623805880463,-0.3396373513636216,0.8043666866006647,7466.3994140625,12.032111111111112,0.2977777777777777,179.43695760581645,6.1914257048286645,72.18838317435092,1525.0,1650.0,1200.0,1528.0,1475.0,1018.02,303.0,296.1,1637190938.354934,1637190939.5062344,574dea42-5b1a-40c0-9596-d0114486256c
-0.1365316232903656,-0.1823942794023208,-0.1661819355262001,-1.4788169671693658,-0.4414104866905742,1.5207036934690177,-0.050999349555741,-0.0861984116036106,-14.526320882308784,23.521001495904333,-3.8491959534255376,6.892796058384197,-0.3752225143248101,0.840076374047828,7470.738932291667,12.013,0.3666666666666666,179.41668863999948,6.363573413214714,71.90052712851048,1525.0,1722.0,1200.0,1528.0,1475.0,1018.02,303.0,296.1,1637190940.5485485,1637190941.7226057,2bb61416-fcad-4138-95d3-a9eb4b51e9ee
-0.1342086868469562,-0.1775309049405222,-0.1545069880194496,-1.4821287989032754,-0.4305611662687001,1.5147747266744218,-0.0405105246545993,-0.0643836282805693,-14.58385728573883,23.457630593751443,-4.361448799317967,6.886994181984702,-0.3508877785569753,0.794273831944131,7467.122667100694,12.017888888888889,0.36,179.4135907697559,6.396543163225188,71.6003501803172,1525.0,1722.0,1200.0,1528.0,1475.0,1018.02,303.0,296.1,1637190941.8311226,1637190942.9555037,2bb61416-fcad-4138-95d3-a9eb4b51e9ee
-0.1345647974105643,-0.1814344244786137,-0.1526716490781713,-1.4667475466653617,-0.4266439497230561,1.5036531201232606,-0.0380862337354726,-0.058274962506282,-14.267489953894298,23.32435623507858,-4.456342924946999,6.826658130847437,-0.3687061470196486,0.782789638417583,7463.511176215277,12.013666666666667,0.37,179.40348816106356,6.392831429729977,71.3398361406342,1525.0,1722.0,1200.0,1528.0,1475.0,1018.02,303.0,296.1,1637190943.0636704,1637190944.2730114,2bb61416-fcad-4138-95d3-a9eb4b51e9ee
-0.2327554348259277,-0.1356468254326737,0.0261780204759158,1.0925783014557406,0.0144400696629116,-0.9964347158442948,-0.5555559919720082,-0.586838941837526,-14.786832521626884,27.49874025985832,-19.79981170441922,-4.530714374658067,-0.3610091376896274,0.6792558174855725,7479.4296875,12.044,0.24,179.35294020774597,5.540187990058545,71.05951227562846,1525.0,1363.0,1200.0,1528.0,1475.0,1018.02,303.0,296.1,1637190944.982507,1637190946.028198,44bc4342-1762-4667-9d61-4957863e7511
-0.2201956892736637,-0.130332560338456,0.02260321869696,1.0929344120103617,0.0135360967976522,-0.999776678553185,-0.5622536109204993,-0.5853186231697188,-15.25296397092378,27.3802282002594,-19.523858870532926,-4.540181791500672,-0.3404964898245242,0.6956539106321381,7483.058702256944,12.043888888888889,0.2355555555555555,179.41239472774123,5.518838336532901,71.44096999276468,1525.0,1363.0,1200.0,1528.0,1475.0,1018.02,303.0,296.1,1637190946.1368847,1637190947.256295,44bc4342-1762-4667-9d61-4957863e7511
-0.2316460135071573,-0.1398516692138845,0.0106050332008666,1.087647540613777,0.0019898977203665,-0.9851761377552278,-0.5714440045577689,-0.595495169333105,-15.307907240536176,27.52760325135232,-19.549312888205133,-4.495098717327143,-0.3756916569737297,0.7394872828592245,7485.9619140625,12.042,0.24,179.47114346152225,5.526062731968136,71.74211455109037,1525.0,1363.0,1200.0,1528.0,1475.0,1018.02,303.0,296.1,1637190947.3645651,1637190948.4854934,44bc4342-1762-4667-9d61-4957863e7511
-0.2271261486664557,-0.1125407295684809,0.0708835877945973,1.624319815577201,0.1055906668960641,-1.5257249944747358,-0.6730588070987108,-0.7001506109691329,-15.60047466628241,29.37650382006447,-22.513555813582663,-6.90574707412087,-0.3071394466937412,0.6637568055591591,7488.14306640625,12.030666666666669,0.3,179.48356985235222,5.323890555491835,72.24165864987702,1525.0,1291.0,1200.0,1528.0,1475.0,1018.02,303.0,296.1,1637190949.6004984,1637190950.6261742,855d0462-9dd7-4bb0-a7a5-4e79526b0cd5
-0.2354810503654406,-0.1186904847691395,0.0677881656053207,1.6196629850709037,0.1048921424413933,-1.513439167265085,-0.6724698547598528,-0.7082315838590562,-15.76592325711908,29.28528753010991,-22.24106208686106,-6.868433171955107,-0.3310732930067999,0.6676101901741499,7486.68896484375,12.03,0.3077777777777777,179.48918426784996,5.337330233344305,72.45264243442881,1525.0,1291.0,1200.0,1528.0,1475.0,1018.02,303.0,296.1,1637190950.7345006,1637190951.9672582,855d0462-9dd7-4bb0-a7a5-4e79526b0cd5
-0.244109883274495,-0.1208408446022224,0.0654323574732775,1.6296477777416634,0.1035772727855735,-1.525505849354661,-0.680098840879458,-0.7130664712169139,-15.942772852895564,29.452669064048138,-22.987964964819344,-6.917287657082849,-0.3326428191457475,0.6820559082027507,7485.241102430556,12.029,0.29,179.51145372018385,5.327543331173583,72.65943703628966,1525.0,1291.0,1200.0,1528.0,1475.0,1018.02,303.0,296.1,1637190952.0756657,1637190953.1952956,855d0462-9dd7-4bb0-a7a5-4e79526b0cd5
-0.2641068612091223,-0.1060348638472413,0.1096037585004184,2.167950092540716,0.188646595894287,-2.049468480473334,-0.8004916415795268,-0.8363081604999506,-16.39031006933281,32.00893903733157,-25.26519204034816,-9.290422805841024,-0.3171937776361342,0.6793290966841745,7520.995442708333,12.021,0.3333333333333333,179.5147929237781,5.103720972848158,72.96238021109679,1525.0,1219.0,1200.0,1528.0,1475.0,1018.02,303.0,296.1,1637190953.9936874,1637190955.1313505,05246328-cfa5-4f0a-a1cd-408245abee17
-0.2481229755695142,-0.0868733774209452,0.1185887007512938,2.163402832647097,0.1940978259942901,-2.0628363462247896,-0.795889595789706,-0.8237621064264568,-16.377257588993526,31.903684801043017,-25.038423611633323,-9.310412315281816,-0.2463011011536632,0.6557553603805752,7520.261935763889,12.022333333333334,0.3299999999999999,179.50164253289608,5.086838310471571,73.16501522775307,1525.0,1219.0,1200.0,1528.0,1475.0,1018.02,303.0,296.1,1637190955.2398207,1637190956.472237,05246328-cfa5-4f0a-a1cd-408245abee17
-0.270229223677952,-0.1047336907346354,0.1090011099337394,2.173127394380769,0.1891670650913842,-2.0557141225847686,-0.8045321282486366,-0.8304597269580066,-16.608989768682658,32.05622680473558,-25.31133573219209,-9.315970287016258,-0.31103169523385,0.6851598870441565,7518.794921875,12.019333333333334,0.3355555555555556,179.50983117080102,5.073014007591466,73.36598747280144,1525.0,1219.0,1200.0,1528.0,1475.0,1018.02,303.0,296.1,1637190956.580068,1637190957.7010562,05246328-cfa5-4f0a-a1cd-408245abee17
-0.2720371697158304,-0.1021450409942905,0.1411606287880277,2.5706976708164224,0.251664459060589,-2.437835228744133,-0.8972578769508527,-0.92400727186153,-17.324150011741906,34.32869007524826,-27.48385966777309,-11.055509115987114,-0.3238780607081494,0.6875231385960721,7525.396484375,12.010666666666667,0.38,179.50467058342812,4.91718793743268,73.58417331237806,1525.0,1148.0,1200.0,1528.0,1475.0,1018.02,303.0,296.1,1637190958.612222,1637190959.748249,542a67df-dcfc-424c-87c0-ce9b44a60825
-0.2763241931088068,-0.0970773140425701,0.1434616506105889,2.565835388630421,0.2502674101706562,-2.4351096070775404,-0.8953951438679201,-0.9089136556983216,-17.160517991813418,34.47132413124078,-27.013846525742498,-11.037198757906834,-0.3094479228148974,0.6849266554215866,7532.00927734375,12.012999999999998,0.37,179.4959507085877,4.920162200225004,73.72719975032786,1525.0,1148.0,1200.0,1528.0,1475.0,1018.02,303.0,296.1,1637190959.8571846,1637190960.9747334,542a67df-dcfc-424c-87c0-ce9b44a60825
-0.2715030038389698,-0.0972553693723104,0.145475044636764,2.530073643993692,0.2496510650371789,-2.404223793028566,-0.8826710342350291,-0.9085301534844538,-17.120807268838643,34.24892421618679,-27.270008019767413,-10.88851938215763,-0.3035995455388207,0.6643278886189838,7535.689290364583,12.01388888888889,0.3699999999999999,179.47367518497458,4.888008752684085,73.84278704165197,1525.0,1148.0,1200.0,1528.0,1475.0,1018.02,303.0,296.1,1637190961.0830803,1637190962.2069428,542a67df-dcfc-424c-87c0-ce9b44a60825
-0.1970758960168575,-0.1382628683008495,-0.0139665934115036,0.4713572428349197,-0.0868733774355763,-0.3908822280616705,-0.4288217030492874,-0.4653367369784922,-15.101887249438908,26.28958857463141,-15.054175549225306,-1.778051226740266,-0.3367313145554654,0.6927330675591062,7491.7783203125,12.044111111111112,0.22,179.48144945806987,5.545165016097499,74.05279335024254,1525.0,1435.0,1200.0,1528.0,1475.0,1018.02,303.0,296.1,1637190963.9768782,1637190964.9611862,613cd82f-35f1-4c71-a3a5-6212b3983491
-0.1962814956162761,-0.1415089530123373,-0.0107205089568111,0.4805887225366668,-0.0830109477080638,-0.3963608524252082,-0.4261919632548493,-0.4448329844567918,-14.969406647076651,26.327815037958867,-15.055251810013932,-1.8107048267079728,-0.3507643920907082,0.6790669450090654,7499.060546875,12.044,0.22,179.44556667981024,5.549359985476487,74.0409551145911,1525.0,1435.0,1200.0,1528.0,1475.0,1018.02,303.0,296.1,1637190965.0688908,1637190966.2994783,613cd82f-35f1-4c71-a3a5-6212b3983491
-0.2064991292667166,-0.148042211861733,-0.0216640595134238,0.4856838418717481,-0.0941599469503308,-0.393963954187829,-0.4380394890177613,-0.4697059400944199,-14.91117218413874,26.55764308973,-15.04838506162748,-1.8158029667261129,-0.3770582972577324,0.7252481348566407,7499.060546875,12.042222222222222,0.22,179.44335218069938,5.569189779616196,74.03900623394792,1525.0,1435.0,1200.0,1528.0,1475.0,1018.02,303.0,296.1,1637190966.4071891,1637190967.5322227,613cd82f-35f1-4c71-a3a5-6212b3983491
-0.101761537451383,-0.0831068235704003,0.2543215913011584,0.4421972721275198,0.1508167023644285,-0.4303557180078075,-0.1569449756489265,-0.1714085431981686,-13.20798861945903,26.23411839233704,-14.730084763202257,-1.7869794353763029,-0.1255422535097839,-0.3755877460994208,7492.50537109375,12.04388888888889,0.22,179.4102318345041,5.564399018527731,73.97873968035135,1525.0,1435.0,1200.0,1454.0,1475.0,1018.02,303.0,296.1,1637190968.534438,1637190969.5791075,e09c712a-d51c-497f-9f24-828fefb505c8
-0.116074441996917,-0.0865035703200415,0.2469528431602789,0.4455392320749305,0.144091692270185,-0.4311775119733621,-0.164779407826909,-0.189803023094,-13.19314719752711,26.29044928955538,-14.94172698149092,-1.7963845153390394,-0.1373890341255806,-0.3459220093361753,7496.87548828125,12.046666666666663,0.22,179.39624360708387,5.55267286438329,73.95972898716147,1525.0,1435.0,1200.0,1454.0,1475.0,1018.02,303.0,296.1,1637190969.687117,1637190970.7224138,e09c712a-d51c-497f-9f24-828fefb505c8
-0.1126639987534482,-0.0884621782509021,0.2427616964487715,0.439334691623029,0.1402566559721686,-0.4248633967947682,-0.1670119470779311,-0.1971991653338252,-13.244710268132172,26.24777098104265,-15.152959458791086,-1.768751170323237,-0.1420004142526459,-0.3324147586044061,7493.233723958333,12.045,0.22,179.37690506481383,5.566041441863774,73.91958265303997,1525.0,1435.0,1200.0,1454.0,1475.0,1018.02,303.0,296.1,1637190970.831278,1637190972.0374749,e09c712a-d51c-497f-9f24-828fefb505c8
-0.0299504777159873,-0.0585078032705351,0.5143096467437928,0.4235151677226863,0.3866029453578136,-0.4501609461033236,0.1146303953802347,0.0884151820499075,-11.26274873802076,26.24777046450656,-14.528827505968884,-1.775294740515917,-0.0300503841621286,-1.4333436510385509,7488.8701171875,12.040444444444445,0.2244444444444444,179.35713849735583,5.583956364010548,73.8244586084692,1525.0,1435.0,1200.0,1380.0,1475.0,1018.02,303.0,296.1,1637190973.1537497,1637190974.2905395,893e528a-02ac-423f-a6a8-af1ec6fcd820
-0.0115012128063755,-0.0519334548870167,0.5191993177168424,0.4270351830392716,0.3884382840871206,-0.4636520595267367,0.1137949053576593,0.0842925181877881,-11.229466802947558,26.45742104247316,-15.056941700304929,-1.811985525083724,-0.0010673337531465,-1.441300316222857,7485.9619140625,12.04322222222222,0.2211111111111111,179.33093485606005,5.586635126257531,73.79713253941979,1525.0,1435.0,1200.0,1380.0,1475.0,1018.02,303.0,296.1,1637190974.3988037,1637190975.5153835,893e528a-02ac-423f-a6a8-af1ec6fcd820
-0.0212942524383032,-0.0500296332142884,0.5219112360628675,0.4252409340066993,0.391793940667067,-0.4609401401058326,0.1202185912074663,0.0952771581719816,-11.050901183972393,26.21269024976334,-14.60422158959454,-1.8031693567964453,0.0011855457081071,-1.4576349753915414,7489.59716796875,12.041444444444444,0.23,179.3497983207278,5.576899972256148,73.75647470002043,1525.0,1435.0,1200.0,1380.0,1475.0,1018.02,303.0,296.1,1637190975.6241791,1637190976.748225,893e528a-02ac-423f-a6a8-af1ec6fcd820
0.0911955839748806,0.0127964826209588,0.837438826266888,0.4098186102414403,0.6723131315121368,-0.5272999835947854,0.4304319292829127,0.4042441111008418,-9.098278075724249,26.49234239042512,-14.910040441916678,-1.8990006349794923,0.2476182840596803,-2.703202633982593,7492.50537109375,12.04,0.24,179.32960676372144,5.564017476571596,73.65196369880034,1525.0,1435.0,1200.0,1306.0,1475.0,1018.02,303.0,296.1,1637190977.5467758,1637190978.7493973,372d8474-819e-4222-95e1-3fc05030df20
0.0770744321647882,-0.0122682200420733,0.8109085946682141,0.4132564462018361,0.6511108608808133,-0.504371938281314,0.4088050650597239,0.3824939779820749,-9.3167816774843,26.68354239134632,-14.878433408021246,-1.8553916627178069,0.1527748885182551,-2.6105580885708832,7487.416015625,12.038444444444444,0.2477777777777777,179.34156414822843,5.5538297276739605,73.62493739916451,1525.0,1435.0,1200.0,1306.0,1475.0,1018.02,303.0,296.1,1637190978.86759,1637190980.0246346,372d8474-819e-4222-95e1-3fc05030df20
0.0849362567304116,-0.0013520627155074,0.8287689054665502,0.4246245888592283,0.6671769225411981,-0.5264097070902275,0.4205978010306392,0.3896435809826545,-9.224492912621184,26.699870153328646,-14.889136538136242,-1.92951490376922,0.1928916435336852,-2.6721132824763854,7492.50537109375,12.041000000000002,0.24,179.32919847019105,5.555797533632963,73.61460863531963,1525.0,1435.0,1200.0,1306.0,1475.0,1018.02,303.0,296.1,1637190980.132848,1637190981.140249,372d8474-819e-4222-95e1-3fc05030df20
0.1498990328701303,0.0318483958047612,1.080621206441925,0.4270351830131775,0.8958683402102897,-0.5739367794884639,0.6713680690666998,0.6441940994550076,-7.64241189003415,26.93908615413288,-14.78167430624518,-2.02681242685637,0.3209368872156323,-3.678746929577996,7496.87548828125,12.033,0.27,179.33808226957152,5.542727682064927,73.55122447982191,1525.0,1435.0,1200.0,1232.0,1475.0,1018.02,303.0,296.1,1637190982.983472,1637190984.121195,da0a8893-db70-467e-b653-438d43626e64
0.1658966127667798,0.0505578948940606,1.0899896519666152,0.4142836880311066,0.8996759831490602,-0.5804015569845374,0.6776410922848611,0.6541514965883107,-7.584645003303746,26.92914418001388,-14.703894126082004,-2.012133340052168,0.3921743833286332,-3.70332852260944,7493.962076822917,12.033,0.2622222222222222,179.32930775321776,5.542652028233497,73.50539542831093,1525.0,1435.0,1200.0,1232.0,1475.0,1018.02,303.0,296.1,1637190984.2289178,1637190985.3493402,da0a8893-db70-467e-b653-438d43626e64
0.1576375882770591,0.0433945947406547,1.077813412003622,0.4216387393741922,0.8915539245812477,-0.5799769633081618,0.6677110882740193,0.6473443076297237,-7.57031840072739,26.75490916771126,-14.761555552470009,-2.0295337155249693,0.3640368762546073,-3.662332288350923,7499.060546875,12.034,0.27,179.32367512388225,5.563140129286334,73.49266926806739,1525.0,1435.0,1200.0,1232.0,1475.0,1018.02,303.0,296.1,1637190985.4578383,1637190986.671491,da0a8893-db70-467e-b653-438d43626e64
-0.2982112968958362,-0.1948844462932836,-0.3460122937943946,0.5367856972983014,-0.386978707938155,-0.3785553230330938,-0.783453114924446,-0.8160098505268144,-17.380415511378008,27.13908029272337,-15.265443682385383,-1.910024494711421,-0.5601884937846573,2.050504199297507,7499.060546875,12.044,0.23,179.4525243658448,5.59595392331076,73.7573208845676,1525.0,1435.0,1200.0,1602.0,1475.0,1018.02,303.0,296.1,1637190987.4891958,1637190988.5191777,4b9effe1-32c4-4675-a317-6ce868020f4a
-0.3091548487459944,-0.1997878147062397,-0.3440673820222547,0.542839575633308,-0.3829382222698391,-0.379034702444069,-0.7788099792816595,-0.804395163138839,-17.22363103515791,26.993908411847013,-15.19786572560841,-1.9255336152581657,-0.5809122572472459,2.035463257109772,7499.060546875,12.041,0.23,179.44867213915288,5.588756326881644,73.68597955868682,1525.0,1435.0,1200.0,1602.0,1475.0,1018.02,303.0,296.1,1637190988.6325734,1637190989.8555171,4b9effe1-32c4-4675-a317-6ce868020f4a
-0.3041008177318475,-0.1945009426243373,-0.3527783949242489,0.539305863827887,-0.3946350856797266,-0.3837874093552111,-0.7897398382502515,-0.8181876041852387,-17.08025260045746,27.103284405922675,-15.677084671706911,-1.927955295035452,-0.5579660656981679,2.078818877837477,7499.060546875,12.041,0.23,179.4453723988739,5.575889578577679,73.64283173588004,1525.0,1435.0,1200.0,1602.0,1475.0,1018.02,303.0,296.1,1637190989.9648817,1637190991.0848196,4b9effe1-32c4-4675-a317-6ce868020f4a
-0.4096037837138895,-0.247651265715613,-0.6322244205701658,0.6119973283848573,-0.6410077527309394,-0.3816759473535061,-1.0906276560394534,-1.1106399873635275,-19.34833814626358,27.693092258282377,-15.494019658761736,-2.098301846306692,-0.7695369014150104,3.2163393651290333,7493.233723958333,12.030555555555557,0.27,179.4822417600136,5.557478898533647,73.65918320875305,1525.0,1435.0,1200.0,1676.0,1475.0,1018.02,303.0,296.1,1637190991.9949932,1637190993.016468,a55ea72c-627f-4ea9-9510-d35210b06405
-0.4194390105687919,-0.2455737714669985,-0.6382202280787811,0.6126942092019053,-0.6483710252102146,-0.3850551629322449,-1.096544573550846,-1.118437169015449,-19.10943638260196,27.686918674354043,-15.640781019232216,-2.10771000146337,-0.7626011884645607,3.2431858807461653,7502.708821614583,12.036,0.26,179.49123939588023,5.561305891471101,73.55447261422721,1525.0,1435.0,1200.0,1676.0,1475.0,1018.02,303.0,296.1,1637190993.124348,1637190994.2553804,a55ea72c-627f-4ea9-9510-d35210b06405
-0.4027297535750027,-0.2473833610508084,-0.6397898543802393,0.6068298912575417,-0.6493500556329072,-0.3783498745268986,-1.0958444051205294,-1.1177726121859282,-19.17023546608701,27.618842913119327,-15.709458222476188,-2.0799848502055256,-0.7677278817382538,3.245280217086377,7505.62744140625,12.033333333333331,0.2688888888888889,179.48112312680956,5.559863772918844,73.47993931327431,1525.0,1435.0,1200.0,1676.0,1475.0,1018.02,303.0,296.1,1637190994.3904135,1637190995.3854065,a55ea72c-627f-4ea9-9510-d35210b06405
-0.5113878653787775,-0.299588622809354,-0.9382341686434204,0.7020264428262754,-0.9163810230607692,-0.4034238952374267,-1.4267217764832063,-1.4518621109040069,-21.302478000542507,28.64614805804474,-16.507371455735743,-2.3603205327350203,-0.9719890692930124,4.478377086467666,7498.332194010417,12.02411111111111,0.3,179.54101629673147,5.522568473593373,73.42787733469075,1525.0,1435.0,1200.0,1750.0,1475.0,1018.02,303.0,296.1,1637190997.524828,1637190998.6624095,725bca57-3f54-431e-a44e-800438b54806
-0.5207119371185924,-0.3157018046421715,-0.948880235451313,0.7158955767168779,-0.9204324668940704,-0.3973333083294792,-1.4360672218172266,-1.4565162068882431,-21.59280317627176,28.64663473723678,-16.14605803542766,-2.378534962471168,-1.0359532422532185,4.510191262072295,7499.790201822917,12.026222222222222,0.3088888888888889,179.53676791906776,5.519895498034437,73.31089744368586,1525.0,1435.0,1200.0,1750.0,1475.0,1018.02,303.0,296.1,1637190998.7703123,1637190999.8913958,725bca57-3f54-431e-a44e-800438b54806
-0.5045226004329649,-0.2898016085215508,-0.9304583537219836,0.6976791555542414,-0.910598332564405,-0.4042089821324777,-1.418699967487271,-1.4444358290628632,-21.20871781093415,28.53279032464336,-15.763588097067483,-2.352476831401367,-0.9415112931322104,4.450787460545437,7492.50537109375,12.025,0.31,179.5338673654002,5.515593332630974,73.24356316211814,1525.0,1435.0,1200.0,1750.0,1475.0,1018.02,303.0,296.1,1637190999.999449,1637191001.1191895,725bca57-3f54-431e-a44e-800438b54806
-0.6050986510593386,-0.3488567954879656,-1.1787371362056824,0.8110159756833966,-1.1270364226647454,-0.4409634310132122,-1.6986108466611551,-1.717163684029132,-23.04314032891844,29.58217334165859,-16.41401965871386,-2.697162307218605,-1.1739317418268695,5.473765870186689,7512.20556640625,12.009,0.3833333333333333,179.57299524242546,5.488629880221881,73.13548452542159,1525.0,1435.0,1200.0,1824.0,1475.0,1018.02,303.0,296.1,1637191003.0241902,1637191004.0809307,49a1aa68-8a2b-4f28-891e-bb0adeb4709e
-0.5919614558829532,-0.3356713902014416,-1.169573035614038,0.8004444248939594,-1.1235662600559169,-0.4461341570121949,-1.692768434475365,-1.7183947321798965,-22.96664276678052,29.72011329093301,-16.640506392404667,-2.6835616551618773,-1.1211276614183698,5.449409542266172,7514.402018229167,12.008666666666668,0.38,179.5666067388218,5.493954012679905,72.99705935824265,1525.0,1435.0,1200.0,1824.0,1475.0,1018.02,303.0,296.1,1637191004.193494,1637191005.429171,49a1aa68-8a2b-4f28-891e-bb0adeb4709e
-0.6001246075711852,-0.3340825893047383,-1.174120296419383,0.7907609588536891,-1.126647987751752,-0.4368341916780942,-1.6940148228682073,-1.728817828529731,-23.120547026464056,29.4974536959758,-16.38371025591942,-2.642558861661685,-1.1154551795501344,5.462033257847988,7515.134168836806,12.008333333333333,0.3755555555555555,179.54333248977002,5.484796863437034,72.84302796772016,1525.0,1435.0,1200.0,1824.0,1475.0,1018.02,303.0,296.1,1637191005.5467484,1637191006.741002,49a1aa68-8a2b-4f28-891e-bb0adeb4709e
-0.2028536530212055,-0.1545058923598515,-0.0073851230374836,0.4986029826420538,-0.0577183337669937,-0.3987298096698175,-0.4047913600393776,-0.4289455207478343,-15.085241315936706,24.453259964857235,-14.72599133352317,-1.8689303415344969,-0.4036474812421487,0.6093391520243604,8806.262369791666,11.876333333333331,6.26,178.73438461613128,5.305941814422296,62.92426064706358,1525.0,1435.0,1350.0,1528.0,1475.0,1018.02,303.0,296.1,1637191010.5850708,1637191011.5641994,f9b55c4e-c817-4b07-8ab8-085844dc1410
-0.193281948866606,-0.1384272270462393,-0.0117477508235111,0.4779178938520687,-0.0630139712380967,-0.3950870722643581,-0.4042911614271944,-0.4359028261212072,-14.99104269801298,23.89170422891043,-14.684967851998035,-1.81797002575646,-0.3421123290952952,0.6239049269820174,8805.257378472223,11.876111111111111,6.293333333333333,178.58151587558754,5.2327420130411,59.37591514262951,1525.0,1435.0,1350.0,1528.0,1475.0,1018.02,303.0,296.1,1637191011.6728723,1637191012.7942035,f9b55c4e-c817-4b07-8ab8-085844dc1410
-0.1888305669468451,-0.1434264712799345,-0.0142679176846251,0.4633173636491416,-0.0663970213625398,-0.3804591447867035,-0.4045240029929264,-0.4232335063254294,-15.193835847496151,24.015624303124586,-15.223798702306928,-1.751655880573982,-0.3530115959557157,0.630593966663631,8745.362847222223,11.872222222222222,6.337777777777777,178.48599340331518,5.199121924671527,55.49672514062885,1525.0,1435.0,1350.0,1528.0,1475.0,1018.02,303.0,296.1,1637191012.901575,1637191014.0222175,f9b55c4e-c817-4b07-8ab8-085844dc1410
-0.0971047072130787,0.0388610338505401,-0.0045433608169841,0.3763990099817129,-0.0998577155661322,-0.4776088559392056,-0.4373135711109552,-0.4492980636972217,-15.113965688312286,23.71674532097136,-15.107310211799277,-1.7753360557490652,0.3403925682462711,0.7312358748126849,8738.428168402777,11.869555555555555,6.391111111111111,178.51803457962163,5.166030843939547,49.18544289678984,1559.0,1435.0,1350.0,1528.0,1502.0,1018.02,303.0,296.1,1637191016.049216,1637191017.0994537,81c3c707-c0e3-4c59-97fa-f91a5f075b8b
-0.0758065576129456,0.0624191146753289,-0.0007905037570375,0.377220803385363,-0.1006247229709745,-0.4991535481808161,-0.4399433110179124,-0.4652271665287029,-14.928182162641477,23.616901899921448,-14.776743649208036,-1.8259324144462503,0.4246399987941453,0.7344040698934585,8754.294487847223,11.869555555555555,6.357777777777778,178.61473488007084,5.227318842840109,47.04642458586292,1559.0,1435.0,1350.0,1528.0,1502.0,1018.02,303.0,296.1,1637191017.2166135,1637191018.4114878,81c3c707-c0e3-4c59-97fa-f91a5f075b8b
-0.0895305100003038,0.0478048866698219,-0.0136241794266977,0.3950537212783542,-0.1099657764832378,-0.5072208233473393,-0.4550780117820765,-0.4823615633469368,-14.923551079444932,23.803471077518584,-15.734145675008186,-1.8838398785804489,0.3752743743281057,0.7831335978107604,8800.232421875,11.866,6.27,178.72252740773217,5.285386502410749,45.77229074169242,1559.0,1435.0,1350.0,1528.0,1502.0,1018.02,303.0,296.1,1637191018.5212631,1637191019.5515757,81c3c707-c0e3-4c59-97fa-f91a5f075b8b
0.0805007632158719,0.3647624146830384,0.0126534904992556,0.2380221395203789,-0.1572934161449407,-0.676443502099429,-0.500645377626908,-0.5372250616363577,-14.892967873870129,23.06383634883824,-16.262881958048737,-1.913544621491939,1.5895147981098976,0.9132086545891036,8882.306640625,11.861555555555556,6.318888888888889,178.85071488025517,5.365798793828002,43.87637480043432,1593.0,1435.0,1350.0,1528.0,1529.0,1018.02,303.0,296.1,1637191020.5545542,1637191021.8008947,02cbfbd3-35b7-4293-92b8-f3fb21544df5
0.0898944109021504,0.3591961336856664,0.0077835420694796,0.2320646845311068,-0.1602184534386226,-0.6561024616749279,-0.4988522237487882,-0.5247113335148982,-14.895800472952828,22.91561024248561,-14.937275233244412,-1.85541224497422,1.5573313372244983,0.92248061700478,8873.111328125,11.861,6.349999999999999,178.9492487070416,5.422027424964615,42.85837153231949,1593.0,1435.0,1350.0,1528.0,1529.0,1018.02,303.0,296.1,1637191021.9113004,1637191023.1253736,02cbfbd3-35b7-4293-92b8-f3fb21544df5
0.0760745834315299,0.3592783130264212,0.00655085180515,0.2395567019020221,-0.1613004816341307,-0.6627863844004365,-0.5012491220026944,-0.5218213588528391,-14.759565940214882,22.923005851587188,-14.910067352709632,-1.8872715066962165,1.5554337341638789,0.9292535889660066,8863.9375,11.86111111111111,6.353333333333334,179.07657557572915,5.504784226246345,42.08086833179971,1593.0,1435.0,1350.0,1528.0,1529.0,1018.02,303.0,296.1,1637191023.233655,1637191024.4724064,02cbfbd3-35b7-4293-92b8-f3fb21544df5
0.2387979125417288,0.6456448388121132,0.0028051169244344,0.0913747349501476,-0.2284410182747284,-0.7982004802141485,-0.5657445907979003,-0.5947769219305021,-14.91694881296035,22.029898109291544,-13.92174209054694,-1.8633315576030665,2.639828496342984,1.1526366192011444,8807.267361111111,11.853777777777776,6.485555555555555,179.11253728061916,5.578359877759369,41.01895415696582,1627.0,1435.0,1350.0,1528.0,1556.0,1018.02,303.0,296.1,1637191025.583471,1637191026.6151965,9e4b74e7-5c86-4c0d-94de-d4e3b9b6ce83
0.2282433450378878,0.6412082499847549,-0.0029682565713066,0.0930172262313355,-0.2313309924492781,-0.7941090423479368,-0.5684581538193174,-0.5900302410988649,-14.920248806878291,21.84469019038985,-13.773592579892895,-1.859335894708691,2.621327534056036,1.1680663782823146,8791.2060546875,11.853,6.470000000000001,179.20232998308776,5.610506210519904,40.534982510031824,1627.0,1435.0,1350.0,1528.0,1556.0,1018.02,303.0,296.1,1637191026.7285392,1637191027.8334863,9e4b74e7-5c86-4c0d-94de-d4e3b9b6ce83
0.2280242000544848,0.6421259193219888,0.0060577757263545,0.0840733735020351,-0.2250853610229512,-0.7926298135395919,-0.5596238708506185,-0.58593496838925,-14.90717169800922,21.970398402445053,-14.538636328599658,-1.834669328205388,2.633132872841442,1.1335891332628256,8791.2060546875,11.857,6.52,179.27641476828518,5.653091017038856,40.15900222515499,1627.0,1435.0,1350.0,1528.0,1556.0,1018.02,303.0,296.1,1637191027.947937,1637191028.972636,9e4b74e7-5c86-4c0d-94de-d4e3b9b6ce83
0.3997242474089537,0.9554209722485876,0.0035376088182929,-0.0416199461398297,-0.2984167451543493,-0.979409882999101,-0.6434605332940033,-0.6558559247916339,-14.976031454219845,21.57823280406116,-14.233482543451029,-1.973566969075755,3.821271727208753,1.3936197705836209,8831.466037326389,11.849,6.472222222222223,179.29820003609788,5.708120617953048,39.63733704092143,1661.0,1435.0,1350.0,1528.0,1583.0,1018.02,303.0,296.1,1637191029.979768,1637191031.22635,76f9c303-dc4b-491e-95fe-9a6a2b99ff72
0.3912460782911566,0.9582561596476776,0.0162069257271193,-0.0491804467502522,-0.2888839389688709,-0.9809986850437032,-0.6304761912519239,-0.6506786246696897,-14.827679021942528,21.63191095657064,-14.956368371673967,-1.959136451354732,3.838997257476721,1.3442180499189813,8845.6416015625,11.846,6.48,179.34350695759233,5.72327287087616,39.41523522622068,1661.0,1435.0,1350.0,1528.0,1583.0,1018.02,303.0,296.1,1637191031.334999,1637191032.455061,76f9c303-dc4b-491e-95fe-9a6a2b99ff72
0.4119267844192405,0.9650660880522834,0.0189254187114691,-0.0503156174301945,-0.2867554934850375,-0.9804415083985806,-0.6277670110050686,-0.6415468505037917,-14.825458554192046,21.53949052037092,-14.05575168815327,-1.955656356304427,3.85685130490428,1.3358799026961077,8854.779296875,11.849,6.464444444444444,179.39830784203306,5.724749946716043,39.22045530656484,1661.0,1435.0,1350.0,1528.0,1583.0,1018.02,303.0,296.1,1637191032.5634024,1637191033.6907213,76f9c303-dc4b-491e-95fe-9a6a2b99ff72
-0.2886374010087842,-0.3268781982520726,-0.0188425683486989,0.5383197117073691,-0.0335526726873654,-0.2896235533703875,-0.3639684852409457,-0.389156461792169,-14.615922136822194,24.38765880452105,-17.91302896476485,-1.714622396851167,-1.030840954415907,0.509270599447525,8799.237738715277,11.87111111111111,6.461111111111111,179.79280135465518,5.762404684746586,38.82650593234656,1491.0,1435.0,1350.0,1528.0,1448.0,1018.02,303.0,296.1,1637191035.6179075,1637191036.7562568,78ac8b12-925e-4648-9a7e-707ad5151f87
-0.293554466204417,-0.3309460767602644,-0.0319090856236293,0.5403878918529291,-0.046523314102402,-0.2920615410465504,-0.3771034873520715,-0.4077837862128664,-14.476264278931176,24.43909374670245,-18.65728280594451,-1.725124183422505,-1.0415722455003436,0.5620023997132276,8773.2099609375,11.874000000000002,6.41,179.8338128460716,5.777213483504559,38.73039644326055,1491.0,1435.0,1350.0,1528.0,1448.0,1018.02,303.0,296.1,1637191036.865718,1637191037.980889,78ac8b12-925e-4648-9a7e-707ad5151f87
-0.303347507341089,-0.3374519432299108,-0.0301559260805228,0.5601794171507402,-0.0388943307137921,-0.301306719873478,-0.3791305784151134,-0.4107011526447081,-14.87026738487379,24.420947271324938,-18.28591115364255,-1.7907162986804477,-1.0688019279205958,0.5517498670641116,8764.240234375,11.871444444444446,6.402222222222222,179.84707555561994,5.781633849126156,38.686492746185614,1491.0,1435.0,1350.0,1528.0,1448.0,1018.02,303.0,296.1,1637191038.088971,1637191039.1078837,78ac8b12-925e-4648-9a7e-707ad5151f87
-0.3825136290544857,-0.4980167333055299,-0.0346073076761528,0.6417561122721274,-0.0093919426726166,-0.2301256954065,-0.3521894427086121,-0.3850201002115755,-14.782090309084646,25.087373865607542,-19.77425445682725,-1.810776761357873,-1.668765188731453,0.458251723722114,8850.718098958334,11.86588888888889,6.387777777777778,179.92992119679272,5.742855450113408,38.588662808338654,1457.0,1435.0,1350.0,1528.0,1421.0,1018.02,303.0,296.1,1637191041.147431,1637191042.2856438,b17852b9-8be4-48ae-9889-400a703e78c6
-0.3835134780770804,-0.5013860876339914,-0.0351140804141797,0.6386743868907888,-0.0100904672670602,-0.2264002308441205,-0.3515320078600647,-0.37882925458557,-14.769992790628171,25.128537316336747,-20.11715305381743,-1.7952544544680695,-1.6781008398898882,0.4580311038814895,8851.740234375,11.865666666666666,6.41,179.93846500453452,5.759359369014145,38.6510945319021,1457.0,1435.0,1350.0,1528.0,1421.0,1018.02,303.0,296.1,1637191042.3937814,1637191043.6071832,b17852b9-8be4-48ae-9889-400a703e78c6
-0.385318136964333,-0.491770005361403,-0.029882542777048,0.6406351860281818,-0.0078453273121356,-0.2336742001032186,-0.3471080187050777,-0.3623868064088713,-14.436852716455205,25.0809079279559,-19.519495080451016,-1.815815398042394,-1.6496001684431647,0.4438193666457641,8854.779296875,11.863333333333337,6.430000000000001,179.94165697960662,5.773244716709958,38.71529944846509,1457.0,1435.0,1350.0,1528.0,1421.0,1018.02,303.0,296.1,1637191043.715067,1637191044.834863,b17852b9-8be4-48ae-9889-400a703e78c6
-0.5591965384179676,-0.8132031497459304,-0.040046485266633,0.7913323792538121,0.053690571764648,-0.0585598503493125,-0.2839416721971295,-0.3189040616355227,-14.445011877915851,25.97530568936655,-19.477712019802752,-1.7568204917035737,-2.874665684632393,0.2460384329743676,8845.6416015625,11.859777777777778,6.475555555555555,-99.9917397716776,5.717554010402351,38.786515933666045,1423.0,1435.0,1350.0,1528.0,1394.0,1018.02,303.0,296.1,1637191046.4644516,1637191047.610237,9552dfe8-dcbf-4a9b-ad8c-fa4b7f18f50a
-0.5395584068723721,-0.7773581434937156,-0.0207189969083319,0.7757632286125036,0.0659254336403275,-0.0713140862157988,-0.2678734152922344,-0.2849804197808804,-14.275830219736042,25.65380191412066,-18.19758303555594,-1.7512404590702488,-2.7496315917890954,0.1864073512035038,8845.6416015625,11.857333333333337,6.476666666666668,59.9992776696001,5.758316626800857,38.84099086630139,1423.0,1435.0,1350.0,1528.0,1394.0,1018.02,303.0,296.1,1637191047.718908,1637191048.8381195,9552dfe8-dcbf-4a9b-ad8c-fa4b7f18f50a
-0.53931570370195,-0.77455911358498,-0.029304000073245,0.7628128597659537,0.0571223815075657,-0.0729839707656819,-0.2784192188892235,-0.2994045411796674,-14.59795383313055,25.63737530657196,-19.811123218078627,-1.7267357796272196,-2.7215029045716768,0.2228455577664527,8800.232421875,11.854,6.553333333333333,179.9863537375352,5.733435955201792,38.81071946789989,1423.0,1435.0,1350.0,1528.0,1394.0,1018.02,303.0,296.1,1637191048.9465687,1637191050.1597042,9552dfe8-dcbf-4a9b-ad8c-fa4b7f18f50a
-0.6839576989817868,-1.0411879521781642,-0.0398572583458614,0.899345479261842,0.1043353475292048,0.0644462052350759,-0.2315566880363975,-0.2660720216421853,-14.39464277787642,26.615076355703987,-19.413581449866346,-1.7197744344418682,-3.743948073533471,0.0754394101940926,8782.19921875,11.846666666666668,6.597777777777777,-179.9691340717277,5.720340964743063,38.78847581850289,1389.0,1435.0,1350.0,1528.0,1367.0,1018.02,303.0,296.1,1637191050.9779084,1637191052.1120007,a7d07644-e51d-4295-bd6a-f2d41e967fa6
-0.667207397112481,-1.034013332693507,-0.0331542815257797,0.8814089440964744,0.1063219439199943,0.0693912583977247,-0.2237246376617575,-0.2534950064922002,-14.293192761638984,26.65889862468266,-20.003980119434885,-1.667620589851159,-3.7098901905202255,0.0523766440861956,8773.2099609375,11.848666666666666,6.58,-179.98207348565535,5.733778603025154,38.85328748353713,1389.0,1435.0,1350.0,1528.0,1367.0,1018.02,303.0,296.1,1637191052.2198312,1637191053.3444967,a7d07644-e51d-4295-bd6a-f2d41e967fa6
-0.6808563205192545,-1.0491915117635968,-0.0499903300729608,0.8899413038675936,0.0926444416835487,0.0736788766855078,-0.2411180779978225,-0.2528947393849017,-14.454524321072649,26.88303225734083,-20.525011644176907,-1.6767494317912643,-3.763171866569434,0.1160184076097008,8800.232421875,11.84688888888889,6.527777777777779,-179.97376797562458,5.740409625776246,38.901831914698136,1389.0,1435.0,1350.0,1528.0,1367.0,1018.02,303.0,296.1,1637191053.4536498,1637191054.6654785,a7d07644-e51d-4295-bd6a-f2d41e967fa6
-0.1963844936625597,-0.1478395028072742,-0.0236237631350914,0.4842446076251165,-0.0748247881664654,-0.3987429583564312,-0.4164542558210451,-0.4418969888626334,-14.769207241888312,24.061952212605178,-15.782644054586376,-1.839982867453776,-0.3707844485916016,0.670951326768967,8809.27734375,11.871111111111112,6.456666666666667,179.74418103250343,5.6750492214468,38.95332471085087,1525.0,1435.0,1350.0,1528.0,1475.0,1018.02,303.0,296.1,1637191056.507893,1637191057.5331354,bd5229df-5a89-44a3-b584-2b2978ca4774
-0.2037477642217486,-0.1430928231250005,-0.0239787779121505,0.4873476996085552,-0.0743251376415531,-0.4041339249485912,-0.4217268840728983,-0.4365849141416156,-15.154419020042182,24.13917283280619,-15.502346766912972,-1.858751901786824,-0.3531426008197533,0.6789576189962638,8809.27734375,11.871777777777778,6.441111111111111,179.7490866261473,5.69582039589524,39.06363340431143,1525.0,1435.0,1350.0,1528.0,1475.0,1018.02,303.0,296.1,1637191057.6417725,1637191058.758438,bd5229df-5a89-44a3-b584-2b2978ca4774
-0.1997604216787528,-0.1476587081959999,-0.0326897894403237,0.4878889875751755,-0.0813399674312753,-0.4026886641362366,-0.4260686940733585,-0.4589130498288097,-14.883442107640752,23.914931286956502,-15.910772937766554,-1.8585741979383028,-0.3691881617997936,0.7057257086313378,8809.27734375,11.874000000000002,6.419999999999999,179.74109985827783,5.692949866600934,39.17333421093586,1525.0,1435.0,1350.0,1528.0,1475.0,1018.02,303.0,296.1,1637191058.8667862,1637191059.9926016,bd5229df-5a89-44a3-b584-2b2978ca4774
-0.1933471444552793,-0.1559916950962218,-0.0488429633092463,0.0065130491621371,-0.1459592390917911,0.0716648394653867,-0.3052162656676154,-0.3397841946428782,-14.485727476712148,22.808693742848547,-12.240700846306922,0.285875168235089,-0.3775597166130899,0.6443693625451872,8836.5224609375,11.874000000000002,6.421111111111111,179.73268051176092,5.809287008345815,39.25483240756742,1525.0,1507.0,1350.0,1528.0,1475.0,1018.02,303.0,296.1,1637191061.013233,1637191062.1521928,3e79a13c-db84-4e4a-ac8a-f10500186524
-0.180174341167485,-0.1521785728872077,-0.0452769272812425,0.0025514563415493,-0.142686857164432,0.0672266065316616,-0.303552955484142,-0.3297681733142718,-14.651492618412751,22.78609943102356,-12.837441840627571,0.2846874674858939,-0.3560826033163546,0.6321615127039889,8836.5224609375,11.871,6.385555555555555,179.71154638864908,5.823141383031016,39.30147918450402,1525.0,1507.0,1350.0,1528.0,1475.0,1018.02,303.0,296.1,1637191062.260566,1637191063.3795662,3e79a13c-db84-4e4a-ac8a-f10500186524
-0.1806674171730127,-0.1527401318996573,-0.0476738250441659,0.0092490737715141,-0.147275204546899,0.0588580093566758,-0.3091274555496805,-0.3269877716477753,-14.450293495447918,23.01823037533952,-13.262875810043544,0.2522268646927265,-0.3568148522418015,0.6490513155942526,8836.5224609375,11.872888888888887,6.362222222222223,179.70969464847408,5.832347387099201,39.366137170281945,1525.0,1507.0,1350.0,1528.0,1475.0,1018.02,303.0,296.1,1637191063.4870403,1637191064.6078925,3e79a13c-db84-4e4a-ac8a-f10500186524
-0.1548357055274523,-0.1662449397146619,-0.0973238521913812,-0.5609387411159715,-0.2510129495226749,0.6228685598117712,-0.1983085863184203,-0.2228254290917741,-14.330915152558957,21.7060635772834,-9.35740122254352,2.7953497882002227,-0.3758926218726624,0.6997386756669997,8799.237738715277,11.864555555555556,6.498888888888889,179.65151509712393,6.004658450842898,39.38673094953944,1525.0,1579.0,1350.0,1528.0,1475.0,1018.02,303.0,296.1,1637191065.5194285,1637191066.8623674,4105fdde-099a-4737-9bfc-175550d4b43e
-0.1565702380015897,-0.1658137720424153,-0.0831873594041774,-0.5487564703822697,-0.2346866497444683,0.6170069811674754,-0.1835119187369385,-0.2140957891784668,-14.238269776998926,21.5327532755533,-8.42347260122804,2.754448337211368,-0.3838152471984902,0.6387768970208209,8782.19921875,11.863222222222223,6.507777777777778,179.6331312635179,6.025634341238962,39.30996683291263,1525.0,1579.0,1350.0,1528.0,1475.0,1018.02,303.0,296.1,1637191066.9713316,1637191068.0904949,4105fdde-099a-4737-9bfc-175550d4b43e
-0.1595610186367426,-0.1661216705911971,-0.0892017925191688,-0.5622810041399814,-0.2425210822270763,0.6246765053752155,-0.1910220164144764,-0.2140459339837788,-14.541635827569747,21.74558298509529,-9.199046869456886,2.8030258742625542,-0.3746615224076883,0.666789570874576,8776.206380208334,11.862000000000002,6.526666666666666,179.62342025233795,6.012088321135664,39.26561348171733,1525.0,1579.0,1350.0,1528.0,1475.0,1018.02,303.0,296.1,1637191068.1988208,1637191069.3196776,4105fdde-099a-4737-9bfc-175550d4b43e
-0.1407392065070586,-0.1721382954751639,-0.127182899568211,-1.0863543267087408,-0.3360236658419732,1.134118866147524,-0.0847520543378452,-0.1011484798302127,-14.062752272697551,20.80954665641464,-5.949873848372502,5.12265458907681,-0.3673133133578281,0.6945887144335553,8782.19921875,11.859,6.529999999999999,179.6047829428227,6.178531066585588,39.27189042556457,1525.0,1650.0,1350.0,1528.0,1475.0,1018.02,303.0,296.1,1637191069.9629238,1637191070.9641297,05f88704-5f9a-44fc-aa10-a2f75a439d4c
-0.1491927230121195,-0.1793936371522878,-0.1389339997983262,-1.0915710758705304,-0.3458205419183737,1.1326544301574246,-0.098871563390161,-0.1125133370437245,-14.463588719874274,20.920135742498484,-7.949137760540805,5.130759030858459,-0.3740695965039187,0.7399845034716647,8791.2060546875,11.854,6.543333333333333,179.59015267762055,6.189156279613191,39.22915165519808,1525.0,1650.0,1350.0,1528.0,1475.0,1018.02,303.0,296.1,1637191071.0788834,1637191072.2780397,05f88704-5f9a-44fc-aa10-a2f75a439d4c
