raw_voltage_G-,raw_voltage_G0,raw_voltage_G1,raw_voltage_G2,raw_voltage_G3,raw_voltage_G4,raw_voltage_G5,raw_voltage_G6,load_x,load_y,load_z,load_l,load_m,load_n,rpm,voltage,current,roll,pitch,yaw,aileron1_pwm,elevator_pwm,throttle_pwm,rudder_pwm,aileron2_pwm,pbaro,pdiff,Tt,sample_start_time,sample_end_time,uid
-0.1362494741983256,-0.0663696281898095,0.0275202832187232,0.4522916349329608,-0.0618771568751726,-0.3500390827685908,-0.3849242237401169,-0.4020312304811194,-14.64904430969554,26.12652403427688,-1.4097202039788783,-1.639876135849138,-0.186248862198213,0.5677953051055197,7434.02099609375,12.046,0.21,179.424370326086,3.130825953731853,82.28005825166619,1525.0,1435.0,1200.0,1528.0,1475.0,1018.02,306.0,295.54999999999995,1637189325.5031917,1637189326.6346655,c4d23c0d-c5a6-4bb2-9704-93e79dd1708d
-0.1426868571157434,-0.0719167346466977,0.0225210393357174,0.451908131336159,-0.0663559316723679,-0.3396433930057497,-0.3851433687390616,-0.4203024424234972,-14.414267482490814,26.06534175722908,-0.7757405921130838,-1.6160858157257845,-0.2146052675112149,0.5814309985069758,7444.784016927083,12.043666666666669,0.21,179.423942300898,3.1429836904544755,81.77996090755676,1525.0,1435.0,1200.0,1528.0,1475.0,1018.02,306.0,295.54999999999995,1637189326.768293,1637189327.873933,c4d23c0d-c5a6-4bb2-9704-93e79dd1708d
-0.1534671453019212,-0.0814254340088141,0.0145863488512534,0.4672301961707809,-0.0690788076857105,-0.3433474909724247,-0.3964550848449946,-0.423883271548956,-14.826414905621055,26.16037367041548,-0.6941352764684027,-1.658931815510228,-0.2504627385918672,0.610832645473175,7472.90869140625,12.045,0.21,179.44626791256508,3.148359262774687,81.3911637727024,1525.0,1435.0,1200.0,1528.0,1475.0,1018.02,306.0,295.54999999999995,1637189327.982659,1637189329.0986488,c4d23c0d-c5a6-4bb2-9704-93e79dd1708d
-0.0571929336348877,0.0999750780030751,0.0201789277438654,0.3800696874049112,-0.1069251402952819,-0.4296434968122928,-0.4267398256372922,-0.4400665810667576,-14.284641948711908,25.662739977887856,0.8028726830608172,-1.6587467640789455,0.4238744168070403,0.7217561959373066,7512.20556640625,12.039,0.23,179.35537175509054,3.1588178476456616,80.51759168477666,1559.0,1435.0,1200.0,1528.0,1502.0,1018.02,306.0,295.54999999999995,1637189331.0374172,1637189332.1805904,e2949f5b-b6be-45a5-a250-ad1aa9b82671
-0.0582201756407943,0.1044127628769547,0.0269998140408412,0.378453493623224,-0.1007479919609363,-0.4360260944190804,-0.4238909407826427,-0.437354661674783,-14.5469863358415,25.74693729436595,0.3399899730743246,-1.6687516307980577,0.4471105838328226,0.6996407869999137,7520.261935763889,12.038111111111114,0.2322222222222222,179.3676235966417,3.176288688916712,80.27515412018705,1559.0,1435.0,1200.0,1528.0,1502.0,1018.02,306.0,295.54999999999995,1637189332.293677,1637189333.4016082,e2949f5b-b6be-45a5-a250-ad1aa9b82671
-0.0532209315210718,0.1114938835935486,0.0316155542946549,0.3745773678050919,-0.099912501862842,-0.437135515949036,-0.4186725508840511,-0.4359713095158415,-14.213318769293467,25.760966898017696,0.6968991297568875,-1.6619533687941608,0.4689142832486919,0.6863349846557197,7580.152126736111,12.04022222222222,0.2188888888888889,179.38508763143955,3.1679031850385093,80.0356869289765,1559.0,1435.0,1200.0,1528.0,1502.0,1018.02,306.0,295.54999999999995,1637189333.5089767,1637189334.694484,e2949f5b-b6be-45a5-a250-ad1aa9b82671
0.1353532880601507,0.4469225844633393,0.0484760180188308,0.1964125442615893,-0.158794011212951,-0.60312415462081,-0.4729246316980567,-0.4956746215899315,-14.323921131377205,24.693336719113447,0.3691994489646688,-1.639401634321321,1.7536497211818425,0.8597178428840427,7625.82373046875,12.02988888888889,0.2755555555555556,179.28837215279216,3.165323247091079,79.72540130081163,1593.0,1435.0,1200.0,1528.0,1529.0,1018.02,306.0,295.54999999999995,1637189335.5427148,1637189336.779636,f15e0bcd-2348-426a-af2c-3c31a4e6a951
0.1242179862100104,0.4274734729123379,0.0309855126004982,0.1946730813822516,-0.1715865979909869,-0.5807987570168157,-0.4825944044618271,-0.5036871103650332,-14.357621951405244,24.630501089773656,0.5024470179777571,-1.5865928619633671,1.678865578864633,0.9125725475580648,7565.248046875,12.03,0.28,179.28368208956206,3.200781391541358,79.50793035436814,1593.0,1435.0,1200.0,1528.0,1529.0,1018.02,306.0,295.54999999999995,1637189336.893772,1637189338.0005014,f15e0bcd-2348-426a-af2c-3c31a4e6a951
0.1376269167506043,0.4447037421623642,0.0517768885792923,0.1893451203663432,-0.1577393761822142,-0.5932489326104574,-0.4648573569000762,-0.4904151419752316,-13.985461806883093,24.688967964191207,0.5807046721089272,-1.600928827852447,1.7421369508096738,0.8425022087784803,7516.598470052083,12.025333333333332,0.2733333333333333,179.29318060596785,3.182032593417477,79.33275876945454,1593.0,1435.0,1200.0,1528.0,1529.0,1018.02,306.0,295.54999999999995,1637189338.108549,1637189339.2297108,f15e0bcd-2348-426a-af2c-3c31a4e6a951
0.2859880328535569,0.7148272452455217,0.0589812784206278,0.0618301625091175,-0.2140459336819799,-0.7320909980376422,-0.5168905961501676,-0.5296283999702194,-13.596812799911746,24.08233006164936,1.6083902182725904,-1.628586274180274,2.75955146024427,1.0169947806420891,7496.87548828125,12.021666666666668,0.3033333333333333,179.2158264368877,3.207846795350913,78.99156805311517,1627.0,1435.0,1200.0,1528.0,1556.0,1018.02,306.0,295.54999999999995,1637189341.072328,1637189342.2093704,6c8955f6-9777-4f7d-abe5-9e575cacbd21
0.28520732910005,0.714375258851777,0.0558447665539063,0.064542081130217,-0.214470526994692,-0.7339263375645736,-0.5219583240802362,-0.5600484656228435,-13.93599745313813,24.034439973016323,1.6103272784954668,-1.639472025812599,2.759706188400367,1.0288181427980232,7492.50537109375,12.024777777777778,0.3,179.21728354391067,3.228356145881169,78.85603660941462,1627.0,1435.0,1200.0,1528.0,1556.0,1018.02,306.0,295.54999999999995,1637189342.3177168,1637189343.4379437,6c8955f6-9777-4f7d-abe5-9e575cacbd21
0.2878781578637465,0.7104306503597471,0.0508181295364721,0.0702809390878938,-0.2165113144814967,-0.7332004200111619,-0.5269849624439089,-0.5491323043681332,-14.09971183800036,23.976971316990348,1.8780198677437887,-1.6514572472018,2.74267147289617,1.045466165091882,7512.20556640625,12.02111111111111,0.3,179.21766299886454,3.239491773253621,78.76084805750169,1627.0,1435.0,1200.0,1528.0,1556.0,1018.02,306.0,295.54999999999995,1637189343.5461967,1637189344.554271,6c8955f6-9777-4f7d-abe5-9e575cacbd21
0.4739732853083263,1.0576794719208156,0.0727874094814693,-0.1004192745464496,-0.2775431868441875,-0.914803178268469,-0.582264289069723,-0.6119173484713807,-13.7081400857001,23.26700033962025,1.9627063965669764,-1.6778869859792762,4.063941200611307,1.2185583088351513,7520.995442708333,12.012666666666668,0.3400000000000001,179.12657407827342,3.2261110057827427,78.65339628038895,1661.0,1435.0,1200.0,1528.0,1583.0,1018.02,306.0,295.54999999999995,1637189345.5779908,1637189346.7119472,26644e28-fd6e-4eb0-a5ac-2fa05fe0cb9a
0.4719637263717725,1.0428800673037673,0.0701658881514475,-0.0989657957383354,-0.2790109103407374,-0.90182540781146,-0.5812600571716878,-0.6077283916623916,-13.649930341970425,23.445260228605665,1.9277960982908136,-1.6509279865489008,4.00798972851714,1.2208413343520486,7518.794921875,12.012111111111112,0.34,179.15447464212303,3.227877890343661,78.54318434794162,1661.0,1435.0,1200.0,1528.0,1583.0,1018.02,306.0,295.54999999999995,1637189346.8205574,1637189347.948408,26644e28-fd6e-4eb0-a5ac-2fa05fe0cb9a
0.4749046511952581,1.0436541967352937,0.0809094686502214,-0.0934203329434828,-0.2679829877420576,-0.9062428244180608,-0.5710878939259809,-0.5985905928672431,-13.612448685131133,23.42207189402545,2.214015673951606,-1.6729179842288862,4.008089069012495,1.177274938313354,7527.600748697917,12.014333333333331,0.34,179.1387363684555,3.2219531281254974,78.47312026743563,1661.0,1435.0,1200.0,1528.0,1583.0,1018.02,306.0,295.54999999999995,1637189348.0593731,1637189349.1729095,26644e28-fd6e-4eb0-a5ac-2fa05fe0cb9a
-0.2569709533304867,-0.2780910492662549,0.0050031406891941,0.5384977669543116,-0.0377849093739277,-0.2321116965319209,-0.3557094588554514,-0.3856638386007404,-14.479878405083042,26.53308670613284,-2.8304352185900723,-1.5679048329494905,-0.9809728618725724,0.4971637338890363,7525.396484375,12.040666666666668,0.23,179.49720442775538,3.221330940580792,78.39097434119779,1491.0,1435.0,1200.0,1528.0,1448.0,1018.02,306.0,295.54999999999995,1637189350.0846622,1637189351.2208755,399ea88b-898f-4edd-b333-a87a433205b9
-0.2696950578017855,-0.2838436046895351,0.0085779424792433,0.5478525155971194,-0.0327445757083626,-0.2317966756411478,-0.353737154160391,-0.3664612602171524,-14.613150190974691,26.69279877656425,-2.3424923131119346,-1.587051512785267,-1.0068522407595204,0.4825330422349505,7518.794921875,12.044333333333334,0.2233333333333333,179.51313091108003,3.2336451313240904,78.46810007839568,1491.0,1435.0,1200.0,1528.0,1448.0,1018.02,306.0,295.54999999999995,1637189351.3290596,1637189352.338113,399ea88b-898f-4edd-b333-a87a433205b9
-0.2558067457369479,-0.266366793569555,0.0162891051045598,0.5289512664716721,-0.0310462023782823,-0.2360152163616856,-0.3487105163086878,-0.3651737832108336,-14.614042274721749,26.706966162415423,-2.9328783118558577,-1.5535112281230508,-0.9332484478961268,0.4636616138431257,7518.794921875,12.04188888888889,0.22,179.5147185506071,3.2153327775449854,78.53301116062785,1491.0,1435.0,1200.0,1528.0,1448.0,1018.02,306.0,295.54999999999995,1637189352.4463246,1637189353.6785042,399ea88b-898f-4edd-b333-a87a433205b9
-0.3419668777759977,-0.4326928991114846,0.0015822881419272,0.6077108538239031,-0.0089498177600818,-0.1436713657687198,-0.3245448520992037,-0.348081022654425,-14.46925257031348,27.15764393127032,-2.632979831237997,-1.5212886136642356,-1.571376929249099,0.4001101570537171,7523.929470486111,12.02988888888889,0.26,179.55074248610956,3.217549268794393,78.71885909012407,1457.0,1435.0,1200.0,1528.0,1421.0,1018.02,306.0,295.54999999999995,1637189355.5145524,1637189356.7501037,07c1fd87-9e64-4bf3-8538-684d35e0afc0
-0.3499612865149281,-0.4407267543033623,-0.0089498178152011,0.6100381728298642,-0.0142881885994316,-0.1379122364087279,-0.3350112160789061,-0.3643854091585807,-14.952603554974711,27.09376469513503,-2.7061047490651027,-1.514799797347499,-1.598394932502753,0.4352728739458999,7519.528428819444,12.032111111111114,0.26,179.55141336246808,3.214373800012768,78.7013411727228,1457.0,1435.0,1200.0,1528.0,1421.0,1018.02,306.0,295.54999999999995,1637189356.8593304,1637189357.911641,07c1fd87-9e64-4bf3-8538-684d35e0afc0
-0.3510526283189225,-0.4419430089266079,-0.0008042002880443,0.6130618248085313,-0.0086660250724946,-0.1405638904948172,-0.3255359352657236,-0.3509019665642262,-14.530461706820134,27.169440781498604,-2.791930643403255,-1.526472958597487,-1.6050383744505703,0.4030435796353306,7512.20556640625,12.032,0.26,179.54537395742193,3.208684062706671,78.69783804458851,1457.0,1435.0,1200.0,1528.0,1421.0,1018.02,306.0,295.54999999999995,1637189358.019886,1637189359.0967944,07c1fd87-9e64-4bf3-8538-684d35e0afc0
-0.5350659345526513,-0.7719206072738928,-0.0151308008822487,0.7663399971826097,0.0495854392227016,0.0399019722403024,-0.2675857875306935,-0.2942940809004393,-14.728576569918308,28.305036242672724,-2.879601887848285,-1.4599991431760426,-2.8602365515336667,0.2214114156733475,7518.794921875,12.028555555555556,0.2777777777777778,179.61394450322945,3.218169464200592,78.7015544264069,1423.0,1435.0,1200.0,1528.0,1394.0,1018.02,306.0,295.54999999999995,1637189360.0041778,1637189361.051646,1093533a-4429-472b-9377-b963da11611d
-0.5174795483307147,-0.7697702467167303,-0.0057212648960309,0.7788723471407842,0.0598715547411979,0.0260958411122387,-0.2620934667178146,-0.2886237046546371,-14.76003864904439,28.3231211589305,-2.8448812759362787,-1.5187151576845377,-2.8532026184885027,0.1871448510428326,7532.750271267361,12.027222222222225,0.28,179.6339812426146,3.2313701328639794,78.6909418302565,1423.0,1435.0,1200.0,1528.0,1394.0,1018.02,306.0,295.54999999999995,1637189361.1606188,1637189362.2810452,1093533a-4429-472b-9377-b963da11611d
-0.5408184906978883,-0.7887125957004608,-0.0065156653794771,0.7860493431564887,0.0633641771352116,0.0402991723783763,-0.2582447334122308,-0.2767624834347481,-14.833062833199063,28.3930549308518,-2.513633333294277,-1.5025478326012138,-2.9275997555129454,0.1761491809397907,7605.5244140625,12.027,0.28,179.63128407680236,3.2014708137607064,78.66487327492429,1423.0,1435.0,1200.0,1528.0,1394.0,1018.02,306.0,295.54999999999995,1637189362.3893173,1637189363.516081,1093533a-4429-472b-9377-b963da11611d
-0.6705112463663422,-1.0418114437448356,-0.0035435120812573,0.9085787455383474,0.1183969489071203,0.1628011906778788,-0.2019792643872867,-0.2224282288418278,-14.546298085127155,29.41700397157634,-4.0982730263169005,-1.496838128011684,-3.8797395551348486,-0.0149741933149044,7639.41748046875,12.018999999999998,0.31,179.70989955414922,3.2052634897407675,78.66744142605222,1389.0,1435.0,1200.0,1528.0,1367.0,1018.02,306.0,295.54999999999995,1637189364.5129144,1637189365.4517937,a65475f7-67fa-4def-be2e-771f1661e6b6
-0.6762227133816489,-1.0376339906407672,-0.0087208113098795,0.9060037927540104,0.1148221472046411,0.162198542167107,-0.2069374190439269,-0.2398502534623326,-14.695702210553849,29.218588247943245,-3.9750518628189897,-1.4940125778744595,-3.864120772878497,0.0046450393828679,7637.14990234375,12.016333333333332,0.3166666666666666,179.70010506287943,3.209297712514914,78.64124765058523,1389.0,1435.0,1200.0,1528.0,1367.0,1018.02,306.0,295.54999999999995,1637189365.5842192,1637189366.680526,a65475f7-67fa-4def-be2e-771f1661e6b6
-0.6557189576443244,-1.0201297771504942,-0.0050912232095375,0.9001553626808022,0.114849540346241,0.1541175728352231,-0.2083481647034374,-0.2333306905173857,-14.817685431381904,29.23777580065884,-3.442609839963674,-1.4986475726286728,-3.801374493921288,0.0043933159055418,7625.82373046875,12.017444444444443,0.31,179.7137699946789,3.2116345147006395,78.58627980596478,1389.0,1435.0,1200.0,1528.0,1367.0,1018.02,306.0,295.54999999999995,1637189366.814742,1637189367.9101334,a65475f7-67fa-4def-be2e-771f1661e6b6
-0.1797086580928568,-0.1160333522944084,0.011372040511123,0.4805887225036208,-0.0680406084523784,-0.3125242027066544,-0.3885401158755687,-0.3999356555626721,-14.4422223150291,26.401623755773134,0.6281436958778492,-1.6179579371868151,-0.3965464185647617,0.6004949939597845,7578.6259765625,12.043888888888889,0.21,179.47102962503607,3.2045910006987364,78.5483623902424,1525.0,1435.0,1200.0,1528.0,1475.0,1018.02,306.0,295.54999999999995,1637189368.495963,1637189369.5370092,3a7db76c-acc2-4d14-b999-8c4ad30fea2e
-0.1811604933162982,-0.1209230239885605,0.0139059038852259,0.4794793013645471,-0.0629454884220101,-0.3059498535251537,-0.3836915332312238,-0.4083316474890768,-14.618532493537336,26.30159274440516,0.7669136792455564,-1.6012854919708537,-0.4145721646193236,0.5827100741776008,7575.650499131944,12.04388888888889,0.21,179.44732583297647,3.21826112628789,78.67906564910967,1525.0,1435.0,1200.0,1528.0,1475.0,1018.02,306.0,295.54999999999995,1637189369.6451817,1637189370.769612,3a7db76c-acc2-4d14-b999-8c4ad30fea2e
-0.1703402111739587,-0.1148143584654125,0.0243974678944955,0.483218461518019,-0.0543577458697464,-0.3181260960927044,-0.3764460523037967,-0.3949638036403489,-14.519552284309972,26.342407727116285,0.443779016533773,-1.6362904721479026,-0.3892921473344941,0.5467647302455164,7571.93115234375,12.044555555555556,0.21,179.4571005925887,3.208920534290748,78.82341638484854,1525.0,1435.0,1200.0,1528.0,1475.0,1018.02,306.0,295.54999999999995,1637189370.8792312,1637189371.998088,3a7db76c-acc2-4d14-b999-8c4ad30fea2e
-0.1554794438814012,-0.123100776916012,-0.0202259207811368,0.0068932656567874,-0.1438647611814668,0.1513645645894049,-0.2886510974559965,-0.3181123997503021,-14.555772326885014,25.24027409603453,3.855747178582727,0.4841882027209922,-0.3945568353086532,0.6045619681759714,7565.248046875,12.042333333333334,0.21,179.47785829638627,3.3450083301015163,78.97843208152143,1525.0,1507.0,1200.0,1528.0,1475.0,1018.02,306.0,295.54999999999995,1637189373.0238743,1637189374.0019915,5f925676-e872-444c-b750-907c0a43ddf6
-0.1654642358951266,-0.1425088017852707,-0.024704695562121,0.0187818787666283,-0.1431662366447223,0.1587196164365935,-0.2879114831535301,-0.3060868195480038,-14.44024788204534,25.17909033849733,3.740052334314065,0.4733092898673524,-0.4688896924965093,0.6063611524178184,7560.80078125,12.040333333333333,0.21,179.4804552860907,3.377187390851824,78.99466668226864,1525.0,1507.0,1200.0,1528.0,1475.0,1018.02,306.0,295.54999999999995,1637189374.1106813,1637189375.275014,5f925676-e872-444c-b750-907c0a43ddf6
-0.1475107854738611,-0.1139158641743429,-0.0158923295657712,-0.0052287367025258,-0.1432111614068617,0.1513327886451543,-0.2828897762737445,-0.3139470019243067,-14.326961502740218,25.14063098106972,3.5827767230060994,0.5110879674812125,-0.3575424500091339,0.5903826820930307,7558.5771484375,12.04,0.21,179.43607727032338,3.38208641518182,79.02442809321211,1525.0,1507.0,1200.0,1528.0,1475.0,1018.02,306.0,295.54999999999995,1637189375.3839176,1637189376.5044544,5f925676-e872-444c-b750-907c0a43ddf6
-0.1344826180650679,-0.1237856049135537,-0.0606033768330094,-0.5479270068248797,-0.2386449556529023,0.6869136615490129,-0.1733397576588113,-0.1994180078669371,-14.144719767894472,23.69877680506896,7.566896886351234,2.92774632684186,-0.3672021191631737,0.625722945777699,7481.808973524306,12.031777777777778,0.2455555555555555,179.44813786657784,3.573174285568181,78.99879363434714,1525.0,1579.0,1200.0,1528.0,1475.0,1018.02,306.0,295.54999999999995,1637189377.527279,1637189378.7586253,1546e1e5-425e-4e64-8c74-187d53eacf75
-0.129250532304467,-0.1272234413790997,-0.063575530174268,-0.558884256876183,-0.2433017861280196,0.6982544109660219,-0.1737643510472742,-0.2025271271640557,-14.122003392503814,23.802535132303444,7.251603971767227,2.9784483850225114,-0.3763000308596915,0.6357381760679034,7399.823079427083,12.037666666666668,0.24,179.43375500600555,3.564279790301206,78.90587422305848,1525.0,1579.0,1200.0,1528.0,1475.0,1018.02,306.0,295.54999999999995,1637189378.8677475,1637189379.8944528,1546e1e5-425e-4e64-8c74-187d53eacf75
-0.1377971853742916,-0.1436867059458821,-0.0736151080236324,-0.5508306778230825,-0.2500541902697903,0.7102525951277824,-0.1798319269677957,-0.1987742696696805,-14.059237036049575,23.892184789883668,7.654653623411472,2.987433243543668,-0.4436902495624977,0.6659133035810462,7387.767306857639,12.034444444444444,0.24,179.43214611700108,3.5613378760437,78.79206050418883,1525.0,1579.0,1200.0,1528.0,1475.0,1018.02,306.0,295.54999999999995,1637189380.0031874,1637189381.21468,1546e1e5-425e-4e64-8c74-187d53eacf75
-0.1147321791982267,-0.1320857199414467,-0.0929820428598845,-1.067643171024402,-0.3274260606718045,1.1859614344618006,-0.0676571048284648,-0.0925985395413762,-13.91390222972322,23.083890153468843,9.608199751485657,5.2162788256245465,-0.3561331615822082,0.6380437469722094,7518.794921875,12.027666666666669,0.2711111111111111,179.45563286082702,3.736055609116507,78.65039175606405,1525.0,1650.0,1200.0,1528.0,1475.0,1018.02,306.0,295.54999999999995,1637189383.0574462,1637189384.0815537,e0be23d6-3cd2-4cb8-aa5a-5d52082ce788
-0.1330307827438017,-0.1559177336441532,-0.0991454945114743,-1.0462354354417902,-0.3263714254783709,1.1892349119566703,-0.0727248316818976,-0.099159191314403,-14.111750758392086,23.208001716768127,9.512744197091658,5.175745203814937,-0.4462957348698855,0.6492042213538176,7525.396484375,12.026555555555555,0.28,179.44259630643123,3.746565230678779,78.45196110029684,1525.0,1650.0,1200.0,1528.0,1475.0,1018.02,306.0,295.54999999999995,1637189384.190387,1637189385.4238088,e0be23d6-3cd2-4cb8-aa5a-5d52082ce788
-0.1286341870731841,-0.1506856478779741,-0.1073634301260218,-1.0470572295965734,-0.3351098312747199,1.1852081237840446,-0.0802305461361485,-0.1063087965091444,-13.906238434662304,23.047174697255542,9.501811509746776,5.167176606261908,-0.4284524221072783,0.683814918775638,7527.600748697917,12.024333333333333,0.28,179.43649163513308,3.7466439201498414,78.26497025247949,1525.0,1650.0,1200.0,1528.0,1475.0,1018.02,306.0,295.54999999999995,1637189385.5326722,1637189386.6517174,e0be23d6-3cd2-4cb8-aa5a-5d52082ce788
-0.1025833310269163,-0.1475354391748277,-0.1136364543411535,-1.54264026471482,-0.4076879085743008,1.6589173280527456,0.0285201320371262,-0.0002152486826826,-14.095017766679227,23.81213609392536,12.792295590252897,7.354766509914274,-0.3838323918225474,0.6366127350946331,7534.21728515625,12.008333333333333,0.3433333333333334,179.4321840624965,3.92383282989392,77.90066845271852,1525.0,1722.0,1200.0,1528.0,1475.0,1018.02,306.0,295.54999999999995,1637189388.5869398,1637189389.7301512,f6a1d727-6529-4ffe-b846-25fb5260916a
-0.084750410794566,-0.1287574560269889,-0.1121572260108556,-1.5458589601223516,-0.4092493167714499,1.645631664090051,0.0251507785435632,0.0044552777083242,-14.107894359263378,23.716506407766666,13.091637104768822,7.331653387285232,-0.3154770133649228,0.6442166740963113,7532.00927734375,12.009666666666666,0.3466666666666667,179.41717130670082,3.914412006889964,77.63456428265484,1525.0,1722.0,1200.0,1528.0,1475.0,1018.02,306.0,295.54999999999995,1637189389.8471572,1637189390.8368528,f6a1d727-6529-4ffe-b846-25fb5260916a
-0.0853667559551318,-0.1448098238657395,-0.1108697494157724,-1.5315871285077554,-0.4034967609602595,1.647562879122724,0.0298760912643955,0.004208739982368,-13.985424377293796,23.67556865352076,13.021522838887565,7.303642527889735,-0.3776047870463515,0.6260850307367817,7534.21728515625,12.008666666666668,0.3466666666666667,179.414676010924,3.939216977225728,77.37894900642654,1525.0,1722.0,1200.0,1528.0,1475.0,1018.02,306.0,295.54999999999995,1637189390.9454834,1637189392.1669075,f6a1d727-6529-4ffe-b846-25fb5260916a
-0.199290355746572,-0.108038396561169,0.0634863504880914,1.0567650898922916,0.0408442955070119,-0.8751861351414063,-0.4939526893835528,-0.5135836987395016,-14.47360298414572,27.55594983739091,-3.03756339005804,-4.172400167404112,-0.4014655968979536,0.5315908214304208,7532.00927734375,12.041777777777778,0.22,179.40906766670554,3.0990605937450244,77.1577745796331,1525.0,1363.0,1200.0,1528.0,1475.0,1018.02,306.0,295.54999999999995,1637189393.0927246,1637189394.1138897,2f0c3e75-7762-4a60-8133-57f6402feb23
-0.2021830691780555,-0.117097848832111,0.0532435161272945,1.0524523176605336,0.033586215168706,-0.85785614428706,-0.4998827529383884,-0.5166604942638832,-14.675407166279818,27.51193027853536,-2.4614290099105656,-4.12454038617173,-0.4392410881494891,0.563437364160006,7538.63330078125,12.041,0.22,179.4263100998103,3.087807525064344,77.58362245509515,1525.0,1363.0,1200.0,1528.0,1475.0,1018.02,306.0,295.54999999999995,1637189394.2226288,1637189395.4548442,2f0c3e75-7762-4a60-8133-57f6402feb23
-0.1972265582088249,-0.1054048222528877,0.0493936873620829,1.0294919560602236,0.0271504761045547,-0.8522783549139876,-0.5007149562106783,-0.5226705460405837,-14.659955161969265,27.2345908684678,-3.059811980878349,-4.062331218029769,-0.3876128916443442,0.5791298975519937,7536.42529296875,12.039,0.22,179.44956461720443,3.0676291304016825,77.90433854103256,1525.0,1363.0,1200.0,1528.0,1475.0,1018.02,306.0,295.54999999999995,1637189395.563521,1637189396.6943407,2f0c3e75-7762-4a60-8133-57f6402feb23
-0.2259164684477295,-0.1180314063519407,0.0821706477270624,1.6041321811192282,0.1132410165407672,-1.3892742509095022,-0.6335392905706386,-0.6610858198780393,-15.419668352420008,29.684892691545294,-6.342279445219731,-6.54831050121323,-0.4691318406484647,0.6036505303169415,7537.161295572917,12.029555555555554,0.2577777777777778,179.46370614442603,2.863795747569123,78.31616555594837,1525.0,1291.0,1200.0,1528.0,1475.0,1018.02,306.0,295.54999999999995,1637189397.5988224,1637189398.624642,d665c368-7fe8-423e-9340-dc83356e1423
-0.2075400677672264,-0.0849010728414789,0.1001668298225962,1.5831205616638788,0.1234372824389282,-1.3996343384359513,-0.618710843275904,-0.6507471056775574,-15.302811314040264,29.451395959818143,-5.822595214905449,-6.524704060367206,-0.3465820984045867,0.5488545840393303,7532.00927734375,12.029666666666666,0.2633333333333333,179.44992434050073,2.8844881376827614,78.52779137828215,1525.0,1291.0,1200.0,1528.0,1475.0,1018.02,306.0,295.54999999999995,1637189398.732496,1637189399.8522463,d665c368-7fe8-423e-9340-dc83356e1423
-0.2187164607885824,-0.0906673242832856,0.09752339405049,1.587914357727808,0.1238481792003223,-1.39604583592773,-0.6195463336346912,-0.6363794110201829,-15.385312355806498,29.35779982172805,-5.5001331284198365,-6.528196057682904,-0.3712424843704333,0.5528676203885073,7533.481282552083,12.029555555555554,0.2622222222222222,179.43110792824726,2.87926529598149,78.72443176557688,1525.0,1291.0,1200.0,1528.0,1475.0,1018.02,306.0,295.54999999999995,1637189399.960414,1637189401.0809157,d665c368-7fe8-423e-9340-dc83356e1423
-0.2259482445001028,-0.0679310359485898,0.1543641109277344,2.1239841181128463,0.2187790235210823,-1.9327598991863149,-0.7334332610978244,-0.7473078817427038,-16.0245440954404,32.09316989114833,-8.704462816934535,-8.923375437415691,-0.3153952343491438,0.5096012448146282,7532.00927734375,12.026000000000002,0.28,179.4453936483513,2.696348656004057,79.13515228984718,1525.0,1219.0,1200.0,1528.0,1475.0,1018.02,306.0,295.54999999999995,1637189403.0159557,1637189404.0599053,be124bd3-05a8-43ce-be71-8f52c9d2b66e
-0.2265371965651776,-0.0757243781312384,0.1410236632278455,2.111054561263675,0.2102597644671913,-1.9115165020601423,-0.7390899422130235,-0.7666748247297709,-16.30652941428416,31.750462344550183,-8.530236825763758,-8.849523061676615,-0.3434329637960229,0.5465760129891134,7538.63330078125,12.02,0.3,179.4472787805622,2.664489878950766,79.30058098936472,1525.0,1219.0,1200.0,1528.0,1475.0,1018.02,306.0,295.54999999999995,1637189404.1682217,1637189405.2859583,be124bd3-05a8-43ce-be71-8f52c9d2b66e
-0.2286875564630867,-0.0800798839449351,0.1470912385261719,2.1145471847458004,0.2142043731694748,-1.9078595141187675,-0.7318718528547259,-0.7585527608189825,-16.022112114309646,31.947972127455547,-8.112840507663456,-8.847362679594708,-0.3655231826408542,0.522865664914611,7532.00927734375,12.018666666666668,0.2922222222222222,179.4273953409784,2.67027172894692,79.45326455589098,1525.0,1219.0,1200.0,1528.0,1475.0,1018.02,306.0,295.54999999999995,1637189405.3948689,1637189406.7285793,be124bd3-05a8-43ce-be71-8f52c9d2b66e
-0.2502459422343208,-0.0721632727798512,0.1828529517899178,2.533059496010221,0.2805641960424747,-2.315579460678288,-0.8303227606376291,-0.8478543658824709,-16.81964733884558,34.39963629427724,-10.450688961582648,-10.690366130230602,-0.3586851701779466,0.523673343589835,7532.00927734375,12.011,0.3400000000000001,179.4180455709146,2.496234358606438,79.71378542576315,1525.0,1148.0,1200.0,1528.0,1475.0,1018.02,306.0,295.54999999999995,1637189408.4767635,1637189409.4740503,c0f45952-36f8-4860-8734-313aa3e57dc1
-0.2620797703042041,-0.0744095084690281,0.1781961220785184,2.533223854950025,0.2756060421266172,-2.310073431716171,-0.836376642332147,-0.8720014108561962,-16.979213245456073,34.5968092836257,-10.002354994110329,-10.677297751322747,-0.3702662344440959,0.54556320775321,7525.396484375,12.013666666666666,0.3255555555555556,179.40129187579043,2.4667015455567523,79.82283774387139,1525.0,1148.0,1200.0,1528.0,1475.0,1018.02,306.0,295.54999999999995,1637189409.582215,1637189410.8189423,c0f45952-36f8-4860-8734-313aa3e57dc1
-0.2441920626311079,-0.0701361819465919,0.1758266175295307,2.5268138601933745,0.2751951454043022,-2.307772404432716,-0.8356096347051544,-0.8637697749446828,-17.032881411947837,34.23883843203364,-9.92073743437937,-10.660172680474655,-0.3539492634584567,0.5489460743690421,7525.396484375,12.016333333333332,0.32,179.4041484126833,2.44455287847789,79.95780076405103,1525.0,1148.0,1200.0,1528.0,1475.0,1018.02,306.0,295.54999999999995,1637189410.927102,1637189412.1433475,c0f45952-36f8-4860-8734-313aa3e57dc1
-0.1780513743712416,-0.1224159489654618,0.0134265243035648,0.469028828041601,-0.0662874488977076,-0.2865418272771033,-0.3830614914292942,-0.4091945310495901,-14.755764118392465,26.608147633217623,1.946863356148717,-1.5319720267632218,-0.4283966276764437,0.5881885020097783,7531.2900390625,12.041666666666668,0.2,179.4296872488999,3.1067373943490337,80.12504932952741,1525.0,1435.0,1200.0,1528.0,1475.0,1018.02,306.0,295.54999999999995,1637189413.0513809,1637189414.0964596,a656f191-bd75-46d7-97db-064e038a0b93
-0.173716139232634,-0.1149546112177305,0.0198063813681459,0.4796031182306358,-0.059795827709525,-0.3050058866360377,-0.3809001740774929,-0.4120888884774152,-14.68824777793773,26.520502786549788,1.7792456823602552,-1.5975723086647409,-0.4003033064483418,0.5684152923516776,7574.162760416667,12.043333333333331,0.2,179.4151404637876,3.105323450327102,80.12571868806607,1525.0,1435.0,1200.0,1528.0,1475.0,1018.02,306.0,295.54999999999995,1637189414.2047818,1637189415.321149,a656f191-bd75-46d7-97db-064e038a0b93
-0.1670804300200777,-0.1114997911173917,0.0238085158497592,0.4682755173978649,-0.0589187000278787,-0.3006355881171791,-0.3738437057950913,-0.3950596795874163,-14.416090767491715,26.46597783404085,1.4408868287745331,-1.5622784845307158,-0.3846255655962613,0.5517725463975313,7585.3330078125,12.046444444444443,0.2,179.39601745193136,3.079074985914874,80.14232136011856,1525.0,1435.0,1200.0,1528.0,1475.0,1018.02,306.0,295.54999999999995,1637189415.4289663,1637189416.478618,a656f191-bd75-46d7-97db-064e038a0b93
-0.0965979345764201,-0.077806255125988,0.2568280613866411,0.4411700302729541,0.1516111027153976,-0.3187835309838007,-0.1331403550787044,-0.1475491362465092,-13.038430651065644,26.39667667584348,1.823081289050424,-1.5300181822929029,-0.2532841526511213,-0.3899480476617875,7594.299153645833,12.043666666666669,0.2,179.40855160796823,3.080597667497029,80.0849629492886,1525.0,1435.0,1200.0,1454.0,1475.0,1018.02,306.0,295.54999999999995,1637189417.5601666,1637189418.6934335,bb71beb6-02ce-425c-b426-4ec65ff66a9f
-0.1061855261468186,-0.0811208224991127,0.2487060025674369,0.4504015099519189,0.1469405763718514,-0.3259879220115931,-0.1439332439901368,-0.1693951492481363,-13.275553175958658,26.366190815505025,1.4746975299340823,-1.567812781889946,-0.2626017891119392,-0.358113386193066,7565.248046875,12.044000000000002,0.2,179.41113341947454,3.0849166237822008,80.126130776146,1525.0,1435.0,1200.0,1454.0,1475.0,1018.02,306.0,295.54999999999995,1637189418.8021543,1637189420.0347664,bb71beb6-02ce-425c-b426-4ec65ff66a9f
-0.1019395927072997,-0.0816960780009265,0.2568143648469521,0.4491003370751745,0.1536792830399581,-0.3223583333461131,-0.1324966167453151,-0.1619990066187571,-12.969552530686276,26.31379325461086,1.8142573982346173,-1.5564569310233765,-0.269261314350157,-0.3939942559617417,7554.137369791667,12.042666666666667,0.2,179.40861535640047,3.080065055037376,80.15198076542477,1525.0,1435.0,1200.0,1454.0,1475.0,1018.02,306.0,295.54999999999995,1637189420.143462,1637189421.4688778,bb71beb6-02ce-425c-b426-4ec65ff66a9f
-0.0044200919056598,-0.0322651960730542,0.5373609527096467,0.4241452092904782,0.4039427871621905,-0.3600786623503167,0.1512549921373978,0.1263272556553462,-11.152480027127387,26.411974815791613,2.231970689549423,-1.5693254341166192,-0.0795690950871802,-1.5136980003924958,7551.91748046875,12.040333333333333,0.22,179.391025342558,3.088694216427845,80.10658277474143,1525.0,1435.0,1200.0,1380.0,1475.0,1018.02,306.0,295.54999999999995,1637189422.483794,1637189423.7220583,fb402a50-ffb6-4416-9976-d60dff506b88
-0.0055432096828427,-0.0388395444195965,0.5260612929303997,0.415269840193554,0.3904516780216717,-0.3480804745069159,0.1431603263080533,0.1055084871207491,-10.945032972979517,26.581914021994763,1.7824868863490115,-1.521746572644955,-0.101332102417041,-1.4698268101880931,7552.657443576389,12.03711111111111,0.21,179.3931700219574,3.076560954549748,80.0854403036206,1525.0,1435.0,1200.0,1380.0,1475.0,1018.02,306.0,295.54999999999995,1637189423.8300695,1637189425.0440135,fb402a50-ffb6-4416-9976-d60dff506b88
0.0150975044257963,-0.0224173701953292,0.5463048046362731,0.4085448304545729,0.4082435062198543,-0.3595718892174703,0.1609247622596652,0.137366681802675,-10.99263635114022,26.38236577355384,1.705036939723243,-1.532750487537528,-0.0366076634168069,-1.545079338798543,7558.5771484375,12.039666666666667,0.2166666666666666,179.36893195732273,3.071939833541608,80.0627784948644,1525.0,1435.0,1200.0,1380.0,1475.0,1018.02,306.0,295.54999999999995,1637189425.1519134,1637189426.179885,fb402a50-ffb6-4416-9976-d60dff506b88
0.1086723924954527,0.0326975824268131,0.8475331890690111,0.3891505049517262,0.6776684854002025,-0.4102217729050528,0.4639337087147324,0.4292677217659994,-8.957005750806813,26.4134206780118,1.957891822189548,-1.5865486720600186,0.1749428356848045,-2.7458072102798834,7512.20556640625,12.04022222222222,0.22,179.35293261864692,3.078704068697447,79.9460019917148,1525.0,1435.0,1200.0,1306.0,1475.0,1018.02,306.0,295.54999999999995,1637189428.0013368,1637189429.139189,216d4141-e065-458e-a0c9-27bfb0149bf0
0.0909436863437668,0.0137093880277432,0.8282996494913399,0.4014958672652676,0.6659418503768354,-0.4006032137324133,0.4472733354312406,0.4364256615756717,-9.25730361794237,26.38156458426724,2.160117462640585,-1.594070404175281,0.1013188532469165,-2.6819978940991867,7503.4384765625,12.038333333333334,0.22,179.34097371632015,3.066100662131481,79.94577507765237,1525.0,1435.0,1200.0,1306.0,1475.0,1018.02,306.0,295.54999999999995,1637189429.2474165,1637189430.453596,216d4141-e065-458e-a0c9-27bfb0149bf0
0.0937842334971506,0.0115500957831887,0.8203318261293263,0.3926568237451184,0.6548500210111966,-0.3887181711871736,0.4407728301697677,0.4255422579957886,-9.13867589517355,26.612688001547408,2.3326056612314683,-1.5462017996159765,0.0914388957150426,-2.6468814616652203,7499.060546875,12.038333333333334,0.22,179.32912106138045,3.06410944854501,79.94303161833574,1525.0,1435.0,1200.0,1306.0,1475.0,1018.02,306.0,295.54999999999995,1637189430.561629,1637189431.710584,216d4141-e065-458e-a0c9-27bfb0149bf0
0.1844417524277172,0.0538039792684255,1.0984267316733711,0.3914652232412803,0.9047300128597738,-0.448517358771125,0.7174295911322224,0.6951178994838761,-7.112480528215097,26.82706230903366,1.6840828966635717,-1.661705660131353,0.2591036584087602,-3.75468471560872,7505.62744140625,12.030333333333331,0.2533333333333333,179.33247696099266,3.074076473239156,79.8380971453871,1525.0,1435.0,1200.0,1232.0,1475.0,1018.02,306.0,295.54999999999995,1637189432.5810158,1637189433.643996,5dbbe167-a7f1-4211-bec0-c3cb6e542eb2
0.1712930567440495,0.0532561169669132,1.0839494699219283,0.3844799789021104,0.8911704209689232,-0.4377107715785282,0.7043219858229263,0.6688342059693628,-7.308262939483066,26.80456113122681,2.1244568554855188,-1.6225632036872295,0.2544733884595493,-3.697453633273172,7525.396484375,12.031,0.26,179.34162941448048,3.085104667427788,79.77733122907122,1525.0,1435.0,1200.0,1232.0,1475.0,1018.02,306.0,295.54999999999995,1637189433.7519424,1637189434.985815,5dbbe167-a7f1-4211-bec0-c3cb6e542eb2
0.1669786408446717,0.0585840782308082,1.0942081918336728,0.3866029453477806,0.8979502169136447,-0.4435592034186755,0.7115537680621951,0.6918444221727108,-7.171427456244859,27.001828412447622,2.377177091982808,-1.6385666140325117,0.2716404527609797,-3.729933776638192,7534.953287760417,12.029444444444444,0.2555555555555555,179.33099708667248,3.075032367699873,79.72028017675393,1525.0,1435.0,1200.0,1232.0,1475.0,1018.02,306.0,295.54999999999995,1637189435.0950663,1637189436.2163372,5dbbe167-a7f1-4211-bec0-c3cb6e542eb2
-0.2796661539588824,-0.1819959834889702,-0.3398351448568076,0.5156656058868747,-0.3861158246444462,-0.2575599054522406,-0.7507868082436678,-0.7722219327377181,-16.947985072851676,27.10143576903221,1.1033446837901344,-1.5876048993922254,-0.6569944216127745,2.0191778408583656,7532.00927734375,12.038777777777776,0.2177777777777777,179.46128066836076,3.0841150014761745,79.98479594838065,1525.0,1435.0,1200.0,1602.0,1475.0,1018.02,306.0,295.54999999999995,1637189437.0129516,1637189438.150926,eec0fbc5-1623-4b08-b54c-981fa80b1c71
-0.2918697893424087,-0.1848585644319745,-0.3357946593309475,0.5270474450490814,-0.3812672419241457,-0.2648875651839386,-0.7484994819271202,-0.7662502314548102,-16.87142635314943,27.17087507092842,1.1759426887669473,-1.6290341488208806,-0.6700601638029432,2.00369046176906,7538.63330078125,12.037444444444445,0.21,179.47753348294574,3.090201245493152,79.93243951275286,1525.0,1435.0,1200.0,1602.0,1475.0,1018.02,306.0,295.54999999999995,1637189438.2601032,1637189439.3798454,eec0fbc5-1623-4b08-b54c-981fa80b1c71
-0.2929485302642489,-0.1842482458223326,-0.3362077476000752,0.5140789967061055,-0.3813735271871682,-0.2507543585154137,-0.7436991100134495,-0.7676560456153765,-16.90264946918997,26.97130464797528,1.5916785664685116,-1.5693142958683604,-0.6696676436116179,1.9981701753240704,7538.63330078125,12.037444444444446,0.2122222222222222,179.4576849532177,3.079113785183909,79.87560399084936,1525.0,1435.0,1200.0,1602.0,1475.0,1018.02,306.0,295.54999999999995,1637189439.4881363,1637189440.5462673,eec0fbc5-1623-4b08-b54c-981fa80b1c71
-0.3772541495851631,-0.2125256155082814,-0.6076988065679712,0.5791080593333447,-0.6267918157030683,-0.2739957777097723,-1.0441672534559605,-1.0703961814535623,-18.964562239251247,27.55295883045848,0.6640491809009728,-1.7790788713218455,-0.7781173953502662,3.124473179210337,7538.63330078125,12.035555555555554,0.24,179.4859300621654,3.05003019936776,79.84950811476047,1525.0,1435.0,1200.0,1676.0,1475.0,1018.02,306.0,295.54999999999995,1637189442.5425336,1637189443.5032413,d687adec-53b3-484d-bb0d-940f42183696
-0.3730219121454281,-0.2221269040438492,-0.6194367611197477,0.583367688650185,-0.6369820586794488,-0.2648053857222628,-1.0552340802107751,-1.083996874673706,-19.054749665961463,27.73538119544375,1.1010003063992222,-1.7673864309192722,-0.8186279087644516,3.169463519121097,7538.63330078125,12.03277777777778,0.24,179.4778249043503,3.0627334737344034,79.78747405998871,1525.0,1435.0,1200.0,1676.0,1475.0,1018.02,306.0,295.54999999999995,1637189443.6114385,1637189444.7074404,d687adec-53b3-484d-bb0d-940f42183696
-0.37845944698362,-0.2130049950786743,-0.6226691500551145,0.571547559691674,-0.640926668940022,-0.2620934669539538,-1.0589458501050346,-1.073875110811395,-19.28570059340461,27.60668196928209,1.1857951990377813,-1.7357459244898994,-0.7822839131795885,3.185538110944696,7545.26953125,12.033333333333337,0.24,179.50119022259102,3.056045129569341,79.74111528936209,1525.0,1435.0,1200.0,1676.0,1475.0,1018.02,306.0,295.54999999999995,1637189444.8193662,1637189445.933211,d687adec-53b3-484d-bb0d-940f42183696
-0.4989891893638572,-0.280049657392252,-0.9357589249188396,0.6724090074119348,-0.9174329191185344,-0.2732013773423474,-1.3982920741797151,-1.4252332356954582,-21.391394309123285,28.482806709871337,0.9601971752899138,-1.9991033551245228,-1.0490906743661654,4.462703789628788,7538.63330078125,12.02611111111111,0.26,179.5181958758045,3.0400604473411343,79.72857050858651,1525.0,1435.0,1200.0,1750.0,1475.0,1018.02,306.0,295.54999999999995,1637189446.4948227,1637189447.5939913,a8e74eb2-1177-4f76-bfee-b86c69c465fe
-0.4963731460249381,-0.2888702423901597,-0.9494417948553524,0.679709272434569,-0.9301296359923124,-0.2719960802158384,-1.41123533519894,-1.448380443986329,-21.220986960588,28.597345655209622,0.7538826825704437,-2.012731632932795,-1.0833150695225915,4.515854771089079,7545.26953125,12.026111111111112,0.2655555555555555,179.5372399610304,3.0454885978883945,79.61191846666176,1525.0,1435.0,1200.0,1750.0,1475.0,1018.02,306.0,295.54999999999995,1637189447.7015684,1637189448.638634,a8e74eb2-1177-4f76-bfee-b86c69c465fe
-0.5027694406155447,-0.2822000174472183,-0.938347575684056,0.6744634910023449,-0.9215829784387604,-0.2763104966248014,-1.4022640798594466,-1.4284108398960895,-21.25893571041012,28.65491233144628,0.4598933441669857,-2.00972543652246,-1.0540732999073732,4.476614407971291,7545.26953125,12.028333333333332,0.2533333333333333,179.51149621913868,3.069114625398357,79.52871462001248,1525.0,1435.0,1200.0,1750.0,1475.0,1018.02,306.0,295.54999999999995,1637189448.7472095,1637189449.8240588,a8e74eb2-1177-4f76-bfee-b86c69c465fe
-0.5661023452293693,-0.3091137589026547,-1.1606565689648956,0.7580535800114134,-1.122470534526934,-0.3154826597531724,-1.6562396636571928,-1.6890429662778623,-22.77474768575553,29.52229882484784,0.2488204474392782,-2.2924254397342136,-1.166787139047541,5.410631891788538,7545.26953125,12.005000000000004,0.35,179.5068926716381,3.0301109724386066,79.47076046490491,1525.0,1435.0,1200.0,1824.0,1475.0,1018.02,306.0,295.54999999999995,1637189450.4941127,1637189451.462186,f8905162-0d4a-4a14-a2cf-81aaafe536dc
-0.5713481288007634,-0.304251479865927,-1.1500691208385565,0.766490659303478,-1.1137321236777915,-0.3279328334308191,-1.6499529348883275,-1.691179632569228,-22.685203563370308,29.65778841528968,0.3234640752700901,-2.33795229219546,-1.150211271772583,5.376121645381741,7532.00927734375,12.005,0.3499999999999999,179.51256021082938,3.028772160497545,79.22908864041227,1525.0,1435.0,1200.0,1824.0,1475.0,1018.02,306.0,295.54999999999995,1637189451.5701096,1637189452.7992446,f8905162-0d4a-4a14-a2cf-81aaafe536dc
-0.576525429504161,-0.3056896187714955,-1.153835677318184,0.7532871780865276,-1.11829308095636,-0.3136884104523537,-1.6482134695792563,-1.6647726320176588,-22.568729304105165,29.54082176978608,0.4126318402459971,-2.277049444420383,-1.1558349670045072,5.384956874693228,7532.00927734375,12.005111111111113,0.3577777777777777,179.53048718067097,3.056086774750531,79.00744520729583,1525.0,1435.0,1200.0,1824.0,1475.0,1018.02,306.0,295.54999999999995,1637189452.9081185,1637189454.0331628,f8905162-0d4a-4a14-a2cf-81aaafe536dc
-0.201828054347611,-0.1454201425244167,-0.0131048058946532,0.4942244671663423,-0.0648186298875488,-0.2843755791572021,-0.3866461554234129,-0.4079864939261237,-14.783728470045624,24.404651168022824,2.2593192737464696,-1.5998319635649156,-0.5220691412427522,0.626219737835473,8827.4208984375,11.87022222222222,6.192222222222223,179.03310218057192,2.8472994414834,68.14404982295805,1525.0,1435.0,1350.0,1528.0,1475.0,1018.02,306.0,295.54999999999995,1637189458.9930563,1637189460.0612106,7aa5428a-990d-46f5-b976-2c0314056932
-0.1805441482398009,-0.135290714903645,-0.0065156653631569,0.4819309851431787,-0.0623154467471563,-0.2909384230993654,-0.3808289519835237,-0.4034556716684145,-14.621246124525436,24.350380092090045,1.176215948005266,-1.5869710044346397,-0.4736977349350955,0.6052722811518473,8827.4208984375,11.870444444444445,6.21,178.93896244215154,2.77561791052052,63.833832385374734,1525.0,1435.0,1350.0,1528.0,1475.0,1018.02,306.0,295.54999999999995,1637189460.169427,1637189461.292983,7aa5428a-990d-46f5-b976-2c0314056932
-0.1819998186329393,-0.1298783824167534,-0.0137096458950228,0.4733180419800287,-0.0717874391653192,-0.2854669212381451,-0.3870011702401688,-0.412588539831105,-14.52646705416766,24.342884322031583,1.5283516206581402,-1.5555511803269622,-0.4565857394553263,0.6379129759710876,8836.5224609375,11.872,6.22,178.882777306039,2.7645220547704223,59.95935521390137,1525.0,1435.0,1350.0,1528.0,1475.0,1018.02,306.0,295.54999999999995,1637189461.400745,1637189462.52246,7aa5428a-990d-46f5-b976-2c0314056932
-0.0601924802408042,0.0853060638847586,-0.004557057409708,0.3666059713186357,-0.109609665876476,-0.3960869212392959,-0.4257125834471216,-0.452119554998663,-14.739692272336084,23.674135512257816,1.7020335511897329,-1.5674699288414464,0.3641640060545471,0.7575410297741758,8828.432183159723,11.864111111111113,6.257777777777778,178.86474408881037,2.7376454975457687,54.90989122424941,1559.0,1435.0,1350.0,1528.0,1502.0,1018.02,306.0,295.54999999999995,1637189463.5453415,1637189464.5701256,a2116c4d-989e-4418-bad2-85dbe706ba3f
-0.0506322818990022,0.0998792020716219,0.007372645328172,0.3548132352280568,-0.1020080754408282,-0.3988810198590266,-0.413687002510174,-0.4482434281263707,-14.56458084641644,23.551656679686573,1.8836566399308108,-1.5472479271563684,0.4181791587742269,0.7158928678340564,8836.5224609375,11.864888888888888,6.2588888888888885,178.87829214848404,2.7318472598387937,52.66039763913716,1559.0,1435.0,1350.0,1528.0,1502.0,1018.02,306.0,295.54999999999995,1637189464.6783018,1637189465.7997255,a2116c4d-989e-4418-bad2-85dbe706ba3f
-0.057138147350638,0.0982082218770772,-0.0009685590349375,0.3490332879256452,-0.1118695982232319,-0.3929914983221931,-0.4204804970516171,-0.4334374446490092,-14.43502663132663,23.62447569067461,1.671814517100879,-1.5208764056968314,0.4130566479120241,0.7498761483788078,8836.5224609375,11.865666666666666,6.253333333333333,178.8955816340031,2.763294612858328,50.88010541687876,1559.0,1435.0,1350.0,1528.0,1502.0,1018.02,306.0,295.54999999999995,1637189465.908846,1637189466.9322388,a2116c4d-989e-4418-bad2-85dbe706ba3f
0.1162191961183287,0.4120374526445705,0.0061125619257285,0.1781139427058936,-0.176024283346457,-0.5472695715339984,-0.4810192998704668,-0.5047280492511884,-14.648582788936174,22.69430775117772,0.8860583488309937,-1.4880540243198688,1.6200596649628398,0.9493980634229404,8836.5224609375,11.857555555555557,6.287777777777778,178.92867769508132,2.838464117473296,48.63432707522004,1593.0,1435.0,1350.0,1528.0,1529.0,1018.02,306.0,295.54999999999995,1637189467.594628,1637189468.663004,13cac6c6-ccf8-40be-8e38-cfc923cee772
0.13420277718937,0.4244465337162871,0.0114131301254663,0.189934072253184,-0.1722303363610215,-0.5594047260524905,-0.4789922087623055,-0.5066866587886075,-14.42407375339058,22.632084385544392,2.463532527040885,-1.5417707358095978,1.6499107915822055,0.9381317372515342,8821.386284722223,11.854444444444445,6.365555555555556,178.94802230863058,2.889669500214385,47.38889102975726,1593.0,1435.0,1350.0,1528.0,1529.0,1018.02,306.0,295.54999999999995,1637189468.7706687,1637189469.8030355,13cac6c6-ccf8-40be-8e38-cfc923cee772
0.1174792793560586,0.4091063893367444,0.0036608778903769,0.1931116738221238,-0.1747915929674178,-0.5477078614676679,-0.4830189978879901,-0.5027420476490864,-14.665456133861891,22.584212974028343,2.362145141295698,-1.5234952331735228,1.5940994683329903,0.9558002714959088,8790.205295138889,11.852555555555556,6.453333333333333,179.01114691693985,2.934548515100489,46.23370720671227,1593.0,1435.0,1350.0,1528.0,1529.0,1018.02,306.0,295.54999999999995,1637189469.9115455,1637189471.0319967,13cac6c6-ccf8-40be-8e38-cfc923cee772
0.2556501573200704,0.6893105590662941,0.0035786985475121,0.0430795738212719,-0.2439866140743455,-0.6847008863316476,-0.5441467551953499,-0.558199429905259,-14.3155415722397,22.111262903968903,2.045560438584568,-1.495914854611853,2.663823672647961,1.169772847261931,8800.232421875,11.842555555555556,6.441111111111111,179.12404690828052,3.0476223442419195,44.22662538325275,1627.0,1435.0,1350.0,1528.0,1556.0,1018.02,306.0,295.54999999999995,1637189472.9946086,1637189474.1033094,d1a481de-bba5-4b0b-a3f3-a864f5fa0209
0.2570745993760236,0.687420434165282,-0.0002289448265883,0.0584745057054671,-0.2451234285847059,-0.6944528397994896,-0.550830677693507,-0.5848803333677335,-14.365495215452428,22.10726676608517,2.3709625872007147,-1.5527453512148968,2.652067185970567,1.1863598844864651,8816.325954861111,11.847333333333331,6.440000000000001,179.15375367771065,3.0853369175755025,43.60022607828621,1627.0,1435.0,1350.0,1528.0,1556.0,1018.02,306.0,295.54999999999995,1637189474.211337,1637189475.4247434,d1a481de-bba5-4b0b-a3f3-a864f5fa0209
0.2706889778556263,0.6886942139894501,0.0098380259036756,0.0589675817667278,-0.2360426091514321,-0.6983563606052398,-0.5421470571061893,-0.5684581545183715,-14.3767432194719,22.1709797503662,2.1296477716523703,-1.5617498423944092,2.659641577069309,1.1476895479863929,8827.4208984375,11.846,6.393333333333334,179.19877373125993,3.0832853469354293,43.113924198480376,1627.0,1435.0,1350.0,1528.0,1556.0,1018.02,306.0,295.54999999999995,1637189475.5335646,1637189476.6499147,d1a481de-bba5-4b0b-a3f3-a864f5fa0209
0.4613861490521488,1.0517625589438793,0.0295610704653653,-0.1102260112125072,-0.3047034665021893,-0.8954910202109115,-0.6066989576394145,-0.6378860329712602,-13.820807654859903,21.6598385577756,2.359369333378732,-1.625168329308633,4.037470842630857,1.3496019540863726,8892.555121527777,11.841,6.38,179.1898049339698,3.1716005703932755,42.56197812947146,1661.0,1435.0,1350.0,1528.0,1583.0,1018.02,306.0,295.54999999999995,1637189477.5648668,1637189478.8103726,23d2161b-45b3-4735-8ed8-909b2aa7724a
0.4590122617385004,1.0306780779299256,0.0212001431992412,-0.1084591550344864,-0.3051768195874386,-0.8796435452899867,-0.6075706067184757,-0.6323690566156428,-14.066484173545714,21.41241805638728,1.8756817033307072,-1.5957998004900875,3.9636651967296994,1.3595963921671412,8910.0078125,11.841666666666669,6.3566666666666665,179.21549858780756,3.203979864779563,42.29081848105709,1661.0,1435.0,1350.0,1528.0,1583.0,1018.02,306.0,295.54999999999995,1637189478.9190755,1637189480.0392396,23d2161b-45b3-4735-8ed8-909b2aa7724a
0.4656731715181831,1.0516529864910382,0.0346972799487681,-0.114170620325122,-0.2977730068630791,-0.8945459569355485,-0.5979331572794033,-0.6228061167589463,-13.78066532737875,21.36420515929174,2.0191602807080966,-1.6158846394590107,4.040597286394236,1.32030229272913,8890.505425347223,11.842555555555556,6.402222222222222,179.23652646353233,3.192607884402708,42.06014402003808,1661.0,1435.0,1350.0,1528.0,1583.0,1018.02,306.0,295.54999999999995,1637189480.1474504,1637189481.2718446,23d2161b-45b3-4735-8ed8-909b2aa7724a
-0.2776116699134126,-0.3122913610536912,-0.0195821825788631,0.531909722880361,-0.0367713641015844,-0.1819001075377612,-0.3469162668303386,-0.3713783263688126,-14.718203006884218,24.53516604438933,-1.3550007419228358,-1.4545650909312222,-1.121416092876235,0.5153144006128183,8854.779296875,11.866,6.256666666666667,179.6661650939837,3.223896814978993,41.724251253764905,1491.0,1435.0,1350.0,1528.0,1448.0,1018.02,306.0,295.54999999999995,1637189482.0698652,1637189483.000293,29bc4417-49be-4096-9356-57355c936a29
-0.2813371342434456,-0.3049226114555304,-0.0247046955571205,0.5122551631443435,-0.0449208166472414,-0.174120461613986,-0.3481215641135498,-0.3695703790763211,-14.54279099163009,24.355477628397782,-1.81840278784422,-1.3941791306067046,-1.088821094618696,0.5353750011834247,8854.779296875,11.86477777777778,6.353333333333333,179.66919162669592,3.246640657153032,41.58630609710266,1491.0,1435.0,1350.0,1528.0,1448.0,1018.02,306.0,295.54999999999995,1637189483.1091547,1637189484.3444602,29bc4417-49be-4096-9356-57355c936a29
-0.2684897606118948,-0.2958828814105601,-0.0119942889347106,0.5284718869660211,-0.0330595966015278,-0.1992262558587418,-0.3431497125710054,-0.361325049911941,-14.52263912050526,24.4285341102307,-1.938235656968459,-1.4860679227539373,-1.0551867799453327,0.4958661433825451,8832.481879340277,11.869333333333334,6.39,179.6866769109712,3.237458179291988,41.45744736876624,1491.0,1435.0,1350.0,1528.0,1448.0,1018.02,306.0,295.54999999999995,1637189484.452687,1637189485.569042,29bc4417-49be-4096-9356-57355c936a29
-0.3473366917892822,-0.4532551779783838,-0.0218349687186143,0.6012845720513283,-0.0090435736875397,-0.1138472623364724,-0.3188240250943224,-0.3471508975662499,-14.54882566970114,25.01771703017344,-2.1408484029595023,-1.4550872173430225,-1.653026134497848,0.4229852583254527,8829.445421006945,11.856111111111112,6.382222222222222,179.765876748947,3.23546585105659,41.30346758411747,1457.0,1435.0,1350.0,1528.0,1421.0,1018.02,306.0,295.54999999999995,1637189487.5070703,1637189488.6411192,f8706bf7-57b2-41bc-9b21-ff9cd526f4db
-0.3563692759120349,-0.4428219708730214,-0.0137313698714826,0.6003841723052294,-0.0039270157289023,-0.1227083407603608,-0.3159084441439734,-0.3373179572550694,-14.65490741806811,25.157980505945428,-2.0239135159485686,-1.4716695925886392,-1.6135538727191403,0.4021067565732697,8869.034071180555,11.855,6.338888888888889,179.7679743759321,3.261658986193355,41.28799644673748,1457.0,1435.0,1350.0,1528.0,1421.0,1018.02,306.0,295.54999999999995,1637189488.7501743,1637189489.8738708,f8706bf7-57b2-41bc-9b21-ff9cd526f4db
-0.3556403807574302,-0.4580716036809086,-0.025836746033224,0.609388169956685,-0.0133311922236009,-0.1174488619537119,-0.3250124885567077,-0.3626292016454668,-14.4825971493447,25.233592236451603,-2.3050106535167605,-1.4802212536888175,-1.6713521991378215,0.4423055108542906,8882.306640625,11.857333333333337,6.322222222222222,179.7608133020423,3.254606744727513,41.29037145529388,1457.0,1435.0,1350.0,1528.0,1421.0,1018.02,306.0,295.54999999999995,1637189489.981827,1637189491.1023605,f8706bf7-57b2-41bc-9b21-ff9cd526f4db
-0.5316368632053211,-0.78075215215865,-0.0326174716206739,0.7586710208436771,0.0531646239307054,0.0568068126023855,-0.258814510226043,-0.2943685905919646,-14.70296498831813,26.067925361647003,-2.7173621231390475,-1.4203744216011347,-2.8951817002870195,0.2279132911964715,8873.111328125,11.851666666666668,6.358888888888888,179.8478420546268,3.2639708629317963,41.29130453502549,1423.0,1435.0,1350.0,1528.0,1394.0,1018.02,306.0,295.54999999999995,1637189492.0132763,1637189493.0447931,f892263c-0c50-4c29-b14c-cb6efbc45493
-0.538270930189057,-0.7753584451259864,-0.0283616768388607,0.7606970155814344,0.0556256215771546,0.0566117737375146,-0.2541631584151629,-0.2647779937537857,-14.483571188331382,26.05264348415027,-1.6958971964783405,-1.4249989783071406,-2.885537960615938,0.2144084615418914,8863.9375,11.849666666666666,6.383333333333333,179.86507689863245,3.29399220051868,41.32297005092758,1423.0,1435.0,1350.0,1528.0,1394.0,1018.02,306.0,295.54999999999995,1637189493.177345,1637189494.1748047,f892263c-0c50-4c29-b14c-cb6efbc45493
-0.5401747523485446,-0.7876853533964597,-0.0433046226970118,0.7674768114255612,0.0439287605505939,0.0581868779955236,-0.2688458710382602,-0.2837203365583289,-14.57934181780236,26.13572291353113,-2.415606983581539,-1.437109316856389,-2.9264953827671114,0.2690656729451156,8861.90234375,11.85,6.403333333333332,179.83402989430522,3.287200194003402,41.28339707324139,1423.0,1435.0,1350.0,1528.0,1394.0,1018.02,306.0,295.54999999999995,1637189494.2834654,1637189495.4037817,f892263c-0c50-4c29-b14c-cb6efbc45493
-0.6827811763407836,-1.046881913378517,-0.0412956114451524,0.8761151651155881,0.099605818726716,0.2014950629424919,-0.2086390796795983,-0.2404457803052074,-14.595358711225709,27.10465424563117,-3.696677974517802,-1.3538272742442186,-3.90040452297182,0.0721453956409136,8863.9375,11.841333333333331,6.463333333333334,179.88840427137777,3.3045453408209764,41.31175943376987,1389.0,1435.0,1350.0,1528.0,1367.0,1018.02,306.0,295.54999999999995,1637189497.5425797,1637189498.6801395,037a62e7-13d6-4184-b019-5d68d4b0d59d
-0.6744480302433731,-1.0328127989382436,-0.032259326267769,0.8858952897730029,0.1110771167974064,0.1894370828521735,-0.203896782747025,-0.2223988804897424,-14.905391859166444,26.841707175704965,-2.1139494430075283,-1.4041816585304336,-3.860105884301079,0.0413631223239538,8863.9375,11.843,6.47,179.8630733764759,3.279016939615623,41.301190854394136,1389.0,1435.0,1350.0,1528.0,1367.0,1018.02,306.0,295.54999999999995,1637189498.7882178,1637189500.001703,037a62e7-13d6-4184-b019-5d68d4b0d59d
-0.6702516073026509,-1.0331129323070602,-0.0381136267831963,0.878407611461689,0.1021343702054574,0.1867004936123921,-0.2101185939092642,-0.2368304617041985,-14.6984262405309,26.96923848556048,-3.573209736367,-1.3930152900963466,-3.849210106642853,0.06831432389615,8856.814453125,11.841,6.487777777777778,179.8685056535958,3.2884313830331666,41.32158238416121,1389.0,1435.0,1350.0,1528.0,1367.0,1018.02,306.0,295.54999999999995,1637189500.110235,1637189501.138765,037a62e7-13d6-4184-b019-5d68d4b0d59d
-0.1627118230076343,-0.1097025643316905,-0.0053705138816124,0.4702263835947041,-0.0641823472350976,-0.3033314285546056,-0.3816519366099524,-0.4060199086897698,-14.552904741721028,23.943837939745823,1.4520381717535966,-1.5909766561626406,-0.3791481329579113,0.6110230642977524,8863.9375,11.868,6.336666666666667,179.655868204355,3.3045192295769623,41.36804474599022,1525.0,1435.0,1350.0,1528.0,1475.0,1018.02,306.0,295.54999999999995,1637189503.0728576,1637189504.1169825,52dcaf6c-c323-4a15-9197-918d1a0139b2
-0.179845623731697,-0.1177728152790461,-0.0130626204363581,0.4735897816046991,-0.0694239608743462,-0.2969238203296245,-0.3860473417406417,-0.4160839022548707,-14.48542113683033,23.872258516659667,1.6329639654532284,-1.584959620846843,-0.4124006125565176,0.6342903795860263,8860.884765625,11.867,6.33,179.62497298200924,3.30167239250134,41.46187902317271,1525.0,1435.0,1350.0,1528.0,1475.0,1018.02,306.0,295.54999999999995,1637189504.225144,1637189505.322698,52dcaf6c-c323-4a15-9197-918d1a0139b2
-0.1842213768459446,-0.1256667975794304,-0.0180904486482573,0.4697547456205729,-0.0711425813505849,-0.2859665716680759,-0.3898127051335059,-0.401675119940909,-14.908450501533538,23.88036247605478,1.5573987721905451,-1.552107936366136,-0.4381904404784604,0.6474512239891199,8863.9375,11.870444444444445,6.302222222222222,179.61356504827552,3.2947087063353617,41.52432744275414,1525.0,1435.0,1350.0,1528.0,1475.0,1018.02,306.0,295.54999999999995,1637189505.4310997,1637189506.6741643,52dcaf6c-c323-4a15-9197-918d1a0139b2
-0.1480422120155227,-0.117731725582782,-0.0343059833800011,-0.0294437050925477,-0.1405228006239644,0.185510084068573,-0.2673803390269684,-0.2845969166066266,-14.205578761834436,22.525917921888507,4.758912652473029,0.6245104077558761,-0.3813677209647501,0.5918815505152574,8848.706922743055,11.862555555555556,6.42,179.64130016976526,3.4234337242324,41.646391650686205,1525.0,1507.0,1350.0,1528.0,1475.0,1018.02,306.0,295.54999999999995,1637189507.577947,1637189508.8081944,606f0032-6f6f-4bfe-9b83-5f401f30d389
-0.1461657832823864,-0.1210462929664754,-0.0404557383670826,-0.0184042785263706,-0.1447824306575651,0.1805656265816284,-0.2762557101858534,-0.3073469034536247,-14.31266258363514,22.619542278526765,4.980909253197965,0.5887932246336445,-0.3967564647621163,0.6185982779277057,8791.2060546875,11.859111111111112,6.440000000000001,179.6092589934588,3.4234584125203367,41.654024766538654,1525.0,1507.0,1350.0,1528.0,1475.0,1018.02,306.0,295.54999999999995,1637189508.9160702,1637189510.0365627,606f0032-6f6f-4bfe-9b83-5f401f30d389
-0.1542056638294002,-0.117622153200561,-0.0474135903902672,-0.0336622452890917,-0.1540686980990893,0.1813189372391779,-0.2841586256301362,-0.3073605995896358,-14.431420376268798,22.671797080794903,3.5112821352814163,0.6246101511688561,-0.3686096744705933,0.6500861577855187,8782.19921875,11.86111111111111,6.435555555555556,179.59426900496035,3.418196700402227,41.636117528354696,1525.0,1507.0,1350.0,1528.0,1475.0,1018.02,306.0,295.54999999999995,1637189510.144693,1637189511.1708767,606f0032-6f6f-4bfe-9b83-5f401f30d389
-0.1203066789289443,-0.1360166325408105,-0.0810112500613705,-0.6024941130872065,-0.2443701177771719,0.7477400723886843,-0.1546987399007078,-0.185735145384409,-13.92072189111321,21.49623960410844,7.385716729465463,3.1719882289919905,-0.4076682411113876,0.63364482932716,8795.2177734375,11.856444444444444,6.447777777777778,179.60254871205422,3.619328719702113,41.59285321287707,1525.0,1579.0,1350.0,1528.0,1475.0,1018.02,306.0,295.54999999999995,1637189512.083722,1637189513.1268675,8ac87ea1-2af7-4af8-a219-c6eb4c01a6d1
-0.1418597041602961,-0.1512210047024175,-0.1063868059095667,-0.5952468443545931,-0.2644427246540782,0.7552386397384392,-0.1814630086356161,-0.2044875235866345,-14.39630095370612,21.67652852812345,7.082391565005591,3.172134326001679,-0.4611373971734201,0.7310701602921112,8821.373046875,11.857333333333337,6.3500000000000005,179.5897747404865,3.6381409579510966,41.615541204025085,1525.0,1579.0,1350.0,1528.0,1475.0,1018.02,306.0,295.54999999999995,1637189513.235083,1637189514.4509437,8ac87ea1-2af7-4af8-a219-c6eb4c01a6d1
