raw_voltage_G-,raw_voltage_G0,raw_voltage_G1,raw_voltage_G2,raw_voltage_G3,raw_voltage_G4,raw_voltage_G5,raw_voltage_G6,load_x,load_y,load_z,load_l,load_m,load_n,rpm,voltage,current,roll,pitch,yaw,aileron1_pwm,elevator_pwm,throttle_pwm,rudder_pwm,aileron2_pwm,pbaro,pdiff,Tt,sample_start_time,sample_end_time,uid
-0.0859091397109574,0.0068286180001123,0.0161904898864983,0.3464331333489238,-0.0706829486648244,-0.0728261864589518,-0.3147490719262244,-0.3312638377944698,-14.160633938454922,23.0346400767934,34.576136658730164,-0.7932293130406544,-0.2218467622988777,0.5556126235913176,7551.91748046875,12.048333333333334,0.22,179.16643961572905,-1.9285994636536763,93.8190344769991,1525.0,1435.0,1200.0,1528.0,1475.0,1018.02,306.0,295.54999999999995,1637188570.518142,1637188571.620199,70f59fb6-2c9f-4a4a-8e65-cd8314dd2fbf
-0.0931737946982852,-0.0037626569941247,0.0168369674186203,0.3509781991071732,-0.0671640287341705,-0.0658217658848821,-0.3110860637439466,-0.3251113425138059,-14.189621025471745,23.016877068556497,34.708463781917914,-0.7878210600838432,-0.2630570443446918,0.543655125066515,7563.765625,12.04922222222222,0.22,179.191794795748,-1.9544393025124351,93.64379838474332,1525.0,1435.0,1200.0,1528.0,1475.0,1018.02,306.0,295.54999999999995,1637188571.7288349,1637188572.9706128,70f59fb6-2c9f-4a4a-8e65-cd8314dd2fbf
-0.0851887006627292,-0.004173553818211,0.0082629216830948,0.3366926893951336,-0.076874889137891,-0.0609731840578101,-0.3173179987831379,-0.33661645334462,-14.163106590248692,22.95187961218387,33.414869183349616,-0.7457517053788963,-0.2521065227047973,0.5754877257508636,7518.087348090277,12.049,0.23,179.21682364450655,-1.951394366234948,93.53215135366038,1525.0,1435.0,1200.0,1528.0,1475.0,1018.02,306.0,295.54999999999995,1637188573.102748,1637188574.1949704,70f59fb6-2c9f-4a4a-8e65-cd8314dd2fbf
0.003099318920266,0.1612534796744404,0.023685246849938,0.2579374824526169,-0.1015560889519271,-0.1408241251717278,-0.3383285230359495,-0.3519839954254322,-13.981615727109618,22.716181889455022,34.775849069486384,-0.748021214114182,0.3656687011269688,0.6394659479540206,7472.90869140625,12.042,0.26,179.24490027545474,-1.9679309656935875,93.2251222079098,1559.0,1435.0,1200.0,1528.0,1502.0,1018.02,306.0,295.54999999999995,1637188576.016566,1637188577.061392,f845007d-b05e-4a34-8080-8e3639598727
-0.005373372423206,0.1701222750398824,0.014954512415151,0.2664101731332142,-0.1071968800113321,-0.1518893015857201,-0.3505266802403501,-0.3743652713328391,-14.21756662457779,22.470925854373405,35.47051042623734,-0.7940670601268996,0.3928445013382386,0.6784802627304907,7558.5771484375,12.042444444444444,0.2555555555555555,179.2677905160932,-1.9484141033111644,93.07428203354954,1559.0,1435.0,1200.0,1528.0,1502.0,1018.02,306.0,295.54999999999995,1637188577.16959,1637188578.218766,f845007d-b05e-4a34-8080-8e3639598727
0.0156453667139845,0.1771414871096105,0.0258219099501865,0.2538285150512013,-0.1014739096805373,-0.148946184964327,-0.3372191017168153,-0.3751311831716902,-13.84654951361629,22.47317967816902,35.310768832305335,-0.7583549844536952,0.4201986767427771,0.6376969978001235,7579.371202256944,12.04211111111111,0.2588888888888889,179.26555780314447,-1.965697588698732,92.94322284593552,1559.0,1435.0,1200.0,1528.0,1502.0,1018.02,306.0,295.54999999999995,1637188578.3287446,1637188579.4073017,f845007d-b05e-4a34-8080-8e3639598727
0.2143413387044213,0.5306085499606806,0.0450792714514166,0.0913051564309123,-0.1661901534905335,-0.3485735507337251,-0.4005109105176196,-0.4180014202798747,-13.3811279564152,21.807882601891365,34.72782335903175,-0.843641541602736,1.7690071953826143,0.8308278765185694,7579.371202256944,12.035777777777778,0.2866666666666667,179.205125807188,-1.9395656406732824,92.71120511437972,1589.2222222222222,1435.0,1200.0,1528.0,1526.0,1018.02,306.0,295.54999999999995,1637188580.9907105,1637188581.977841,db9a0cc4-bb2e-4667-9860-6a6f3e9eca99
0.1932897290176477,0.5202265595137489,0.0427919462134816,0.0886480241077852,-0.16535466329349,-0.3330827404142399,-0.3974017910160826,-0.4205078903975094,-13.477919468518508,21.71149317590745,35.1406181537659,-0.803573574109595,1.727275406624041,0.8276556231861129,7578.6259765625,12.035,0.2866666666666667,179.22297992167847,-1.92902592358998,92.59824744588605,1593.0,1435.0,1200.0,1528.0,1529.0,1018.02,306.0,295.54999999999995,1637188582.085632,1637188583.2054205,db9a0cc4-bb2e-4667-9860-6a6f3e9eca99
0.1976178413254974,0.5171996203492882,0.0412990212684177,0.0793069710863247,-0.1667791055919098,-0.32357732731584,-0.3967032664070602,-0.4164947982369076,-13.604970692851245,21.71630429588077,34.84521737306374,-0.7612960017911066,1.7204954330682023,0.8296806114404673,7571.93115234375,12.032888888888888,0.2877777777777777,179.2043122557669,-1.92323475323152,92.47461115608002,1593.0,1435.0,1200.0,1528.0,1529.0,1018.02,306.0,295.54999999999995,1637188583.3147042,1637188584.4352372,db9a0cc4-bb2e-4667-9860-6a6f3e9eca99
0.3832335921660904,0.8516695493671605,0.065007764205727,-0.0757106818084189,-0.2244142296386094,-0.506097705304722,-0.4468189849175341,-0.4815671629830879,-12.753628364907888,21.03239275434671,35.09611626455255,-0.8246464726055659,2.987289120892109,0.9875598239826112,7551.91748046875,12.025333333333334,0.3166666666666666,179.14527513622093,-1.896834601701474,92.09148156041694,1627.0,1435.0,1200.0,1528.0,1556.0,1018.02,306.0,295.54999999999995,1637188586.5729969,1637188587.7127771,a804f20a-07f1-4e19-b5f7-ea4b3079177a
0.3869864489461143,0.8407670897117875,0.0630628528702684,-0.0778473449760981,-0.2246333746684408,-0.4967977394480901,-0.4446001420115404,-0.4652819511213521,-12.71406131415911,21.01828762676509,34.62117711090096,-0.7991745581498119,2.950467129169771,0.9853759423421304,7551.91748046875,12.025,0.32,179.13817173948414,-1.8873989799543167,91.97540249547258,1627.0,1435.0,1200.0,1528.0,1556.0,1018.02,306.0,295.54999999999995,1637188587.8217363,1637188589.0320635,a804f20a-07f1-4e19-b5f7-ea4b3079177a
0.3723859185953633,0.8330422313434425,0.0504072327756605,-0.0661504835007043,-0.2342072701481145,-0.4996329278182976,-0.4594883045079874,-0.4724315560857417,-12.87420753639873,21.12841571992318,34.56682830910595,-0.831920248715509,2.92086881612916,1.0357985121054003,7551.91748046875,12.02588888888889,0.31,179.1446497944569,-1.890146826718844,91.82799107607563,1627.0,1435.0,1200.0,1528.0,1556.0,1018.02,306.0,295.54999999999995,1637188589.1411932,1637188590.2604914,a804f20a-07f1-4e19-b5f7-ea4b3079177a
0.5394291328613167,1.1425981312485864,0.0860456780565926,-0.2250168784927771,-0.2762967999028835,-0.6492541797719614,-0.4905247139066668,-0.5038103804003379,-12.3821217326907,20.70275681085712,35.638209006295455,-0.8104042149477119,4.090725088837942,1.1268293374893876,7556.357259114583,12.017333333333331,0.3533333333333334,179.05180627415905,-1.8799282471062044,91.64794273609463,1661.0,1435.0,1200.0,1528.0,1583.0,1018.02,306.0,295.54999999999995,1637188591.0814064,1637188592.2181425,28802d4e-4b6d-45bf-ac3e-9bf6e3db531f
0.5418397269377095,1.1460633604696535,0.0835255112281231,-0.2233869878864513,-0.2775431870147393,-0.6526098378975448,-0.4914149905308204,-0.5060840093939625,-12.261897792860708,20.447966951711702,35.846376011419814,-0.8233422802421834,4.100661150225367,1.1341456221227553,7557.098524305556,12.017444444444443,0.3400000000000001,179.0485930496095,-1.878507544042907,91.50258265017844,1661.0,1435.0,1200.0,1528.0,1583.0,1018.02,306.0,295.54999999999995,1637188592.3267107,1637188593.4418485,28802d4e-4b6d-45bf-ac3e-9bf6e3db531f
0.5458665147786902,1.1347226103804144,0.0838542287035034,-0.2175248601601574,-0.2762146205680916,-0.6483228134413527,-0.4884702295931313,-0.5245332785023707,-12.073448497116468,20.542659274745105,35.65411169349757,-0.8262239804799739,4.057797369741532,1.126196195884592,7556.357259114583,12.020333333333332,0.3433333333333333,179.06125014905143,-1.8491610196596469,91.39811946028254,1661.0,1435.0,1200.0,1528.0,1583.0,1018.02,306.0,295.54999999999995,1637188593.550473,1637188594.6741695,28802d4e-4b6d-45bf-ac3e-9bf6e3db531f
-0.2287971289670229,-0.232782827928609,-0.0174318227315472,0.4556609880587811,-0.0494269845802989,0.0381214195287059,-0.3007862500531587,-0.32097498138198,-14.531231444078244,23.748949491233315,31.19092958071124,-0.7879716018864796,-1.1034770120430268,0.519249902626066,7545.26953125,12.041,0.25,179.4310411441754,-1.8340689340626608,91.08824364346786,1491.0,1435.0,1200.0,1528.0,1448.0,1018.02,306.0,295.54999999999995,1637188596.61012,1637188597.6335971,5f46de26-3845-4690-a4d6-d0e6a7d5c36d
-0.2197437027909502,-0.2243594433885455,-0.0113094609115421,0.4463610255556653,-0.0464274381579209,0.0349438178398767,-0.292718975919175,-0.3296175111584414,-14.213293681697294,23.58169418778449,30.750304474597936,-0.7748477595463891,-1.068698921775353,0.4959400902202279,7545.26953125,12.041666666666666,0.2433333333333333,179.44352217651874,-1.8360157514195268,91.07056180152652,1491.0,1435.0,1200.0,1528.0,1448.0,1018.02,306.0,295.54999999999995,1637188597.7418842,1637188598.862191,5f46de26-3845-4690-a4d6-d0e6a7d5c36d
-0.2256469201772999,-0.2248251264295545,-0.0191712857168857,0.4535654147908063,-0.0522347792156547,0.0326427961562367,-0.30314205853162,-0.316016826190218,-14.430630308615642,23.61728297193034,31.231462981451187,-0.7964580458480744,-1.074556565526662,0.5299255377455748,7544.532172309027,12.03977777777778,0.25,179.4197819567836,-1.8239396923757287,91.05290348579231,1491.0,1435.0,1200.0,1528.0,1448.0,1018.02,306.0,295.54999999999995,1637188598.969915,1637188600.092968,5f46de26-3845-4690-a4d6-d0e6a7d5c36d
-0.3054978671133633,-0.3698306133339926,-0.0192534651168626,0.5125017011079647,-0.0208011763469453,0.1177806037983758,-0.2693937334393365,-0.298224995050258,-14.579482338313932,24.058903098788647,30.976961140600537,-0.7352798829448277,-1.6223601610109295,0.4215002124544268,7528.335503472223,12.033222222222223,0.28,179.40491491169016,-1.819657970107908,90.95001579286496,1457.0,1435.0,1200.0,1528.0,1421.0,1018.02,306.0,295.54999999999995,1637188601.0086849,1637188602.2590234,fc535481-ebd8-4b53-aa96-88bb666ee56a
-0.3094287799820694,-0.3889099230319528,-0.0276220626195053,0.520788118337454,-0.0239513848334386,0.1279297534830329,-0.2746395160344403,-0.3093329048934192,-14.750411181812868,24.116500265996635,30.7948309282158,-0.7313154710927599,-1.69264494765949,0.4420311119976667,7543.794813368056,12.034222222222224,0.2899999999999999,179.41193634615695,-1.7929168901597596,90.7995877065846,1457.0,1435.0,1200.0,1528.0,1421.0,1018.02,306.0,295.54999999999995,1637188602.3923256,1637188603.5733364,fc535481-ebd8-4b53-aa96-88bb666ee56a
-0.3100451251744845,-0.3953062171926692,-0.037401405737936,0.5298415426997584,-0.0300189604898378,0.1297240025441957,-0.2858296060434001,-0.297485379634295,-15.04085023076022,24.166409793337525,31.264027023466863,-0.747933357900369,-1.7204715387330396,0.47930158834166,7532.00927734375,12.033555555555555,0.28,179.40766823683558,-1.7846017277436346,90.68716127502638,1457.0,1435.0,1200.0,1528.0,1421.0,1018.02,306.0,295.54999999999995,1637188603.6822877,1637188604.914189,fc535481-ebd8-4b53-aa96-88bb666ee56a
-0.4733492253139473,-0.6783319840077967,-0.0518786686465922,0.6650402596097952,0.0211787765638496,0.2771811462529283,-0.2390421558330716,-0.2630522270836297,-15.403797181185531,24.921081615105027,30.61937975127816,-0.7175561677721755,-2.791258739084243,0.3281536836227992,7525.396484375,12.025444444444444,0.32,179.4698442077601,-1.7794853112989624,90.45722751007736,1423.0,1435.0,1200.0,1528.0,1394.0,1018.02,306.0,295.54999999999995,1637188606.521247,1637188607.7820084,b7b4a305-2198-4910-a03c-c50b73a42da7
-0.4634329146215792,-0.6701825286680769,-0.0441127196612828,0.6609175958752326,0.0237674261522624,0.2720860267563287,-0.2343716288138924,-0.2539303181082015,-15.226011058054915,25.14247338477565,30.53484812753624,-0.71777551888731,-2.76019878899749,0.3082563501249498,7525.396484375,12.023222222222223,0.32,179.51630922577382,-1.7675944974204665,90.27882372786652,1423.0,1435.0,1200.0,1528.0,1394.0,1018.02,306.0,295.54999999999995,1637188607.8901691,1637188608.9434614,b7b4a305-2198-4910-a03c-c50b73a42da7
-0.4597759325228707,-0.673702545568438,-0.0445920992586516,0.6698614477588581,0.024301591938412,0.2643611681559497,-0.236412416331336,-0.2613127635898614,-15.164353675233954,25.185664965163625,30.10689448894984,-0.7550841754229642,-2.771175283233022,0.3101621898714657,7512.20556640625,12.024888888888889,0.32,179.53036727290555,-1.7930989455318556,90.17467093212292,1423.0,1435.0,1200.0,1528.0,1394.0,1018.02,306.0,295.54999999999995,1637188609.052921,1637188610.0412009,b7b4a305-2198-4910-a03c-c50b73a42da7
-0.602507809580061,-0.9128719624872595,-0.049687219227803,0.7904185449467319,0.0736776857644446,0.3866440349879758,-0.1903097952481085,-0.2119229674426765,-15.307969633368993,25.913905951670014,30.107858785236,-0.7477437651516187,-3.682351890563458,0.1559346393674162,7518.794921875,12.012999999999998,0.3633333333333333,179.58518029990478,-1.7873723180894592,89.94082574550917,1389.0,1435.0,1200.0,1528.0,1367.0,1018.02,306.0,295.54999999999995,1637188611.037676,1637188612.1744385,451f2e1e-c56e-4623-b58e-f2c28d4a03e5
-0.6217788735735331,-0.9433057327752772,-0.0686843467130681,0.8200852881360352,0.0644872949548816,0.3921911407967269,-0.2100191450043611,-0.2346866500526172,-15.729526891987652,26.175903775096884,30.390726418643595,-0.801575807323419,-3.8008728871178974,0.2189836317128678,7554.890407986111,12.01311111111111,0.36,179.57841537698684,-1.7760727424609928,89.73199954182522,1389.0,1435.0,1200.0,1528.0,1367.0,1018.02,306.0,295.54999999999995,1637188612.2836685,1637188613.516495,451f2e1e-c56e-4623-b58e-f2c28d4a03e5
-0.6188615055526695,-0.953482281695656,-0.0632331162082939,0.8240162000616841,0.0756910798106685,0.4016965517156244,-0.198062048197183,-0.2336046220219282,-15.800525501135128,25.833605026456897,30.910289220599697,-0.791033676483317,-3.843287699774148,0.1788954217396141,7578.6259765625,12.015222222222222,0.3622222222222222,179.5844896918887,-1.773627487306259,89.59870991799222,1389.0,1435.0,1200.0,1528.0,1367.0,1018.02,306.0,295.54999999999995,1637188613.6248844,1637188614.6332552,451f2e1e-c56e-4623-b58e-f2c28d4a03e5
-0.0951460992976519,-0.0208285693432092,-0.0019410146794606,0.3582647676742596,-0.0797922563002357,-0.0526593726189408,-0.3256865974596134,-0.3459575090513191,-14.370550898164112,22.95689294657864,35.02932189524111,-0.7760527073966396,-0.3307163456214355,0.6055892774110775,7581.606879340277,12.04611111111111,0.22,179.32075180291744,-1.7621125117016234,89.34724967350904,1525.0,1435.0,1200.0,1528.0,1475.0,1018.02,306.0,295.54999999999995,1637188616.6821172,1637188617.8140728,8bb9cfbe-8b8a-4551-a9cd-e2134727674d
-0.1012010742077659,-0.0190743141084372,-0.0027567817603598,0.3693118631150379,-0.079295345157907,-0.0647791839220732,-0.3294624654142003,-0.358205520779916,-14.357153238578812,22.91730933211256,34.97961905024137,-0.8285112856165557,-0.3252036526880089,0.6116651189354582,7578.6259765625,12.045,0.22,179.33285945158616,-1.7554505040819548,89.53105537644343,1525.0,1435.0,1200.0,1528.0,1475.0,1018.02,306.0,295.54999999999995,1637188617.9219797,1637188619.0430367,8bb9cfbe-8b8a-4551-a9cd-e2134727674d
-0.1038982007242653,-0.0122682200747851,0.0008667798968527,0.3543612487978897,-0.079997704644967,-0.0606307701047692,-0.3248648037991939,-0.3457520597837097,-14.222381101597028,22.958041888928165,34.590939872573166,-0.7850079895137059,-0.2951145463912919,0.6013581380222398,7578.6259765625,12.046444444444443,0.22,179.29587473614046,-1.7489105623777657,89.70374380813877,1525.0,1435.0,1200.0,1528.0,1475.0,1018.02,306.0,295.54999999999995,1637188619.1511347,1637188620.2720406,8bb9cfbe-8b8a-4551-a9cd-e2134727674d
-0.0729028869846685,-0.0110218331498536,-0.026471551718373,-0.1023641861664402,-0.1531510287300421,0.3694000690538894,-0.229947639947623,-0.2519169229667249,-14.171133658361711,21.9019709908974,36.38083659539185,1.2035384362179429,-0.2521847018686182,0.6022589111070206,7569.72314453125,12.042333333333334,0.2366666666666666,179.2780449067671,-1.6069295346839083,89.86697546347328,1525.0,1507.0,1200.0,1528.0,1475.0,1018.02,306.0,295.54999999999995,1637188621.1859882,1637188622.2104394,3532e22c-251b-4331-8a6b-582ad10d691c
-0.081874133351232,-0.0201848311452063,-0.0390039031508415,-0.0909138624624381,-0.1607800123400219,0.366838812762112,-0.241836254126456,-0.2720508667416817,-14.254370717577922,21.78739493185795,36.14726302698952,1.1704911280510255,-0.2860984346396209,0.6453107438959829,7491.793836805556,12.040777777777778,0.2422222222222222,179.2818318672069,-1.595603029611683,89.92082619270948,1525.0,1507.0,1200.0,1528.0,1475.0,1018.02,306.0,295.54999999999995,1637188622.3190813,1637188623.4359674,3532e22c-251b-4331-8a6b-582ad10d691c
-0.0827644097559645,-0.0169113535365075,-0.0287725735846017,-0.1062677060000334,-0.1546028639733915,0.376782513487522,-0.2294271706294218,-0.2436852904220983,-14.173149977931288,21.88324538569205,36.092523786157535,1.2286474754382026,-0.2713699871967539,0.6054846483524963,7459.90087890625,12.04211111111111,0.24,179.29519171722345,-1.5863128102596695,89.95575881576454,1525.0,1507.0,1200.0,1528.0,1475.0,1018.02,306.0,295.54999999999995,1637188623.5440922,1637188624.7810583,3532e22c-251b-4331-8a6b-582ad10d691c
-0.0541796906938098,-0.0319638717732512,-0.0699444301694211,-0.670593425934523,-0.2512868807419908,0.9345474185323368,-0.1129790195131357,-0.1368384265232723,-14.005588964575397,20.786320717851307,39.713565334771694,3.74634008582026,-0.2942533423486977,0.6264013124125672,7473.657443576389,12.037222222222224,0.26,179.25793227639116,-1.4017645614123788,89.99500963619488,1525.0,1579.0,1200.0,1528.0,1475.0,1018.02,306.0,295.54999999999995,1637188625.5789213,1637188626.624081,7744cceb-f8e0-47cf-8efc-452739bb6bcf
-0.0580421203050296,-0.0316488509634464,-0.0749984605697449,-0.6659913804149836,-0.2571079189726798,0.931369817199923,-0.1201149270688882,-0.1463164468483309,-13.955594219518964,20.915763953715544,39.8593077018334,3.729473340296858,-0.2956021978288576,0.6516448506721423,7516.617838541667,12.039,0.26,179.26730784939184,-1.3912069032245375,89.90618530276859,1525.0,1579.0,1200.0,1528.0,1475.0,1018.02,306.0,295.54999999999995,1637188626.7335072,1637188627.853728,7744cceb-f8e0-47cf-8efc-452739bb6bcf
-0.0619593362850387,-0.0406611867858458,-0.0773405720963103,-0.6629644401450113,-0.2568887738107135,0.9384372409299432,-0.1199368716287047,-0.1405912843581682,-14.014235470837574,20.90502096528115,39.99693849600417,3.738331331977813,-0.3307300472240281,0.653378972769843,7539.370659722223,12.039222222222223,0.2588888888888889,179.29900751623978,-1.3728753632543274,89.86362715296016,1525.0,1579.0,1200.0,1528.0,1475.0,1018.02,306.0,295.54999999999995,1637188627.961728,1637188629.082204,7744cceb-f8e0-47cf-8efc-452739bb6bcf
-0.0688158337551367,-0.0576131440411833,-0.1103394185784015,-1.169493595399978,-0.3447806990378511,1.440181071303506,-0.0197054515679674,-0.0351420222176642,-14.157539643175912,20.718088802014243,42.91557730309021,6.00593318075931,-0.3588942844549814,0.6729643304702831,7538.63330078125,12.025666666666666,0.3,179.26235368551386,-1.2010605198686122,89.73708347929743,1525.0,1650.0,1200.0,1528.0,1475.0,1018.02,306.0,295.54999999999995,1637188630.0846913,1637188631.2221572,20391b45-36ab-4849-af40-b2dc3ef17003
-0.0394011035256093,-0.046372651944171,-0.1064320641162858,-1.171463162046625,-0.3438208440150348,1.4358962396009811,-0.0183084025388524,-0.0482764743503532,-14.099917640822754,20.74568621711965,43.63366604790796,6.001268431323527,-0.3230171724424288,0.6667263210250675,7543.057454427083,12.027,0.2933333333333333,179.2724487051071,-1.180824768218078,89.52399296084165,1525.0,1650.0,1200.0,1528.0,1475.0,1018.02,306.0,295.54999999999995,1637188631.3302174,1637188632.3627484,20391b45-36ab-4849-af40-b2dc3ef17003
-0.0507281578818881,-0.0558095811870785,-0.1031448898230591,-1.168778634702001,-0.3381230746832555,1.44245689164935,-0.0111451022034623,-0.0257593313342829,-14.04856875081297,20.673004339354865,43.64409239988793,6.009664828621021,-0.3589906041140943,0.6432480731689858,7550.440158420139,12.029111111111112,0.2977777777777777,179.29730755804633,-1.195359908806492,89.36368234974218,1525.0,1650.0,1200.0,1528.0,1475.0,1018.02,306.0,295.54999999999995,1637188632.4701345,1637188633.5872936,20391b45-36ab-4849-af40-b2dc3ef17003
-0.036401557050531,-0.0567272505796306,-0.1242238947877745,-1.63768080249448,-0.4198915448544941,1.8890332622157944,0.0790193435773034,0.0658706469145333,-14.09143221792746,21.20481343073316,45.87756862053448,8.073720255642614,-0.3255196727480493,0.6536571958631986,7550.441460503473,12.003888888888888,0.4111111111111111,179.30836942886214,-1.024965614330499,89.08062944470805,1525.0,1722.0,1200.0,1528.0,1475.0,1018.02,306.0,295.54999999999995,1637188635.5224483,1637188636.5473025,fe0b2ee2-25c1-4e04-9d65-fdcb91efe850
-0.0294847947026994,-0.0446194924002913,-0.1259633578652911,-1.6339690305178936,-0.422425408766705,1.876117403418584,0.0713766639133607,0.054310751456625,-14.270540965299531,21.201538619562907,46.17854684190732,8.036173244302082,-0.2820754196181819,0.6721592145422081,7547.485514322917,12.006333333333332,0.3966666666666667,179.32300576534357,-1.0307183767328445,88.68459003260375,1525.0,1722.0,1200.0,1528.0,1475.0,1018.02,306.0,295.54999999999995,1637188636.655919,1637188637.8887434,fe0b2ee2-25c1-4e04-9d65-fdcb91efe850
-0.0301060706447164,-0.0506706321454204,-0.127537914376825,-1.632367626970856,-0.4234099175996071,1.878558679101748,0.0706129437261431,0.0564649465119215,-14.249507393503816,21.27456704522293,45.88254659022176,8.038415858137942,-0.3025920474378994,0.6755829273564147,7545.26953125,11.999000000000002,0.44,179.3426266220993,-1.0060130133224776,88.37367299139561,1525.0,1722.0,1200.0,1528.0,1475.0,1018.02,306.0,295.54999999999995,1637188637.9977882,1637188639.005633,fe0b2ee2-25c1-4e04-9d65-fdcb91efe850
-0.1384957099774679,-0.0097617498017513,0.0452436301185716,1.0076459465830303,0.0298623946958272,-0.6932612388952043,-0.459844415276637,-0.4858541867803749,-14.435465353868569,24.42642633785149,30.16203404749185,-3.669132831225823,-0.3225474910689024,0.5824494817617162,7543.057454427083,12.047666666666666,0.21,179.31894863297657,-1.874151258876647,87.8832563020698,1525.0,1363.0,1200.0,1528.0,1475.0,1018.02,306.0,295.54999999999995,1637188641.0587132,1637188642.191671,4dcb4c50-a24f-48bc-a395-e3f75b316e23
-0.139290110358547,-0.0193493409727255,0.0386966751341628,1.0045231313902392,0.0243015919161664,-0.6859061839880011,-0.4642684046435318,-0.4975921406047794,-14.471443716767777,24.508681900530974,29.42077667808549,-3.645477718694133,-0.3517115574393996,0.6029546561508785,7543.794813368056,12.046666666666663,0.2077777777777777,179.3037719526408,-1.8757147555822795,88.35116827699032,1525.0,1363.0,1200.0,1528.0,1475.0,1018.02,306.0,295.54999999999995,1637188642.3004868,1637188643.4181323,4dcb4c50-a24f-48bc-a395-e3f75b316e23
-0.1205806100659656,-0.0170757121889315,0.0475857417224628,0.9973735282607604,0.0327797618110179,-0.6747708775302655,-0.4512703674525092,-0.4757324273587437,-14.42909969489474,24.37031033404126,30.4695993448854,-3.604613607637476,-0.3513380146511551,0.5625619658678815,7543.794813368056,12.047777777777778,0.21,179.27303610137577,-1.857550768690146,88.7348435288771,1525.0,1363.0,1200.0,1528.0,1475.0,1018.02,306.0,295.54999999999995,1637188643.5258834,1637188644.6437733,4dcb4c50-a24f-48bc-a395-e3f75b316e23
-0.1553972644957436,-0.0113505505971949,0.0871140095727065,1.5098165723335455,0.1162054995510208,-1.1744764075373162,-0.5659927725410406,-0.5929613058414426,-15.076288016564169,26.5474177661968,27.001045377071623,-5.867942747141527,-0.3550927349793403,0.5573396599424582,7545.26953125,12.037,0.2677777777777778,179.28118982942493,-2.025397497469463,89.21029072027193,1525.0,1291.0,1200.0,1528.0,1475.0,1018.02,306.0,295.54999999999995,1637188645.5574205,1637188646.58899,1f1645c6-b05c-47c4-b3f5-1d1ab7847144
-0.15426045011214,-0.010295915585896,0.0868126853222619,1.5371275126632264,0.1180682315441641,-1.1942268608099045,-0.5729917161688087,-0.5924545333401624,-15.060101442757311,26.657728827354344,27.885340362483475,-5.973066071874705,-0.3624690540737584,0.5667586360742786,7555.619900173611,12.036,0.26,179.2810866176775,-2.0349466236797022,89.44445844359647,1525.0,1291.0,1200.0,1528.0,1475.0,1018.02,306.0,295.54999999999995,1637188646.7023592,1637188647.9297645,1f1645c6-b05c-47c4-b3f5-1d1ab7847144
-0.1542878432515542,-0.0097343566317069,0.077320970283583,1.5464685665819349,0.110589910682644,-1.201102538525201,-0.585510374544162,-0.5985905931029235,-15.191850625988229,26.656698181207464,28.124745501232947,-6.010095379763274,-0.3633040452163684,0.6081023333802819,7628.09130859375,12.034888888888888,0.2688888888888889,179.27958397606005,-2.0488477899039057,89.63936775739158,1525.0,1291.0,1200.0,1528.0,1475.0,1018.02,306.0,295.54999999999995,1637188648.0604906,1637188649.040139,1f1645c6-b05c-47c4-b3f5-1d1ab7847144
-0.181557693567882,-0.0051323128590867,0.1173971001744211,2.0599800715325185,0.1937143223374847,-1.7023286456124185,-0.7038760757155241,-0.727064359093534,-16.09331171644474,29.112476401366763,24.409691964303644,-8.277544310660877,-0.3673788334018422,0.6069645399032089,7607.7841796875,12.024444444444445,0.3077777777777777,179.30887941632014,-2.245694766705123,89.9682603386754,1525.0,1219.0,1200.0,1528.0,1475.0,1018.02,306.0,295.54999999999995,1637188651.0871804,1637188652.1120412,b78566a2-5787-4657-9f83-e000d4e70b2a
-0.1658203464400178,0.0202885002620306,0.1332988043494516,2.020862684245844,0.1992614283365449,-1.691686404808059,-0.6848241554192255,-0.7118748705573129,-15.820654575809211,28.99067521515808,24.47732642728718,-8.165258138784141,-0.2687423660011827,0.5536765264596876,7571.93115234375,12.026000000000002,0.3,179.30339856896614,-2.247109327341354,90.133910639886,1525.0,1219.0,1200.0,1528.0,1475.0,1018.02,306.0,295.54999999999995,1637188652.220332,1637188653.3411238,b78566a2-5787-4657-9f83-e000d4e70b2a
-0.1637757240179684,0.015809177667141,0.1300187525846146,2.0168830106273776,0.1964722612592881,-1.6793085342534877,-0.6834517596444795,-0.7090654308496807,-15.704495178682516,28.92544764477992,25.08450942391161,-8.128906708231545,-0.2914652053799513,0.5603800344003433,7550.441460503473,12.026,0.3011111111111111,179.26681911141122,-2.226448787727908,90.2397527690843,1525.0,1219.0,1200.0,1528.0,1475.0,1018.02,306.0,295.54999999999995,1637188653.4496517,1637188654.6823366,b78566a2-5787-4657-9f83-e000d4e70b2a
-0.2003219806043802,0.0097421499981706,0.1565692567443657,2.485902206719294,0.2590195105768643,-2.132798501843208,-0.8061483231201644,-0.8315691486286072,-16.6226784740082,31.833202380995107,20.771436441578064,-10.186503435954956,-0.3255087430908614,0.6091505028179497,7525.396484375,12.02,0.3422222222222222,179.3024256464644,-2.4537230477688663,90.45063561861838,1525.0,1148.0,1200.0,1528.0,1475.0,1018.02,306.0,295.54999999999995,1637188656.61675,1637188657.7538393,633d763a-2211-4a16-9512-b31fc39bee52
-0.1761749457036998,0.0297802154524347,0.1638695222705133,2.478506059481125,0.2632380504157619,-2.139235897609208,-0.8006423038240703,-0.8254330880107092,-16.57986802223274,31.616367474805344,21.73032818099512,-10.185184745400262,-0.2577857051823496,0.5894453568355892,7525.396484375,12.021,0.3299999999999999,179.2995766986706,-2.4699714749059614,90.5533062633121,1525.0,1148.0,1200.0,1528.0,1475.0,1018.02,306.0,295.54999999999995,1637188657.8628082,1637188658.9832103,633d763a-2211-4a16-9512-b31fc39bee52
-0.199596062981789,0.0117418475896971,0.1578978228923042,2.48072490353385,0.2610192080074261,-2.1249640546858224,-0.8005601244796021,-0.8220774293789916,-16.53814176937443,31.60030382039012,21.51450274520884,-10.15853641586295,-0.3244750581928718,0.5980587590358423,7525.396484375,12.022111111111112,0.3255555555555556,179.28546704566517,-2.453415926415562,90.65466019931584,1525.0,1148.0,1200.0,1528.0,1475.0,1018.02,306.0,295.54999999999995,1637188659.092345,1637188660.3003292,633d763a-2211-4a16-9512-b31fc39bee52
-0.0976662661940752,-0.0250881991871172,0.0035923950917923,0.3739747192536292,-0.0736835908902946,-0.0661230902921001,-0.3260153149467437,-0.3490392341906108,-14.467541688834215,23.23270598960777,34.59603050558609,-0.8397592475130633,-0.3437445847541145,0.5890246159183002,7521.728949652777,12.048444444444446,0.21,179.29034076509294,-1.826221355013467,90.74427835250565,1525.0,1435.0,1200.0,1528.0,1475.0,1018.02,306.0,295.54999999999995,1637188661.1225634,1637188662.2603896,958cfc7f-de35-4823-891e-6bc4811dc2d5
-0.116786663160137,-0.0267317862547666,0.0038663262732279,0.3943825900112332,-0.0696294093026335,-0.0802305461343597,-0.3287546270745627,-0.3498473316249549,-14.494383671312306,23.14313369715022,35.02456744614292,-0.9180210868301928,-0.3560139656998524,0.5876319408461824,7537.162543402777,12.044888888888888,0.2011111111111111,179.28888669370963,-1.8078310232413384,90.80281762715212,1525.0,1435.0,1200.0,1528.0,1475.0,1018.02,306.0,295.54999999999995,1637188662.3685863,1637188663.4887335,958cfc7f-de35-4823-891e-6bc4811dc2d5
-0.1025833309861376,-0.016842870744735,0.0023460082663467,0.3890546290864207,-0.0763681164456658,-0.088544357669993,-0.3353015830926189,-0.360338897141592,-14.407396843670533,23.391306538662587,34.48847664192336,-0.9231569598971624,-0.3142250174133279,0.6085568469378201,7558.5771484375,12.04711111111111,0.2,179.28603167463655,-1.808462602296153,90.85231373133746,1525.0,1435.0,1200.0,1528.0,1475.0,1018.02,306.0,295.54999999999995,1637188663.5979793,1637188664.7236865,958cfc7f-de35-4823-891e-6bc4811dc2d5
-0.0129941378292136,0.0262465033004569,0.2686207976801587,0.3597166028184218,0.1650611228608719,-0.11234897780858,-0.0593706865038575,-0.0816412927051452,-12.760625496072004,23.1038424787052,35.347593016190686,-0.898150756708754,-0.151395770587693,-0.4686692614572869,7560.0595703125,12.046444444444443,0.2,179.30645090461525,-1.8218050922485576,90.87815309587754,1525.0,1435.0,1200.0,1454.0,1475.0,1018.02,306.0,295.54999999999995,1637188665.5095603,1637188666.6531117,56e6fbaa-1296-43ec-93aa-76bfa9e7c1a1
-0.0128297790141216,0.0227538807922633,0.2668265485855267,0.3568129325795368,0.1602947205410831,-0.1155128831608168,-0.0609183977572536,-0.0757243786748781,-12.436016609394144,23.268927964172857,34.01544385314342,-0.8977544282623701,-0.1547393680962001,-0.4596955727398997,7565.248046875,12.047555555555554,0.2,179.31224138721163,-1.8205247875182,90.9355426220137,1525.0,1435.0,1200.0,1454.0,1475.0,1018.02,306.0,295.54999999999995,1637188666.761185,1637188667.7891395,56e6fbaa-1296-43ec-93aa-76bfa9e7c1a1
-0.0268824485654112,0.0142072281933684,0.2633887126053272,0.3666333643806653,0.1627464045236098,-0.110705390741323,-0.063383778297062,-0.0988578673378972,-12.789242275904211,23.15277512456249,34.774043868212175,-0.9101018910751136,-0.1924469357196357,-0.4549159783726564,7571.93115234375,12.047333333333334,0.2,179.30394043064035,-1.829753155712729,90.97941748051214,1525.0,1435.0,1200.0,1454.0,1475.0,1018.02,306.0,295.54999999999995,1637188667.897868,1637188669.2234552,56e6fbaa-1296-43ec-93aa-76bfa9e7c1a1
0.0662470049057592,0.0528124675589406,0.5390426517423806,0.3441275382339124,0.4094136685982116,-0.1400303202554965,0.2207870579618779,0.1912882438885551,-10.672129236789628,23.20696754315343,35.17966292810748,-0.910015960664848,-0.0459863556080384,-1.5647267920164154,7571.93115234375,12.046333333333331,0.2133333333333333,179.28534865571953,-1.810460669787728,90.93310879793948,1525.0,1435.0,1200.0,1380.0,1475.0,1018.02,306.0,295.54999999999995,1637188671.0452302,1637188672.1831863,09ad3c61-9cce-45f4-93b0-8a1ddf6f0fd9
0.0715547190657487,0.0667746202165509,0.5374705251741098,0.3395552699612265,0.4058466086509577,-0.1510965448824104,0.2144372146374762,0.1792370597916931,-10.81896518587362,23.1592547751262,34.92377965638673,-0.9250786058379604,0.0101498319785283,-1.547479194594965,7571.93115234375,12.041999999999998,0.2177777777777777,179.30811443513312,-1.806261265528966,90.95048024572854,1525.0,1435.0,1200.0,1380.0,1475.0,1018.02,306.0,295.54999999999995,1637188672.291622,1637188673.4123087,09ad3c61-9cce-45f4-93b0-8a1ddf6f0fd9
0.0559406423416882,0.0456271338503039,0.5279651143884513,0.3437738098179007,0.400326895965417,-0.1343319557615568,0.2106569645975458,0.1765936243835083,-10.81197646679437,23.24339368547741,34.86142951061658,-0.8968442880323715,-0.0697835140923009,-1.5242613982151756,7578.6259765625,12.045444444444444,0.21,179.2927176709241,-1.8026702698568973,90.97606992890891,1525.0,1435.0,1200.0,1380.0,1475.0,1018.02,306.0,295.54999999999995,1637188673.5209172,1637188674.749014,09ad3c61-9cce-45f4-93b0-8a1ddf6f0fd9
0.1641571499519723,0.1139181743968268,0.8341790456247135,0.3258724089167423,0.6744634910008823,-0.2022668921050164,0.5134604601711036,0.493189555155936,-8.945526375611763,23.1252472940873,34.709152531092265,-0.993742533934805,0.1961031329991745,-2.736931073315276,7577.882107204861,12.041444444444444,0.22,179.27095213476898,-1.8211621769769952,90.92328319136344,1525.0,1435.0,1200.0,1306.0,1475.0,1018.02,306.0,295.54999999999995,1637188675.5520332,1637188676.596348,de19ea65-85ec-4d32-ad0b-062e5aac573c
0.1824283585345909,0.1143290711259309,0.8200578949738989,0.2891930273055879,0.652850323652182,-0.1851735854058824,0.5050370774227516,0.4781096455507627,-8.587292983112649,23.256243688305787,32.30599015874217,-0.8726293935455475,0.2200309580645119,-2.679715953526319,7528.477213541667,12.04211111111111,0.2255555555555556,179.30428497573843,-1.8165623765940764,90.91000909816648,1525.0,1435.0,1200.0,1306.0,1475.0,1018.02,306.0,295.54999999999995,1637188676.7050755,1637188677.825147,de19ea65-85ec-4d32-ad0b-062e5aac573c
0.1458585482135016,0.1051523770426978,0.8076488140310548,0.2858373706773343,0.6449337135574815,-0.1577667694903814,0.4995173648020452,0.4764797551717727,-8.842345818862244,23.115758694158583,34.41734402210702,-0.8048140860235805,0.1683292021786142,-2.642442038542597,7389.16064453125,12.04,0.23,179.31530586541925,-1.8137994227791987,90.90528943745,1525.0,1435.0,1200.0,1306.0,1475.0,1018.02,306.0,295.54999999999995,1637188677.933156,1637188679.053934,de19ea65-85ec-4d32-ad0b-062e5aac573c
0.2426504803564179,0.1477431947244886,1.0703739896217024,0.2989926405085891,0.8806120187788808,-0.2243386248135214,0.7524122419957441,0.7268117328811061,-7.231097432022357,23.688295538848312,34.57779430743303,-0.9663709856893932,0.3302899664135187,-3.675249218664731,7442.629069010417,12.036,0.2533333333333333,179.31509640628468,-1.82548530726666,90.81789489028996,1525.0,1435.0,1200.0,1232.0,1475.0,1018.02,306.0,295.54999999999995,1637188681.0807655,1637188682.217841,c50799e4-080b-412d-98f9-551cbff8044a
0.2401127820351185,0.1503466364539807,1.0797095635127163,0.296205117083982,0.8885538306591834,-0.2259953606033271,0.7607879607192026,0.7298753788026369,-7.260245820648577,23.73822981632985,34.40785709645988,-0.9630518142402292,0.3427027863753251,-3.710706891340489,7476.5390625,12.036333333333332,0.25,179.31650190743392,-1.8182227291766893,90.74199251586342,1525.0,1435.0,1200.0,1232.0,1475.0,1018.02,306.0,295.54999999999995,1637188682.3267505,1637188683.4470413,c50799e4-080b-412d-98f9-551cbff8044a
0.258307289567221,0.1548571870160327,1.0851273739792182,0.3040263994141993,0.8933618702059745,-0.2351386362845153,0.7651210035850995,0.7339202461364766,-7.037578298642832,23.67488709903168,34.79706613406963,-1.001216880642806,0.3539739762933178,-3.729465003219826,7493.962076822917,12.037666666666668,0.2477777777777777,179.3270887006474,-1.827011356511531,90.71638765448486,1525.0,1435.0,1200.0,1232.0,1475.0,1018.02,306.0,295.54999999999995,1637188683.555726,1637188684.788952,c50799e4-080b-412d-98f9-551cbff8044a
-0.2057458184147844,-0.0618360671032424,-0.3217830775997439,0.4283089628712705,-0.3712139660595099,-0.0647945239069387,-0.6762227133170765,-0.6868786409515972,-16.63294148295113,23.877963802305995,34.18187497211044,-0.9724185832300052,-0.4898804496478309,1.93008168417689,7538.63330078125,12.045,0.21,179.34568654684745,-1.821953601431136,90.96691140414184,1525.0,1435.0,1200.0,1602.0,1475.0,1018.02,306.0,295.54999999999995,1637188686.4961631,1637188687.4479306,d4d6fbbe-e777-4230-8af8-9e157d91e940
-0.2063210739459167,-0.0616717084422291,-0.3114832640307235,0.4306784672981161,-0.3631466916516195,-0.0614799567088351,-0.6660461665479898,-0.6778526055034391,-16.497111374519196,24.05698575013379,35.06156560134514,-0.9684071083593366,-0.4976578000673934,1.891867655728696,7614.554524739583,12.042333333333334,0.21,179.33397049569118,-1.808221363809218,90.94594727684937,1525.0,1435.0,1200.0,1602.0,1475.0,1018.02,306.0,295.54999999999995,1637188687.555907,1637188688.5941267,d4d6fbbe-e777-4230-8af8-9e157d91e940
-0.207019598589899,-0.0671366355497405,-0.3143458451825713,0.4326096818861502,-0.3620098770558232,-0.0578366719558812,-0.6662105252038861,-0.6921244251841578,-16.642601385561345,23.84585899512042,35.0627461802682,-0.9661916779927392,-0.5175581470808849,1.893797545175382,7653.824435763889,12.044555555555554,0.21,179.3239058324942,-1.8130150656735744,90.92562898188838,1525.0,1435.0,1200.0,1602.0,1475.0,1018.02,306.0,295.54999999999995,1637188688.7022064,1637188689.7925596,d4d6fbbe-e777-4230-8af8-9e157d91e940
-0.3143732384870466,-0.1217037278564541,-0.6242716480415084,0.5064204296821359,-0.6387215223258059,-0.0582475686882366,-0.9987905254117828,-1.0220472991287926,-18.80435756391689,24.48551663497857,34.59627066218533,-1.1459683810630106,-0.7315076581797184,3.1582871885751254,7651.541558159723,12.035111111111112,0.24,179.36951783577152,-1.853720360658108,90.95136968814045,1525.0,1435.0,1200.0,1676.0,1475.0,1018.02,306.0,295.54999999999995,1637188691.5103943,1637188692.5710385,67833e1c-6202-4584-b873-53b871ad6b53
-0.315414176941087,-0.1280452349240803,-0.6237922683494541,0.4961206185147198,-0.6379819079541149,-0.0420993257235786,-0.9939830302523226,-1.0216911866536458,-18.892301097300592,24.50199431560792,34.680843776488764,-1.0863449570945896,-0.754120495177137,3.1489748974463283,7630.35888671875,12.038666666666664,0.2322222222222222,179.3743824482804,-1.8508199255702484,90.84892595750917,1525.0,1435.0,1200.0,1676.0,1475.0,1018.02,306.0,295.54999999999995,1637188692.6794312,1637188693.8908975,67833e1c-6202-4584-b873-53b871ad6b53
-0.3151950320016871,-0.1206353962712618,-0.6227513296051549,0.4939154728117261,-0.6409540623298208,-0.0518238825422945,-0.9956677080846124,-1.0276218010776397,-18.642801140251866,24.60578641409911,34.037201479320004,-1.102460192487469,-0.7220511581589167,3.154104126057506,7610.778211805556,12.038777777777776,0.2322222222222222,179.3764117733738,-1.856649610606528,90.78774036401424,1525.0,1435.0,1200.0,1676.0,1475.0,1018.02,306.0,295.54999999999995,1637188693.9989846,1637188695.1214716,67833e1c-6202-4584-b873-53b871ad6b53
-0.4244114104099731,-0.1820644662657417,-0.9250892995178094,0.566192205802429,-0.9099956836063122,-0.0468383350120759,-1.3187971699179808,-1.3461081345682613,-20.7947381956856,25.32870883402624,33.24599983108181,-1.265767028006822,-0.9582574051533564,4.383019260326609,7571.978515625,12.029,0.2766666666666666,179.3984019468616,-1.869839346224057,90.73230351307082,1525.0,1435.0,1200.0,1750.0,1475.0,1018.02,306.0,295.54999999999995,1637188697.0557785,1637188698.3053322,3daf8298-f671-4a00-a083-5d80f719f97f
-0.4165495840206617,-0.1681624580654029,-0.9086671167153016,0.5621106317409542,-0.8965456556177044,-0.0538235801709533,-1.3040048729972982,-1.3258098161033591,-20.718986836367858,25.22333539478777,33.775827931101915,-1.2720150046997094,-0.9098066037491068,4.323743368722381,7525.396484375,12.028444444444444,0.27,179.38391132108245,-1.841863626577658,90.58752475214396,1525.0,1435.0,1200.0,1750.0,1475.0,1018.02,306.0,295.54999999999995,1637188698.413134,1637188699.422015,3daf8298-f671-4a00-a083-5d80f719f97f
-0.4241374791070882,-0.1855570890153666,-0.9231854766498998,0.5769029135968509,-0.9027091102197162,-0.0552343259311169,-1.317139884594791,-1.3359315818981832,-21.005503931125403,25.0615824553535,32.98624662464493,-1.3106181889351962,-0.9687654852346808,4.367407128498299,7512.20556640625,12.02988888888889,0.2744444444444445,179.40328325538843,-1.863152425015072,90.47033084854507,1525.0,1435.0,1200.0,1750.0,1475.0,1018.02,306.0,295.54999999999995,1637188699.5294447,1637188700.7642968,3daf8298-f671-4a00-a083-5d80f719f97f
-0.478553918793797,-0.1959664744633068,-1.14545337735552,0.6742717392005596,-1.1086506967779213,-0.1153211314680327,-1.5832916995525792,-1.6041515870688383,-22.55382435501539,26.36923144967903,33.85208887206566,-1.6683217381320896,-1.030578925507714,5.3290220396163095,7592.05126953125,12.013777777777776,0.3377777777777778,179.4176403130238,-1.8538791862722448,90.32718374391992,1525.0,1435.0,1200.0,1824.0,1475.0,1018.02,306.0,295.54999999999995,1637188702.518964,1637188703.630299,360f6566-cb99-45f1-bad5-8ae8b52eeaef
-0.5005916871697532,-0.2032119547040553,-1.150685466351953,0.6763262227934449,-1.1147182765963717,-0.111239556602335,-1.586948685036397,-1.611136840574474,-22.323779231859984,26.522474892079327,33.65485839846802,-1.6629446006912236,-1.0582160742829785,5.348586100023234,7592.05126953125,12.011888888888889,0.3611111111111111,179.39763848349438,-1.8448327667281053,90.1133472170248,1525.0,1435.0,1200.0,1824.0,1475.0,1018.02,306.0,295.54999999999995,1637188703.739233,1637188704.686942,360f6566-cb99-45f1-bad5-8ae8b52eeaef
-0.4886482850387469,-0.2007328773383035,-1.1429469053170471,0.6539871379022464,-1.1054046103245,-0.0991044049090826,-1.5710058719592708,-1.5927560357643646,-22.39012417561293,25.995125167171683,32.89931676912909,-1.5885481625422564,-1.0385200478001655,5.301861380576729,7612.279296875,12.015,0.3400000000000001,179.38262420987888,-1.853860403252028,89.92046495159337,1525.0,1435.0,1200.0,1824.0,1475.0,1018.02,306.0,295.54999999999995,1637188704.794701,1637188705.981097,360f6566-cb99-45f1-bad5-8ae8b52eeaef
-0.1124037641124131,-0.0317173337113534,0.004414188569875,0.3833020749746952,-0.0524950139139364,-0.0659861245955819,-0.3006492846082699,-0.3263440331869129,-14.037857069390506,20.96987787546966,35.03862298108441,-0.8751644936378281,-0.3767064336410682,0.5240620809910381,8845.6416015625,11.877111111111113,6.199999999999999,179.75900254300234,-2.052128652298973,77.95839417594384,1525.0,1435.0,1350.0,1528.0,1475.0,1018.02,306.0,295.54999999999995,1637188710.0246992,1637188711.0032873,d965cda0-862c-40bb-8c4d-8f04ec106042
-0.1100616524233633,-0.0406885799549661,-0.0095015151225947,0.3813708603576518,-0.0662600557446989,-0.0610690598778527,-0.3125515956305316,-0.3477517577468459,-13.90096752980673,21.0669877213312,34.13445635694493,-0.8598832245728351,-0.4039520866948211,0.5764037287175058,8845.6416015625,11.877444444444446,6.19888888888889,179.87183726809093,-2.068275575235903,72.98694081244223,1525.0,1435.0,1350.0,1528.0,1475.0,1018.02,306.0,295.54999999999995,1637188711.1113043,1637188712.2322018,d965cda0-862c-40bb-8c4d-8f04ec106042
-0.1152937381221325,-0.0373055298192205,-0.0086523285061669,0.3809462670820472,-0.0668216146664493,-0.0627126469437816,-0.3127433475531515,-0.33435652185865,-13.848066225137933,21.11585556353929,34.318000912753014,-0.8621966838741786,-0.393157825815461,0.576965510156488,8845.6416015625,11.880111111111113,6.194444444444445,179.91108657070149,-2.059191945390348,68.57306614728508,1525.0,1435.0,1350.0,1528.0,1475.0,1018.02,306.0,295.54999999999995,1637188712.3409774,1637188713.4667425,d965cda0-862c-40bb-8c4d-8f04ec106042
-0.003639388153377,0.1566925258227608,0.0006750280543502,0.2859469432166375,-0.1000357709087884,-0.1578763417127329,-0.3444782789025595,-0.3810070088899539,-13.89335121936349,20.4712806161517,35.29698150657271,-0.8654222780721724,0.3383734916551061,0.6789284226030482,8845.6416015625,11.869666666666667,6.262222222222222,179.83848773110353,-2.0417746784155995,60.04488056595854,1559.0,1435.0,1350.0,1528.0,1502.0,1018.02,306.0,295.54999999999995,1637188715.600442,1637188716.6253154,63e92346-9296-4a37-ab36-3e10dc781d49
-0.0036667811197293,0.1610480313403695,0.0017707528050272,0.2755238627172698,-0.1027202964946455,-0.1577941623286163,-0.3445193685343273,-0.3637767343740583,-13.834390912490433,20.61259443139561,34.553404614240016,-0.8408231992935177,0.3622374461507085,0.680519863906814,8845.6416015625,11.869999999999996,6.27,179.81525749882638,-2.015531621236464,57.695989894039776,1559.0,1435.0,1350.0,1528.0,1502.0,1018.02,306.0,295.54999999999995,1637188716.7337444,1637188717.850253,63e92346-9296-4a37-ab36-3e10dc781d49
0.0057109786825156,0.1728966497941219,0.0085247998655864,0.2762716948143713,-0.0968883015404152,-0.1685092549956133,-0.3405468180318873,-0.3533930971223216,-13.854958329625711,20.469525875866147,34.82142639664253,-0.867168110390116,0.4047807401610589,0.6595764977774182,8854.779296875,11.868444444444444,6.328888888888888,179.76038527685432,-1.9717556581853823,55.69450047769069,1559.0,1435.0,1350.0,1528.0,1502.0,1018.02,306.0,295.54999999999995,1637188717.9584444,1637188719.1961308,63e92346-9296-4a37-ab36-3e10dc781d49
0.1808669507529907,0.4862043110428213,0.0213157421323874,0.1081519231503474,-0.1599171291103591,-0.3185095997562481,-0.39119724882213,-0.4267261303759393,-13.297918322986485,19.642848020716126,34.99172888216742,-0.8295375950401361,1.5959189803836116,0.8375091999162697,8854.779296875,11.863222222222223,6.326666666666667,179.482674338661,-1.890945531964912,52.05371026011527,1593.0,1435.0,1350.0,1528.0,1529.0,1018.02,306.0,295.54999999999995,1637188721.0090003,1637188722.0621336,b5d2fb12-465a-49d2-9052-0e1d39c8390a
0.2061507969940862,0.5094884585628607,0.0345192247816289,0.0944005785737549,-0.1557122852345967,-0.3304530007733258,-0.3820342493089466,-0.4043459480512199,-12.945947583151048,19.719197064036035,34.82042967506873,-0.8240429082275152,1.6848071584805673,0.8034081066677633,8854.779296875,11.862666666666668,6.336666666666667,179.41942071566746,-1.8658813938956424,51.11449701862608,1593.0,1435.0,1350.0,1528.0,1529.0,1018.02,306.0,295.54999999999995,1637188722.1704865,1637188723.1835945,b5d2fb12-465a-49d2-9052-0e1d39c8390a
0.1830857932595822,0.5029962903846852,0.0238906950945396,0.1017282371695219,-0.1607526193530767,-0.3275904195057133,-0.3927175673395635,-0.4103039525055458,-13.339637933983092,19.599738831579163,35.203555696993526,-0.8355979424743186,1.6582703782090047,0.8395646212148992,8863.9375,11.864555555555556,6.33,179.38682098166888,-1.8373004198818543,50.18855445523927,1593.0,1435.0,1350.0,1528.0,1529.0,1018.02,306.0,295.54999999999995,1637188723.292715,1637188724.5199687,b5d2fb12-465a-49d2-9052-0e1d39c8390a
0.3705779729530189,0.8247832072652939,0.0481199074911821,-0.0566176782170436,-0.2146348857464286,-0.4964416287711623,-0.4378614336244417,-0.4537905357309467,-12.674919798382987,18.883424591292087,35.2180086454565,-0.8610447394938981,2.8813537797051194,0.9825294640321895,8900.75390625,11.856444444444444,6.361111111111111,179.0981513844073,-1.7984727391569706,48.39766443557368,1627.0,1435.0,1350.0,1528.0,1556.0,1018.02,306.0,295.54999999999995,1637188726.6598413,1637188727.797406,160048e0-544b-4f00-a7cc-a718a4b0e927
0.3689480826277081,0.8292756780787842,0.0401211171853565,-0.0632605094388823,-0.2232363255084271,-0.4916752252570853,-0.4437509552171055,-0.4583651873286438,-12.589985432801225,18.743303474381992,35.59929953467534,-0.8365730270431886,2.894531178254532,1.01467361805579,8891.521484375,11.856777777777776,6.35,179.06946307207343,-1.7853516137382917,47.846617674805486,1627.0,1435.0,1350.0,1528.0,1556.0,1018.02,306.0,295.54999999999995,1637188727.9050798,1637188729.1183555,160048e0-544b-4f00-a7cc-a718a4b0e927
0.3651130465129888,0.8305220648017869,0.0402580828625171,-0.0682049672192744,-0.2266467688955753,-0.4924833223265719,-0.4444083900548596,-0.4574475174721925,-12.398085357736846,18.925801104180195,35.00591116661851,-0.8260168168170895,2.9037273973586,1.0193979504752924,8891.521484375,11.857,6.3533333333333335,179.02238637267408,-1.779478504825727,47.43111374138646,1627.0,1435.0,1350.0,1528.0,1556.0,1018.02,306.0,295.54999999999995,1637188729.2274983,1637188730.3432758,160048e0-544b-4f00-a7cc-a718a4b0e927
0.5414014370978485,1.1270799309885453,0.058419719546307,-0.2041707141251602,-0.2784060702131967,-0.6494596281785517,-0.4933599021891457,-0.508439818519562,-12.04609950699288,18.349412949015235,36.08531581960073,-0.8746254970686979,4.021823565107966,1.1715326927770748,8895.624782986111,11.849888888888891,6.418888888888889,178.87428510417098,-1.72900606304401,46.6932112187645,1661.0,1435.0,1350.0,1528.0,1583.0,1018.02,306.0,295.54999999999995,1637188732.0136032,1637188733.2138605,c0f1e951-6945-4206-a5f1-a498970833c7
0.5355119174624806,1.1294220424355446,0.0659391302037681,-0.2091151721660629,-0.2723658870840729,-0.6489117655059067,-0.4859774552657169,-0.5054950573810172,-12.058846043439482,18.38058805845652,35.899357194727806,-0.8616958696958794,4.0334322583428674,1.1425009843480822,8900.75390625,11.851333333333336,6.389999999999999,178.8547780839014,-1.7142417672373484,46.483188214155966,1661.0,1435.0,1350.0,1528.0,1583.0,1018.02,306.0,295.54999999999995,1637188733.322614,1637188734.347316,c0f1e951-6945-4206-a5f1-a498970833c7
0.535629707834329,1.1287541982338831,0.0652877218519095,-0.2010785786284058,-0.2721078439235751,-0.6538803308655949,-0.4858399418343541,-0.5067332260934346,-11.840047664349822,18.278769661590307,36.1499680874558,-0.891546801401821,4.0261251781126255,1.1433795917773828,8900.75390625,11.851,6.342222222222222,178.8020900046439,-1.7220958207366936,46.251898656656685,1661.0,1435.0,1350.0,1528.0,1583.0,1018.02,306.0,295.54999999999995,1637188734.4549503,1637188735.58089,c0f1e951-6945-4206-a5f1-a498970833c7
-0.2104362676671252,-0.2301443722972037,-0.0145057397241157,0.4397518140719045,-0.0319576461189169,0.0477115009666853,-0.2702479007439172,-0.3060631638494451,-13.904642198114294,21.466663465308294,30.992242600179,-0.7452343228611227,-1.09414953439021,0.4492617676269519,8873.111328125,11.868555555555556,6.314444444444444,179.17462977145385,-1.6813036779995891,45.78645921021572,1491.0,1435.0,1350.0,1528.0,1448.0,1018.02,306.0,295.54999999999995,1637188737.7194483,1637188738.744156,9c7bb83a-d9fd-4c52-b081-4ce6b8d85c15
-0.2306598610793755,-0.2337278905017114,-0.0234035224117865,0.4511822137903225,-0.0374424953781817,0.0437917948937779,-0.2797620296732553,-0.3020874240488257,-13.96260272851211,21.381887776439942,31.362389688744653,-0.7808018178021445,-1.1124331169169828,0.482590017131403,8863.9375,11.870666666666668,6.3244444444444445,179.15124016809608,-1.6695562625197613,45.72778522906063,1491.0,1435.0,1350.0,1528.0,1448.0,1018.02,306.0,295.54999999999995,1637188738.8523085,1637188740.085685,9c7bb83a-d9fd-4c52-b081-4ce6b8d85c15
-0.2179494533257299,-0.2217434004191836,-0.0246225161875842,0.4478539503206352,-0.0407159730259072,0.0355464666180895,-0.2860624474881975,-0.3047445567983145,-14.155529917523388,21.429532204313755,31.39537088487711,-0.7916591387360462,-1.0660775021070024,0.4989936735481226,8869.034071180555,11.866,6.341111111111111,179.13426942473836,-1.6867470067450046,45.68338975836545,1491.0,1435.0,1350.0,1528.0,1448.0,1018.02,306.0,295.54999999999995,1637188740.194377,1637188741.311389,9c7bb83a-d9fd-4c52-b081-4ce6b8d85c15
-0.2977045241624003,-0.3739258850773401,-0.0306079125187467,0.5352379863142771,-0.0099671982060263,0.1068918398970144,-0.2638055368509266,-0.300156208914952,-14.521577985292115,21.981741351969447,31.83686559597088,-0.825204788865133,-1.649305426299221,0.4160745476060796,8865.976128472223,11.859666666666666,6.397777777777779,179.16359673921457,-1.6735747734872233,45.599554878127854,1457.0,1435.0,1350.0,1528.0,1421.0,1018.02,306.0,295.54999999999995,1637188742.0204356,1637188743.1583614,da361994-f15d-4bcd-9cbc-e56c8089eb9e
-0.3027585549156495,-0.3957719002328537,-0.0357167289638075,0.5308139982898229,-0.0118573232986266,0.1272038359119371,-0.2594363340631564,-0.2908151543419828,-14.340661265304028,21.92472935659717,31.09964208522452,-0.7702403617961954,-1.7257679070821188,0.4158200010814681,8873.111328125,11.861333333333333,6.3966666666666665,179.16626203081069,-1.6913686732196416,45.52807505118889,1457.0,1435.0,1350.0,1528.0,1421.0,1018.02,306.0,295.54999999999995,1637188743.2668116,1637188744.3871696,da361994-f15d-4bcd-9cbc-e56c8089eb9e
-0.3071140611971045,-0.3890331920856182,-0.0290054150796008,0.5365254626822648,-0.006570451596927,0.1175888519557768,-0.2571627050655599,-0.2874184076310628,-14.383846143686648,22.028781173436627,31.45244692557281,-0.8036717272577812,-1.7035908802262834,0.397523826005034,8873.111328125,11.862000000000002,6.335555555555556,179.17222402704616,-1.685461010190338,45.537111012005866,1457.0,1435.0,1350.0,1528.0,1421.0,1018.02,306.0,295.54999999999995,1637188744.4958851,1637188745.615081,da361994-f15d-4bcd-9cbc-e56c8089eb9e
-0.4824300459360532,-0.7018215910728784,-0.0583982307583566,0.6817089697935609,0.0379022747690455,0.286056515630254,-0.2204970134226493,-0.2415486274457479,-15.156568669324775,22.921574197191603,30.860130002692983,-0.7486293354425216,-2.885742123984432,0.2864952167046685,8883.330512152777,11.853111111111112,6.417777777777777,179.23732635457512,-1.7023495066868408,45.53810859907965,1423.0,1435.0,1350.0,1528.0,1394.0,1018.02,306.0,295.54999999999995,1637188746.530058,1637188747.550738,7a5ecb65-4698-48eb-a46b-20c08114b814
-0.4836309604873755,-0.6992039037905525,-0.0713009373987801,0.6814881812869795,0.0253682799527477,0.2846211164756322,-0.2318991257602214,-0.2446928094603087,-14.969548743750764,22.750421528272497,30.89925315034735,-0.7530335070698247,-2.878388315309412,0.3379599747364441,8891.521484375,11.855,6.4,179.26714392485175,-1.6957101596426998,45.53507865127283,1423.0,1435.0,1350.0,1528.0,1394.0,1018.02,306.0,295.54999999999995,1637188747.659405,1637188748.7803276,7a5ecb65-4698-48eb-a46b-20c08114b814
-0.4719658725297506,-0.7001506103155098,-0.0637535854144296,0.6959122996725492,0.0350807836398062,0.2755101661829709,-0.2285916804365645,-0.2590117415000694,-15.185556402924568,22.835909170339693,31.401992290143387,-0.8051303836195984,-2.8861619615935883,0.3102690692374788,8891.521484375,11.852333333333334,6.431111111111111,179.31212755072545,-1.69655781457782,45.562078389061895,1423.0,1435.0,1350.0,1528.0,1394.0,1018.02,306.0,295.54999999999995,1637188748.889289,1637188750.1212556,7a5ecb65-4698-48eb-a46b-20c08114b814
-0.6166426624729907,-0.952509825492838,-0.0724098108314354,0.809716994212328,0.0805259649776024,0.4095857688344011,-0.181694659127293,-0.2096082491668279,-15.184252615296217,23.705894200707565,30.345764995396788,-0.7553916097724073,-3.83785616157605,0.1620156090148894,8891.521484375,11.842777777777776,6.467777777777778,179.42707659881717,-1.718290089134625,45.59568140195854,1389.0,1435.0,1350.0,1528.0,1367.0,1018.02,306.0,295.54999999999995,1637188751.031522,1637188752.3739684,f1ce338a-3562-43f5-a908-d3ddefa6904b
-0.6165878761760971,-0.949099380473286,-0.0679721256855547,0.8101004978355952,0.0826763246448015,0.4058876982685506,-0.1798319269860739,-0.2066497922285111,-15.15568337231602,23.865008667416006,30.367474912088785,-0.7632731604907942,-3.8252227331944937,0.1507868767461993,8888.449869791666,11.844333333333331,6.476666666666667,179.43472944632717,-1.7120833207379187,45.591509294740526,1389.0,1435.0,1350.0,1528.0,1367.0,1018.02,306.0,295.54999999999995,1637188752.483261,1637188753.6962678,f1ce338a-3562-43f5-a908-d3ddefa6904b
-0.6150127716009889,-0.9395391770377212,-0.064287751278952,0.8021701911105965,0.0853745466440861,0.4046960978284691,-0.1775856912620768,-0.1963773724015006,-15.348074768214872,23.76821475458452,30.51654067446912,-0.7485933010284588,-3.788117306215091,0.1400941100366442,8875.154730902777,11.843222222222222,6.473333333333334,179.44101777382306,-1.7219122949766517,45.61094194183912,1389.0,1435.0,1350.0,1528.0,1367.0,1018.02,306.0,295.54999999999995,1637188753.8043067,1637188755.032593,f1ce338a-3562-43f5-a908-d3ddefa6904b
-0.1111847702819149,-0.0398120001545109,-0.0264167653949026,0.3665100953653556,-0.0790389454625891,-0.0379766613128107,-0.3209201942571298,-0.3548876661823827,-14.097297347544384,20.56532737182592,35.50289175709147,-0.778517801249453,-0.4106543799773768,0.6307559036061073,8884.354383680555,11.874222222222222,6.317777777777778,179.2541635297891,-1.7278091435397689,45.6687519040642,1525.0,1435.0,1350.0,1528.0,1475.0,1018.02,306.0,295.54999999999995,1637188756.039143,1637188757.1773548,f9e341c5-b2e6-4d7a-8504-f60ba645265d
-0.1183617674664025,-0.0303202847641424,-0.0335115830105436,0.3669346886685513,-0.0874760260349043,-0.051289716659914,-0.3348495966425445,-0.3468340879430886,-14.328706441146789,20.669831501281365,34.9074091278573,-0.809263705537065,-0.3686393499593157,0.6718586560509263,8891.521484375,11.874444444444444,6.302222222222222,179.2646440756155,-1.736078913657035,45.79948589878274,1525.0,1435.0,1350.0,1528.0,1475.0,1018.02,306.0,295.54999999999995,1637188757.285918,1637188758.4063146,f9e341c5-b2e6-4d7a-8504-f60ba645265d
-0.0871199155015106,-0.0105561501912155,-0.0155553942072196,0.35694989819885,-0.0774638411780705,-0.0597267970901384,-0.319920345362936,-0.3461218678806928,-13.998361585172804,20.759558758200708,35.27744567308491,-0.8039855264877875,-0.2977603633062901,0.6155093746612889,8891.521484375,11.87355555555556,6.304444444444446,179.28777413178483,-1.7316355554368246,45.92894871940574,1525.0,1435.0,1350.0,1528.0,1475.0,1018.02,306.0,295.54999999999995,1637188758.5150528,1637188759.747207,f9e341c5-b2e6-4d7a-8504-f60ba645265d
-0.0827507132796471,-0.0187603890069313,-0.0418390908664954,-0.1129653231035618,-0.1488366123288233,0.3986970056118391,-0.2151827481160373,-0.2269480941977638,-13.93649498716063,19.646430044227845,38.10251920616224,1.2779612350846816,-0.2978361813812537,0.5987968755269883,8900.75390625,11.873111111111111,6.311111111111111,179.28890338972758,-1.5850729767717369,46.2168131132552,1525.0,1507.0,1350.0,1528.0,1475.0,1018.02,306.0,295.54999999999995,1637188761.5089695,1637188762.61925,888e71f7-15b8-4159-a063-cf9aca918372
-0.0759846128716161,-0.0292245600338411,-0.0553575946867945,-0.1174714910286765,-0.158752921545289,0.411311535091772,-0.2237704913191114,-0.2543549108995858,-14.046055717618946,19.50460620229525,37.76572504321873,1.3147504423282428,-0.3336273433839094,0.6411584663869269,8900.75390625,11.874333333333333,6.3,179.30742382711705,-1.5678262036509585,46.24703214687306,1525.0,1507.0,1350.0,1528.0,1475.0,1018.02,306.0,295.54999999999995,1637188762.732889,1637188763.842354,888e71f7-15b8-4159-a063-cf9aca918372
-0.0873116674164793,-0.0423458635539636,-0.062452412370526,-0.1030901036644092,-0.1619579165325053,0.4110102108069628,-0.2329608832581819,-0.2642438274150194,-14.288645794831991,19.70758704207661,37.71399968233186,1.2824943909621227,-0.38288176356103,0.6664924708285359,8900.75390625,11.874444444444444,6.24,179.3002111473535,-1.5897065012136826,46.3299737901492,1525.0,1507.0,1350.0,1528.0,1475.0,1018.02,306.0,295.54999999999995,1637188763.9507363,1637188765.276371,888e71f7-15b8-4159-a063-cf9aca918372
-0.0735055356448835,-0.0515362546500708,-0.0983647906087989,-0.696110124058102,-0.2569572566155236,0.985854723207146,-0.104035166186893,-0.1201149276352175,-13.96982518573279,18.38450310469628,40.89382699698511,3.902062929184167,-0.3770762154760789,0.6602139304590663,8910.0078125,11.863,6.359999999999999,179.313958041423,-1.4172359715256135,46.45798367775376,1525.0,1579.0,1350.0,1528.0,1475.0,1018.02,306.0,295.54999999999995,1637188766.0745723,1637188767.1198747,2a1c3b0e-1b33-4d8e-bff9-8e7565afd8f7
