raw_voltage_G-,raw_voltage_G0,raw_voltage_G1,raw_voltage_G2,raw_voltage_G3,raw_voltage_G4,raw_voltage_G5,raw_voltage_G6,load_x,load_y,load_z,load_l,load_m,load_n,rpm,voltage,current,roll,pitch,yaw,aileron1_pwm,elevator_pwm,throttle_pwm,rudder_pwm,aileron2_pwm,pbaro,pdiff,Tt,sample_start_time,sample_end_time,uid
-0.0475675396425461,0.0364394823477606,-0.0535896427416824,-0.0468838074142993,-0.0892489085342359,-0.1046197352793684,-0.2384866232631609,-0.2634165544154006,-12.166690724526587,9.695071675643218,-17.100106169094783,-0.0765849942715578,0.3768803940501221,0.5015553691906177,-1.0,12.172666666666666,0.0466666666666666,0.1471865256356928,-0.9298114030908974,-97.96413057357752,1277.0,1500.0,1200.0,1500.0,1277.0,1021.7000000000002,250.0,289.15,1636036328.0514376,1636036329.0349598,b36fdcdb-5344-4955-8a34-57b132751691
-0.0511834312391846,0.0342305013666621,-0.0557986237958074,-0.0501446841995679,-0.0897748564126545,-0.0990315390610598,-0.2378817831679635,-0.260813112212731,-12.213341517107468,9.543786518619097,-17.04439296540711,-0.057799314019568,0.368690650855883,0.5042338163060355,404.74945746527777,12.095666666666666,0.4111111111111111,0.1384405469625249,-0.9253933734888588,-96.79536529882292,1277.0,1500.0,1200.0,1500.0,1277.0,1021.7000000000002,250.0,289.15,1636036329.1439402,1636036330.1505196,b36fdcdb-5344-4955-8a34-57b132751691
-0.0496318850257768,0.0332837952306553,-0.0580470509406919,-0.0503813607392713,-0.0913395513468036,-0.0982163198482252,-0.24001187220618,-0.2639293536653488,-12.273385286849416,9.52540129239977,-17.107629591760194,-0.0557076626459602,0.3660116567738377,0.5122223731539945,1908.8163604736328,12.103750000000002,0.365,0.1234682474015228,-0.9170503863524432,-95.7972382606478,1277.0,1500.0,1200.0,1500.0,1277.0,1021.7000000000002,250.0,289.15,1636036330.260503,1636036331.286549,b36fdcdb-5344-4955-8a34-57b132751691
-0.0514201077801708,0.0339280813498448,-0.0573238726260659,-0.0499737511421492,-0.0905243321439364,-0.098676524245013,-0.2389468276975468,-0.2635217440477658,-12.240824514068454,9.48667371302173,-17.02282473847454,-0.0578520824623205,0.3674410444117369,0.5088496544953256,1956.5529378255208,12.107777777777777,0.3577777777777778,0.1476678375642753,-0.9125340957042982,-94.1417806469398,1425.0,1500.0,1200.0,1500.0,1425.0,1021.7000000000002,250.0,289.15,1636036332.551917,1636036333.633988,251c1e63-4a44-40f9-a5d6-3c7b3ee525ed
-0.0520643939194315,0.0344277318115589,-0.0579813074573074,-0.0502235763791774,-0.090997685227398,-0.0989263494860276,-0.2389731250816243,-0.2640608406117672,-12.198818943011997,9.42923311655635,-17.023611371360747,-0.0582424259874325,0.3690128110462071,0.5105380844046692,1957.840576171875,12.10388888888889,0.38,0.1511160544164677,-0.9147791172230516,-93.57977143255374,1425.0,1500.0,1200.0,1500.0,1425.0,1021.7000000000002,250.0,289.15,1636036333.7672436,1636036334.7680318,251c1e63-4a44-40f9-a5d6-3c7b3ee525ed
-0.0514727025667435,0.0337177022098247,-0.0574422108894884,-0.0499343050524943,-0.0898668972902037,-0.0987159703339976,-0.2383945823808803,-0.2657307252371242,-12.252684483981357,9.411807498796827,-17.049921031649074,-0.0585421827526074,0.3669624620867188,0.5072883384329067,1962.0433349609373,12.105,0.36625,0.1496111182823906,-0.9122437607859656,-93.0904718586122,1425.0,1500.0,1200.0,1500.0,1425.0,1021.7000000000002,250.0,289.15,1636036334.8764503,1636036335.885419,251c1e63-4a44-40f9-a5d6-3c7b3ee525ed
-0.0505654424930166,0.0343619883292446,-0.0586518909956624,-0.0504076581326829,-0.0909319417454748,-0.0985450372740637,-0.2392755451362102,-0.2607999635172963,-12.24270079076179,9.373730876669676,-17.005514199506045,-0.0573908490457594,0.3688956348709322,0.5118012472733993,1954.6680908203125,12.10225,0.35,0.1636360529667855,-0.937990172202542,-91.88474795593991,1574.0,1500.0,1200.0,1500.0,1574.0,1021.7000000000002,250.0,289.15,1636036338.7306223,1636036339.6847527,d64ea237-43c9-43a3-90cc-cceabf20b71f
-0.0507232268541191,0.0343356909372065,-0.0582442813944285,-0.0499737511406988,-0.0901561686257094,-0.0987685651209111,-0.2388416381094146,-0.260392353884235,-12.266373291892773,9.352020301706103,-16.980540346496767,-0.0590034947748793,0.3687152580166037,0.5095994099734189,1946.226959228516,12.102,0.35875,0.1519594860624184,-0.9337227447143122,-91.61938571517484,1574.0,1500.0,1200.0,1500.0,1574.0,1021.7000000000002,250.0,289.15,1636036339.7945385,1636036340.9126198,d64ea237-43c9-43a3-90cc-cceabf20b71f
-0.0495266954531658,0.0339806761363015,-0.0586124449007676,-0.0504471042261237,-0.0906558191066609,-0.0980190893964991,-0.2390783146651655,-0.2659411044208493,-12.260591967222018,9.365431009118964,-16.98792713921736,-0.0561792523727619,0.3674434545588697,0.5110597897274775,1947.7322998046875,12.102,0.3537499999999999,0.1559294468061023,-0.9470681205995104,-91.3904710713682,1574.0,1500.0,1200.0,1500.0,1574.0,1021.7000000000002,250.0,289.15,1636036341.0236037,1636036342.1399758,d64ea237-43c9-43a3-90cc-cceabf20b71f
-0.0490796397643649,0.0345986648632958,-0.0582048353013125,-0.0510519442757129,-0.0902876555927764,-0.0979664946087644,-0.2383025414961767,-0.2615494392987217,-12.238347037753142,9.334374953875416,-16.96874763503481,-0.0548680171477757,0.3695336387559108,0.5090230120639516,1960.19677734375,12.0955,0.37,0.1625759845957318,-0.9432198559509504,-90.95400405415782,1722.0,1500.0,1200.0,1500.0,1722.0,1021.7000000000002,250.0,289.15,1636036344.0751712,1636036345.1158009,bc5f8932-d8b2-4d1c-ad9a-64ec941a832f
-0.0510650929681033,0.0344014344180974,-0.0588228240489124,-0.0514727025682593,-0.0902745068951364,-0.098005940698535,-0.2385523667531116,-0.260747368721087,-12.269367079852046,9.281137412192717,-17.059386829286275,-0.0544212830773716,0.3698285140820829,0.510047951556157,1959.4083251953125,12.0945,0.37,0.1610434875811366,-0.9414667651705048,-90.82533865812042,1722.0,1500.0,1200.0,1500.0,1722.0,1021.7000000000002,250.0,289.15,1636036345.2237756,1636036346.3318217,bc5f8932-d8b2-4d1c-ad9a-64ec941a832f
-0.0516173382304486,0.0344014344187983,-0.0586518909916667,-0.0510124981840015,-0.0903796964713151,-0.0983741042136059,-0.2385786641503257,-0.2619439002462013,-12.246860361935946,9.30467306622011,-17.051332669373814,-0.0561095587864962,0.369552407635756,0.5100171396965409,1957.3935546875,12.094,0.37,0.1663629042737873,-0.951996782436549,-90.68942130873174,1722.0,1500.0,1200.0,1500.0,1722.0,1021.7000000000002,250.0,289.15,1636036346.4469051,1636036347.5587797,bc5f8932-d8b2-4d1c-ad9a-64ec941a832f
-0.0500570262202495,0.0342726867666739,-0.0575216509313867,-0.0412775318634618,-0.088243033220565,-0.1080071683461161,-0.2404529014432594,-0.2646273303497952,-12.2819181575055,9.343419702447584,-17.167402170923573,-0.0994390538678543,0.3692201027746951,0.5081004537657573,1965.2490692138672,12.095750000000002,0.36,0.1563389213159192,-0.9473830029924184,-90.43098146469046,1500.0,1277.0,1200.0,1500.0,1500.0,1021.7000000000002,250.0,289.15,1636036350.6290293,1636036351.6565998,71301f11-537d-443c-bd32-85e11869842f
-0.0503172608426912,0.0337796106549653,-0.0571107541587843,-0.0411816559518114,-0.087763653646983,-0.1075414853265789,-0.2396858940753944,-0.2610936178167041,-12.26393356524301,9.335898378032068,-17.152810834316835,-0.0986268954340332,0.3671282711276762,0.5057727909931081,1960.809066772461,12.09475,0.38625,0.1778986468847959,-0.9499502336456312,-90.41140101988732,1500.0,1277.0,1200.0,1500.0,1500.0,1021.7000000000002,250.0,289.15,1636036351.7681534,1636036352.8002205,71301f11-537d-443c-bd32-85e11869842f
-0.0496735225658408,0.0342452936499685,-0.0569463954482524,-0.0418253942251173,-0.0874897224602051,-0.1073771266133183,-0.2391928179071365,-0.2633398536824241,-12.260752566541155,9.302663786777607,-17.145939340879593,-0.0970148791968159,0.3688805630809513,0.5045498720074996,1959.6313069661453,12.076333333333332,0.36,0.1767743270442817,-0.9500009798167302,-90.4102008987319,1500.0,1277.0,1200.0,1500.0,1500.0,1021.7000000000002,250.0,289.15,1636036352.9141555,1636036353.892979,71301f11-537d-443c-bd32-85e11869842f
-0.0496050397699835,0.034546617940195,-0.0591241483530833,-0.0507966404127295,-0.0904755723893749,-0.0992961565893855,-0.2390010660704827,-0.2649834409395761,-12.256817383065178,9.268598165423056,-17.136835906291562,-0.0589497577967244,0.3708680933742137,0.5112995829927303,1949.823974609375,12.072,0.35,0.1619023371785194,-0.9411475605485128,-90.3993431746813,1500.0,1500.0,1200.0,1500.0,1500.0,1021.7000000000002,250.0,289.15,1636036355.0613525,1636036356.0675266,7eb96727-fca5-4ee2-8be5-2966754868e8
-0.0501118124567188,0.0335741622744926,-0.0598089763076303,-0.0501665986936637,-0.0904892689465708,-0.099282460029212,-0.2396721975150231,-0.2679008083280567,-12.304177689030722,9.251958262409364,-17.192600459541676,-0.0605173365059361,0.3679289695478849,0.5129901974290355,1952.2760009765625,12.06825,0.375,0.1632159196266037,-0.9489682472100962,-90.43612715845642,1500.0,1500.0,1200.0,1500.0,1500.0,1021.7000000000002,250.0,289.15,1636036356.1765363,1636036357.296502,7eb96727-fca5-4ee2-8be5-2966754868e8
-0.050180295252273,0.0341768108566827,-0.0596172244785799,-0.0519608479371508,-0.0904892689452164,-0.0988167770126049,-0.2383710242985083,-0.2651341031071243,-12.227486117410734,9.18940846336042,-17.27119421554268,-0.0558025238184319,0.3705750442497891,0.5109018678517909,1959.407287597656,12.06925,0.385,0.1713231407279973,-0.950265529585149,-90.46111199044032,1500.0,1500.0,1200.0,1500.0,1500.0,1021.7000000000002,250.0,289.15,1636036357.4051015,1636036358.529662,7eb96727-fca5-4ee2-8be5-2966754868e8
-0.0509336060015116,0.0338754865655848,-0.0598089763071135,-0.0571655403943303,-0.0916671730452703,-0.0933244567207301,-0.2381244862145405,-0.2620660735917515,-12.27889257414654,9.266775836529108,-17.214188068830286,-0.0312334956376871,0.3699334582770522,0.512347180834348,1955.6086018880208,12.071000000000002,0.3666666666666667,0.1591380404488438,-0.9537352790237288,-90.5303788360882,1500.0,1722.0,1200.0,1500.0,1500.0,1021.7000000000002,250.0,289.15,1636036360.550967,1636036361.628122,97f099ef-0c89-43fd-91aa-c5fb6b2ac528
-0.0499611503070942,0.0336974313028387,-0.0599048522231537,-0.0572751128695149,-0.0917356558443804,-0.0928313805866,-0.2379875206164771,-0.2661065589365073,-12.270009278878636,9.261434325110091,-17.183081983393894,-0.0299090724596946,0.3689343986611212,0.5124059079831571,1967.6206817626955,12.068375,0.3725,0.1637917982886337,-0.9562406244278012,-90.55579804913056,1500.0,1722.0,1200.0,1500.0,1500.0,1021.7000000000002,250.0,289.15,1636036361.7646315,1636036362.8251522,97f099ef-0c89-43fd-91aa-c5fb6b2ac528
-0.0512754721170029,0.033730850906051,-0.0604795598412581,-0.0572318317422652,-0.0922468114343619,-0.0929305436784768,-0.2384471771709155,-0.2620096437649156,-12.26018522817516,9.250029062801058,-17.190751070068117,-0.0303300375709212,0.3690162255406088,0.5145451209380636,1961.1278076171875,12.069777777777778,0.3622222222222222,0.167023450860492,-0.9588288333074292,-90.58247951907704,1500.0,1722.0,1200.0,1500.0,1500.0,1021.7000000000002,250.0,289.15,1636036362.9389794,1636036364.0619476,97f099ef-0c89-43fd-91aa-c5fb6b2ac528
-0.0488243359056419,0.0338754865633893,-0.052138903265086,-0.0501665986967629,-0.0835725065732409,-0.1007479918843396,-0.2321253929566958,-0.2592034925851605,-12.259634404356843,9.279460408577426,-17.300882747476354,-0.0632411876463791,0.3701902637521739,0.4822727219522997,1963.671630859375,12.069444444444445,0.36,0.1721557391944075,-0.9394640374977776,-90.68932189153382,1500.0,1500.0,1200.0,1277.0,1500.0,1021.7000000000002,250.0,289.15,1636036366.5503175,1636036367.537428,98057f76-1aaf-4800-a545-e4002b2cd791
-0.0491530533223129,0.0345329213818675,-0.0534400763189035,-0.0507692472923857,-0.0851202177080196,-0.100967136828133,-0.2327143449543029,-0.2622030392255736,-12.172335034761076,9.237004689679624,-17.326568362008725,-0.0626805919912941,0.3722568030015218,0.4871094581953424,1967.829562717014,12.070555555555554,0.3555555555555555,0.1856636892936588,-0.9432871291639864,-90.75169062557494,1500.0,1500.0,1200.0,1277.0,1500.0,1021.7000000000002,250.0,289.15,1636036367.6461866,1636036368.8648274,98057f76-1aaf-4800-a545-e4002b2cd791
-0.0497967915982389,0.033724824420256,-0.0534400763186187,-0.0498789709519234,-0.0851065211490866,-0.1005151503689018,-0.2334402626383676,-0.2557245661768625,-12.229820028654144,9.299467416114846,-17.261612116756478,-0.06327767249274,0.3689485544230642,0.4880601598620493,1966.0784233940967,12.070333333333334,0.3666666666666666,0.1799914424893421,-0.94803382604593,-90.7875908587624,1500.0,1500.0,1200.0,1277.0,1500.0,1021.7000000000002,250.0,289.15,1636036368.9805286,1636036370.0873587,98057f76-1aaf-4800-a545-e4002b2cd791
-0.0499474537480496,0.0334371966878215,-0.0576723131017202,-0.0494817707383917,-0.0887087162556731,-0.1009534402683686,-0.2375903203893111,-0.2644355785428964,-12.24532270507751,9.261182927472424,-17.343666494238885,-0.0656439680171535,0.3683888911882911,0.5045021029076625,1959.52001953125,12.070249999999998,0.3525,0.1800081381367518,-0.9371347710502772,-90.93333077908748,1500.0,1500.0,1200.0,1425.0,1500.0,1021.7000000000002,250.0,289.15,1636036373.157544,1636036374.1829102,866264d4-02eb-4f0d-8d27-8c69ce88b76c
-0.0502487780474988,0.0333002311008389,-0.0574120784599496,-0.0505911920271104,-0.088270426340634,-0.100117950148962,-0.2370424579616134,-0.264956047835374,-12.272055774533236,9.243462914040206,-17.385708791631853,-0.0613885962386001,0.3685898073530776,0.5026733486047269,1958.2326354980469,12.061625,0.35875,0.1723153524369673,-0.92837697443044,-90.95183803041728,1500.0,1500.0,1200.0,1425.0,1500.0,1021.7000000000002,250.0,289.15,1636036374.2947533,1636036375.4116812,866264d4-02eb-4f0d-8d27-8c69ce88b76c
-0.0503857436378507,0.0331632655142347,-0.0576997062021795,-0.0494132879436183,-0.0884758747305853,-0.1010630127437225,-0.2374944444484186,-0.2622715219785324,-12.255678853820465,9.244430975839366,-17.38788696463986,-0.0661693491313289,0.3678162535505585,0.5039905159297179,1960.360748291016,12.05825,0.37,0.1586456075997328,-0.9303552079894446,-90.9762918151932,1500.0,1500.0,1200.0,1425.0,1500.0,1021.7000000000002,250.0,289.15,1636036375.5208988,1636036376.5441575,866264d4-02eb-4f0d-8d27-8c69ce88b76c
-0.0514069590852208,0.0329945239098938,-0.0622020391367308,-0.0508810112166668,-0.0925755288739306,-0.0997021226084661,-0.2415371211741387,-0.2637452718587701,-12.278144981583004,9.208876642641648,-17.44238018910162,-0.0602802986820814,0.3677200330150276,0.521356215024204,1963.1231689453125,12.052555555555555,0.3522222222222222,0.1465033896212643,-0.9330724033907224,-91.09389372773128,1500.0,1500.0,1200.0,1574.0,1500.0,1021.7000000000002,250.0,289.15,1636036379.5995443,1636036380.6521175,7f97bffc-d904-4f92-b9af-45332fe3a92f
-0.0517417029879621,0.0327660653127624,-0.0624524122205673,-0.0526319793331327,-0.0926944149925477,-0.0982278249620202,-0.2409870672941839,-0.2658737174581523,-12.273499564485643,9.17250019238275,-17.49223232005749,-0.0532768190630358,0.3674712258463615,0.520981138786678,1978.341715494792,12.047333333333334,0.38,0.159528588531151,-0.9337135043932866,-91.09044675893016,1500.0,1500.0,1200.0,1574.0,1500.0,1021.7000000000002,250.0,289.15,1636036380.764398,1636036381.8730204,7f97bffc-d904-4f92-b9af-45332fe3a92f
-0.051248626859924,0.0329304240165373,-0.0615073496406187,-0.0506322817023685,-0.0920643732656586,-0.0999261983169285,-0.2412746950591855,-0.2668050834814968,-12.294950579545873,9.241957075819052,-17.4472233739509,-0.0611002460176223,0.3676554670639249,0.5193016900051303,1978.9859619140625,12.05211111111111,0.3333333333333333,0.1739805691948268,-0.9287507672049394,-91.09270831045534,1500.0,1500.0,1200.0,1574.0,1500.0,1021.7000000000002,250.0,289.15,1636036381.985261,1636036382.9960587,7f97bffc-d904-4f92-b9af-45332fe3a92f
-0.0520567238502976,0.0330810861614006,-0.0640686062721276,-0.0518238823428824,-0.094474967773116,-0.0991181013160771,-0.2438496484677658,-0.2705990307721516,-12.33252259139339,9.234901287399156,-17.486812050246773,-0.0567959156689496,0.3688215624810698,0.5296710331415294,1967.0279676649309,12.045555555555556,0.3577777777777777,0.1566614580267254,-0.9095741691944496,-91.10331483532644,1500.0,1500.0,1200.0,1722.0,1500.0,1021.7000000000002,250.0,289.15,1636036385.5528414,1636036386.7845428,0f20140f-d2d2-4b7f-9875-581596298544
-0.0511801440651865,0.0329852102512229,-0.064438413308718,-0.0511938406261894,-0.0946941126637253,-0.0996659636924138,-0.2440277036715615,-0.2683254016764383,-12.30679685814169,9.214479838184849,-17.49756854412505,-0.0595908104762067,0.368273861894596,0.5307322409231992,1955.627685546875,12.048666666666668,0.3433333333333333,0.1589350602111852,-0.9183465748300118,-91.12832698806704,1500.0,1500.0,1200.0,1722.0,1500.0,1021.7000000000002,250.0,289.15,1636036386.8956516,1636036388.0166135,0f20140f-d2d2-4b7f-9875-581596298544
-0.0511253578296131,0.0334098035706428,-0.0630002745883858,-0.0511527509533881,-0.0934888154355148,-0.1001179501530529,-0.2426854407633466,-0.2669420490677085,-12.292934674550326,9.219770948957512,-17.48674094368059,-0.0605837836665397,0.3697584681574886,0.5252936748403053,1964.976333618164,12.046125,0.34875,0.165908920142553,-0.9233733939559428,-91.14665722366084,1500.0,1500.0,1200.0,1722.0,1500.0,1021.7000000000002,250.0,289.15,1636036388.1258228,1636036389.246197,0f20140f-d2d2-4b7f-9875-581596298544
-0.0446331888549855,0.0367791569669404,-0.0890648273245607,-0.117800208511214,-0.0972142801118807,-0.0419349668695957,-0.224030726470675,-0.2474929337906061,-12.460742845711351,5.913608219435325,-17.458582393171856,0.1972067094007603,0.3898310329358407,0.5404390029275045,1970.44287109375,12.041,0.37,0.143312016340986,-0.9383541198996832,-90.7805155416922,1277.0,1500.0,1300.0,1500.0,1277.0,1021.7000000000002,250.0,289.15,1636036392.091653,1636036393.0246994,ed83e420-555d-4d8b-8361-00ca839658f9
-0.0480436320525378,0.0381762059744036,-0.1044460634261139,-0.1139925650631018,-0.1071990718667628,-0.0439483611095546,-0.2327554352126517,-0.2604087901122256,-12.193758798089414,5.224085094978387,-17.137899993919252,0.1789419295993077,0.3888833840238549,0.5885515189765574,5621.615295410156,11.436375,5.27375,0.1213406051219508,-0.9203037175119112,-85.88296681714864,1277.0,1500.0,1300.0,1500.0,1277.0,1021.7000000000002,250.0,289.15,1636036393.1348906,1636036394.0589378,ed83e420-555d-4d8b-8361-00ca839658f9
-0.0442770783056705,0.0390801788256355,-0.1025833311010657,-0.1352222323178015,-0.1131707714973166,-0.0315940649465772,-0.2319473380518897,-0.2525195713389747,-12.139863080672889,5.74414266168873,-18.030514814986947,0.2580177285228464,0.402544327397108,0.5914840542749437,5687.74169921875,11.441,5.22625,0.0895440201427051,-0.8805997478253479,-81.64905037142091,1277.0,1500.0,1300.0,1500.0,1277.0,1021.7000000000002,250.0,289.15,1636036394.1680305,1636036395.390192,ed83e420-555d-4d8b-8361-00ca839658f9
-0.0485914944118049,0.0416688284054159,-0.1032407657664891,-0.1131022892923037,-0.1061855260209866,-0.0477833981189991,-0.2329197935861676,-0.2563956977615388,-12.229497570366412,5.201710562488104,-17.07562197603825,0.1682194751423519,0.4016502413644447,0.586264532101551,5687.74169921875,11.44225,5.2325,0.0903381713734846,-0.8507212320434725,-74.70646787729467,1425.0,1500.0,1300.0,1500.0,1425.0,1021.7000000000002,250.0,289.15,1636036396.5496178,1636036397.649256,a8f59ffc-4380-40fc-9cb0-2bb7219f65f4
-0.0425924015562902,0.0479966385027085,-0.1147047862938872,-0.1279219662642525,-0.1241417157318728,-0.0417980014511817,-0.2432333037689239,-0.2696813615711635,-11.815761500359748,5.378804825186973,-17.37132488743155,0.2158632960699217,0.4261767268203054,0.6414677897814881,5690.1019287109375,11.443875,5.215,0.0654386650608769,-0.8594600188594675,-72.3897257674343,1425.0,1500.0,1300.0,1500.0,1425.0,1021.7000000000002,250.0,289.15,1636036397.7652876,1636036398.7549076,a8f59ffc-4380-40fc-9cb0-2bb7219f65f4
-0.0421678082201327,0.0470241828347025,-0.1122394054132145,-0.1266070965119887,-0.1222652868909244,-0.0428937261776916,-0.242343027083899,-0.2676131806933416,-11.871187275520604,5.507349156467028,-17.47868804240348,0.2113649134695135,0.4238698571815477,0.6339347938828347,5695.30029296875,11.44325,5.2425,0.0787057105490849,-0.8459112847639025,-70.23402244272988,1425.0,1500.0,1300.0,1500.0,1425.0,1021.7000000000002,250.0,289.15,1636036398.864464,1636036399.9903796,a8f59ffc-4380-40fc-9cb0-2bb7219f65f4
-0.0448023115944411,0.0443086911946102,-0.1228941381900526,-0.1279249439237903,-0.1306976041280102,-0.039142655773316,-0.2507509290271829,-0.2701452581486856,-11.908486050503123,5.350836446939594,-17.5674539018375,0.2211658091413168,0.4142199812861415,0.6714873748750155,5702.87841796875,11.441625,5.23125,0.1009136154006052,-0.8630954737565926,-65.02417014857667,1574.0,1500.0,1300.0,1500.0,1574.0,1021.7000000000002,250.0,289.15,1636036403.1595469,1636036404.1965818,12e34921-fd79-4def-a33e-1b9ebc5249a6
-0.0472766247582195,0.0367106741768754,-0.1142254067527428,-0.1240321432173989,-0.1213613142082819,-0.035607156640994,-0.2440961869804565,-0.2686815125071562,-12.181201110643796,5.625640088859278,-17.55645650992858,0.2224471698345373,0.3876304632110507,0.6363064223202519,5702.87841796875,11.440625,5.24,0.0983658431159047,-0.8788766925349734,-64.04758457840636,1574.0,1500.0,1300.0,1500.0,1574.0,1021.7000000000002,250.0,289.15,1636036404.3062527,1636036405.424918,12e34921-fd79-4def-a33e-1b9ebc5249a6
-0.0506596748363596,0.0358614875251268,-0.1054185187758247,-0.1130201094490963,-0.1073086439909306,-0.0425924017966903,-0.2366315613450507,-0.266202435095265,-12.5373695888319,5.39498650177174,-17.159134350268697,0.180703484103941,0.3826434945655293,0.5949331613993442,5702.87841796875,11.441625,5.23125,0.1394071875208351,-0.8982834344217347,-63.208423268110366,1574.0,1500.0,1300.0,1500.0,1574.0,1021.7000000000002,250.0,289.15,1636036405.534545,1636036406.6543207,12e34921-fd79-4def-a33e-1b9ebc5249a6
-0.0505364057990733,0.0298897879400384,-0.084243638015896,-0.104514546412431,-0.0850654315644107,-0.044756458634768,-0.2212914141045336,-0.247451843890514,-13.084564130281548,5.778964538220122,-17.04633133774169,0.1599964352489691,0.3634207982339573,0.5129031495194618,5702.87841796875,11.43425,5.24,0.1089423393523432,-0.9635648550543028,-61.47775749281397,1722.0,1500.0,1300.0,1500.0,1722.0,1021.7000000000002,250.0,289.15,1636036409.0501013,1636036410.1357355,1d0fd9ab-d448-4ebe-a9ec-c6e9b06b95b3
-0.0436744297060854,0.039230840973052,-0.1030216209982648,-0.1240321433367802,-0.1085002447366245,-0.0383601651448964,-0.2327006487763857,-0.255478028356113,-12.341405986372044,5.448052819372748,-17.506811702268582,0.2155686892889074,0.3984837595200449,0.5876281792322252,5702.87841796875,11.430333333333332,5.2444444444444445,0.1154705585294436,-0.9629120532024968,-61.05845407694167,1722.0,1500.0,1300.0,1500.0,1722.0,1021.7000000000002,250.0,289.15,1636036410.2450268,1636036411.316785,1d0fd9ab-d448-4ebe-a9ec-c6e9b06b95b3
-0.049659826026024,0.0312731403827709,-0.0919821945079562,-0.1125818193923876,-0.0929546502188163,-0.039579158792928,-0.225578437749983,-0.2544233933100327,-12.951770463561266,5.599041893275004,-17.218434418913468,0.188289663950684,0.3696942946916094,0.5403214874460984,5702.87841796875,11.432,5.2425,0.097764611378645,-0.9346650173350828,-60.73142272220668,1722.0,1500.0,1300.0,1500.0,1722.0,1021.7000000000002,250.0,289.15,1636036411.4300375,1636036412.3886364,1d0fd9ab-d448-4ebe-a9ec-c6e9b06b95b3
-0.047167052275269,0.0403539587976127,-0.0899551034827855,-0.0461261140489848,-0.0921739460696206,-0.1173208290160959,-0.2427265309192229,-0.2666133319182395,-12.065207045978951,5.910085400525108,-18.371791219175336,-0.1338887365027525,0.3996518412475116,0.5614573216532329,5702.87841796875,11.44211111111111,5.23,0.1326463483756642,-0.963081966016068,-59.97435962168807,1500.0,1277.0,1300.0,1500.0,1500.0,1021.7000000000002,250.0,289.15,1636036414.5501578,1636036415.6646698,7bea8578-eada-4728-a2a4-40b5ade0c656
-0.0472492316203279,0.0359847565661534,-0.0880238884848049,-0.0418664843662939,-0.0854763284700241,-0.1155402765638383,-0.2402063635992398,-0.2631344054349351,-12.429535503408331,5.738925417144896,-18.14864257967554,-0.1406825794267169,0.3834606173087458,0.5457531544234242,5702.87841796875,11.440375,5.23,0.1204514048719597,-0.952855491961693,-59.792561140596014,1500.0,1277.0,1300.0,1500.0,1500.0,1021.7000000000002,250.0,289.15,1636036415.7747796,1636036416.893918,7bea8578-eada-4728-a2a4-40b5ade0c656
-0.0513855925034666,0.0262465033524961,-0.0734781439655815,-0.0280877459322978,-0.0661093950890732,-0.1184713402424939,-0.2301804832448993,-0.2522045512320832,-13.070131268079251,5.92960485610913,-18.022401351016217,-0.1766645469775528,0.3495802522866257,0.4838668160595694,5702.87841796875,11.443666666666669,5.226666666666667,0.148351397501035,-0.9567326292784046,-59.60887544029078,1500.0,1277.0,1300.0,1500.0,1500.0,1021.7000000000002,250.0,289.15,1636036417.003959,1636036418.262041,7bea8578-eada-4728-a2a4-40b5ade0c656
-0.0475412423007759,0.0366498614255599,-0.104882710717172,-0.1156383436214213,-0.108524899816956,-0.0429786447026835,-0.2344105287722111,-0.2595113920397846,-12.260353914642206,5.370472221498235,-17.437370822629596,0.1857009012146286,0.3864616423057501,0.5925808965233801,5702.87841796875,11.44525,5.22,0.1293045039750598,-0.992938950693802,-59.28394085876725,1500.0,1500.0,1300.0,1500.0,1500.0,1021.7000000000002,250.0,289.15,1636036420.6260054,1636036421.6976068,dfb2daaa-131a-4b0d-9d3b-c15bd107f2a3
-0.0503309574177521,0.0373407158775435,-0.1067059953321261,-0.110650604610028,-0.1084865480576083,-0.0482764738300976,-0.2372889961921153,-0.2578064434337326,-12.346398479763762,5.271256015844499,-17.457787607473477,0.1617497837690851,0.389111355671554,0.5991913994399624,5702.87841796875,11.445666666666666,5.22,0.1356438305502263,-0.9910347997855607,-59.24624931360617,1500.0,1500.0,1300.0,1500.0,1500.0,1021.7000000000002,250.0,289.15,1636036421.8075523,1636036423.0444238,dfb2daaa-131a-4b0d-9d3b-c15bd107f2a3
-0.0472629281845761,0.0387514614135355,-0.1115408808049962,-0.1311269611286257,-0.1191287747180923,-0.0312105614287702,-0.2392202112153724,-0.2633261572492048,-12.159877992545558,5.5156102203417845,-17.545617475000412,0.2477478087837246,0.3960795127934189,0.6229240529164838,5702.87841796875,11.44125,5.2125,0.1301015500321086,-0.9779119075297524,-59.223682368588456,1500.0,1500.0,1300.0,1500.0,1500.0,1021.7000000000002,250.0,289.15,1636036423.1756823,1636036424.2624302,dfb2daaa-131a-4b0d-9d3b-c15bd107f2a3
-0.0460850241125936,0.0430247876810742,-0.1277713037595367,-0.188720994617904,-0.1403310488588424,0.0238906949296168,-0.2383710245134687,-0.2633672469247755,-12.031596060117408,5.17861305249012,-16.712991701911626,0.4986408555689765,0.4098760159976744,0.6741315577608744,5702.87841796875,11.44277777777778,5.225555555555555,0.1432567700712931,-1.0002059177139222,-59.19413572914888,1500.0,1722.0,1300.0,1500.0,1500.0,1021.7000000000002,250.0,289.15,1636036427.1125908,1636036428.362832,5245b699-ab8b-47db-aa78-a3ffe8c7d53f
-0.0437703056462234,0.0436137397077868,-0.1299764503496082,-0.1909672306833655,-0.1430018784402087,0.0228223631443046,-0.240329633331882,-0.2642575237709846,-11.975987903258613,5.156706281419235,-17.092706584341638,0.5010195684057025,0.4151931604147303,0.6831277161248739,5702.87841796875,11.442875,5.22875,0.1280343039003757,-1.0011257461670688,-59.21160488658859,1500.0,1722.0,1300.0,1500.0,1500.0,1021.7000000000002,250.0,289.15,1636036428.4739392,1636036429.4752123,5245b699-ab8b-47db-aa78-a3ffe8c7d53f
-0.0476875215253941,0.0343685626591202,-0.1015560895220394,-0.1705456595934462,-0.1067470854461819,0.013234772355235,-0.2150731764696371,-0.2403159364730979,-12.626724416270976,5.0560388506016976,-16.85893022557144,0.4338664194636908,0.3823375841325592,0.5580238359861632,5702.87841796875,11.44275,5.22,0.129034713170371,-0.9898161802011444,-59.216879500175125,1500.0,1722.0,1300.0,1500.0,1500.0,1021.7000000000002,250.0,289.15,1636036429.5847423,1636036430.7077782,5245b699-ab8b-47db-aa78-a3ffe8c7d53f
-0.0233350396031555,0.0478870660130746,-0.0295395809905156,-0.1238677843721735,-0.0424006498772491,-0.0533442005792896,-0.1601636673771419,-0.1849133508042123,-11.8660325359073,5.589606451662857,-17.851514330211213,0.1863084418443676,0.4352809146888133,0.2949938428438215,5702.87841796875,11.449,5.22,0.1004672935543406,-0.988675645331458,-59.25472557836618,1500.0,1500.0,1300.0,1277.0,1500.0,1021.7000000000002,250.0,289.15,1636036432.0509713,1636036433.0728848,2220696a-c46f-45bd-9f0f-145cffcb7e4d
-0.0235267914157957,0.051886461146539,-0.0323884651495886,-0.1115134880463289,-0.041880180558376,-0.0649862762181961,-0.1626427444913355,-0.1860775582324592,-11.725666056638284,5.227908179071604,-17.34942813972509,0.1298899731091978,0.4431298048396423,0.3032449735946108,5702.87841796875,11.442333333333332,5.226666666666667,0.0796197641721521,-0.9388773764231296,-59.31358131844417,1500.0,1500.0,1300.0,1277.0,1500.0,1021.7000000000002,250.0,289.15,1636036433.1814668,1636036434.3843868,2220696a-c46f-45bd-9f0f-145cffcb7e4d
-0.0300326569351269,0.0354368942170109,-0.0180344715519867,-0.1027202969506966,-0.0229789293257116,-0.0587406452365341,-0.1521237869576067,-0.1735452061820909,-12.513924456821892,5.607917605463169,-17.506256914189365,0.1269015279222382,0.3882367775830495,0.2401162546737148,5702.87841796875,11.44625,5.22125,0.0653472112291288,-0.9362540768537422,-59.37660176636858,1500.0,1500.0,1300.0,1277.0,1500.0,1021.7000000000002,250.0,289.15,1636036434.492823,1636036435.5272095,2220696a-c46f-45bd-9f0f-145cffcb7e4d
-0.0419486632635125,0.0389158201280784,-0.0751902123719506,-0.1091165901941372,-0.0777103792789658,-0.0522347795554075,-0.2052664387429006,-0.227975335260291,-12.306564241361372,5.225349294419803,-17.35537812173151,0.1506959121825559,0.3956376486609878,0.4691155406956581,5702.87841796875,11.446333333333332,5.228888888888889,0.0640401841988783,-0.9314162010966676,-59.50477956279024,1500.0,1500.0,1300.0,1425.0,1500.0,1021.7000000000002,250.0,289.15,1636036438.5808003,1636036439.5539074,86edfc8c-39f4-4261-b813-df6b7dfc13b5
-0.0364015568726606,0.0489006113676993,-0.0934203329828919,-0.1237993016463473,-0.1011041027231623,-0.0492900191590088,-0.22008611706736,-0.2475066303659168,-11.73061721560014,5.103089914857656,-17.59671710209892,0.1889670174743995,0.4317992465139751,0.5481203482528904,5702.87841796875,11.44575,5.2275,0.0595925000439687,-0.9602636058489388,-59.56879645942357,1500.0,1500.0,1300.0,1425.0,1500.0,1021.7000000000002,250.0,289.15,1636036439.6638992,1636036440.6522577,86edfc8c-39f4-4261-b813-df6b7dfc13b5
-0.0350866871991931,0.0492704184436864,-0.0869007706345362,-0.1274425867823723,-0.09465302320312,-0.0464000455902485,-0.2118955739038956,-0.2382066657532548,-11.723599347501125,5.03012203651653,-17.553847065228837,0.2035308167609586,0.4336172554711779,0.5188933968910089,5702.87841796875,11.447,5.223749999999999,0.0698905952018464,-0.9552672557700082,-59.61857487809464,1500.0,1500.0,1300.0,1425.0,1500.0,1021.7000000000002,250.0,289.15,1636036440.7763712,1636036441.8829525,86edfc8c-39f4-4261-b813-df6b7dfc13b5
-0.0522484757213946,0.0346014040787999,-0.1282232906164991,-0.1222789836591929,-0.1321131135626464,-0.0367165781808317,-0.2588747755232647,-0.2827752732250712,-12.43647343989681,5.518917259885074,-17.886418834304838,0.2144138778834426,0.3833455678560387,0.6902330295987823,5702.87841796875,11.446000000000002,5.23,0.0873112886659448,-0.9498411107014696,-59.707874478850655,1500.0,1500.0,1300.0,1574.0,1500.0,1021.7000000000002,250.0,289.15,1636036443.073239,1636036444.020357,92a355d1-7872-40ef-a18c-a90d629fd39e
-0.0524402275170043,0.0413812006828069,-0.1344963147309534,-0.1237308188529916,-0.1383176548379013,-0.0387162755552767,-0.2619838947118675,-0.289637250051225,-12.12392657723607,5.187310862461674,-17.45044962644363,0.2109114859240108,0.4024732651335805,0.7134385760987394,5702.87841796875,11.453625,5.21375,0.0430798248681386,-0.9523466161881003,-59.76208739784035,1500.0,1500.0,1300.0,1574.0,1500.0,1021.7000000000002,250.0,289.15,1636036444.132207,1636036445.245226,92a355d1-7872-40ef-a18c-a90d629fd39e
-0.0549330012838897,0.0352725355202172,-0.1248539367982219,-0.1101164390307344,-0.1236760326859667,-0.0453865000875132,-0.2549575591593434,-0.2846106123748075,-12.52711296251639,5.152478375823152,-17.400644539633806,0.1652660981851356,0.3809087526790674,0.6695313368778827,5702.87841796875,11.459333333333335,5.23,0.059810227146222,-0.9460877675989726,-59.79120961691399,1500.0,1500.0,1300.0,1574.0,1500.0,1021.7000000000002,250.0,289.15,1636036445.3548615,1636036446.595946,92a355d1-7872-40ef-a18c-a90d629fd39e
-0.0689034916279196,0.0312457472428394,-0.1622181517206345,-0.1051993738972796,-0.1577530732365041,-0.0435922506932588,-0.2954308956892677,-0.3185917792965035,-12.859970345509783,5.245057427667143,-17.361845377060217,0.1567981840448364,0.3648453372343526,0.8238422663004954,5702.87841796875,11.45625,5.23,0.090483922374339,-0.9429614827012536,-59.87771823162044,1500.0,1500.0,1300.0,1722.0,1500.0,1021.7000000000002,250.0,289.15,1636036448.0485046,1636036449.1397488,ef3672f2-2089-4e97-b76b-6da47ea167c9
-0.0663970213156408,0.033957665880853,-0.17062784048361,-0.1094590038419679,-0.1685870530298349,-0.0417843047917701,-0.3028544325741012,-0.3261385848810148,-12.602646901951225,5.274445337511392,-17.347390690455146,0.1703774653044274,0.373059117955847,0.8611104764929594,5702.87841796875,11.463125,5.220000000000001,0.0628524938061782,-0.9444699539918346,-59.932004575143694,1500.0,1500.0,1300.0,1722.0,1500.0,1021.7000000000002,250.0,289.15,1636036449.247985,1636036450.3654082,ef3672f2-2089-4e97-b76b-6da47ea167c9
-0.0708894926818279,0.0200693553617849,-0.1543974156918961,-0.1005699370301122,-0.1473984737122808,-0.0395243727830217,-0.287843000521504,-0.308812434766172,-13.137732241372332,5.398446653491377,-17.675156894980685,0.1567128677269162,0.3275982865618621,0.786264006522957,5702.87841796875,11.48,5.22,0.0555279771988557,-0.9378414288251092,-59.92411826797327,1500.0,1500.0,1300.0,1722.0,1500.0,1021.7000000000002,250.0,289.15,1636036450.4740405,1636036451.5336826,ef3672f2-2089-4e97-b76b-6da47ea167c9
-0.042893725883861,0.0393815030304077,-0.132880120767867,-0.185296855368199,-0.1165264287267791,0.0178094223289683,-0.2194012892092496,-0.2449727667434889,-12.444710201703458,2.3130043561188134,-17.54616654815706,0.4576597895464647,0.405725756004234,0.6209650874155749,6105.01513671875,11.333,6.6675,0.0294878826557088,-0.9298962112730916,-59.48163470787775,1277.0,1500.0,1400.0,1500.0,1277.0,1021.7000000000002,250.0,289.15,1636036454.5555005,1636036455.6016717,3c6dcfb1-46a8-47cf-93ab-63753e008cb6
-0.0429485121272665,0.0372859295060546,-0.1309762997517148,-0.1910494102367189,-0.1141021383260504,0.0251370811969106,-0.2145937976091245,-0.2403981162282536,-12.468140483157596,2.2291545397123977,-17.52245184217599,0.4866333048940377,0.3986492648157124,0.6079706270578494,7434.02099609375,10.866,10.8,0.0262172634136674,-0.936672452620832,-57.03255597530108,1277.0,1500.0,1400.0,1500.0,1277.0,1021.7000000000002,250.0,289.15,1636036455.7112648,1636036456.826841,3c6dcfb1-46a8-47cf-93ab-63753e008cb6
-0.0417980011703204,0.0386144957707497,-0.1282095942157198,-0.1884881533027838,-0.1105136393315069,0.021274651967124,-0.2117175192606996,-0.2366452582477558,-12.442283254403211,2.120285055226639,-17.528288159996386,0.4716044825890513,0.4033591145719657,0.5954541770145528,7440.47412109375,10.864875,10.798750000000002,-0.0044538102902981,-0.9149436465194644,-54.96396659081831,1277.0,1500.0,1400.0,1500.0,1277.0,1021.7000000000002,250.0,289.15,1636036456.9408634,1636036458.054514,3c6dcfb1-46a8-47cf-93ab-63753e008cb6
-0.0417158217843901,0.0399430619549914,-0.1293601047048033,-0.1835026066155106,-0.1111025909312096,0.0150975032731082,-0.2151279621162358,-0.2407679225281322,-12.50157676006568,2.1348544303744146,-17.58611494119644,0.4464776624695845,0.4085877110334985,0.602755832670892,7440.47412109375,10.868250000000002,10.79125,-0.054047028018798,-0.8664417928723296,-50.56487525350535,1425.0,1500.0,1400.0,1500.0,1425.0,1021.7000000000002,250.0,289.15,1636036460.198005,1636036461.3356197,af6c8e24-c888-4889-b061-57dc51f917de
-0.0420719323119168,0.0403265656225698,-0.1314008922058562,-0.1762023393967007,-0.1136227579719247,0.0069343549080576,-0.2214968626308435,-0.2468902849886702,-12.565896813269148,2.321717118376435,-17.771684772524484,0.4127415236238854,0.4111010000873653,0.6177651776349932,7434.02099609375,10.86625,10.8025,-0.0005706791054855,-0.9045449503123846,-49.60320724336918,1425.0,1500.0,1400.0,1500.0,1425.0,1021.7000000000002,250.0,289.15,1636036461.4449852,1636036462.5677614,af6c8e24-c888-4889-b061-57dc51f917de
-0.0405653108331806,0.0395595583224407,-0.1234021015821887,-0.173832834427467,-0.1047473875975818,0.005345554046169,-0.2127995473131135,-0.2391380320880198,-12.559394658154533,2.245030668008642,-17.729057848634532,0.4037262438922451,0.4080144777115979,0.5824143566322674,7434.02099609375,10.865,10.79,-0.0397114051879084,-0.8954355323524238,-48.57822295274017,1425.0,1500.0,1400.0,1500.0,1425.0,1021.7000000000002,250.0,289.15,1636036462.6803763,1636036463.7998707,af6c8e24-c888-4889-b061-57dc51f917de
-0.0423321669290993,0.04113466257228,-0.1271960487968753,-0.1659984032090334,-0.107801720584273,-0.0020368921328019,-0.2192643237114835,-0.2454247533018238,-12.586812721972231,2.26505436519373,-17.57325615095738,0.3694192046280433,0.4115305054989545,0.6014021335297084,7427.57958984375,10.859375,10.79625,-0.0062414736533133,-0.931429101823977,-47.09087882464408,1574.0,1500.0,1400.0,1500.0,1574.0,1021.7000000000002,250.0,289.15,1636036465.045972,1636036466.2472732,e9a8ef08-514f-458b-9847-a4e206d52f2c
-0.0437292159905805,0.0407922486169155,-0.1269632079406586,-0.1649574634817061,-0.1071579828650196,-0.002749111904949,-0.2187438552559474,-0.2495474183679556,-12.570197311783891,2.229922971715834,-17.582694559453454,0.3652562096153204,0.4100983006706212,0.5994473366054139,7427.57958984375,10.855625,10.78375,-0.0039022894376096,-0.8868716223915649,-46.593605194574,1574.0,1500.0,1400.0,1500.0,1574.0,1021.7000000000002,250.0,289.15,1636036466.3568797,1636036467.4796655,e9a8ef08-514f-458b-9847-a4e206d52f2c
-0.0385382201518772,0.0421892976186718,-0.1233062290630956,-0.1771747954105987,-0.1061444398607933,0.0057564504754917,-0.2128680338963834,-0.2366726532816482,-12.501966418907584,2.2764356833656536,-17.742399192763685,0.4124279709037113,0.4180074573203513,0.5845813688825958,7427.57958984375,10.854666666666668,10.783333333333331,-0.0109869463883078,-0.9456572640958172,-46.09790521162958,1574.0,1500.0,1400.0,1500.0,1574.0,1021.7000000000002,250.0,289.15,1636036467.59038,1636036468.7082589,e9a8ef08-514f-458b-9847-a4e206d52f2c
-0.0364563431469824,0.0475720450806343,-0.1234842810984925,-0.1764351809228154,-0.1068566578560954,0.0001134685053678,-0.2152923212764498,-0.2451645186755267,-12.55130948970312,2.2619805391384227,-17.70761482111511,0.3979550639604541,0.438134383029046,0.5899240929025696,7421.14794921875,10.838375,10.78625,0.0116448630994765,-0.9313483201628072,-45.00534117950956,1722.0,1500.0,1400.0,1500.0,1722.0,1021.7000000000002,250.0,289.15,1636036471.6660929,1636036472.8038523,55d15077-2351-4a1a-a340-459ceb1f3062
-0.0375931575621743,0.0470378791782876,-0.1308667265435688,-0.1774213335769317,-0.1139240823868123,0.002222738003179,-0.2232500226306686,-0.2416855924499596,-12.646974388684384,2.303432366825963,-17.67033337671255,0.4047843732173199,0.4361317160814076,0.6208387255622188,7421.14794921875,10.841333333333331,10.783333333333337,-0.013144398902892,-0.9514918464725952,-44.7809593622865,1722.0,1500.0,1400.0,1500.0,1722.0,1021.7000000000002,250.0,289.15,1636036472.913232,1636036473.9203403,55d15077-2351-4a1a-a340-459ceb1f3062
-0.0394832826749187,0.0463941410604496,-0.1276343389095568,-0.1633549667092838,-0.1098835977354904,-0.010706813295199,-0.2237430992080592,-0.2533687585484855,-12.604107717903654,2.3827633574102154,-17.74727360890785,0.3446958270115467,0.4325702170329832,0.6115657194373368,7421.14794921875,10.838444444444445,10.787777777777778,-0.0425788515959944,-0.9677438309998828,-44.55173290137152,1722.0,1500.0,1400.0,1500.0,1722.0,1021.7000000000002,250.0,289.15,1636036474.029519,1636036475.2617457,55d15077-2351-4a1a-a340-459ceb1f3062
-0.0464548312196806,0.0366558879248637,-0.104870656649582,-0.020294404011355,-0.0719441280696559,-0.1401666904847074,-0.2354810506591676,-0.2610388318619596,-12.508908197837618,2.7065665533163727,-18.741504399036383,-0.265757937424568,0.3880186608059282,0.5441811717006964,7427.57958984375,10.841625,10.76875,-0.0025647439540913,-0.9310426291768094,-44.06624395637252,1500.0,1277.0,1400.0,1500.0,1500.0,1021.7000000000002,250.0,289.15,1636036478.107153,1636036479.0380049,08c1eb9f-c409-458f-84be-4f711af325e8
-0.0469616039134084,0.0363271704814825,-0.1036516638659487,-0.0254990964411042,-0.0709442802950766,-0.1349346049737137,-0.2322486634787588,-0.2596965694336393,-12.49478914140928,2.6555261311518525,-18.707171692018616,-0.2425253071347221,0.3870987704774716,0.5365493258429257,7427.57958984375,10.83775,10.76,0.0051606519164572,-0.930518011951614,-43.961048797870575,1500.0,1277.0,1400.0,1500.0,1500.0,1021.7000000000002,250.0,289.15,1636036479.1478336,1636036480.2738802,08c1eb9f-c409-458f-84be-4f711af325e8
-0.0482079907855719,0.0376831298082999,-0.1068977472719987,-0.0209518388959896,-0.0738205565654221,-0.139892759314383,-0.2372752997316081,-0.2630933156796998,-12.509395876950032,2.666231565076661,-18.659813646522608,-0.2640149100785104,0.3911026245357583,0.552304673883032,7421.14794921875,10.837,10.76,0.0162615913336153,-0.9129383693837656,-43.89376104696659,1500.0,1277.0,1400.0,1500.0,1500.0,1021.7000000000002,250.0,289.15,1636036480.3875186,1636036481.500501,08c1eb9f-c409-458f-84be-4f711af325e8
-0.044387841805561,0.0356619941721244,-0.1338704415212561,-0.1764322029739756,-0.1134756688860687,0.0127946958702265,-0.2212806953555922,-0.245048395600841,-12.659011291884124,2.1887124156526783,-17.625075413516516,0.4254008357749193,0.3928351566474848,0.6202531492858189,7421.14794921875,10.836,10.75,0.0043002244024378,-1.0092925713411414,-43.80504599656701,1500.0,1500.0,1400.0,1500.0,1500.0,1021.7000000000002,250.0,289.15,1636036484.568812,1636036485.5903394,795edfc5-ae54-4896-b047-8fc04f033c1a
-0.0429622086755266,0.0399704550861041,-0.1349209080551994,-0.1702032469192862,-0.1156635453401882,0.0032773730859429,-0.2256469206574325,-0.2518484399989715,-12.575149518580758,2.2637708236387466,-17.58474308375629,0.3904570500706912,0.4072112483104062,0.6315422588028421,7421.14794921875,10.833000000000002,10.755,-0.0121209565041227,-0.9820338199721494,-43.79345175045091,1500.0,1500.0,1400.0,1500.0,1500.0,1021.7000000000002,250.0,289.15,1636036485.7005732,1636036486.9345906,795edfc5-ae54-4896-b047-8fc04f033c1a
-0.0464411346574435,0.035806701316158,-0.1377834900599666,-0.1710387360591775,-0.115567670495543,0.0084820662306945,-0.2255099560846383,-0.2513690610135232,-12.671341743578813,2.0752752570243964,-17.54193091394664,0.4026036557462304,0.3918142192724946,0.6346780148574823,7421.14794921875,10.83025,10.765,-0.008362148824144,-0.9647941823831993,-43.80354847759148,1500.0,1500.0,1400.0,1500.0,1500.0,1021.7000000000002,250.0,289.15,1636036487.0443287,1636036488.16882,795edfc5-ae54-4896-b047-8fc04f033c1a
-0.0443181680124323,0.0348890317836175,-0.1533701738279979,-0.2835285857324275,-0.1448372171919906,0.1182051959242445,-0.2136898233618209,-0.2376040171464833,-12.687025177509549,2.156490085689964,-16.813035890403444,0.902786284894184,0.3948863988089343,0.6788475935158645,7421.14794921875,10.83111111111111,10.752222222222224,0.0134457513551005,-0.998933202082642,-43.85828352659773,1500.0,1722.0,1400.0,1500.0,1500.0,1021.7000000000002,250.0,289.15,1636036490.098233,1636036491.123167,fb98fd8a-756f-4853-8923-698d8e2fdabf
-0.046153506960347,0.0349986042869619,-0.1634097525554601,-0.2885278307566799,-0.1559177343838903,0.1243412539826627,-0.2230034849546242,-0.2529441651189847,-12.6614686081025,2.2193407734482022,-16.655409597612156,0.9278066304817038,0.3936995655600361,0.721069198712036,7421.14794921875,10.831555555555555,10.758888888888889,-0.0070907746948958,-1.0314731600679998,-43.89275700915859,1500.0,1722.0,1400.0,1500.0,1500.0,1021.7000000000002,250.0,289.15,1636036491.2317746,1636036492.3553998,fb98fd8a-756f-4853-8923-698d8e2fdabf
-0.042167808253997,0.0379022747073538,-0.1546576510020524,-0.2853913171741475,-0.1467410395120622,0.1178216929239174,-0.2144020452112518,-0.2381107902682132,-12.599842533715702,2.0899365116315,-16.69911221265291,0.9056831143712784,0.4047077260246989,0.6848069267538385,7421.14794921875,10.82925,10.76,-0.0156068887677661,-1.0181749922329049,-43.93868633164113,1500.0,1722.0,1400.0,1500.0,1500.0,1021.7000000000002,250.0,289.15,1636036492.4649966,1636036493.485543,fb98fd8a-756f-4853-8923-698d8e2fdabf
-0.0080496798714837,0.0565706841649191,-0.0236226677270898,-0.1611635171728189,-0.014610331894187,-0.0285397331457582,-0.1174714915308591,-0.1366055849905932,-11.788966489503736,2.38425689752728,-17.772743306451193,0.3052747507610773,0.4715188053310144,0.1904966940360018,7414.72802734375,10.829888888888892,10.76,-0.0514928235742755,-0.9798945715217928,-44.04584203902608,1500.0,1500.0,1400.0,1277.0,1500.0,1021.7000000000002,250.0,289.15,1636036496.2426093,1636036497.2675064,e0d81c0d-650f-4463-94e5-afed28b91a9b
-0.0081044661765591,0.056187180462488,-0.0206505158509379,-0.1623825102352714,-0.0116792697384758,-0.0275946698761428,-0.1132255598757066,-0.1401940845363841,-11.723268338601606,2.332176244430576,-17.823288390206436,0.309975941784765,0.4704010371830267,0.1763467468094083,7414.72802734375,10.828,10.76,-0.0629498515160407,-0.9827814055211486,-44.09494313060445,1500.0,1500.0,1400.0,1277.0,1500.0,1021.7000000000002,250.0,289.15,1636036497.375303,1636036498.6053028,e0d81c0d-650f-4463-94e5-afed28b91a9b
-0.0087892940592501,0.0525165027744828,-0.0154321258676711,-0.1573421771564002,-0.0023793052730322,-0.0278822983206545,-0.1059937751576759,-0.1353044120178578,-11.861674115836758,2.089827797127682,-17.664167516489453,0.2965688244162375,0.4559092170201356,0.146097239999983,7414.72802734375,10.82875,10.76,-0.0465478600893192,-0.9749873592653704,-44.10749744518576,1500.0,1500.0,1400.0,1277.0,1500.0,1021.7000000000002,250.0,289.15,1636036498.7141206,1636036499.7218502,e0d81c0d-650f-4463-94e5-afed28b91a9b
-0.0328815412330669,0.0441479054447244,-0.098844170557483,-0.1714633305716852,-0.0806277466592695,-0.0025436646913392,-0.1857899310568888,-0.2129365125925192,-12.256909789063494,1.9778351019489468,-17.701157988305916,0.380261355734516,0.424095953582196,0.4785679457090183,7414.72802734375,10.832,10.75,-0.0466784466027927,-0.9846745418600056,-44.239623612698246,1500.0,1500.0,1400.0,1425.0,1500.0,1021.7000000000002,250.0,289.15,1636036502.0476134,1636036503.0029342,2bf5aa33-b8dc-46f8-a4c6-0923fd94248c
-0.0334294035575659,0.0437507053256011,-0.0962007345404687,-0.1689705560375862,-0.0782856349516242,-0.0048994719773697,-0.1852009789296908,-0.2072935298601119,-12.342532058990765,2.095957411195773,-17.753552251363512,0.3702076741010434,0.4235392631738316,0.4707276091185044,7414.72802734375,10.830666666666666,10.753333333333334,-0.0725705609398715,-0.9787224944590646,-44.30030870510895,1500.0,1500.0,1400.0,1425.0,1500.0,1021.7000000000002,250.0,289.15,1636036503.1108823,1636036504.232235,2bf5aa33-b8dc-46f8-a4c6-0923fd94248c
-0.0328404515387354,0.0459284581353189,-0.1011451928598526,-0.173243882334529,-0.0840518867368031,-0.0015986011125828,-0.1888031747093118,-0.2169085153035042,-12.251362769171488,2.046646636857099,-17.573274819051253,0.3867662902977547,0.4296759414804054,0.4910143524718792,7414.72802734375,10.83122222222222,10.75,-0.0688467853082981,-0.9521155044052472,-44.34909674635034,1500.0,1500.0,1400.0,1425.0,1500.0,1021.7000000000002,250.0,289.15,1636036504.3417847,1636036505.572287,2bf5aa33-b8dc-46f8-a4c6-0923fd94248c
-0.0601113963963318,0.0307066506339298,-0.1826572543926872,-0.1621189889061294,-0.1572145249243257,0.0069864014383195,-0.274474610550117,-0.3008508986153378,-12.916636465681766,2.2209323832662293,-17.658961114195105,0.3777109674333888,0.3715188009448623,0.8213503722806217,7414.72802734375,10.829333333333333,10.75,-0.0569099995727909,-0.9379981792949672,-44.46015865789439,1500.0,1500.0,1400.0,1574.0,1500.0,1021.7000000000002,250.0,289.15,1636036508.048762,1636036509.0538156,e98da166-850b-49f3-a7f5-8ea77ae77e1b
-0.0581379961792338,0.031478588741153,-0.1738739261417355,-0.1643548151002762,-0.1492749047083771,0.0075780933603476,-0.2648190856117577,-0.2883771683142836,-12.855336079125864,2.205812603713068,-17.689139980087358,0.3844472209289377,0.3750794814555671,0.7848965793939916,7414.72802734375,10.83088888888889,10.76,-0.0541680336189271,-0.9684663488059904,-44.48814573747346,1500.0,1500.0,1400.0,1574.0,1500.0,1021.7000000000002,250.0,289.15,1636036509.1624568,1636036510.2832825,e98da166-850b-49f3-a7f5-8ea77ae77e1b
-0.0587543412908597,0.0316703405593377,-0.1830643156802162,-0.1581502734628624,-0.1563149344249062,0.0029075667746889,-0.2748449652527104,-0.2995124704189529,-12.897253009595303,2.0989747252569315,-17.5867160454731,0.358785364065587,0.3738392188708851,0.8215241819766369,7414.72802734375,10.832375,10.75375,-0.0553683315321666,-0.9670706630892234,-44.474298667296125,1500.0,1500.0,1400.0,1574.0,1500.0,1021.7000000000002,250.0,289.15,1636036510.3932216,1636036511.3995354,e98da166-850b-49f3-a7f5-8ea77ae77e1b
-0.0846819278351577,0.0231647776142913,-0.2574092434238109,-0.1547124368870619,-0.2262632654985884,0.0121253508529158,-0.3526962157813184,-0.3826642914059855,-13.319945878279604,2.3049204800260963,-17.59723332949918,0.3691929475224271,0.3398902665788461,1.1275862628560631,7414.72802734375,10.829,10.76,-0.0173211396216341,-0.9614563809936052,-44.545059427097456,1500.0,1500.0,1400.0,1722.0,1500.0,1021.7000000000002,250.0,289.15,1636036513.5484643,1636036514.580206,c3004a47-624e-4278-a576-19aa690c81db
-0.0805729600690798,0.0247398818345287,-0.2486708382175758,-0.1486311641657735,-0.2195108616636098,0.0035239121829274,-0.3487926961896914,-0.3746518031994745,-13.359328385639463,2.572004712693193,-17.758765816510316,0.3383065795323454,0.3473180261549302,1.1007989805210852,7414.72802734375,10.828500000000002,10.75,-0.0222646958067358,-0.924936746883722,-44.56619544748406,1500.0,1500.0,1400.0,1722.0,1500.0,1021.7000000000002,250.0,289.15,1636036514.688198,1636036515.8086576,c3004a47-624e-4278-a576-19aa690c81db
-0.0809290707001858,0.0236304605070774,-0.246643748388579,-0.1491105442589428,-0.2156073429335867,0.0049072641824253,-0.3443687089486504,-0.3704469599002265,-13.36495868881797,2.3762478098674573,-17.752176328280267,0.341297975856044,0.3433226778155728,1.0863675405296576,7414.72802734375,10.828333333333331,10.747777777777776,-0.0419479736434969,-0.9150261423980336,-44.57270651503786,1500.0,1500.0,1400.0,1722.0,1500.0,1021.7000000000002,250.0,289.15,1636036515.9173737,1636036517.042308,c3004a47-624e-4278-a576-19aa690c81db
-0.0381410199308425,0.0407374623004654,-0.155698589756175,-0.2195793449468054,-0.1191424720144731,0.0491060586717597,-0.2101561119150695,-0.2359193408102196,-12.523072836874237,-0.3304305439257374,-17.416076785047206,0.5866418419959558,0.4129425849285366,0.6435462285338764,7647.566528320312,10.6895,11.9775,-0.0654956961399305,-0.923154147551628,-44.37595931117357,1277.0,1500.0,1500.0,1500.0,1277.0,1021.7000000000002,250.0,289.15,1636036519.0674276,1636036520.1132247,441ab511-c640-45d8-b419-f03e6a7195dc
-0.0375246747260767,0.0431206636084982,-0.1630947315574762,-0.2287149500338065,-0.128168504507485,0.0573239944562281,-0.2153745005497598,-0.2400420049750663,-12.436965102496629,-0.3487508159590295,-17.16073131289554,0.6253106500260267,0.4196640708275946,0.6739877842554209,8362.3671875,10.3105,15.384999999999998,-0.0694922606038338,-0.9661813777953728,-43.35697192663584,1277.0,1500.0,1500.0,1500.0,1277.0,1021.7000000000002,250.0,289.15,1636036520.222186,1636036521.3388472,441ab511-c640-45d8-b419-f03e6a7195dc
-0.0376890334311214,0.0414085937875607,-0.171244184778201,-0.2037187276800063,-0.1105547291992318,0.0452299334207689,-0.2053349222849751,-0.2293449917213232,-12.57046748272876,-2.736795596045422,-15.810431019514256,0.52565994477686,0.398585286121639,0.6496147916114219,8370.5341796875,10.30925,15.395,-0.0903893894546264,-0.9426735742194816,-42.4734613442853,1277.0,1500.0,1500.0,1500.0,1277.0,1021.7000000000002,250.0,289.15,1636036521.449483,1636036522.4610882,441ab511-c640-45d8-b419-f03e6a7195dc
-0.0434004985455763,0.0454079888682539,-0.1584105078423222,-0.2100328423506804,-0.1303462573144675,0.0319990572847777,-0.2263454449564026,-0.251149915249987,-12.452448817281535,0.6104917584054603,-18.031833926796267,0.5327054020574988,0.4340861372545588,0.6849965775206805,8362.3671875,10.316,15.349999999999998,-0.1184846655741731,-0.9468748876109798,-40.49072060748041,1425.0,1500.0,1500.0,1500.0,1425.0,1021.7000000000002,250.0,289.15,1636036525.0492384,1636036526.0528212,61351967-04f5-4d81-906c-623497208aa1
-0.0430854777751122,0.0460106373349655,-0.1534112641788819,-0.2170454819474311,-0.1309078166996305,0.0337522160233741,-0.2262632663787084,-0.2568339882308912,-12.546371478360593,1.1580869855390843,-18.602833986585345,0.556204485544999,0.4432615743213041,0.6777455796962091,8362.3671875,10.307624999999998,15.4125,-0.1038081290086796,-0.9380596346927924,-40.01450316996103,1425.0,1500.0,1500.0,1500.0,1425.0,1021.7000000000002,250.0,289.15,1636036526.1621606,1636036527.2771902,61351967-04f5-4d81-906c-623497208aa1
-0.0415103734211272,0.0433535050619819,-0.1608895854789528,-0.208457737688757,-0.1209230246142508,0.03981979250713,-0.2175385574219429,-0.2413020888157308,-12.666820252704838,-0.5103801937828475,-16.961683003055317,0.5392354301440887,0.418043022894578,0.6645866012768372,8362.3671875,10.299666666666669,15.393333333333333,-0.0425154136942598,-0.90826183609439,-39.63124565054663,1425.0,1500.0,1500.0,1500.0,1425.0,1021.7000000000002,250.0,289.15,1636036527.3861208,1636036528.5104263,61351967-04f5-4d81-906c-623497208aa1
-0.0398804829265578,0.04253171140406,-0.1607252266234172,-0.2113066234895776,-0.1309489059177661,0.0343822569674532,-0.2290436675733837,-0.2544370898403088,-12.699931512098695,0.6121510302268698,-18.278273981499247,0.5406659896423168,0.4272442786987997,0.6919337852234069,8354.216796875,10.293,15.38,-0.1179796051015624,-0.969256777190877,-38.622790227981575,1574.0,1500.0,1500.0,1500.0,1574.0,1021.7000000000002,250.0,289.15,1636036531.573314,1636036532.60235,e6757688-443c-4c57-917a-61532b37f864
-0.0401818072088533,0.0414085937550181,-0.1589720670655413,-0.2042391976527473,-0.1207038796468236,0.0332454440911807,-0.2193465032580979,-0.2477531688789682,-12.660065861850564,-0.2390725890150214,-17.617442013573115,0.5167388773755556,0.4161193617147337,0.6630185965337486,8350.1494140625,10.2985,15.3,-0.1176668237922368,-0.9577141310195256,-38.43430774274049,1574.0,1500.0,1500.0,1500.0,1574.0,1021.7000000000002,250.0,289.15,1636036532.7127693,1636036533.835084,e6757688-443c-4c57-917a-61532b37f864
-0.0417021252493208,0.0421756010384652,-0.1633138767436467,-0.2066634894019587,-0.1275384630467932,0.0346972787148758,-0.2256469209218508,-0.2512320950007441,-12.6430916202914,-0.0069365178777251,-17.665396506988923,0.5267935169631336,0.4193281568184291,0.6871368765330984,8354.216796875,10.296,15.31,-0.1002774956707149,-1.020360466004324,-38.231546747039495,1574.0,1500.0,1500.0,1500.0,1574.0,1021.7000000000002,250.0,289.15,1636036533.9441884,1636036535.0604584,e6757688-443c-4c57-917a-61532b37f864
-0.0392915310405859,0.0580773054274297,-0.1628481984424513,-0.2065950056878072,-0.1369069140136676,0.0199734787347242,-0.2360837049833011,-0.2593267649307674,-12.454693331973344,0.6460277207990145,-17.58189345174328,0.4980126022429185,0.4769278577456166,0.7160282762039749,8346.08203125,10.284333333333333,15.374444444444444,-0.1114231026343417,-0.9375267065147596,-37.91719563849864,1722.0,1500.0,1500.0,1500.0,1722.0,1021.7000000000002,250.0,289.15,1636036536.547068,1636036537.521327,857570c4-09ad-4739-8fe2-8b9474d717ce
-0.0387025788069618,0.0526534684291393,-0.1558766450458646,-0.2131282652168205,-0.1292505332189081,0.0296021594500078,-0.2257291008640005,-0.2517799576958374,-12.526678966160352,0.6148919516898151,-17.75624919390239,0.5344636712840609,0.4598857938570397,0.680357219055087,8346.08203125,10.28175,15.366249999999996,-0.0830854276145901,-0.9923283424541736,-37.8038403012133,1722.0,1500.0,1500.0,1500.0,1722.0,1021.7000000000002,250.0,289.15,1636036537.62976,1636036538.7465868,857570c4-09ad-4739-8fe2-8b9474d717ce
-0.0327445756483521,0.0519001576229164,-0.1529181881383733,-0.2110052978080225,-0.1195807621428111,0.0285475248640671,-0.2169633020690107,-0.2449042840866734,-12.607120127931864,-0.0522214918899439,-17.679643996009165,0.523001527272024,0.4568656670139535,0.6509263589922664,8346.08203125,10.2815,15.36,-0.1362061549997798,-0.984707812351783,-37.7244837483415,1722.0,1500.0,1500.0,1500.0,1722.0,1021.7000000000002,250.0,289.15,1636036538.8553474,1636036539.9792678,857570c4-09ad-4739-8fe2-8b9474d717ce
-0.0437703056792539,0.0457367062324958,-0.1291820499245815,-0.0208011765779921,-0.07824454564389,-0.1472067221354997,-0.2422471516256936,-0.2635042129221697,-12.429353941058396,0.516487718279976,-18.637554221774035,-0.2961069002264125,0.4190769168302279,0.5977305917414834,8337.962890625,10.288,15.31,-0.1094145678926862,-0.92278139531376,-37.55705873631156,1500.0,1277.0,1500.0,1500.0,1500.0,1021.7000000000002,250.0,289.15,1636036541.5474138,1636036542.5290349,0ef3ea14-d464-409f-9073-cc677beff900
-0.0445564881419965,0.042816599985638,-0.1330472191791291,-0.0194424782849636,-0.0782171526503932,-0.1462090652738034,-0.243509426552085,-0.2654940491143374,-12.536820246998422,0.2347270002414749,-18.740325125571697,-0.2990606860588301,0.4093791245783569,0.6043132599854363,8346.08203125,10.277,15.354444444444445,-0.1023984835925384,-0.9508009420073332,-37.47245394197253,1500.0,1277.0,1500.0,1500.0,1500.0,1021.7000000000002,250.0,289.15,1636036542.6384056,1636036543.7587798,0ef3ea14-d464-409f-9073-cc677beff900
-0.0449378003271394,0.0409757825103571,-0.1316929034188367,-0.0220064736009714,-0.079400535136282,-0.1439080425402815,-0.2441142667727954,-0.2683473165862009,-12.559796585927446,0.5292700751466176,-19.00563971030449,-0.2861400963580644,0.4053955715459277,0.6041837747171231,8346.08203125,10.281444444444444,15.331111111111111,-0.0866341890979996,-0.9377536087192182,-37.44680088981482,1500.0,1277.0,1500.0,1500.0,1500.0,1021.7000000000002,250.0,289.15,1636036543.870404,1636036544.9938164,0ef3ea14-d464-409f-9073-cc677beff900
-0.045249534022513,0.0420797251099621,-0.1716824749075166,-0.2082933790146956,-0.1332910180675506,0.0395595579396835,-0.2299339446484301,-0.2507801086459972,-12.592408720072005,-0.3198349817641558,-17.246383200272742,0.5389977028306047,0.4145609815653921,0.7132121456655168,8346.08203125,10.28725,15.295000000000002,-0.0715237816445564,-1.0078950239235067,-37.43589374175648,1500.0,1500.0,1500.0,1500.0,1500.0,1021.7000000000002,250.0,289.15,1636036548.149347,1636036549.1961565,68070c4d-9fc2-4618-bcaa-461eab4b30cc
-0.0410994766711367,0.0402169931410593,-0.1652313958213,-0.2089645104675725,-0.1278808776345622,0.0396143442160609,-0.2251538455840977,-0.2498350462940743,-12.688920152273312,-0.1388971438347925,-17.54415033724182,0.5420593552959226,0.4113914542131347,0.6894509627397994,8346.08203125,10.277,15.35,-0.1080496706469142,-1.0006709249374548,-37.44631661042992,1500.0,1500.0,1500.0,1500.0,1500.0,1021.7000000000002,250.0,289.15,1636036549.3066127,1636036550.512643,68070c4d-9fc2-4618-bcaa-461eab4b30cc
