raw_voltage_G-,raw_voltage_G0,raw_voltage_G1,raw_voltage_G2,raw_voltage_G3,raw_voltage_G4,raw_voltage_G5,raw_voltage_G6,load_x,load_y,load_z,load_l,load_m,load_n,rpm,voltage,current,roll,pitch,yaw,aileron1_pwm,elevator_pwm,throttle_pwm,rudder_pwm,aileron2_pwm,pbaro,pdiff,Tt,sample_start_time,sample_end_time,uid
-0.0482353838636131,0.0343685626767959,-0.0487421565485272,-0.0485367081622116,-0.086736411699026,-0.1038160211750961,-0.2332485107931718,-0.2584364851701117,-11.9727640981867,9.844935152802222,-17.45447743997902,-0.0697744378006607,0.3713947586434381,0.4833768714230542,-1.0,12.16425,0.0625,-0.1619663535267217,-0.9984646937942612,-99.3662801869044,1500.0,1000.0,1200.0,1500.0,1500.0,1021.7000000000002,250.0,289.15,1636035531.5660026,1636035532.7673757,a371c99e-bd31-490a-98b0-5f1a6d668a74
-0.0499885434249217,0.032820851547048,-0.0475916455886305,-0.0376753368393997,-0.0839149204917499,-0.1125818191865777,-0.2340018216034827,-0.2597787480251115,-11.9645659524452,9.830209406786905,-17.492694432477606,-0.1140152452708184,0.3646060119212507,0.4789040148931041,-1.0,12.08,0.28,-0.1657606114337343,-0.9764146731454424,-97.85414859083228,1500.0,1000.0,1200.0,1500.0,1500.0,1021.7000000000002,250.0,289.15,1636035532.8873498,1636035533.8855884,a371c99e-bd31-490a-98b0-5f1a6d668a74
-0.0494132879429353,0.0318757889984615,-0.0484408322503286,-0.0362645912606946,-0.0836683824256451,-0.1131707712429449,-0.2346729530507907,-0.2624495773408943,-12.01276472632712,9.77732563169276,-17.528321074522733,-0.1189437934593887,0.3614899261166185,0.4805170707780378,1802.8101043701167,12.08175,0.27,-0.1750130870610839,-0.954672188878784,-96.7115640952125,1500.0,1000.0,1200.0,1500.0,1500.0,1021.7000000000002,250.0,289.15,1636035534.0193875,1636035535.020323,a371c99e-bd31-490a-98b0-5f1a6d668a74
-0.0492626257932152,0.033259141424769,-0.0504953161128019,-0.0438250918467947,-0.0866131426676885,-0.1065690296124623,-0.2346592564917182,-0.2604224863600478,-11.979553984019446,9.732651804392034,-17.394427548564625,-0.0874145484822625,0.3660564448604527,0.4876404270199013,1859.4503445095488,12.096222222222222,0.2666666666666667,-0.163494877010584,-0.9480559411549612,-94.10963170542648,1500.0,1314.0,1200.0,1500.0,1500.0,1021.7000000000002,250.0,289.15,1636035537.6190596,1636035538.5981345,1bc4cbdc-8e1f-43c1-8632-0d323a6beb27
-0.0502487780470115,0.0332454448663225,-0.0499748468686602,-0.0447290647431118,-0.0859146181453757,-0.1062403121842317,-0.2336320144805459,-0.2551219176208967,-11.975658318194837,9.695985701033702,-17.46152010246111,-0.0848626172481751,0.3667158130400434,0.484430541996828,1855.086395263672,12.098,0.2775,-0.1775690168861701,-0.959736373941952,-93.54243913637026,1500.0,1314.0,1200.0,1500.0,1500.0,1021.7000000000002,250.0,289.15,1636035538.7336528,1636035539.7221906,1bc4cbdc-8e1f-43c1-8632-0d323a6beb27
-0.0492900189124365,0.0332969439272749,-0.0502893198649927,-0.0442277706817349,-0.0863561952157752,-0.1065394450413611,-0.2340029173289592,-0.2565923802247263,-11.952647559937992,9.703688984819228,-17.43412000961214,-0.0866142471976546,0.3664217297108743,0.4860509364729472,1861.235855102539,12.1035,0.29375,-0.1797903941739512,-0.971434340215855,-92.995100219684,1500.0,1314.0,1200.0,1500.0,1500.0,1021.7000000000002,250.0,289.15,1636035539.8310378,1636035541.15668,1bc4cbdc-8e1f-43c1-8632-0d323a6beb27
-0.0504679229923423,0.0333276242182293,-0.0521662963247502,-0.0492078395583578,-0.0882978194622979,-0.1017752338314665,-0.2348373117762045,-0.2570257394443319,-12.01322942320222,9.683835206711656,-17.414379595781387,-0.0649270358404482,0.3672844502670143,0.4923956950485524,1881.2133382161453,12.15088888888889,0.2611111111111111,-0.1576529263893697,-0.98714583711095,-91.97612118315526,1500.0,1435.0,1200.0,1500.0,1500.0,1021.7000000000002,250.0,289.15,1636035543.095558,1636035544.2386942,c9d02624-c56a-40f8-b833-e5e9ebc83da2
-0.0498652743930815,0.0326564928429733,-0.0520567238487098,-0.0483860460156459,-0.0877773502059394,-0.102117647814486,-0.2344812012096752,-0.2552451866168441,-12.009491128680438,9.660367512797627,-17.446886591516233,-0.0677036649133555,0.3649343174579968,0.4909228083922826,1887.251953125,12.111,0.28,-0.1563080787429484,-0.9912814692215236,-91.69887887183005,1500.0,1435.0,1200.0,1500.0,1500.0,1021.7000000000002,250.0,289.15,1636035544.3723528,1636035545.4571657,c9d02624-c56a-40f8-b833-e5e9ebc83da2
-0.0493995913840446,0.0330126033686752,-0.0520704204155339,-0.0492215361172073,-0.0880786745170971,-0.101912199422997,-0.2342346631379755,-0.2623126117074938,-11.977210444879075,9.65426232940947,-17.476631989997326,-0.0653869802832365,0.3664070012997191,0.4910197660740369,1889.5055609809028,12.1,0.2933333333333333,-0.1568322260961889,-0.9985698265324232,-91.49367608350074,1500.0,1435.0,1200.0,1500.0,1500.0,1021.7000000000002,250.0,289.15,1636035545.5659816,1636035546.6899502,c9d02624-c56a-40f8-b833-e5e9ebc83da2
-0.0492763223523265,0.0332728379837862,-0.0511938406263346,-0.0506733713818421,-0.0872705775130783,-0.1002001295057715,-0.2330156692735334,-0.2567244150697831,-12.00009273767887,9.6486604856867,-17.378852991979045,-0.0582541652278677,0.366912609255404,0.4871316106756958,1899.3866729736328,12.125875,0.29,-0.1559840699766693,-1.0128489654646025,-90.86209617491248,1500.0,1482.0,1200.0,1500.0,1500.0,1021.7000000000002,250.0,289.15,1636035550.1494186,1636035551.1953666,adba5b2d-5466-46b7-852f-1642afa2b925
-0.0496598260067177,0.0334919829223904,-0.0522758687939229,-0.0510842681528556,-0.0882978194588182,-0.0999809845543226,-0.23397442848321,-0.2574777258822866,-11.999854982145486,9.635348281374478,-17.378661901336212,-0.0569768106646993,0.3677129292124057,0.4913995568084237,1913.538192749024,12.122125,0.315,-0.1408803506020691,-1.009033624462276,-90.7189038202841,1500.0,1482.0,1200.0,1500.0,1500.0,1021.7000000000002,250.0,289.15,1636035551.3055327,1636035552.4205656,adba5b2d-5466-46b7-852f-1642afa2b925
-0.0495003980588783,0.033099713482133,-0.0520775426200149,-0.050657483370975,-0.0882627562682319,-0.1000965835161628,-0.2342132964944275,-0.2606816253352486,-12.014529201085248,9.675653438777712,-17.394419539376486,-0.0579321342812596,0.3664459104057244,0.4913288048891393,1907.7789171006943,12.107666666666669,0.2722222222222222,-0.1364693792697905,-1.017218270678968,-90.61315162190984,1500.0,1482.0,1200.0,1500.0,1500.0,1021.7000000000002,250.0,289.15,1636035552.5292346,1636035553.6502771,adba5b2d-5466-46b7-852f-1642afa2b925
-0.0502624746062073,0.0332728379840386,-0.0526045862139217,-0.0511116612703026,-0.0889278611875551,-0.0995153015370717,-0.2341524837661098,-0.255245186603159,-11.96337184315511,9.653233008858749,-17.348951078429405,-0.0557432737379684,0.3663522945523703,0.4929926082940708,1903.8094940185547,12.1125,0.2775,-0.1408868989792348,-1.0216980358233094,-90.42699775685703,1500.0,1500.0,1200.0,1500.0,1500.0,1021.7000000000002,250.0,289.15,1636035555.5645287,1636035556.721603,5bd209bb-b3f2-4795-bb8d-3bef6f5b3695
-0.0498422641735251,0.033244349141217,-0.0527218287588524,-0.0520906913164243,-0.0886572171747438,-0.098808011214589,-0.2337662407696411,-0.2591695250198757,-11.984364497406878,9.609382193356954,-17.378838515761103,-0.0522573076718967,0.3667712798404247,0.4921829996755157,1905.2319878472224,12.122444444444444,0.2766666666666666,-0.1368480842072479,-1.0213164434708122,-90.39722429821876,1500.0,1500.0,1200.0,1500.0,1500.0,1021.7000000000002,250.0,289.15,1636035556.8323991,1636035557.8422594,5bd209bb-b3f2-4795-bb8d-3bef6f5b3695
-0.0496050397714303,0.0336152519509347,-0.0523991378274475,-0.0512760199795926,-0.0887771990347496,-0.0998577155214425,-0.2342209665665449,-0.2627372050623334,-11.981695309234969,9.659758223378867,-17.37088856528361,-0.0561012048356086,0.3679940465657368,0.4925984151578125,1904.2008734809028,12.132555555555555,0.28,-0.1418916097268714,-1.024573317198014,-90.3810701419218,1500.0,1500.0,1200.0,1500.0,1500.0,1021.7000000000002,250.0,289.15,1636035557.9508457,1636035559.18232,5bd209bb-b3f2-4795-bb8d-3bef6f5b3695
-0.0490297842896447,0.032957817134134,-0.0525771930933083,-0.0523717447061852,-0.0886813231178548,-0.0983237008736435,-0.2338237663211131,-0.2627645982734902,-12.00011251958775,9.639283421004777,-17.38662792106339,-0.05033875816905,0.3659213884593149,0.4920291766730787,1903.177110460069,12.111444444444444,0.3011111111111111,-0.1362185373115808,-1.0360221846349016,-90.37205201548764,1500.0,1517.0,1200.0,1500.0,1500.0,1021.7000000000002,250.0,289.15,1636035561.5783737,1636035562.548978,2610c17b-0de6-4ca3-bfb7-e81b8b351d99
-0.0493037154713665,0.0327112790781727,-0.053001786430513,-0.0516732201934957,-0.0889552543088071,-0.0984058802300751,-0.2344127184153557,-0.2635453022300546,-12.012818800316635,9.646449955843371,-17.34515613427924,-0.0520725455805337,0.3646062906545921,0.4938425494171534,1920.839735243056,12.108666666666666,0.3044444444444444,-0.1378833529366399,-1.037136786130083,-90.39698448268793,1500.0,1517.0,1200.0,1500.0,1500.0,1021.7000000000002,250.0,289.15,1636035562.6787052,1636035563.779981,2610c17b-0de6-4ca3-bfb7-e81b8b351d99
-0.0497420053622563,0.0325880100494276,-0.0528100345989942,-0.0511664475081105,-0.0885169644068039,-0.0989674391652668,-0.2344127184081595,-0.2551082209856676,-12.036162965760402,9.641189600379288,-17.374873190148588,-0.0545194100064736,0.3645222348975288,0.4929176522511954,1919.6937866210933,12.110500000000002,0.285,-0.1411265892603133,-1.0292483563835089,-90.40456826939636,1500.0,1517.0,1200.0,1500.0,1500.0,1021.7000000000002,250.0,289.15,1636035563.8899353,1636035565.1260118,2610c17b-0de6-4ca3-bfb7-e81b8b351d99
-0.0497557019200028,0.0326290997255821,-0.0537824902985356,-0.0539742421219808,-0.089735958186833,-0.0965020584858816,-0.2346592564949737,-0.2585460575900693,-12.034246060124303,9.63117607164481,-17.390803547179,-0.0427620508644112,0.3650878504171209,0.4962178824775813,1920.2660047743057,12.122222222222224,0.2944444444444444,-0.1389870510308807,-1.0363606821697058,-90.40880754014124,1500.0,1564.0,1200.0,1500.0,1500.0,1021.7000000000002,250.0,289.15,1636035567.2604802,1636035568.2430332,0bcd5b0a-e510-4f64-8954-26b1bb534fed
-0.0490023911711108,0.0329852102512704,-0.0531524485782811,-0.0541249042709788,-0.0894346338810278,-0.0964198791281267,-0.234015518165074,-0.2600663757813662,-12.00925378389905,9.64233340339846,-17.344632270613797,-0.0421122503637051,0.3658960575970604,0.4941518928725674,1918.74072265625,12.114625,0.3,-0.150197393973101,-1.0382264666247187,-90.44142994657328,1500.0,1564.0,1200.0,1500.0,1500.0,1021.7000000000002,250.0,289.15,1636035568.3582718,1636035569.310475,0bcd5b0a-e510-4f64-8954-26b1bb534fed
-0.0489613014940676,0.0328482446633986,-0.0535359522338147,-0.053494862555353,-0.0895168132366014,-0.096693810314165,-0.2342894493694276,-0.2637233574163014,-12.01005222892708,9.62198659338695,-17.32247164567028,-0.0442998768326527,0.3650893667300863,0.4952046008492595,1920.5552368164065,12.120875,0.2987499999999999,-0.1626734982193363,-1.032979787444665,-90.46417362273576,1500.0,1564.0,1200.0,1500.0,1500.0,1021.7000000000002,250.0,289.15,1636035569.4205084,1636035570.527315,0bcd5b0a-e510-4f64-8954-26b1bb534fed
-0.0498515778342829,0.0329715136919665,-0.054357745776572,-0.0576175268451539,-0.0908316829272502,-0.0929546496221843,-0.2342209665654314,-0.2584912713353802,-12.015872667527802,9.624271792980013,-17.316327144783628,-0.026625484276852,0.3659939672537766,0.4980006167153188,1931.371337890625,12.15725,0.275,-0.1361166221587358,-1.0446026216376971,-90.4969337713161,1500.0,1685.0,1200.0,1500.0,1500.0,1021.7000000000002,250.0,289.15,1636035572.061787,1636035573.110655,4f368ac3-ebd5-4932-8561-d535d5f08326
-0.0494543776221837,0.0333824104531138,-0.0544399251315542,-0.0586173756621737,-0.0912014900286912,-0.0925026631640278,-0.233947035362127,-0.2615319078046412,-11.981770675144976,9.614150363824606,-17.32504165309569,-0.0234098076168853,0.3674886722841076,0.4982829702996595,1933.5511067708333,12.165666666666665,0.2766666666666666,-0.1326590023090288,-1.0400205014840362,-90.54859191496496,1500.0,1685.0,1200.0,1500.0,1500.0,1021.7000000000002,250.0,289.15,1636035573.2479503,1636035574.4303975,4f368ac3-ebd5-4932-8561-d535d5f08326
-0.0486873703125773,0.0333139276595935,-0.0543988354562798,-0.0576175268450909,-0.0906125379798538,-0.0932011876876412,-0.2338648560022001,-0.2599568033219476,-12.001066782240388,9.579427082815371,-17.30201477098629,-0.0274690808412118,0.3670432197906104,0.4973414952460981,1948.494140625,12.139,0.33,-0.139943012192664,-1.0380556718748286,-90.53298265598175,1500.0,1685.0,1200.0,1500.0,1500.0,1021.7000000000002,250.0,289.15,1636035574.5413284,1636035575.6603692,4f368ac3-ebd5-4932-8561-d535d5f08326
-0.0490401936738273,0.0329419291259727,-0.0543654158518383,-0.0647002915078915,-0.09165512007406,-0.0860537751852891,-0.2322409918339289,-0.2588934023481644,-12.002694296401392,9.612554030891278,-17.25897215844991,0.0047963997883332,0.3661527530377425,0.4963427981080585,1942.312744140625,12.099,0.36,-0.1268533948753709,-1.0361043722063206,-90.52854303302126,1500.0,2000.0,1200.0,1500.0,1500.0,1021.7000000000002,250.0,289.15,1636035577.5929468,1636035578.5883062,00fe575b-3df9-4381-9b8a-9553f4979199
-0.0498554128704772,0.0332312004455185,-0.0543259697603819,-0.0650421576246728,-0.0918129044362557,-0.0861195186705789,-0.232135802250675,-0.2566712724284062,-11.983392680895026,9.612174137276808,-17.27231101877072,0.0054268670419691,0.3672638915197451,0.4963810142534187,1930.7218627929688,12.044,0.345,-0.1348970898813981,-1.027936586536896,-90.50730114470252,1500.0,2000.0,1200.0,1500.0,1500.0,1021.7000000000002,250.0,289.15,1636035578.697829,1636035579.864066,00fe575b-3df9-4381-9b8a-9553f4979199
-0.0495502535339735,0.0327249756365146,-0.0550836634138234,-0.0642466614676508,-0.0918589248778911,-0.0866405357849913,-0.2327417380733279,-0.2583953954161888,-12.010311634391064,9.571650614397017,-17.317347014313786,0.002134534857663,0.3658082557380497,0.4982192480796147,1931.9157409667969,12.04475,0.3425,-0.1479835288928908,-1.0215942222840102,-90.482090916476,1500.0,2000.0,1200.0,1500.0,1500.0,1021.7000000000002,250.0,289.15,1636035579.9738097,1636035580.9804566,00fe575b-3df9-4381-9b8a-9553f4979199
-0.0460302378721299,0.0372174468403049,-0.0479066666716121,0.0366011014030296,-0.0500981161226763,-0.190652209728215,-0.2293039018412611,-0.2540946756764848,-12.13679784637253,7.02169867801059,-18.20345181429101,-0.4758329226686034,0.3794017366100364,0.4277978861280609,2311.252456665039,11.983875,0.95625,-0.1663856643450719,-1.0168425850764369,-89.68999473220327,1500.0,1000.0,1300.0,1500.0,1500.0,1021.7000000000002,250.0,289.15,1636035584.1463473,1636035585.189104,97eb233c-6531-4cdb-b76f-2015b2eae7d7
-0.0466054933424574,0.0422851735579745,-0.0653560828917569,0.0374228949447427,-0.0670818493325225,-0.1961171370534188,-0.2445892627815545,-0.2663667936364904,-11.790440674298589,6.719966666379492,-18.2910722671426,-0.4926758111661583,0.3955214424034093,0.4973417893140983,5636.3724365234375,11.457625,5.21875,-0.2066829366796608,-0.9242623991053156,-84.22859681620223,1500.0,1000.0,1300.0,1500.0,1500.0,1021.7000000000002,250.0,289.15,1636035585.2999992,1636035586.41741,97eb233c-6531-4cdb-b76f-2015b2eae7d7
-0.0463726518410756,0.0427919462277818,-0.0673831736350334,0.0355464664876319,-0.0708210099955489,-0.1955966676351138,-0.2457123807178433,-0.2663530971975769,-11.575715921412684,6.753449349968116,-18.40573760327783,-0.487062650194074,0.3970217446028428,0.5068164515317999,5665.18603515625,11.460875,5.19125,-0.21412237505508,-0.8682059493596432,-80.25173624743523,1500.0,1000.0,1300.0,1500.0,1500.0,1021.7000000000002,250.0,289.15,1636035586.526157,1636035587.536707,97eb233c-6531-4cdb-b76f-2015b2eae7d7
-0.0508240335627042,0.0250275096053565,-0.066068304435446,-0.0294026155637634,-0.0648219175185942,-0.1125270334692285,-0.224071816280573,-0.2472463958123459,-12.759375303289891,6.42482055122477,-17.475189190768322,-0.1564454115835389,0.3385989341401179,0.4639421986110212,5680.6739501953125,11.481625,5.21,-0.2207387005968134,-0.8458474785240585,-71.15584014104044,1500.0,1314.0,1300.0,1500.0,1500.0,1021.7000000000002,250.0,289.15,1636035590.065298,1636035591.1305878,33d7510f-931d-40d3-9047-9260b98fd2f9
-0.0462767759400857,0.043997243392412,-0.0944475751208508,-0.0406611869341768,-0.0975703906514055,-0.1186904849440488,-0.2455617190358197,-0.2691061059424942,-11.68518437556952,5.810358220277352,-17.37328445643552,-0.1498284100448735,0.4008175867371741,0.5811716608258739,5687.74169921875,11.49125,5.202500000000001,-0.2170229542913541,-0.848300410230379,-69.32862451918405,1500.0,1314.0,1300.0,1500.0,1500.0,1021.7000000000002,250.0,289.15,1636035591.2417915,1636035592.566677,33d7510f-931d-40d3-9047-9260b98fd2f9
-0.0464411346334632,0.031108781695179,-0.0708073134753633,-0.0460302381176778,-0.0729987629475422,-0.1060485605801134,-0.2260578169652489,-0.2515471153598101,-12.57292992811851,6.3525443954061815,-17.90955385562836,-0.105070062057587,0.3656831129674567,0.4845042486244686,5691.51806640625,11.501,5.23,-0.2016993681925243,-0.8729242160238403,-67.3832995586525,1500.0,1314.0,1300.0,1500.0,1500.0,1021.7000000000002,250.0,289.15,1636035592.6826074,1636035593.7930052,33d7510f-931d-40d3-9047-9260b98fd2f9
-0.0425239187512995,0.0453668992565138,-0.1048158704275211,-0.095735051276318,-0.1158963869839477,-0.0694513540958666,-0.2434935383306014,-0.2676131808264621,-11.57202615160251,5.884338708582416,-17.42562452004331,0.0850744076394237,0.4117423430677003,0.6169785954659411,5702.87841796875,11.522,5.23,-0.1947106706089997,-0.972766427207206,-63.90074319521391,1500.0,1435.0,1300.0,1500.0,1500.0,1021.7000000000002,250.0,289.15,1636035596.0623667,1636035597.071833,d4001c44-9883-4238-84a6-8be178fd2016
-0.0449756028192417,0.0291775669026625,-0.080203153045769,-0.0965431485692109,-0.0878321365463457,-0.0571244511494793,-0.221250324276069,-0.2469176780317558,-12.455413774605187,6.272571200251193,-17.853349353508317,0.1178838064390844,0.3627322118297627,0.5101882548068432,5702.87841796875,11.5045,5.23,-0.1895816037512967,-1.001638890808893,-63.04358433645492,1500.0,1435.0,1300.0,1500.0,1500.0,1021.7000000000002,250.0,289.15,1636035597.183482,1636035598.3917625,d4001c44-9883-4238-84a6-8be178fd2016
-0.0458384860490793,0.0442848711002897,-0.1021861311610979,-0.0843943005572189,-0.1078017205432614,-0.0747656194607835,-0.239877646518215,-0.2668598700756081,-11.72674642251542,5.540918939052497,-16.81860711069344,0.0454238408254728,0.4021637697947637,0.5980778855770011,5702.87841796875,11.490875,5.22,-0.1805987143786998,-0.9965724912703298,-62.316925633299135,1500.0,1435.0,1300.0,1500.0,1500.0,1021.7000000000002,250.0,289.15,1636035598.5005596,1636035599.6210468,d4001c44-9883-4238-84a6-8be178fd2016
-0.0443044714248975,0.0459421547132895,-0.1073360371409332,-0.1150745931829629,-0.118142622538963,-0.0502350816538406,-0.2390421559332077,-0.2655997862688595,-11.631453995769704,5.623589953177511,-17.13467510837766,0.1700436480173451,0.4139587634519852,0.6175113444328493,5702.87841796875,11.488,5.217499999999999,-0.1716783522530043,-1.016931550958419,-61.24005666441377,1500.0,1482.0,1300.0,1500.0,1500.0,1021.7000000000002,250.0,289.15,1636035601.0683775,1636035602.192436,588253ea-2841-4a06-828a-8df7958b6675
-0.0421371279248813,0.0404366859935528,-0.0988737548902455,-0.1241849970570177,-0.1127587789480561,-0.0385606829458663,-0.2309787171225571,-0.2551854696851492,-11.772279125584568,6.015765550391283,-17.37471601019888,0.2197404126684378,0.3980989108901928,0.5858186756319839,5702.87841796875,11.486777777777778,5.211111111111111,-0.1626564712899649,-1.059618424930984,-60.892522979065184,1500.0,1482.0,1300.0,1500.0,1500.0,1021.7000000000002,250.0,289.15,1636035602.3277566,1636035603.3123648,588253ea-2841-4a06-828a-8df7958b6675
-0.041921270161084,0.0446135885070492,-0.1050350151271182,-0.126552310222384,-0.1201560167014177,-0.041085780427377,-0.2370150651112696,-0.2618195356487494,-11.614200209241126,5.9566871803933,-17.50878504862227,0.2187660342191504,0.4137341155919465,0.6133172816381521,5702.87841796875,11.486375,5.22,-0.1299254058567163,-1.0668840460718143,-60.56814363500295,1500.0,1482.0,1300.0,1500.0,1500.0,1021.7000000000002,250.0,289.15,1636035603.444975,1636035604.6441526,588253ea-2841-4a06-828a-8df7958b6675
-0.0500159365575309,0.0362723843202029,-0.1019532896500022,-0.1035146971389279,-0.107897596434361,-0.0512623236104147,-0.2355769266858861,-0.2603677004929227,-12.063223186247525,5.681360933068679,-17.07871966076958,0.1421015785988836,0.3791702163905244,0.5899708014633958,5702.87841796875,11.486555555555556,5.208888888888889,-0.1429788148708312,-1.0680312139919643,-59.832665070626426,1500.0,1500.0,1300.0,1500.0,1500.0,1021.7000000000002,250.0,289.15,1636035607.0843344,1636035608.1280975,bc784239-3ed2-4747-8368-88f3d955a849
-0.0481395079640377,0.0419153664710656,-0.1060074708950689,-0.1102397077295673,-0.114170620307581,-0.0482627772188448,-0.2374122653342411,-0.2579708022603335,-11.806599458748344,5.582860432912997,-16.769682346178453,0.1633355334100622,0.3963488295498533,0.6079339085990627,5702.87841796875,11.488666666666669,5.205555555555556,-0.1536554974055373,-1.0774763221129688,-59.65424838694717,1500.0,1500.0,1300.0,1500.0,1500.0,1021.7000000000002,250.0,289.15,1636035608.2394965,1636035609.3588874,bc784239-3ed2-4747-8368-88f3d955a849
-0.0462767759370955,0.0284105596224805,-0.0808194985022267,-0.111650453331464,-0.0876540815959783,-0.0390449929631171,-0.2163058663483057,-0.2460274017521283,-12.605138378974168,6.089996801221251,-17.3483102421135,0.191353282189311,0.3582568964480082,0.5042032984952467,5702.87841796875,11.49275,5.192500000000001,-0.1739105167707026,-1.0778065724315096,-59.54983926938221,1500.0,1500.0,1300.0,1500.0,1500.0,1021.7000000000002,250.0,289.15,1636035609.468447,1636035610.587847,bc784239-3ed2-4747-8368-88f3d955a849
-0.0459891481894257,0.0296158567938384,-0.0833259686964635,-0.1192931335794607,-0.0916671733173572,-0.0330459000933077,-0.2171276599397328,-0.2412199091037989,-12.535748461914826,6.095474895545199,-17.341324173344926,0.2220216112559585,0.3630066251111452,0.5143908885558859,5702.87841796875,11.494,5.209999999999999,-0.1577239422733377,-1.101157948667152,-59.27867051404894,1500.0,1517.0,1300.0,1500.0,1500.0,1021.7000000000002,250.0,289.15,1636035613.0635889,1636035614.2745097,e92b7cbd-e6c4-4ef4-b3ce-5ee6bbe558e7
-0.0424280428657192,0.0427919462134434,-0.1045556362436008,-0.1299490568166475,-0.1183891612411847,-0.0342238042132997,-0.2348236162840232,-0.2544370901037142,-11.761640825785838,5.893858065754363,-17.220035404885525,0.2414272176950466,0.4058337538069024,0.6072168897327028,5702.87841796875,11.496222222222222,5.202222222222222,-0.1683422939846046,-1.1004246075013826,-59.238951635932985,1500.0,1517.0,1300.0,1500.0,1500.0,1021.7000000000002,250.0,289.15,1636035614.3838787,1636035615.5090325,e92b7cbd-e6c4-4ef4-b3ce-5ee6bbe558e7
-0.043427891655217,0.045051878372731,-0.1132392544917409,-0.1234568878977766,-0.1248813300081947,-0.0414008013976442,-0.2427539241379829,-0.2658189314237282,-11.621271727567596,5.633243234081362,-17.137289030504963,0.2085786193011024,0.4112287565310255,0.6398394615602484,5702.87841796875,11.500111111111112,5.207777777777777,-0.1770612024006518,-1.0842950090546917,-59.20872197757641,1500.0,1517.0,1300.0,1500.0,1500.0,1021.7000000000002,250.0,289.15,1636035615.642803,1636035616.729366,e92b7cbd-e6c4-4ef4-b3ce-5ee6bbe558e7
-0.0479888458083601,0.0305472227773675,-0.0888456819698104,-0.1251689576040372,-0.0957076581830407,-0.0254306133932945,-0.2177029152829249,-0.242822406621969,-12.437771992961911,5.793788249257108,-16.91880801082355,0.2502305049756375,0.3624300132718993,0.5290866253304367,5702.87841796875,11.51,5.21,-0.1719313894174121,-1.0710019431100315,-59.24397486061257,1500.0,1564.0,1300.0,1500.0,1500.0,1021.7000000000002,250.0,289.15,1636035619.5773838,1636035620.6251955,d056bf75-2c2d-4ba6-98a2-ad7c269b2dc2
-0.0428663327227952,0.0323688651036433,-0.087215791787235,-0.1399064555535013,-0.098844170641219,-0.0165963327481716,-0.2156210385711484,-0.2448768908728461,-12.36572839084968,6.035356407596211,-17.32717244064948,0.3049802092444837,0.3742936209005189,0.5276392750049301,5702.87841796875,11.544,5.2,-0.1573644235269864,-1.0733804497667827,-59.26675695658915,1500.0,1564.0,1300.0,1500.0,1500.0,1021.7000000000002,250.0,289.15,1636035620.737483,1636035621.855142,d056bf75-2c2d-4ba6-98a2-ad7c269b2dc2
-0.0462630793816281,0.0345329213436694,-0.0893798484003808,-0.1237856052628107,-0.0966527213657348,-0.0311009889159359,-0.2177850954210705,-0.2432333037413818,-12.238298393226753,5.657168373360079,-16.990392289156272,0.2335246414927816,0.3763949301610053,0.5318079742044158,5702.87841796875,11.52,5.2,-0.1641461743827876,-1.078723471966731,-59.27532542890293,1500.0,1564.0,1300.0,1500.0,1500.0,1021.7000000000002,250.0,289.15,1636035621.9752305,1636035623.0812883,d056bf75-2c2d-4ba6-98a2-ad7c269b2dc2
-0.0414692837118458,0.0352451423745336,-0.0956391755664424,-0.1813248525293743,-0.1130748956589599,0.0213979209595096,-0.2136761267407303,-0.2405898672640427,-12.221064897482483,6.0035525728918016,-16.972764583392077,0.4832871812557973,0.385481363085536,0.5563338462569684,5702.87841796875,11.504,5.205,-0.1634725803264282,-1.087471023302813,-59.37558919082413,1500.0,1685.0,1300.0,1500.0,1500.0,1021.7000000000002,250.0,289.15,1636035625.2191408,1636035626.2507718,de6893ea-ee9f-43f1-9708-ef8ba77bed8a
-0.0433868019671433,0.0341905073844762,-0.1023778825569933,-0.1804345758533763,-0.1191835609765114,0.0227264875594266,-0.2200313304860742,-0.2495611142398358,-12.21555552340645,5.985751927286663,-16.86455046627165,0.4838308797223276,0.3799906355833666,0.5829321047790884,5702.87841796875,11.51,5.220000000000001,-0.1570048214043025,-1.0854154298473302,-59.41539041066509,1500.0,1685.0,1300.0,1500.0,1500.0,1021.7000000000002,250.0,289.15,1636035626.358857,1636035627.4759386,de6893ea-ee9f-43f1-9708-ef8ba77bed8a
-0.040335756474611,0.0392401546251351,-0.1012405204770599,-0.1834461757044336,-0.119359424963646,0.020003611420311,-0.21705424650709,-0.2380395679913398,-11.943542276787268,5.819988762261419,-16.92607584329803,0.4835905309204973,0.3979900217274721,0.578138638335936,5702.87841796875,11.50075,5.2162500000000005,-0.1752066835704248,-1.1122489886002755,-59.47542521214856,1500.0,1685.0,1300.0,1500.0,1500.0,1021.7000000000002,250.0,289.15,1636035627.6087558,1636035628.6113777,de6893ea-ee9f-43f1-9708-ef8ba77bed8a
-0.0444277404620365,0.0377242195335194,-0.1088563554013907,-0.2360289129017362,-0.1316611268786397,0.0772661839240805,-0.2104163456569837,-0.2344812015475957,-12.08319008085571,5.777158707309024,-15.883367223306792,0.7303137247265351,0.3900417668231197,0.5965703550407206,5702.87841796875,11.449222222222222,5.27,-0.2013253530811377,-1.1251842804020251,-59.597157112404766,1500.0,2000.0,1300.0,1500.0,1500.0,1021.7000000000002,250.0,289.15,1636035631.0655088,1636035632.1847043,640238b0-3ea2-4f52-820e-e0766e621eb4
-0.0426540360530191,0.0406347382295785,-0.114355523893929,-0.2465410232597853,-0.140673463027434,0.0834707245333569,-0.2151279620624099,-0.2426375031452077,-11.943136505331676,5.897546037761591,-16.013453102708972,0.7685429046486486,0.4020673541199455,0.6231748533819524,5702.87841796875,11.459875,5.25375,-0.1891326955711936,-1.105739791640827,-59.59707002749285,1500.0,2000.0,1300.0,1500.0,1500.0,1021.7000000000002,250.0,289.15,1636035632.2937984,1636035633.414532,640238b0-3ea2-4f52-820e-e0766e621eb4
-0.04576616822138,0.0326263603775681,-0.105277170811471,-0.2402354003833516,-0.129076312496294,0.0842218441847809,-0.2079553481051702,-0.2309655686794683,-12.295498551917824,6.0507521552339245,-16.134047367956203,0.7572779002077481,0.3753955843074425,0.5833989388385196,5702.87841796875,11.462875,5.26125,-0.1988145871037592,-1.1050129634636026,-59.63036719969665,1500.0,2000.0,1300.0,1500.0,1500.0,1021.7000000000002,250.0,289.15,1636035633.5489452,1636035634.6463263,640238b0-3ea2-4f52-820e-e0766e621eb4
-0.0422949122890234,0.0462747071379675,-0.0650421581116938,0.1057594083133471,-0.0357600105065114,-0.2693071714526932,-0.2411295121084755,-0.261089235179154,-12.023886635828902,4.221263625322955,-19.14797168132976,-0.8280967010405129,0.4112954072833612,0.4500620442632481,5887.150987413194,11.418333333333331,5.872222222222223,-0.2127310011916758,-1.02937341050675,-59.33522391119421,1500.0,1000.0,1400.0,1500.0,1500.0,1021.7000000000002,250.0,289.15,1636035637.0638278,1636035638.042744,4ad40b0b-6e3e-4356-b387-213e002b0106
-0.0439209677780693,0.0435589534820042,-0.0646575584908122,0.1082477989219021,-0.033511583149004,-0.268339098841697,-0.2394256596444831,-0.2613812457132404,-12.05381875908781,4.121869537399829,-19.05354762059055,-0.8321742724295939,0.4002009758124803,0.443895680142464,7417.135498046875,10.8415,10.7825,-0.2291897173357486,-0.9635624938365625,-56.768828711068544,1500.0,1000.0,1400.0,1500.0,1500.0,1021.7000000000002,250.0,289.15,1636035638.155733,1636035639.2606325,4ad40b0b-6e3e-4356-b387-213e002b0106
-0.0474683765793961,0.0415592559137287,-0.0724098109377232,0.1103844612051454,-0.0400996279621276,-0.2689828386785455,-0.2471231267697141,-0.2694622165134066,-12.06688674452044,4.092125105913875,-19.20286417637928,-0.8390541982816594,0.393361750207065,0.4739648037507638,7416.3330078125,10.84375,10.77,-0.2721014230005117,-0.938726071724758,-54.569903095522655,1500.0,1000.0,1400.0,1500.0,1500.0,1021.7000000000002,250.0,289.15,1636035639.3715382,1636035640.4889612,4ad40b0b-6e3e-4356-b387-213e002b0106
-0.0424143463332957,0.0410250900734399,-0.0995289986850506,-0.0446468862005177,-0.0756695923476859,-0.1169099329255467,-0.2265371970584478,-0.2501363700114092,-12.178446578478946,3.09573184605457,-17.966557586912746,-0.1554279848548377,0.3985421095838942,0.5307195014164783,7408.3203125,10.833,10.73,-0.2720666050440005,-0.9485837155639524,-51.55410051562158,1500.0,1314.0,1400.0,1500.0,1500.0,1021.7000000000002,250.0,289.15,1636035641.5624323,1636035642.5373375,91262f6a-287b-4c3d-8a13-9941d2cb1509
-0.0415514630908931,0.041778400799824,-0.1008849578540968,-0.0323610726314061,-0.0754367506836677,-0.1290724776579982,-0.2310022754347001,-0.25587522864847,-12.17766590699802,3.0725962363678208,-18.00447375847672,-0.2106991697613222,0.400099007927015,0.5387634421254118,7401.9228515625,10.817333333333332,10.705555555555556,-0.2684503192921533,-0.9196466705078088,-50.28381927759793,1500.0,1314.0,1400.0,1500.0,1500.0,1021.7000000000002,250.0,289.15,1636035642.6476166,1636035643.76614,91262f6a-287b-4c3d-8a13-9941d2cb1509
-0.042345863502839,0.0423399597192405,-0.0943243058153207,-0.0456193413541757,-0.0697663750669502,-0.1172112565397125,-0.2200587238071761,-0.2466574435288304,-12.173003256572803,2.958290227117074,-17.906973352973765,-0.1545511987149796,0.403354399031917,0.5066553975834677,7390.754516601562,10.79575,10.6875,-0.2149992973063263,-0.9480275620746988,-49.22126818762394,1500.0,1314.0,1400.0,1500.0,1500.0,1021.7000000000002,250.0,289.15,1636035643.875224,1636035644.9955945,91262f6a-287b-4c3d-8a13-9941d2cb1509
-0.040204269582394,0.0439342391586532,-0.1065131494395141,-0.1216210016717413,-0.0886309214484179,-0.0439910954161378,-0.2111899289962958,-0.238328840190065,-12.18003649480536,2.683475150065304,-17.234904486791887,0.1791002909347213,0.412007229116978,0.5369193360805881,7401.9228515625,10.821,10.74,-0.2153895085482496,-1.0022142542051868,-46.84511879991008,1500.0,1435.0,1400.0,1500.0,1500.0,1021.7000000000002,250.0,289.15,1636035647.635842,1636035648.5696497,e5e2b502-a497-44ab-a05f-9a759873f045
-0.0388762511582749,0.0429349382746048,-0.1153490727445673,-0.1219365703821576,-0.0970723838840292,-0.0428603070742419,-0.2201704882128065,-0.244298348231479,-12.207041291087355,2.697400489109914,-17.323221627028218,0.1819778399959929,0.4087120681331622,0.5729748056839578,7401.9228515625,10.83475,10.75,-0.2531746886659287,-1.0390947811033828,-46.32669933105648,1500.0,1435.0,1400.0,1500.0,1500.0,1021.7000000000002,250.0,289.15,1636035648.6792192,1636035649.798969,e5e2b502-a497-44ab-a05f-9a759873f045
-0.0365796121705589,0.0437644016949779,-0.1087741765736929,-0.1361125096465653,-0.0929409538958744,-0.031402314462714,-0.210676580947418,-0.2372616035216485,-12.19536887570001,2.732823669327284,-17.37313136435429,0.2402630553169777,0.4143455701812629,0.5447673407954853,7407.609483506944,10.83122222222222,10.76,-0.2258723726072892,-0.9971426845928772,-45.82188208907121,1500.0,1435.0,1400.0,1500.0,1500.0,1021.7000000000002,250.0,289.15,1636035649.912779,1636035651.1386745,e5e2b502-a497-44ab-a05f-9a759873f045
-0.039839393218001,0.0409976970260996,-0.1186493967393685,-0.1615607171482912,-0.1039940780944711,-0.0027080225473709,-0.2118133963040323,-0.2358234651854739,-12.181813153161215,2.6016364046226568,-17.051761881026618,0.3608445573499428,0.4035294697215918,0.5748603715383077,7426.150336371527,10.850333333333332,10.765555555555556,-0.2297394010068699,-1.043931863858894,-44.89773245034153,1500.0,1482.0,1400.0,1500.0,1500.0,1021.7000000000002,250.0,289.15,1636035653.1655672,1636035654.211584,868ad076-31a8-42ab-ad2b-024a24359ea9
-0.0407433661044432,0.0398060963594604,-0.1254017994654882,-0.1646013531345051,-0.1118011159196476,0.0006613308236904,-0.2193738961485112,-0.245438449733757,-12.227541803676942,2.7488981986313523,-17.19334246573898,0.3758692783307545,0.4005875225401842,0.6049996988943619,7414.72802734375,10.843,10.75,-0.2237504938556716,-1.0398945135458697,-44.58346131193221,1500.0,1482.0,1400.0,1500.0,1500.0,1021.7000000000002,250.0,289.15,1636035654.320916,1636035655.4398215,868ad076-31a8-42ab-ad2b-024a24359ea9
-0.0410446904133576,0.0409292141850632,-0.1297846994797208,-0.1615196276335858,-0.115348525750447,-0.0033380647033221,-0.2248388244473069,-0.2444659946512665,-12.2603156177646,2.705335340657488,-17.23922485320888,0.3593996508412245,0.4047804990204409,0.6236798326272516,7414.72802734375,10.832666666666666,10.738888888888887,-0.2510281579413986,-1.0590255147075642,-44.35477794591998,1500.0,1482.0,1400.0,1500.0,1500.0,1021.7000000000002,250.0,289.15,1636035655.550979,1636035656.5555694,868ad076-31a8-42ab-ad2b-024a24359ea9
-0.0404009521529507,0.0403539586935281,-0.1227035770608614,-0.1648204986291839,-0.108733086355201,0.0005654546346747,-0.2167304600148111,-0.2418499509989348,-12.285965508321445,2.7199015273795752,-17.13815382997997,0.3760696896848883,0.4027642551723123,0.5934925200426088,7434.02099609375,10.863499999999998,10.765,-0.2104848124042656,-1.0857564323777282,-43.898818517455766,1500.0,1500.0,1400.0,1500.0,1500.0,1021.7000000000002,250.0,289.15,1636035659.0638149,1636035660.1505044,3b4d1518-2914-46ce-a0d4-840ffccdb261
-0.0436059469664074,0.0415318628088792,-0.1317159141119038,-0.1631632140284499,-0.117266043753503,-0.0017081733379516,-0.2259208526370106,-0.2498761357172176,-12.232555343081057,2.659069235089828,-17.149979904165992,0.3663950973688474,0.4061324889472482,0.6306873806387547,7433.310492621527,10.861777777777778,10.767777777777775,-0.2226273390604455,-1.088432431718329,-43.77323439050767,1500.0,1500.0,1400.0,1500.0,1500.0,1021.7000000000002,250.0,289.15,1636035660.2592118,1636035661.331917,3b4d1518-2914-46ce-a0d4-840ffccdb261
-0.0419212701798665,0.0401485103668629,-0.1318528790401651,-0.1670119472170253,-0.1161155321519808,0.0033869466833533,-0.2235787401309389,-0.24916391425178,-12.28602785533061,2.5241336767178777,-17.11179639573597,0.3856041574096431,0.4014470122119926,0.6258430794267635,7440.47412109375,10.879,10.779999999999998,-0.2098236314163098,-1.0856865830212945,-43.6755165815996,1500.0,1500.0,1400.0,1500.0,1500.0,1021.7000000000002,250.0,289.15,1636035661.446202,1636035662.405866,3b4d1518-2914-46ce-a0d4-840ffccdb261
-0.0455645548916681,0.0404909243003477,-0.1311680508079462,-0.1740108895988472,-0.116841449554181,0.0104954601973993,-0.2213735936529289,-0.2480955823162922,-12.263950684096798,2.5661555222840176,-16.95935399807655,0.4177139167333621,0.4021297694667733,0.622951914032737,7434.02099609375,10.857,10.75,-0.2070679235605808,-1.0795533399508874,-43.52473844812428,1500.0,1517.0,1400.0,1500.0,1500.0,1021.7000000000002,250.0,289.15,1636035663.5614898,1636035664.6528313,ca36b1f4-77cf-4707-b39b-b21996402f69
-0.0441264162324486,0.0395321651771428,-0.1352907168207839,-0.1733123659166847,-0.1206490946486992,0.0107830875760974,-0.2251949357097187,-0.2485064801993471,-12.23560652116313,2.555991556600312,-16.99116610797542,0.4165210928656838,0.3982676461117488,0.6390677285779015,7438.05419921875,10.865875,10.77625,-0.1814836540980929,-1.086633578077546,-43.50334843007792,1500.0,1517.0,1400.0,1500.0,1500.0,1021.7000000000002,250.0,289.15,1636035664.7639434,1636035665.885063,ca36b1f4-77cf-4707-b39b-b21996402f69
-0.045194747799881,0.0398334895341956,-0.1347702464884713,-0.1745587519881578,-0.1217996044772465,0.0099612946137273,-0.2266878598833247,-0.255642387862779,-12.268747814664692,2.734669244261705,-17.23474745803497,0.4186408371308683,0.401980699046023,0.6416363848123257,7440.47412109375,10.868,10.79,-0.2034977756772872,-1.0732950724021575,-43.52412031600439,1500.0,1517.0,1400.0,1500.0,1500.0,1021.7000000000002,250.0,289.15,1636035665.9948149,1636035667.116413,ca36b1f4-77cf-4707-b39b-b21996402f69
-0.0426197946678345,0.0385597095836059,-0.137002784961545,-0.1964047652341117,-0.1243334673852687,0.0348068519164272,-0.2205381033066477,-0.2411240331430439,-12.284703042633272,2.519702261276098,-16.722482124493705,0.5222887943899434,0.3953205173219991,0.6398287486269316,7444.619750976562,10.79875,10.69625,-0.2213957594588833,-1.1161434504072258,-43.47425182421365,1500.0,1564.0,1400.0,1500.0,1500.0,1021.7000000000002,250.0,289.15,1636035670.2764676,1636035671.2137578,594cafed-d9af-4710-8cf9-2c9375167514
-0.0425239188065366,0.039326716842635,-0.1389340010287603,-0.2048281488953915,-0.1272782287081135,0.0417099179407103,-0.2203874424472495,-0.2447810153320452,-12.259020934216204,2.492304284965399,-16.743631410830673,0.556533765496812,0.3991171401910989,0.646275897617319,7401.9228515625,10.8015,10.685,-0.2149458163915165,-1.1141063598274823,-43.50004987559562,1500.0,1564.0,1400.0,1500.0,1500.0,1021.7000000000002,250.0,289.15,1636035671.3284988,1636035672.434583,594cafed-d9af-4710-8cf9-2c9375167514
-0.0452358374623189,0.0388610338622577,-0.1436730101333567,-0.1975141863386832,-0.1323048656695842,0.0352588386651725,-0.2281944814027146,-0.2542042487137963,-12.240579754951602,2.6365919558054856,-16.818229422717938,0.5262567422592731,0.3967026978243879,0.6705539558671904,7401.12451171875,10.77675,10.6475,-0.2029400947336196,-1.110192568051573,-43.54793419743247,1500.0,1564.0,1400.0,1500.0,1500.0,1021.7000000000002,250.0,289.15,1636035672.542834,1636035673.668822,594cafed-d9af-4710-8cf9-2c9375167514
-0.042729367157068,0.0389979994631434,-0.1466314663850463,-0.2663530976470857,-0.1432073264534255,0.1012351610095852,-0.2139637545078087,-0.2400967910761261,-12.270559725005503,2.6155534872113404,-16.387884430010953,0.8295647965596453,0.4019020924049941,0.6691822995838606,7395.5361328125,10.79,10.67,-0.221404517308864,-1.1496759039516464,-43.72965436850841,1500.0,1685.0,1400.0,1500.0,1500.0,1021.7000000000002,250.0,289.15,1636035675.601529,1636035676.538822,992bc4bb-0fc1-45cd-aaad-f8a9017b6895
-0.0420856288863668,0.0400800275211497,-0.1507815241424826,-0.2808988456745839,-0.1491242404532528,0.1150549877608357,-0.2146896724019505,-0.2408227089512407,-12.267514653108131,2.6048561226549283,-16.19545566305472,0.893186084123006,0.4057609318793551,0.6842131990380332,7395.5361328125,10.78675,10.685,-0.1774314159218314,-1.1148144850257693,-43.75370261080238,1500.0,1685.0,1400.0,1500.0,1500.0,1021.7000000000002,250.0,289.15,1636035676.6760428,1636035677.6519823,992bc4bb-0fc1-45cd-aaad-f8a9017b6895
-0.0405379177223803,0.0406004967932445,-0.1467684322607117,-0.264038379378124,-0.1439195477872318,0.0975781797323205,-0.2168126392859412,-0.2450275529573262,-12.358195490886422,2.7294751761376865,-16.39392910644131,0.8168289375207642,0.4082945276932552,0.6744929064090496,7395.5361328125,10.789,10.68,-0.2188470250113041,-1.1356132915025303,-43.835013451550445,1500.0,1685.0,1400.0,1500.0,1500.0,1021.7000000000002,250.0,289.15,1636035677.7631977,1636035678.7836058,992bc4bb-0fc1-45cd-aaad-f8a9017b6895
-0.0347305767171395,0.040093724092498,-0.1494118687302677,-0.3891838558594062,-0.1657107746729008,0.2195049403345972,-0.1919259905528546,-0.216100418322528,-12.342474270921905,3.186994744195019,-15.434334794061003,1.3761743881980066,0.4130259570588078,0.672361391068932,7392.704969618056,10.732333333333337,10.755555555555556,-0.1774080257107528,-1.1578018606413885,-43.96284575423659,1500.0,2000.0,1400.0,1500.0,1500.0,1021.7000000000002,250.0,289.15,1636035681.071146,1636035682.1567204,83b18cc9-0a5f-4886-a1d1-9ecf90832b05
-0.0355797633604039,0.0400115447806306,-0.1552329059095895,-0.3928271406526581,-0.1699977972538957,0.2234084596925707,-0.1952268605200459,-0.218689067607874,-12.363128549026037,2.9971632463851434,-15.400534609377212,1.391611201669701,0.4126406745971461,0.6909041708979556,7382.7958984375,10.73925,10.75,-0.1861238888525705,-1.1382734634212652,-44.03986790023205,1500.0,2000.0,1400.0,1500.0,1500.0,1021.7000000000002,250.0,289.15,1636035682.2650063,1636035683.2924464,83b18cc9-0a5f-4886-a1d1-9ecf90832b05
-0.0368261502330552,0.0380803299230354,-0.156424506840217,-0.3873485156720571,-0.1707785014468138,0.2205595758474836,-0.1974594000661333,-0.2204285309963387,-12.340038948614458,3.057283315129009,-15.371394412595649,1.3732064208562025,0.4042266958205439,0.6966173943854971,7382.7958984375,10.739875,10.74375,-0.184958214351066,-1.0866273615381845,-44.033857760649255,1500.0,2000.0,1400.0,1500.0,1500.0,1021.7000000000002,250.0,289.15,1636035683.4016182,1636035684.442745,83b18cc9-0a5f-4886-a1d1-9ecf90832b05
-0.0486873703643216,0.0397650067034841,-0.0766968348394563,0.1741556363165926,-0.018267313739875,-0.3277821731813177,-0.2478764387319499,-0.2733246472441739,-12.086815130686238,2.096890398337249,-19.458756269122,-1.1285272401809312,0.3808840292133917,0.4519307227171831,7389.16064453125,10.771,10.73,-0.1953208252813786,-0.9655354980319836,-44.0627934301812,1500.0,1000.0,1500.0,1500.0,1500.0,1021.7000000000002,250.0,289.15,1636035686.5614834,1636035687.594765,5ae250a3-6c6c-4cde-a0b1-9296f6161f81
-0.0509473025912088,0.0420660286207143,-0.0765598691804253,0.1793192394369316,-0.0204587630128686,-0.3365616675314362,-0.2534920279054674,-0.2820767490567048,-12.14450073190072,2.4093890474652624,-19.73476104004704,-1.1578983827348466,0.3917470008375551,0.4624900813104302,8329.8603515625,10.2295,15.28,-0.1871728965193361,-0.9630996284583748,-42.97724585218168,1500.0,1000.0,1500.0,1500.0,1500.0,1021.7000000000002,250.0,289.15,1636035687.7037213,1636035688.8216364,5ae250a3-6c6c-4cde-a0b1-9296f6161f81
-0.0503035643285489,0.0399841515731787,-0.081066036418749,0.1737584366642829,-0.0207053005380123,-0.3282204628866399,-0.2523141230881756,-0.2776527596330247,-12.256194483188535,1.981920186399368,-19.57408305237412,-1.1296995040715834,0.3836968893798938,0.4673144790086115,8329.8603515625,10.227,15.263750000000002,-0.2215400355324132,-0.9341015000481304,-42.311971766644106,1500.0,1000.0,1500.0,1500.0,1500.0,1021.7000000000002,250.0,289.15,1636035688.9308498,1636035690.0514843,5ae250a3-6c6c-4cde-a0b1-9296f6161f81
-0.0401955037770503,0.0439835467452916,-0.126483827839568,-0.0443455622025139,-0.0815454165292128,-0.1200875349706678,-0.2336457121436967,-0.2595733003435226,-12.214885420045889,0.7768661813019264,-18.069733808136977,-0.1799971945076266,0.4090252559259982,0.5867273140335073,8329.8603515625,10.23875,15.2475,-0.2343265065093808,-0.9832123611093072,-40.89954926421435,1500.0,1314.0,1500.0,1500.0,1500.0,1021.7000000000002,250.0,289.15,1636035691.0840998,1636035692.193394,285254f6-fd9b-40b1-9fe6-3d80cde1d109
-0.0453180168225824,0.0426823737007505,-0.1200053548705044,-0.0501255103548195,-0.0834081482763298,-0.1178002098567871,-0.2325362906166523,-0.257600995333815,-12.073033531643995,1.5495462892742904,-18.66292028084672,-0.156397500865223,0.4095339099699422,0.5775912901244887,8329.8603515625,10.221,15.206666666666663,-0.2244578653319109,-1.0439942011930374,-40.3632510637302,1500.0,1314.0,1500.0,1500.0,1500.0,1021.7000000000002,250.0,289.15,1636035692.3087275,1636035693.5196774,285254f6-fd9b-40b1-9fe6-3d80cde1d109
-0.0423595600713133,0.0426275875132909,-0.1303599542731108,-0.0341553216032168,-0.078271938876413,-0.125949661676926,-0.2352345132487797,-0.2575188162894357,-12.39060021414179,0.262837862620529,-17.772097270670816,-0.219798428524038,0.4010362253242527,0.5902475734227712,8329.8603515625,10.2325,15.2175,-0.2237052505225269,-1.0432345027304322,-39.868533916548216,1500.0,1314.0,1500.0,1500.0,1500.0,1021.7000000000002,250.0,289.15,1636035693.6298091,1636035694.7617786,285254f6-fd9b-40b1-9fe6-3d80cde1d109
-0.039592855131527,0.0433261119487769,-0.1541371810381892,-0.1490283659194497,-0.1102944939906478,-0.0133776428031588,-0.2238663676463788,-0.250533570126292,-12.27958618571241,-0.3783775656103151,-16.750495401254575,0.2870754618538231,0.4064410615710498,0.6509475962437232,8329.8603515625,10.237125,15.23625,-0.2213616652089394,-1.0850691179120693,-39.20706467326516,1500.0,1435.0,1500.0,1500.0,1500.0,1021.7000000000002,250.0,289.15,1636035696.1025383,1636035697.2197485,30c16d3a-703e-4996-90f2-ebc62bece8dd
-0.0414692837208535,0.0431343601795633,-0.1433716854341267,-0.1494803511514363,-0.1099383838022442,-0.01959587939969,-0.2249620926336029,-0.2510129499263703,-12.310149498543238,0.7594932191481946,-17.696074097240523,0.2820348391074097,0.4150762572084982,0.6354988873099487,8329.8603515625,10.2455,15.26625,-0.1927300274739817,-1.05782730861387,-38.911324312392765,1500.0,1435.0,1500.0,1500.0,1500.0,1021.7000000000002,250.0,289.15,1636035697.3300264,1636035698.4486067,30c16d3a-703e-4996-90f2-ebc62bece8dd
-0.0429348155350069,0.041326414389385,-0.1428101266802039,-0.1509595805202583,-0.1149239314069551,-0.0196095768508313,-0.2303311443219112,-0.2516703847627275,-12.339212072918974,1.4085505535899123,-18.16936836228052,0.2895814043120204,0.4129245863749466,0.6479823217781254,8336.950073242188,10.25175,15.28,-0.234008250710054,-1.0670094974369606,-38.683176784207305,1500.0,1435.0,1500.0,1500.0,1500.0,1021.7000000000002,250.0,289.15,1636035698.559512,1636035699.5444667,30c16d3a-703e-4996-90f2-ebc62bece8dd
-0.0416473390676038,0.0442711744139057,-0.1552739964881503,-0.1909124441916626,-0.1285246154526245,0.0204117690211294,-0.2280301226154774,-0.2522045507961075,-12.233058106920302,0.9129211890038316,-17.334096575502965,0.4659189620709628,0.4199354066518094,0.6816821415786428,8337.962890625,10.231555555555556,15.217777777777778,-0.2301179013943911,-1.104563500552966,-38.048595576661256,1500.0,1482.0,1500.0,1500.0,1500.0,1021.7000000000002,250.0,289.15,1636035702.1127195,1636035703.2897348,706aaadd-7919-4125-9e7f-1be3f00de87a
-0.0414144975190063,0.0395458617730098,-0.1600951852300601,-0.1885840292907672,-0.1266892762691637,0.0237537292930421,-0.2279342466529098,-0.2513005778220105,-12.412201760003876,0.4209367294797748,-17.2237802635934,0.4646023807464222,0.4019021562271567,0.6852985312370968,8319.7666015625,10.22975,15.265,-0.2361261429612868,-1.1006905876371085,-37.93020306972676,1500.0,1482.0,1500.0,1500.0,1500.0,1021.7000000000002,250.0,289.15,1636035703.403077,1636035704.479499,706aaadd-7919-4125-9e7f-1be3f00de87a
-0.0417569114802136,0.0486951629778903,-0.1586707443806474,-0.190953535098879,-0.130455831259101,0.0186996984575036,-0.2290573661305668,-0.2523552139486987,-12.119137821561614,0.601596377009943,-16.980750306925273,0.4600451267826932,0.4323744982924935,0.6916459917063481,8321.7724609375,10.235,15.26875,-0.2459423554332649,-1.0841242039290804,-37.83795410790975,1500.0,1482.0,1500.0,1500.0,1500.0,1021.7000000000002,250.0,289.15,1636035704.590212,1636035705.7045865,706aaadd-7919-4125-9e7f-1be3f00de87a
-0.0416199458943374,0.0412579316163659,-0.1536304092613353,-0.2019792652082281,-0.1301682025473534,0.0300678426852226,-0.2264687149740377,-0.2507938052973366,-12.292976756226082,1.218424284173227,-17.82054724120506,0.5145808377496411,0.4148413419111205,0.6781422444454895,8329.8603515625,10.24675,15.305,-0.2178327052339709,-1.121940373362076,-37.56125930265112,1500.0,1500.0,1500.0,1500.0,1500.0,1021.7000000000002,250.0,289.15,1636035708.1033428,1636035709.189561,a408cde5-e650-465a-8fd8-1a9a33e82302
-0.0366343984089271,0.0435315603634407,-0.1579722189193213,-0.1957747232618217,-0.1184850374548296,0.0295610702504539,-0.2169496058185336,-0.242931979814843,-12.44263005844424,-0.4251968849125512,-16.723839174441995,0.4884336594146509,0.4136409111910713,0.6570407703781306,8329.8603515625,10.250125,15.29,-0.235698895952404,-1.092943912478484,-37.5209270356022,1500.0,1500.0,1500.0,1500.0,1500.0,1021.7000000000002,250.0,289.15,1636035709.300367,1636035710.4141934,a408cde5-e650-465a-8fd8-1a9a33e82302
-0.0392230480541411,0.0432302360240207,-0.1516718006777803,-0.1999247813766139,-0.1229090256407611,0.0286570967474972,-0.2203874417941613,-0.2471094303514493,-12.383309964514234,0.6630162614353156,-17.439540579743163,0.5032072130619322,0.4193629814548761,0.6578855635423247,8329.8603515625,10.24975,15.285,-0.2041688717787207,-1.1329741437598346,-37.46328023900729,1500.0,1500.0,1500.0,1500.0,1500.0,1021.7000000000002,250.0,289.15,1636035710.5245726,1636035711.7663507,a408cde5-e650-465a-8fd8-1a9a33e82302
-0.0403461658759286,0.041874276779596,-0.1542604503433451,-0.2017601205670162,-0.1251415645968863,0.0331769611719856,-0.2209216074910927,-0.2457397742446945,-12.325559517009756,0.6030972794994507,-17.237864392005694,0.5170391382922374,0.4121419622035966,0.665384775875344,8329.8603515625,10.24877777777778,15.286666666666664,-0.224379451558588,-1.0917889360868616,-37.4527302529243,1500.0,1517.0,1500.0,1500.0,1500.0,1021.7000000000002,250.0,289.15,1636035713.6939194,1636035714.8321564,a441fbf0-5a22-42f1-b708-78d570c64019
-0.0419075736395546,0.0390390890785453,-0.1553287822657987,-0.2103478631727634,-0.1292642292733225,0.0400937236627692,-0.2243868372364964,-0.2524921785111078,-12.51189653987804,0.9942735693401572,-17.794513327066408,0.5543112991793663,0.4087569401259233,0.6758956806774604,8329.8603515625,10.247625,15.30125,-0.2260583774236219,-1.1022862639015265,-37.41755511072182,1500.0,1517.0,1500.0,1500.0,1500.0,1021.7000000000002,250.0,289.15,1636035714.9413884,1636035716.0619876,a441fbf0-5a22-42f1-b708-78d570c64019
-0.0394570805550524,0.0430652818661583,-0.1558373415643654,-0.2082463344083754,-0.1237373699097709,0.0407213833721254,-0.2163070578607858,-0.2432333038696462,-12.291277914205825,0.1449256799820101,-16.83176497633221,0.5455899691547634,0.4134579247400987,0.6599235763292651,8329.8603515625,10.238444444444443,15.282222222222222,-0.2121908233488793,-1.10055346803213,-37.46598233773394,1500.0,1517.0,1500.0,1500.0,1500.0,1021.7000000000002,250.0,289.15,1636035716.1763456,1636035717.176429,a441fbf0-5a22-42f1-b708-78d570c64019
-0.0397435172984773,0.0406826761289732,-0.1668201956026351,-0.2440961875763,-0.1402488699175028,0.0763211206901166,-0.2217434008848937,-0.246356119160232,-12.447854021082431,0.4500323320175308,-16.861804339386097,0.7078479289260796,0.4096189542048731,0.7042441522457953,8329.8603515625,10.248333333333337,15.296666666666669,-0.2220771797736667,-1.1161182596379238,-37.59905984624769,1500.0,1564.0,1500.0,1500.0,1500.0,1021.7000000000002,250.0,289.15,1636035720.1339216,1636035721.2775557,8a0a82d0-295d-4dd5-8e35-784fb2dd7c8e
-0.0368535433823888,0.0433808981377428,-0.1661079746460773,-0.2454110572837691,-0.1339758457595602,0.079389150015187,-0.2136076443892597,-0.2377957692829125,-12.395470597191272,-0.272574338772996,-16.17987590948246,0.7130885131238439,0.4135190404561435,0.6847556076041039,8329.8603515625,10.249777777777778,15.27,-0.2384008457133375,-1.102837253246017,-37.63046391768655,1500.0,1564.0,1500.0,1500.0,1500.0,1021.7000000000002,250.0,289.15,1636035721.3974998,1636035722.5020535,8a0a82d0-295d-4dd5-8e35-784fb2dd7c8e
-0.0385869798838045,0.0439473877430626,-0.161053944999896,-0.2359620755511597,-0.1320216214114292,0.0681146900225144,-0.2152923222464405,-0.2396831557611114,-12.371886241363477,0.1590897170532371,-16.458986741672582,0.6695192983521318,0.4171148962623608,0.6772003707687323,8329.8603515625,10.249125,15.2875,-0.2725969819062546,-1.1048608983730772,-37.67845894550619,1500.0,1564.0,1500.0,1500.0,1500.0,1021.7000000000002,250.0,289.15,1636035722.6101582,1636035723.7548716,8a0a82d0-295d-4dd5-8e35-784fb2dd7c8e
-0.0403461659033962,0.039765006708191,-0.1763393054476005,-0.3248785013405641,-0.158300936150998,0.1556515867889168,-0.2102382915024347,-0.2353577819728971,-12.480112318927302,0.3771488415262409,-16.27861996062049,1.067458770074597,0.4105780388296673,0.7254370281892953,8329.8603515625,10.239,15.273333333333332,-0.2233650558161517,-1.1284647277682371,-37.76729309732942,1500.0,1685.0,1500.0,1500.0,1500.0,1021.7000000000002,250.0,289.15,1636035725.6647377,1636035726.70731,b686ffa7-383b-4a05-8c83-5f2204537f6f
-0.0376342472552489,0.0432165394485575,-0.1663271212209637,-0.3166468686534568,-0.1480148209326712,0.1456941891011531,-0.2025134325147041,-0.2293997788836169,-12.45410847982449,0.3429013633248045,-16.06738339526476,1.026832892616171,0.4210878000938121,0.687600687961591,8311.021158854166,10.135666666666667,15.013333333333334,-0.2095398561772681,-1.11250644137526,-37.814486289399625,1500.0,1685.0,1500.0,1500.0,1500.0,1021.7000000000002,250.0,289.15,1636035726.8172846,1636035727.9460232,b686ffa7-383b-4a05-8c83-5f2204537f6f
-0.0388121513005739,0.041764704242731,-0.1706826261485172,-0.3249880741319605,-0.1551781205033568,0.1534738339150028,-0.2061704130502435,-0.2310022758644949,-12.377701500788254,0.5395914737902076,-16.28906550123057,1.064220640577667,0.4178207093385488,0.7079123908956388,8281.5712890625,10.1665,15.11125,-0.2216149074791255,-1.099412942055919,-37.90211135544415,1500.0,1685.0,1500.0,1500.0,1500.0,1021.7000000000002,250.0,289.15,1636035728.0591471,1636035729.170199,b686ffa7-383b-4a05-8c83-5f2204537f6f
-0.0304298572296108,0.0411894488241544,-0.1813248544780466,-0.4726370062213318,-0.1851051048912557,0.2999448247844818,-0.1814481237891405,-0.2038967842758131,-12.42083026928536,0.7715266192937237,-14.824368079093633,1.7276397162848929,0.4204948470409704,0.728557551449814,8297.60546875,10.1585,15.2275,-0.1996120250295714,-1.1994438905759592,-38.001237037094896,1500.0,2000.0,1500.0,1500.0,1500.0,1021.7000000000002,250.0,289.15,1636035732.2188137,1636035733.2641742,517459ce-f1cf-418a-8205-625cc4529c82
-0.0311146851554371,0.0416140420619552,-0.1765447534984719,-0.4673090428627515,-0.18443397194503,0.2905489861709491,-0.1831738887003645,-0.2120188435395504,-12.383898072080632,1.2522922832826404,-15.397341524195651,1.6978597586240998,0.4265593820631729,0.7227032376254385,8295.59912109375,10.16025,15.2975,-0.2419218853072666,-1.1760297352968911,-37.99484568757906,1500.0,2000.0,1500.0,1500.0,1500.0,1021.7000000000002,250.0,289.15,1636035733.3733475,1636035734.3773594,517459ce-f1cf-418a-8205-625cc4529c82
-0.0341827143575478,0.0438739743137549,-0.1852283725039155,-0.4624741561865408,-0.188282705276653,0.2870015779540086,-0.1891044988766842,-0.2128954230163688,-12.409356371818546,0.7745425172555372,-15.004555734684269,1.675432289008807,0.4305805635798278,0.7492741136326676,8305.6455078125,10.168625,15.26,-0.2188500098840127,-1.1772640385253197,-38.03679073304575,1500.0,2000.0,1500.0,1500.0,1500.0,1021.7000000000002,250.0,289.15,1636035734.4869387,1636035735.6095316,517459ce-f1cf-418a-8205-625cc4529c82
-0.053782490312590615,0.02521926145787017,-0.0718208587954089,-0.06083621844477923,-0.09711840375127705,-0.08243569228594676,-0.23989134260573355,-0.26561348285104147,-12.158557090459523,8.62856267524084,-17.398398750066587,-0.0032825318393544744,0.3379279268906534,0.5376677853341313,8247.792751736111,12.16711111111111,0.0,-0.21526780874751095,-1.069852550338765,-38.762431548287715,1500.0,1500.0,1000.0,1500.0,1500.0,1021.7000000000002,250.0,289.15,1636035738.1035376,1636035739.0908349,82b8f1a9-84bc-4616-b61a-70397d5b3607
-0.05301548298499129,0.028794063290618215,-0.05654919523680374,-0.0423595600276524,-0.08776365364749295,-0.10295313793614169,-0.2375903203686033,-0.2668324766757802,-12.166025369064306,9.426995333398635,-17.34044662487885,-0.08500797432374713,0.3495816484473397,0.5011765321374902,2606.5064086914062,12.171625,0.0,-0.10893329051896161,-1.1681843825810587,-46.98318424379272,1500.0,1500.0,1000.0,1500.0,1500.0,1021.7000000000002,250.0,289.15,1636035739.2016485,1636035740.3199832,82b8f1a9-84bc-4616-b61a-70397d5b3607
-0.050645978260463,0.031505981914160396,-0.05489191158050986,-0.042729367119834986,-0.08736645342619621,-0.10537742894223336,-0.2370972441980986,-0.2613812455721794,-12.128128620054582,9.478062892281406,-17.348278370921328,-0.08918260320224992,0.3597056409999013,0.4979938325960816,-1.0,12.16575,0.0,-0.044138344106931945,-1.2443003041763716,-54.69968010484749,1500.0,1500.0,1000.0,1500.0,1500.0,1021.7000000000002,250.0,289.15,1636035740.4300518,1636035741.4562645,82b8f1a9-84bc-4616-b61a-70397d5b3607
