raw_voltage_G-,raw_voltage_G0,raw_voltage_G1,raw_voltage_G2,raw_voltage_G3,raw_voltage_G4,raw_voltage_G5,raw_voltage_G6,load_x,load_y,load_z,load_l,load_m,load_n,rpm,voltage,current,roll,pitch,yaw,aileron1_pwm,elevator_pwm,throttle_pwm,rudder_pwm,aileron2_pwm,pbaro,pdiff,Tt,sample_start_time,sample_end_time,uid
-0.0531113588974395,0.0339028796823661,-0.0685610776050353,-0.0462219896792462,-0.0924752700424408,-0.1088700515868922,-0.2490680378217652,-0.2719412936656996,-12.735461286778142,8.810571789272382,-18.055133331789232,-0.0946763967721271,0.3788109980752985,0.5397403359699711,-1.0,12.067875,0.3087499999999999,0.005606782133946,-0.8333804756382944,-98.79327341931722,1500.0,1500.0,1200.0,1500.0,1500.0,1021.7000000000002,250.0,289.15,1636038062.1661866,1636038063.1994412,519a780e-8dc7-4f75-abfc-eb298ced1012
-0.0532072348105168,0.0321908098479371,-0.0705059890113177,-0.0501255090165548,-0.0933244567212036,-0.103870807412456,-0.2475888093178095,-0.271776934937521,-12.673838488503376,8.639983286071892,-18.093960190996096,-0.0758399096251121,0.3726520824222077,0.5412589391370154,-1.0,12.063,0.315,-0.0023349338987064,-0.815763830283458,-97.44015830322432,1500.0,1500.0,1200.0,1500.0,1500.0,1021.7000000000002,250.0,289.15,1636038063.3098252,1636038064.3242512,519a780e-8dc7-4f75-abfc-eb298ced1012
-0.0542207801841234,0.0310539954771886,-0.0723413279427419,-0.0487558531089753,-0.0942832158730087,-0.103884503971456,-0.2494652380719903,-0.2718317211731713,-12.725623280330543,8.6207160465647,-18.088745057238302,-0.0792046440888342,0.3684233243623271,0.5475917108671631,1833.991271972656,12.05575,0.30125,-0.0178199490579254,-0.7979804522736579,-96.18673918957788,1500.0,1500.0,1200.0,1500.0,1500.0,1021.7000000000002,250.0,289.15,1636038064.4333966,1636038065.5537984,519a780e-8dc7-4f75-abfc-eb298ced1012
-0.0529880898681022,0.0338480934461223,-0.0857776525807473,-0.0699033404404074,-0.100213826082884,-0.0857228663419849,-0.2483832098570417,-0.2693663403123011,-12.758688244212758,7.493742777609415,-17.919969307363218,0.0011809094485881,0.379373865283241,0.5732741421832273,2350.27197265625,11.89411111111111,1.6655555555555557,0.0111106695936792,-0.8001007153772296,-92.8189065728521,1500.0,1500.0,1233.0,1500.0,1500.0,1021.7000000000002,250.0,289.15,1636038068.6169574,1636038069.745144,8a98619e-09e6-4204-bd51-b7262b73f39d
-0.0529059105150266,0.0335324770887971,-0.0860063255882484,-0.0680697880136362,-0.0991978987069211,-0.0870496461034208,-0.2480354363475827,-0.272246191098396,-12.769142363135357,7.393046267815746,-17.91080221971318,-0.0066193036508812,0.3779409021221966,0.5717317968903095,3514.9652709960938,11.9,1.6,0.0032234794116187,-0.7995729869178618,-90.46691252859296,1500.0,1500.0,1233.0,1500.0,1500.0,1021.7000000000002,250.0,289.15,1636038069.8548496,1636038071.0914297,8a98619e-09e6-4204-bd51-b7262b73f39d
-0.0528100345990304,0.0332865345383579,-0.0869007704505733,-0.0683830223893709,-0.0999261983571797,-0.0865583564916564,-0.2488899825822097,-0.2734068257128033,-12.790446207829104,7.390460937613631,-17.922804417977968,-0.0048830431678828,0.3772574455580895,0.5750964150971555,3561.0438232421875,11.91,1.5550000000000002,0.0196398304298214,-0.7898534543061617,-88.24451069909607,1500.0,1500.0,1233.0,1500.0,1500.0,1021.7000000000002,250.0,289.15,1636038071.200452,1636038072.3159745,8a98619e-09e6-4204-bd51-b7262b73f39d
-0.0518512754711996,0.0345877075676934,-0.100871260975074,-0.0908179867243774,-0.1057198430110216,-0.0667942216317311,-0.2466574433002503,-0.2737903293819938,-12.78131354217212,6.177417082503637,-17.899436080175533,0.0814086605217542,0.3837218810475222,0.5993501563183922,3688.436401367188,11.705125,3.27875,0.0247907702346296,-0.8182025213121632,-84.74882329697814,1500.0,1500.0,1266.0,1500.0,1500.0,1021.7000000000002,250.0,289.15,1636038074.054285,1636038075.178952,e1523ffc-0905-42d5-83ed-00154d04f9bd
-0.0523991378509917,0.0342726866785502,-0.1005562402600906,-0.09233830465317,-0.104007773229825,-0.0649588827169902,-0.2441509730262813,-0.2718591145220806,-12.777684471270696,6.004207513723281,-17.86851461915332,0.0878365915003787,0.3824448361720682,0.5930859583256956,4741.028015136719,11.70275,3.2662499999999994,-0.0024483703956024,-0.8091308228050897,-81.67884621790147,1500.0,1500.0,1266.0,1500.0,1500.0,1021.7000000000002,250.0,289.15,1636038075.2881987,1636038076.411977,e1523ffc-0905-42d5-83ed-00154d04f9bd
-0.0522073860409908,0.0352725354331612,-0.106719691984665,-0.0966801139754039,-0.1109793219857201,-0.0619182467778514,-0.2499583144528651,-0.2711605898720743,-12.76595473617338,6.025132647792522,-17.911736187064363,0.1042941957064957,0.3866391229516315,0.6192729067419864,4772.213704427083,11.704777777777776,3.2777777777777777,0.0240324955155446,-0.8036286681660999,-79.36446754322138,1500.0,1500.0,1266.0,1500.0,1500.0,1021.7000000000002,250.0,289.15,1636038076.5212817,1636038077.5280807,e1523ffc-0905-42d5-83ed-00154d04f9bd
-0.0564396227837816,0.0261780205455587,-0.1067333886189684,-0.0956665688158852,-0.0960911619810917,-0.0521252070207089,-0.2389325837261944,-0.2600663760008818,-13.340172824922536,4.905615298034167,-17.594928443747534,0.1163535105218185,0.3536408344630395,0.5827282585315441,4948.8658447265625,11.45775,5.2175,-0.0047607729607819,-0.8295197779110107,-73.46956159974039,1500.0,1500.0,1300.0,1500.0,1500.0,1021.7000000000002,250.0,289.15,1636038080.5987318,1636038081.6323986,fb743093-439d-494f-b303-21826d651ea9
-0.0520156341909888,0.0369161225580135,-0.1244156466999039,-0.113335130421669,-0.1195259749612107,-0.0479751496501401,-0.2524921781740797,-0.2757626340889635,-12.721553864168124,4.764443921875043,-17.943832903197645,0.1639746688493455,0.3936811672755104,0.6591990058247205,5672.687255859375,11.4775,5.115,-0.001621429754485,-0.855854292627509,-70.97752951502079,1500.0,1500.0,1300.0,1500.0,1500.0,1021.7000000000002,250.0,289.15,1636038081.7427952,1636038082.8491318,fb743093-439d-494f-b303-21826d651ea9
-0.0496187363707882,0.0375050745690137,-0.1208545418804978,-0.1219913556102946,-0.1177865125304849,-0.0405653109332819,-0.247451844632852,-0.2693389476802061,-12.714716061670188,4.823563105897361,-17.90922420689381,0.2007300753230845,0.3968274873865836,0.6448239516503359,5680.203125,11.48,5.12,0.0329950197093717,-0.8635973259079234,-68.73842275036137,1500.0,1500.0,1300.0,1500.0,1500.0,1021.7000000000002,250.0,289.15,1636038082.9586918,1636038084.0797398,fb743093-439d-494f-b303-21826d651ea9
-0.0489749980796938,0.0395047721059132,-0.1315378577890279,-0.1334827697815005,-0.1179782638262282,-0.0304298580823639,-0.2443701181684718,-0.2662024352275732,-12.806524962742795,3.5376843416330104,-17.70755525039886,0.2403573355843522,0.4039057490381112,0.656149123994771,5768.664855957031,11.24875,7.183750000000001,0.0286324662872633,-0.8957778422237179,-64.61426402950116,1500.0,1500.0,1333.0,1500.0,1500.0,1021.7000000000002,250.0,289.15,1636038086.1287563,1636038087.262974,142ecaa4-3394-48c8-bef9-30a02fbe4db4
-0.049933757209949,0.036368260211508,-0.1272508347900305,-0.1401256013951169,-0.1154033107896759,-0.0224858537616878,-0.2398228603412443,-0.2646410272676237,-12.892077260033323,3.741234746605039,-17.85260759282864,0.2746898129329751,0.3951261370653587,0.6395382179617363,6395.394409179688,11.257,7.06,0.0319464185022278,-0.8680790505813625,-62.103647000049975,1500.0,1500.0,1333.0,1500.0,1500.0,1021.7000000000002,250.0,289.15,1636038087.3766544,1636038088.4979527,142ecaa4-3394-48c8-bef9-30a02fbe4db4
-0.0507281576308028,0.037148964036054,-0.1286615802977407,-0.1328253343913991,-0.114321282553491,-0.0290054152553776,-0.2409870675740886,-0.2660106831832772,-12.860543769454427,3.532352858677703,-17.722677523971917,0.2421535097461164,0.3956877024893717,0.642094551546969,6396.5869140625,11.254,7.059999999999999,0.0558049033500921,-0.9005642840475893,-60.12793794299561,1500.0,1500.0,1333.0,1500.0,1500.0,1021.7000000000002,250.0,289.15,1636038088.6131942,1636038089.7242153,142ecaa4-3394-48c8-bef9-30a02fbe4db4
-0.0472903213403382,0.038943213208322,-0.1434127751481638,-0.1511513312944942,-0.1217448179208206,-0.0144596698414805,-0.2421923653779505,-0.2645451514300643,-12.843463451723018,2.455767850778072,-17.852414756331754,0.3082952948103639,0.4047491125028735,0.6743564971839676,6401.36376953125,11.081,9.02,0.0546868467396859,-0.9488044160515084,-56.38550995711097,1500.0,1500.0,1366.0,1500.0,1500.0,1021.7000000000002,250.0,289.15,1636038092.05955,1636038093.001931,85361e51-e8b4-4df1-9c1c-716f36bb18b1
-0.0491941430364441,0.0374091986519203,-0.1458781557817868,-0.1415774366585813,-0.1208956311450119,-0.0207600874269084,-0.2450823394089261,-0.2751188960559805,-12.905653567036412,2.2933876490950458,-17.726881346952243,0.271330562928747,0.39698539495452,0.6807737020195587,6970.056396484375,11.1015,8.915,0.0434222798142514,-0.9521733801791908,-54.690550703248114,1500.0,1500.0,1366.0,1500.0,1500.0,1021.7000000000002,250.0,289.15,1636038093.112564,1636038094.232854,85361e51-e8b4-4df1-9c1c-716f36bb18b1
-0.0462630794037462,0.0379981506528064,-0.1412898086975623,-0.1522881457340457,-0.1194027065315042,-0.0118162338200933,-0.2390147636323227,-0.2683390987577144,-12.844694424912689,2.4316231395748784,-17.736446584766785,0.3167633410669115,0.4004595843372756,0.6637966831233152,6961.568359375,11.056875,8.8925,0.064013877761605,-0.9553075432139408,-53.193073135744655,1500.0,1500.0,1366.0,1500.0,1500.0,1021.7000000000002,250.0,289.15,1636038094.367307,1636038095.346677,85361e51-e8b4-4df1-9c1c-716f36bb18b1
-0.0503446539909379,0.0373955020881543,-0.1529592770996516,-0.1593144811816611,-0.1234157980940433,-0.0050090442431947,-0.2419732201055646,-0.2666407250203362,-12.974206176604804,1.60116578160653,-17.81805816753494,0.3417452302096677,0.3999504857533611,0.6893822709117897,7062.105346679688,10.853000000000002,10.8775,0.0493765155660032,-0.9719305027662462,-50.11714055859856,1500.0,1500.0,1400.0,1500.0,1500.0,1021.7000000000002,250.0,289.15,1636038097.567099,1636038098.623226,2e904eb7-d443-4555-9b00-7881b36b5ff4
-0.0451673546820422,0.0428604289746766,-0.1479326400095311,-0.1674365405464219,-0.1203888586691555,-0.0031189188470348,-0.2354536578303907,-0.2596828725903213,-12.860210792834708,1.516098105374365,-17.806506516883303,0.3640595631966906,0.4208552895820361,0.6698461101730274,7430.80029296875,10.853,10.77,0.0624168666421016,-1.0116504273478235,-48.80218656317218,1500.0,1500.0,1400.0,1500.0,1500.0,1021.7000000000002,250.0,289.15,1636038098.735564,1636038099.9599984,2e904eb7-d443-4555-9b00-7881b36b5ff4
-0.0471944453978987,0.0391212684845932,-0.1533427805773759,-0.1649026774455513,-0.1240732327335041,-0.0009959525125344,-0.2394941426632781,-0.2677090567478518,-12.85822165777882,1.4527996746330285,-17.729524037923042,0.3624386485641399,0.4054787716304011,0.6876974926942298,7435.456325954861,10.889666666666669,10.837777777777776,0.0605285116580004,-0.9959276223986536,-47.46705799134861,1500.0,1500.0,1400.0,1500.0,1500.0,1021.7000000000002,250.0,289.15,1636038100.0693586,1636038101.0816052,2e904eb7-d443-4555-9b00-7881b36b5ff4
-0.0466459875438038,0.0392493014983412,-0.1595961540286512,-0.1817488505150293,-0.1249807793296732,0.0149670889451044,-0.2349296156726452,-0.2628991823757146,-12.937715560840989,0.6879822475133722,-17.64458650660734,0.4309026541977947,0.4074335355275303,0.6912046098295846,7624.106119791667,10.62922222222222,12.414444444444444,0.0703614872195772,-0.9842762920279312,-44.46394144432971,1500.0,1500.0,1433.0,1500.0,1500.0,1021.7000000000002,250.0,289.15,1636038104.1514874,1636038105.3824017,ee3911e9-7aad-4f6f-bc1b-a466a9cf5765
-0.0459754516508248,0.0398334895400679,-0.158711832512095,-0.1701210665225477,-0.1223885564181539,0.0036334845701105,-0.2371931212458975,-0.2588747756362626,-12.989888233379082,0.6709502799841202,-17.65706294458948,0.3791079751418739,0.4087285829006169,0.6898167786116862,7771.01171875,10.628,12.37,0.0908551629992963,-0.9730474254585284,-43.48406125652226,1500.0,1500.0,1433.0,1500.0,1500.0,1021.7000000000002,250.0,289.15,1636038105.4906745,1636038106.6070547,ee3911e9-7aad-4f6f-bc1b-a466a9cf5765
-0.0461398103913413,0.0380803300156619,-0.1580543984036769,-0.1810372250886579,-0.1242375927322628,0.0140976552603045,-0.2347688309712321,-0.2553821532512516,-12.964848818477453,0.8210331587857055,-17.832642169486192,0.4282588123587277,0.4049203360818197,0.6873878335268028,7782.773274739583,10.645,12.406666666666666,0.0798656376420593,-0.9962665112463788,-42.51020946956726,1500.0,1500.0,1433.0,1500.0,1500.0,1021.7000000000002,250.0,289.15,1636038106.7149534,1636038107.9567282,ee3911e9-7aad-4f6f-bc1b-a466a9cf5765
-0.0464822243514694,0.0382720818452435,-0.1661490657815296,-0.1919396866064734,-0.1286615819036528,0.0221238386942345,-0.2364535081893604,-0.25895695582647,-13.029545957210724,0.3157207490895984,-18.123181192422205,0.4670562823731193,0.4094930703534056,0.7065259846206627,7892.4072265625,10.501,14.013333333333332,0.0672056229929673,-1.0530330316380991,-41.14480684315752,1500.0,1500.0,1466.0,1500.0,1500.0,1021.7000000000002,250.0,289.15,1636038109.681266,1636038110.819218,51252077-6599-49e8-afc3-dfa7badf58d7
-0.0474683766098017,0.0398060963736071,-0.1762023391131878,-0.1873376428470708,-0.1375232545914567,0.0187681812193444,-0.2470272512560538,-0.2722974046922357,-12.998837065570006,0.227598203408945,-17.86278902965428,0.4481067939526929,0.4115159298419339,0.7480052483582096,8101.537109375,10.443,13.85,0.0213273323844309,-1.0304609284045976,-40.20331990758462,1500.0,1500.0,1466.0,1500.0,1500.0,1021.7000000000002,250.0,289.15,1636038110.927367,1636038112.0486033,51252077-6599-49e8-afc3-dfa7badf58d7
-0.0471670523486107,0.0373270192055829,-0.1672584865021733,-0.1860227733380756,-0.1238129993619471,0.0225758246642997,-0.232865008771132,-0.2627509025487846,-13.071794116467478,-0.2135366304714463,-17.400309413182754,0.4512550589517798,0.3990329327201939,0.6974697900987624,8067.648111979167,10.433444444444442,13.82,0.0762915217864549,-1.045802387054093,-39.53852203801418,1500.0,1500.0,1466.0,1500.0,1500.0,1021.7000000000002,250.0,289.15,1636038112.1575787,1636038113.2325182,51252077-6599-49e8-afc3-dfa7badf58d7
-0.0488106394037447,0.0380666333775945,-0.1705593567452628,-0.2090192969774325,-0.1347976395594122,0.0362449904106247,-0.2368096173298734,-0.2658874144905421,-13.021533839084222,0.2852666942228919,-18.39802888192908,0.5368545463657245,0.4129245342205683,0.7208580912041058,8141.801432291667,10.249,15.23,0.0820100835877119,-1.0977273705413315,-38.35082917070459,1500.0,1500.0,1500.0,1500.0,1500.0,1021.7000000000002,250.0,289.15,1636038115.098457,1636038116.3492706,e451f673-e2b7-41c5-b37a-548e8c626a5a
-0.0480984183096187,0.0443533539080436,-0.1741752486331516,-0.1970622008332092,-0.1352770190823585,0.0259040884396448,-0.2395489297521467,-0.2641616481135289,-12.84087951899076,-0.1202975513361127,-17.448276797921775,0.4840186305993255,0.4250990220449133,0.7328379426748045,8313.701171875,10.247,15.19,0.0481510827456044,-1.0872752956944098,-37.685193085141,1500.0,1500.0,1500.0,1500.0,1500.0,1021.7000000000002,250.0,289.15,1636038116.458578,1636038117.574117,e451f673-e2b7-41c5-b37a-548e8c626a5a
-0.0502624746582917,0.0409566073488334,-0.1736684758496125,-0.2058143016547534,-0.1434812582307676,0.0267943652957737,-0.2472190034131698,-0.2705579417926175,-12.91342131327744,0.8302913385906138,-18.97825098723264,0.5118081968212751,0.4275585318671168,0.7511556673474571,8313.701171875,10.251666666666669,15.220000000000002,0.0691311653036726,-1.0919318364509027,-37.17633943851561,1500.0,1500.0,1500.0,1500.0,1500.0,1021.7000000000002,250.0,289.15,1636038117.6830971,1636038118.8064106,e451f673-e2b7-41c5-b37a-548e8c626a5a
-0.06087730792646262,0.022767577442611334,-0.08984553076636752,-0.055316504953495584,-0.0999535915529235,-0.08787322620029099,-0.2526839298897805,-0.2782964977660921,-12.858765685050392,7.515074237533888,-17.891537676938373,-0.03666255195623797,0.3362180563914064,0.5833364821278312,8313.701171875,12.096555555555556,0.0,0.06943323664514935,-1.053149820758126,-36.899236007703514,1500.0,1500.0,1000.0,1500.0,1500.0,1021.7000000000002,250.0,289.15,1636038121.0537987,1636038122.083534,d36baff2-32fb-407c-9910-708e7bb32aa9
-0.05712445071636931,0.02773942827089096,-0.07283440407936088,-0.04090772476901405,-0.09217394574378923,-0.10637727777957058,-0.25060205258064006,-0.27580372373909223,-12.8430595811585,8.580047491145907,-17.882724019981186,-0.1028301165741712,0.35399868742179824,0.5469023971430477,1834.137451171875,12.104,0.0,0.17250213709993134,-1.0892340658823227,-45.41589147080116,1500.0,1500.0,1000.0,1500.0,1500.0,1021.7000000000002,250.0,289.15,1636038122.1947782,1636038123.312947,d36baff2-32fb-407c-9910-708e7bb32aa9
-0.055700008568703246,0.030807457420798507,-0.07113603073234681,-0.041866483900211304,-0.09209176638250614,-0.10895223094273855,-0.2502870316857038,-0.277228165961586,-12.79951201468136,8.651322697836038,-17.9402383348875,-0.10588384221052015,0.3659341113967462,0.5443097811034024,-1.0,12.111,0.0,0.2486407503979361,-1.144517390240781,-54.053086159803065,1500.0,1500.0,1000.0,1500.0,1500.0,1021.7000000000002,250.0,289.15,1636038123.4213002,1636038124.7469263,d36baff2-32fb-407c-9910-708e7bb32aa9
