raw_voltage_G-,raw_voltage_G0,raw_voltage_G1,raw_voltage_G2,raw_voltage_G3,raw_voltage_G4,raw_voltage_G5,raw_voltage_G6,load_x,load_y,load_z,load_l,load_m,load_n,rpm,voltage,current,roll,pitch,yaw,aileron1_pwm,elevator_pwm,throttle_pwm,rudder_pwm,aileron2_pwm,pbaro,pdiff,Tt,sample_start_time,sample_end_time,uid
-0.0497146122462493,0.0365052258258332,-0.0588091274893892,-0.0466054933349606,-0.0905303586228394,-0.1044597594733959,-0.2430826410029437,-0.2694759129150232,-12.46029374869651,9.445414891302644,-17.065013791993696,-0.078910414488191,0.3785246113038572,0.5169162628452485,-1.0,12.059666666666663,0.44,0.2181082484497698,-0.9103392096713276,-98.83985720673148,1500.0,2000.0,1200.0,1500.0,1500.0,1021.7000000000002,250.0,289.15,1636037102.0714595,1636037103.1943214,98e3208d-1291-4c76-a317-7495e35ff33b
-0.0511938406237534,0.035258838991337,-0.0631920264147059,-0.0616991014655152,-0.0948310782464755,-0.0883663022537363,-0.2413568744188756,-0.2653669447145564,-12.436601532431329,9.25741009254621,-16.934808766308297,-0.0101306494330292,0.3741055167024124,0.526285465038912,-1.0,12.059,0.4166666666666667,0.2122190957074359,-0.9105698708514232,-97.38031560081124,1500.0,2000.0,1200.0,1500.0,1500.0,1021.7000000000002,250.0,289.15,1636037103.333568,1636037104.423311,98e3208d-1291-4c76-a317-7495e35ff33b
-0.0509609991204907,0.0347657628794854,-0.0642877511473956,-0.0622195707220876,-0.0955980855683365,-0.0874075431125532,-0.2418499505895734,-0.2679829878076777,-12.432853032662768,9.224954243415548,-16.94106872678431,-0.0070709629961793,0.3722791997774732,0.5294686725627559,1942.70036315918,12.065375,0.3975,0.2107194584172193,-0.8999214325126015,-96.12130768487646,1500.0,2000.0,1200.0,1500.0,1500.0,1021.7000000000002,250.0,289.15,1636037104.5374572,1636037105.6407654,98e3208d-1291-4c76-a317-7495e35ff33b
-0.0520841169649941,0.0343000798842932,-0.0658217657789603,-0.0602746593167493,-0.0957624442860424,-0.0885854472034768,-0.2432469997348313,-0.2683117052607537,-12.488480622243324,9.14550623923718,-16.92882298548051,-0.0147342179648502,0.3704797341638862,0.5337443484268589,1946.281982421875,12.09,0.37,0.2062179518750976,-0.8963268987195369,-93.62114340617632,1500.0,1890.0,1200.0,1500.0,1500.0,1021.7000000000002,250.0,289.15,1636037108.6059277,1636037109.6260617,7a620ab5-6469-4513-a5f2-c89ee9bf28b5
-0.0510294819154307,0.0348068525550009,-0.0655478345896018,-0.0593022036177827,-0.0952556715857943,-0.0896948685057432,-0.2428361029210808,-0.270160740862188,-12.464205411785503,9.107347745634712,-16.885708290110397,-0.0196410826328429,0.3717234898876051,0.5322589706088487,1955.6271362304688,12.0935,0.355,0.1990079268139955,-0.8903709737632857,-93.12059299285193,1500.0,1890.0,1200.0,1500.0,1500.0,1021.7000000000002,250.0,289.15,1636037109.7345402,1636037110.9662907,7a620ab5-6469-4513-a5f2-c89ee9bf28b5
-0.0501802952514716,0.0348342456728919,-0.065164330932835,-0.0597267969518778,-0.0949132576019053,-0.0895442063542207,-0.2424389026738431,-0.2632165847027004,-12.471400324930238,9.10832885387162,-16.913007299619434,-0.0183271196750937,0.3721957102468378,0.5306599587750558,1951.00767686632,12.092111111111112,0.3577777777777777,0.1979419726296994,-0.8809249347918476,-92.6986497088654,1500.0,1890.0,1200.0,1500.0,1500.0,1021.7000000000002,250.0,289.15,1636037111.0767412,1636037112.0856254,7a620ab5-6469-4513-a5f2-c89ee9bf28b5
-0.0513445027739373,0.0345192248230512,-0.065931338248912,-0.0587817343709344,-0.0949954369592857,-0.0906399310963035,-0.2426991373207138,-0.2645314545140099,-12.45127512377051,9.040680321253957,-16.992139837515143,-0.023410314925145,0.3714069701088092,0.5320883217445146,1944.074951171875,12.09775,0.3399999999999999,0.2056860442233763,-0.8881487743848648,-91.85437837356912,1500.0,1861.0,1200.0,1500.0,1500.0,1021.7000000000002,250.0,289.15,1636037114.5769398,1636037115.6771204,fd9dd799-775b-42be-8b2d-dda14ae8b693
-0.0509473025609234,0.0341631142976841,-0.0653149930874294,-0.0590419689954844,-0.0940229812495413,-0.090078372165786,-0.2418499505906857,-0.2686541192115041,-12.481690143975053,9.02092257721572,-16.989937027498584,-0.0216766370766162,0.3703378640823913,0.5286591693347562,1945.679916381836,12.09525,0.3525,0.201786366393056,-0.8984373071111519,-91.68045016767567,1500.0,1861.0,1200.0,1500.0,1500.0,1021.7000000000002,250.0,289.15,1636037115.7877102,1636037116.9093723,fd9dd799-775b-42be-8b2d-dda14ae8b693
-0.0513171096557949,0.0346014041748166,-0.0649040963134285,-0.0592748105000915,-0.0938449259799841,-0.0897907444212153,-0.2412746950611894,-0.2629289569520494,-12.456202019619925,9.019193689471257,-16.914842958970254,-0.0204712663302312,0.3711904492030133,0.5272129519176865,1950.8127577039927,12.094333333333331,0.35,0.2195449938605903,-0.9100641759775616,-91.46285599323592,1500.0,1861.0,1200.0,1500.0,1500.0,1021.7000000000002,250.0,289.15,1636037117.018973,1636037118.1389744,fd9dd799-775b-42be-8b2d-dda14ae8b693
-0.0512486268607591,0.0344370454711123,-0.0648767031954113,-0.0583571410374757,-0.0936394775901686,-0.090708413893645,-0.241781467789349,-0.2666133316929035,-12.489513719165728,9.034381022048906,-16.949892554926144,-0.0245237423537922,0.3710094292321327,0.5275265159248892,1933.5498046875,12.092,0.4,0.2319124565220244,-0.9159125728862544,-91.1501175682491,1500.0,1831.0,1200.0,1500.0,1500.0,1021.7000000000002,250.0,289.15,1636037119.570588,1636037120.5918558,0c19a33f-6b6f-4146-9501-a3dd1c05bfd8
-0.050769247292573,0.0339713624764582,-0.0655752277103808,-0.058343444480308,-0.0938312294183786,-0.0905577517416661,-0.2423293301976413,-0.2651477997308342,-12.522733334759844,9.008796272049016,-16.995832466254118,-0.0244445117109889,0.3698587164477218,0.5293861413750807,1941.001288519965,12.096222222222222,0.3633333333333333,0.2312600252316969,-0.9139083748255806,-91.03609742588452,1500.0,1831.0,1200.0,1500.0,1500.0,1021.7000000000002,250.0,289.15,1636037120.7007344,1636037121.8326385,0c19a33f-6b6f-4146-9501-a3dd1c05bfd8
-0.0505227092291537,0.034067238386901,-0.0649588825444964,-0.0571655403972424,-0.0936120844667051,-0.0913521521833148,-0.2422060611508415,-0.2660791658695366,-12.497583343487896,9.05136747260332,-16.93904826259748,-0.0285520874949375,0.369431796756178,0.528174136928428,1940.9932861328125,12.09525,0.375,0.2323510627224664,-0.9198261111981128,-90.95671393171102,1500.0,1831.0,1200.0,1500.0,1500.0,1021.7000000000002,250.0,289.15,1636037121.9676216,1636037122.9489994,0c19a33f-6b6f-4146-9501-a3dd1c05bfd8
-0.0513308062152189,0.034080934944875,-0.0654656552402692,-0.0568916092119591,-0.0933244567257229,-0.0924615734864826,-0.2423430267575957,-0.2636822677695454,-12.514335540131851,8.975727421379027,-17.06040003828039,-0.0322174646751785,0.3706101365474031,0.5285204063816012,1947.1240234375,12.09511111111111,0.3777777777777777,0.2293986712097198,-0.9282633573166684,-90.8234683246527,1500.0,1722.0,1200.0,1500.0,1500.0,1021.7000000000002,250.0,289.15,1636037124.071782,1636037125.101607,2a7f4306-25b1-40d1-988c-9d2bb29f0f83
-0.0511801440647304,0.034491831706108,-0.0657806760981093,-0.056275264052843,-0.093694263824638,-0.0931190083311653,-0.2428908891659767,-0.2657093587192041,-12.506630735448676,8.978451010325848,-17.019364165148563,-0.0350723434043149,0.3716372068698358,0.5303508150068986,1953.6767578125,12.096333333333334,0.36,0.2335505813449168,-0.9255216174053064,-90.75689447081255,1500.0,1722.0,1200.0,1500.0,1500.0,1021.7000000000002,250.0,289.15,1636037125.2115915,1636037126.2245138,2a7f4306-25b1-40d1-988c-9d2bb29f0f83
-0.0505911920239184,0.0341905074148161,-0.0648356135140644,-0.0570422713621229,-0.0931053117736174,-0.0923793941303848,-0.2422608473935543,-0.2653258550067128,-12.532001674405498,9.026004767131724,-17.05095197060025,-0.0313356599252042,0.3711217421913834,0.5272383747232389,1947.265163845486,12.098888888888888,0.3466666666666666,0.2375776241198577,-0.9246185383309836,-90.71935954568372,1500.0,1722.0,1200.0,1500.0,1500.0,1021.7000000000002,250.0,289.15,1636037126.3558571,1636037127.3550808,2a7f4306-25b1-40d1-988c-9d2bb29f0f83
-0.0466191899081038,0.0364367429829693,-0.0996659637504665,-0.1766954153855004,-0.1196355473533532,0.0186175198148388,-0.2256195269117841,-0.2522730331018524,-12.542431640511674,6.530366494392335,-16.662325750830206,0.4697758965396723,0.3886574078390696,0.5879451716547038,1963.671630859375,11.635,4.06,0.2201750165571955,-0.938382934760244,-90.43946370586596,1500.0,2000.0,1275.0,1500.0,1500.0,1021.7000000000002,250.0,289.15,1636037130.1074443,1636037131.1350498,a4016a2b-15b7-4785-93f1-a92a1e05278c
-0.0486188875297942,0.0351629630584233,-0.1021724344385925,-0.1915698791985975,-0.1219091765843864,0.0346561900273982,-0.2232774154296989,-0.2518484400077735,-12.65277920688226,6.4027616425529885,-16.505467450297868,0.5383688206028864,0.38494104435508,0.5910357539090682,4956.319519042969,11.662499999999998,3.84625,0.2071244944022782,-0.9331632695119662,-86.1787695034972,1500.0,2000.0,1275.0,1500.0,1500.0,1021.7000000000002,250.0,289.15,1636037131.2665932,1636037132.2718277,a4016a2b-15b7-4785-93f1-a92a1e05278c
-0.0479894413134718,0.0347758863793559,-0.1074730027767569,-0.193854227220844,-0.1278106071063861,0.0376771744197681,-0.227540618492011,-0.2550814235285683,-12.564226846563251,6.411225319023385,-16.466378515936505,0.5501532851943164,0.3824614432972398,0.612415585469914,5029.1962890625,11.664333333333332,3.84,0.1942875501727404,-0.9172410446798218,-82.80546600010997,1500.0,2000.0,1275.0,1500.0,1500.0,1021.7000000000002,250.0,289.15,1636037132.405506,1636037133.3854158,a4016a2b-15b7-4785-93f1-a92a1e05278c
-0.0482627769865547,0.0377790057698649,-0.1118148120612942,-0.1830095289885458,-0.1300175396195877,0.0238769985427583,-0.2345359876334709,-0.2604909692685797,-12.560356368111677,6.264950212667663,-16.63206522316707,0.493469133535868,0.3935531069454623,0.631587305784164,5033.13330078125,11.69,3.81,0.1583319788163061,-0.8872363378920894,-75.84779438487857,1500.0,1890.0,1275.0,1500.0,1500.0,1021.7000000000002,250.0,289.15,1636037135.5713909,1636037136.542827,5fd46aea-eb8d-4e83-b1d5-daec3e0709c4
-0.0472218385021667,0.0365874051569893,-0.1083632791176331,-0.178969043938594,-0.1261688064137245,0.0219046940538651,-0.2319062481717331,-0.2563546081311154,-12.583254312761374,6.305444344325348,-16.526518274149037,0.4803683599950678,0.3880325115828626,0.617903659611608,5037.406575520833,11.68988888888889,3.825555555555556,0.1754451111632656,-0.890252927698724,-74.06886478535958,1500.0,1890.0,1275.0,1500.0,1500.0,1021.7000000000002,250.0,289.15,1636037136.6597998,1636037137.79926,5fd46aea-eb8d-4e83-b1d5-daec3e0709c4
-0.048974998069318,0.035135569912018,-0.1116641498104424,-0.1789142577058964,-0.1280315383897766,0.0239591777379481,-0.233481352406585,-0.2593815478358623,-12.579716227303743,6.184734891403532,-16.446898691103446,0.4839113887675632,0.3816384885392612,0.6271719510503709,5039.05126953125,11.691555555555556,3.811111111111111,0.1740190008668754,-0.8815489662504699,-72.50228121367684,1500.0,1890.0,1275.0,1500.0,1500.0,1021.7000000000002,250.0,289.15,1636037137.9089997,1636037139.0336304,5fd46aea-eb8d-4e83-b1d5-daec3e0709c4
-0.0486188875386956,0.0368202466517083,-0.1094863972082384,-0.1808728658542492,-0.1272097451316614,0.0222334113270142,-0.2315501379149967,-0.2602581280259136,-12.491574264785903,6.212512758477151,-16.698795661862857,0.4847482962976184,0.3899454355236122,0.620216118034847,5042.015625,11.688222222222224,3.82,0.1986541769687401,-0.9116341234174106,-70.12537917706193,1500.0,1861.0,1275.0,1500.0,1500.0,1021.7000000000002,250.0,289.15,1636037140.5706043,1636037141.5837257,0574898f-4be0-4a3f-a44e-238d52523f63
-0.0472081419439622,0.0365189223597528,-0.1098014180881522,-0.1778459259343034,-0.126661882839394,0.0191379892784956,-0.2315090480534224,-0.2563272150874109,-12.432956609067803,6.128937605580611,-16.784874853815143,0.4704105041833788,0.3887692534579619,0.6197847813554422,5042.015625,11.689,3.814444444444444,0.190948293217659,-0.9320971330114228,-69.25480933673138,1500.0,1861.0,1275.0,1500.0,1500.0,1021.7000000000002,250.0,289.15,1636037141.7152424,1636037142.805955,0574898f-4be0-4a3f-a44e-238d52523f63
-0.0485504047382315,0.0352862320552365,-0.112609212494532,-0.1771884914107137,-0.1291135666970702,0.0221101422610639,-0.2353166915956964,-0.2596280859995672,-12.579527701381258,6.222799657811964,-16.474004574768333,0.4760645054048229,0.3821707224506398,0.6325267098435335,5044.6124267578125,11.6885,3.82,0.2029020784609883,-0.9267348875642204,-68.56834506361253,1500.0,1861.0,1275.0,1500.0,1500.0,1021.7000000000002,250.0,289.15,1636037142.9147322,1636037144.0323703,0574898f-4be0-4a3f-a44e-238d52523f63
-0.0477149146270555,0.0365189223659489,-0.1092946452896217,-0.175270972650343,-0.1250593852692838,0.0176039747254079,-0.2313446892307914,-0.2556560835619428,-12.499724055213695,6.080709716219521,-16.662426448679682,0.4608463402646848,0.3878708368425121,0.6168457043329696,5050.92919921875,11.692,3.81,0.2098912729674555,-0.9507317033362156,-67.5867435732705,1500.0,1831.0,1275.0,1500.0,1500.0,1021.7000000000002,250.0,289.15,1636037145.069728,1636037146.0856068,36fc954f-821c-4908-840a-859b49c8aba8
-0.0477560043126515,0.0354231976207019,-0.1079660789572159,-0.175010738400283,-0.1231418669066756,0.0186175197675678,-0.2305228956838225,-0.2539851033414296,-12.620742945034523,6.109346610577704,-16.628340395536416,0.4627373934480168,0.3843683102537036,0.6110743237300829,5050.92919921875,11.692,3.815,0.2367002457074315,-0.9508688407281448,-67.11044033149966,1500.0,1831.0,1275.0,1500.0,1500.0,1021.7000000000002,250.0,289.15,1636037146.2216456,1636037147.426801,36fc954f-821c-4908-840a-859b49c8aba8
-0.049718780769096,0.0341470357124785,-0.1094881835817189,-0.1724018412571275,-0.1244805566451012,0.0167535969668112,-0.2336576214861529,-0.2572824012994205,-12.695639567912888,6.198720015889063,-16.74808397834398,0.4531237648497762,0.3807571227547432,0.6190461593700151,5053.90673828125,11.695,3.82,0.2466640376232388,-0.950538110161928,-66.72212358661692,1500.0,1831.0,1275.0,1500.0,1500.0,1021.7000000000002,250.0,289.15,1636037147.5650756,1636037148.6577845,36fc954f-821c-4908-840a-859b49c8aba8
-0.0500707227910538,0.0352588389596198,-0.113020109250145,-0.1523703248163228,-0.1252374403218026,-0.0037626570401372,-0.2413842677080998,-0.269338947292246,-12.613977674108668,6.097897608992973,-16.930007277406336,0.361002686036693,0.3832695361390413,0.6360446309034521,5059.8740234375,11.69488888888889,3.828888888888889,0.2556236005213315,-0.9406558699340428,-65.9973168133636,1500.0,1722.0,1275.0,1500.0,1500.0,1021.7000000000002,250.0,289.15,1636037150.5864365,1636037151.731487,f7560a09-20c2-4c31-aa04-cfcba6b5f613
-0.0489886946381136,0.0366832810491539,-0.1113628257243055,-0.1509458828719447,-0.1241143225833214,-0.0063376103119976,-0.2405350812005978,-0.2627235086875291,-12.576937824400124,6.120470235169083,-16.90201666852055,0.3522584952883401,0.3880318874804611,0.6312877476181279,5061.3681640625,11.699,3.805,0.2475606066735088,-0.9923175769021028,-65.85738407165287,1500.0,1722.0,1275.0,1500.0,1500.0,1021.7000000000002,250.0,289.15,1636037151.848725,1636037152.8378525,f7560a09-20c2-4c31-aa04-cfcba6b5f613
-0.0468657279926337,0.0342179004606525,-0.1010767103361048,-0.1542467537658328,-0.1135268829050814,-0.0019136218884361,-0.2280438190933408,-0.2558341394063028,-12.593511985118736,6.072432661695447,-16.960216947287954,0.3698218565190848,0.3804760248115761,0.5846600535932477,5065.8544921875,11.696875,3.8125,0.271242486691743,-0.9693304818689322,-65.70988272143185,1500.0,1722.0,1275.0,1500.0,1500.0,1021.7000000000002,250.0,289.15,1636037152.9501846,1636037154.188564,f7560a09-20c2-4c31-aa04-cfcba6b5f613
-0.0445099198374033,0.0376146470478253,-0.1508089179954162,-0.3146060803921707,-0.162026400341601,0.1502551431355464,-0.2205244079395869,-0.2460821886743454,-12.757049941876922,3.930152162914569,-15.98334980150589,1.056892371301917,0.4022699992883038,0.7089501955083447,5237.410949707031,11.1275,8.418750000000001,0.213327688548245,-1.0105660681160182,-65.09800193218356,1500.0,2000.0,1350.0,1500.0,1500.0,1021.7000000000002,250.0,289.15,1636037156.1176498,1636037157.2558432,6a0110bc-19fe-4928-8183-7ed6f0243980
-0.0454412858690455,0.037477681445217,-0.1532469055598452,-0.3150717632824594,-0.1642178497626829,0.1507482193739542,-0.2221269054024451,-0.2503144257472337,-12.708573751265178,3.87749876487711,-16.008459512951173,1.0586008037590104,0.4015376263356237,0.7175393286573657,6705.595336914063,11.16525,8.137500000000001,0.2129562503213793,-1.022775871690849,-61.98790602946952,1500.0,2000.0,1350.0,1500.0,1500.0,1021.7000000000002,250.0,289.15,1636037157.3653831,1636037158.4805653,6a0110bc-19fe-4928-8183-7ed6f0243980
-0.0427430637206591,0.0384775302021223,-0.1470012736811752,-0.3173590891187449,-0.1582324525784241,0.1504605915315967,-0.215881273093591,-0.2371794239957111,-12.755416428860835,3.861253669479632,-16.16087065985367,1.0632695377221977,0.4076473072026574,0.69184094084144,6712.158203125,11.165,8.127500000000001,0.1673564733494527,-0.960848013909798,-59.58683669656888,1500.0,2000.0,1350.0,1500.0,1500.0,1021.7000000000002,250.0,289.15,1636037158.589774,1636037159.714568,6a0110bc-19fe-4928-8183-7ed6f0243980
-0.0417158218098581,0.0408333382914834,-0.1424677137552143,-0.2954856830673493,-0.1512335117855893,0.1262861654285018,-0.2164702270811353,-0.2438770429805635,-12.677748912880483,3.771524592197933,-16.389992248052156,0.9592388180753484,0.4155568044434878,0.67721176076215,6717.41845703125,11.201333333333334,8.08888888888889,0.1789807360569848,-0.9652848324610376,-56.06672339961411,1500.0,1890.0,1350.0,1500.0,1500.0,1021.7000000000002,250.0,289.15,1636037161.0741832,1636037162.0583537,0902cb86-b565-4caa-b14e-eec9d84ad6f5
-0.0418116977345222,0.041408593743387,-0.1442619623431601,-0.2958828820820284,-0.1534660503252074,0.1267244558505942,-0.2184014411254531,-0.2448358015893769,-12.65353352315879,3.794983551770201,-16.31435447539474,0.961210116023373,0.4168081516502058,0.6856280647140393,6717.41845703125,11.1985,8.092500000000001,0.171006193937093,-0.9975816116995594,-54.868301680642645,1500.0,1890.0,1350.0,1500.0,1500.0,1021.7000000000002,250.0,289.15,1636037162.167992,1636037163.4014857,0902cb86-b565-4caa-b14e-eec9d84ad6f5
-0.040606400516215,0.0400800275286538,-0.1452892038296236,-0.2975538644824729,-0.1543563262291066,0.1310251739024239,-0.2184425303787328,-0.2448494979179013,-12.673271132661874,3.802282396252497,-16.110987228737955,0.9746634482887,0.4103032156053532,0.688394023268402,6717.41845703125,11.198,8.09,0.175091966074343,-0.9691423715222792,-53.67014093181572,1500.0,1890.0,1350.0,1500.0,1500.0,1021.7000000000002,250.0,289.15,1636037163.5178254,1636037164.6244466,0902cb86-b565-4caa-b14e-eec9d84ad6f5
-0.0394284964584432,0.0415360312666696,-0.1389298323710769,-0.2930840196388676,-0.146590377635136,0.1235152927303857,-0.2124196175985012,-0.2398032091778409,-12.667446165785892,3.649575349281855,-16.341026744981615,0.9469754709986888,0.4176119484667345,0.6605303182496085,6717.41845703125,11.19725,8.09,0.1573642084160482,-0.9645692130274118,-51.581734607229805,1500.0,1861.0,1350.0,1500.0,1500.0,1021.7000000000002,250.0,289.15,1636037166.7672377,1636037167.9015338,12f54944-416d-4a71-8465-7aa1329000b7
-0.0405379177329986,0.0409976970211865,-0.1498227661044336,-0.291143872206684,-0.1553561760774553,0.123355102612829,-0.2224556234892255,-0.244739925955803,-12.697578707150944,3.5004769591878726,-16.263479312536088,0.9407054120848256,0.4141868813242344,0.7017084213914607,6716.833984375,11.196333333333332,8.091111111111111,0.2148021004216612,-0.9498403636495292,-51.0165710786758,1500.0,1861.0,1350.0,1500.0,1500.0,1021.7000000000002,250.0,289.15,1636037168.012124,1636037169.1342995,12f54944-416d-4a71-8465-7aa1329000b7
-0.0407844557576334,0.0433398085203063,-0.1414815601270233,-0.2908151546824977,-0.149028364515157,0.1202322874847102,-0.2161415076700057,-0.2436031106088319,-12.676220839396429,3.642960352837838,-16.283540962126143,0.934313952393228,0.4234885958370714,0.6729442168199142,6712.158203125,11.194444444444446,8.101111111111111,0.183568896362744,-0.9918446396629322,-50.51025029386761,1500.0,1861.0,1350.0,1500.0,1500.0,1021.7000000000002,250.0,289.15,1636037169.2424304,1636037170.3621264,12f54944-416d-4a71-8465-7aa1329000b7
-0.0420856289098882,0.0426001943530254,-0.1482476609969387,-0.2875964630559242,-0.1555068375861671,0.1164931268288251,-0.2241402992128699,-0.2443701183852086,-12.656217404414354,3.6754503374649,-16.553952181931734,0.9184964169029278,0.4221449879124462,0.7019376380584424,6706.90625,11.193666666666669,8.14,0.1796284730745039,-0.976924885904849,-49.68965011750486,1500.0,1831.0,1350.0,1500.0,1500.0,1021.7000000000002,250.0,289.15,1636037172.0922515,1636037173.1139154,ea103a87-aa64-4125-b967-5696847b7f82
-0.0421541116650404,0.0419427595730028,-0.1408378218527992,-0.2831313843913702,-0.1471656324035828,0.1135620633935167,-0.2168263356928167,-0.2448358010581891,-12.66306654209906,3.6296488636170254,-16.420504344515432,0.9019209641760424,0.4184641602399195,0.6702244879745178,6706.90625,11.192374999999998,8.07,0.203539790678832,-0.9812123163016836,-49.42033362409714,1500.0,1831.0,1350.0,1500.0,1500.0,1021.7000000000002,250.0,289.15,1636037173.2231748,1636037174.4620657,ea103a87-aa64-4125-b967-5696847b7f82
-0.0404283452382897,0.0416962215220047,-0.1327157625991035,-0.2836244603835539,-0.1381806897653789,0.1148495400690293,-0.2071839582125763,-0.2344127191329982,-12.68298292124644,3.5209347598893275,-16.266648573820195,0.9056246003056492,0.4168905958118583,0.6334002552874146,6706.90625,11.191333333333334,8.103333333333333,0.1398295269987786,-1.0101342142868357,-49.21163591334693,1500.0,1831.0,1350.0,1500.0,1500.0,1021.7000000000002,250.0,289.15,1636037174.5978022,1636037175.68717,ea103a87-aa64-4125-b967-5696847b7f82
-0.041880180491466,0.0395047721235278,-0.1338388798556833,-0.2465752649317442,-0.133359500311939,0.079457632665349,-0.2161141144867649,-0.2447399250485166,-12.681626382850736,3.403563419074421,-16.790203488068784,0.7416035835556417,0.4086672417822296,0.6404495703644258,6712.158203125,11.193,8.09,0.160611551487306,-0.9734784744281796,-48.84733411358596,1500.0,1722.0,1350.0,1500.0,1500.0,1021.7000000000002,250.0,289.15,1636037178.070646,1636037179.0530078,d7a047a1-75ea-4714-b49d-ce898c580c37
-0.0418527873846734,0.0401896000588175,-0.1332636255065618,-0.2485338724300574,-0.1335512532295343,0.0811697030661707,-0.2151964464918105,-0.2429456764064917,-12.645171823725589,3.42606562492437,-16.702590978682405,0.7500791029048551,0.4104792352292847,0.6388255650195629,6712.158203125,11.19288888888889,8.103333333333332,0.1507012745779644,-0.9706441712240031,-48.79918811012654,1500.0,1722.0,1350.0,1500.0,1500.0,1021.7000000000002,250.0,289.15,1636037179.1621687,1636037180.3984191,d7a047a1-75ea-4714-b49d-ce898c580c37
-0.0425787050460903,0.0398745792034215,-0.1304695279991838,-0.2370835486834916,-0.1292779271543783,0.0707603181903338,-0.2150594817018453,-0.2405898687173154,-12.65874165617791,3.4228837527332643,-16.715940819074035,0.7009677758147764,0.4082793757122309,0.6290367366433977,6712.158203125,11.193,8.13,0.1267396695576475,-0.9727070899387912,-48.74654101200408,1500.0,1722.0,1350.0,1500.0,1500.0,1021.7000000000002,250.0,289.15,1636037180.5071974,1636037181.6233723,d7a047a1-75ea-4714-b49d-ce898c580c37
-0.0355386736839418,0.0425864978065473,-0.1626016560264089,-0.4107833321392199,-0.1671900035280468,0.2334754298333388,-0.1904330657255457,-0.2156621287368915,-12.70534092491532,1.7743810981781631,-15.954357235571464,1.446004367761472,0.4313518394929039,0.6899344746927537,6950.3021240234375,10.67275,12.3025,0.1455807663934475,-1.0266285519499858,-48.478573907844265,1500.0,2000.0,1425.0,1500.0,1500.0,1021.7000000000002,250.0,289.15,1636037184.677475,1636037185.7261698,b8b754c3-320a-430e-b7c1-4c94c85e8419
-0.0368672399290179,0.0396280411183666,-0.1671215212645747,-0.4185629802145299,-0.1716550825014166,0.2460762627767999,-0.1917616324862464,-0.218675371943938,-12.74799430453736,1.7677342118294803,-15.615939096875644,1.4916324549670057,0.4182295200079767,0.7040927656817423,7734.200439453125,10.686,12.2275,0.1154081022450654,-1.0225823852382674,-47.00810504275316,1500.0,2000.0,1425.0,1500.0,1500.0,1021.7000000000002,250.0,289.15,1636037185.861287,1636037186.8919704,b8b754c3-320a-430e-b7c1-4c94c85e8419
-0.0348538457431157,0.0445588022547726,-0.1583420257502767,-0.404140500167887,-0.1624783867425971,0.2255999090601947,-0.1880224707671453,-0.2103752562766305,-12.687920410724274,1.750171852710941,-15.903775222292111,1.4133908668479975,0.4376293275744782,0.6746689177510815,7735.9443359375,10.68222222222222,12.22888888888889,0.130116732677002,-1.045606849173166,-45.93127439881813,1500.0,2000.0,1425.0,1500.0,1500.0,1021.7000000000002,250.0,289.15,1636037187.0053918,1636037187.976918,b8b754c3-320a-430e-b7c1-4c94c85e8419
-0.0369220261458341,0.0406963727311039,-0.1625742629076579,-0.3860884327442239,-0.1620127038367063,0.2124649097370579,-0.1939119917477015,-0.2160319355208887,-12.712581977194697,1.5787071084040658,-15.982642133210936,1.341781344721474,0.4215226073865552,0.6878218877982253,7735.9443359375,10.721125,12.17125,0.0671132753669333,-1.060521431375257,-43.72263037272069,1500.0,1890.0,1425.0,1500.0,1500.0,1021.7000000000002,250.0,289.15,1636037190.070795,1636037191.1363013,0dba0680-7959-47b0-b299-f435a18bb312
-0.0331280792856805,0.0471611484104085,-0.159259694888551,-0.3943474585942592,-0.1619442206579198,0.2125881790207846,-0.1911178930039251,-0.2181138124519178,-12.625390281103302,1.6291190938612623,-16.123254443478924,1.3612093922706627,0.4476264124525029,0.6797840754850227,7735.9443359375,10.717375,12.17,0.0363709878658776,-0.9902541527414582,-43.164386205250864,1500.0,1890.0,1425.0,1500.0,1500.0,1021.7000000000002,250.0,289.15,1636037191.2454484,1636037192.2732575,0dba0680-7959-47b0-b299-f435a18bb312
-0.026922942578201,0.0434511674628539,-0.1373434128037682,-0.3848104837051548,-0.1412737298699162,0.2067236698967471,-0.1737310031733953,-0.2037157503044842,-12.756090427173426,1.9898587650036133,-16.07761775147604,1.3299421334706785,0.4344536024932812,0.5964602119041587,7735.9443359375,10.715,12.167777777777776,0.0536813018581614,-1.0271421086561734,-42.64911578562772,1500.0,1890.0,1425.0,1500.0,1500.0,1021.7000000000002,250.0,289.15,1636037192.381829,1636037193.505715,0dba0680-7959-47b0-b299-f435a18bb312
-0.0332874574730586,0.0388510726407567,-0.1483833817295486,-0.3650380627798222,-0.1469041532482277,0.1923172731747844,-0.1883524335604937,-0.2142165190759446,-12.93333421409192,1.886591311478968,-16.274534911936527,1.251612400210754,0.4170641751199789,0.6392529986511911,7728.96875,10.70825,12.14875,0.0604061517483081,-0.9883024261861268,-41.42258081830501,1500.0,1861.0,1425.0,1500.0,1500.0,1021.7000000000002,250.0,289.15,1636037196.1450512,1636037197.199032,1c8ee448-800e-4ee5-b499-98b6092f24b6
-0.0332257418069871,0.0417218281219558,-0.159367483942777,-0.3692464259267966,-0.1529217635405668,0.1993632589908915,-0.1894522760610525,-0.2125196628698606,-12.65739578321892,1.0921709922140028,-15.462846516432744,1.271393752306031,0.4184925886501896,0.6659619757210049,7728.96875,10.701,12.15,0.0691160893804851,-1.013756882589587,-41.15709321510952,1500.0,1861.0,1425.0,1500.0,1500.0,1021.7000000000002,250.0,289.15,1636037197.3123047,1636037198.4269447,1c8ee448-800e-4ee5-b499-98b6092f24b6
-0.0343833987182853,0.041121561535301,-0.1502205617465034,-0.3792794571730994,-0.150949456842713,0.2035508317983828,-0.1855934164011242,-0.2088180170417546,-12.74611082912523,1.787074759228326,-16.221890580449646,1.3083322517036735,0.4254234477645798,0.643734757376075,7722.00537109375,10.701,12.15,0.050981185635423,-1.032515107797479,-40.974103340325975,1500.0,1861.0,1425.0,1500.0,1500.0,1021.7000000000002,250.0,289.15,1636037198.5626771,1636037199.6499512,1c8ee448-800e-4ee5-b499-98b6092f24b6
-0.0334115385052454,0.0427079803458455,-0.1560660149009591,-0.3711329785968041,-0.1549369420951417,0.1933605934302686,-0.1930395804409442,-0.2145348420031144,-12.720280221709132,1.6560811897979608,-16.432736868002504,1.2658769213107677,0.4316835874715572,0.6677734355391783,7722.00537109375,10.699,12.145,0.0473869336543627,-1.005982731038462,-40.52403314760986,1500.0,1831.0,1425.0,1500.0,1500.0,1021.7000000000002,250.0,289.15,1636037202.607715,1636037203.7459145,18b5ed4b-db41-434f-88ce-aad5d65c9cbe
-0.0324295547815668,0.0416140420981627,-0.1437414927455703,-0.3545863437305844,-0.1395640420340699,0.1791822729640902,-0.1822425223590238,-0.2101287179222394,-12.676806399363167,1.5025143060608732,-16.34405505445474,1.1963228732974918,0.4252284319070911,0.6148938220867963,7716.793090820312,10.695,12.1525,0.0415683303517359,-1.0277533720484957,-40.42528227258982,1500.0,1831.0,1425.0,1500.0,1500.0,1021.7000000000002,250.0,289.15,1636037203.8552482,1636037204.9752102,18b5ed4b-db41-434f-88ce-aad5d65c9cbe
-0.0254032201544019,0.0447094641792355,-0.1335923456236616,-0.3644204742287127,-0.132496620485231,0.1842499993726696,-0.1704360913194154,-0.1948022693407552,-12.552867365219411,1.543690311036179,-16.396405394980075,1.2307264835059832,0.4382798085238854,0.5749077499875662,7715.0556640625,10.69211111111111,12.14,0.0562065727234893,-0.9884241615607676,-40.45757635562303,1500.0,1831.0,1425.0,1500.0,1500.0,1021.7000000000002,250.0,289.15,1636037205.084615,1636037206.2033255,18b5ed4b-db41-434f-88ce-aad5d65c9cbe
-0.0342922868242705,0.0457914923968585,-0.1407967332031554,-0.3187287477338425,-0.1323459559222691,0.1397087913089667,-0.1874883058792975,-0.2147170662429622,-12.531912474593309,1.3261926129209245,-16.687019235453885,1.0257307750210551,0.4386794238891239,0.6090272218832316,7722.00537109375,10.693666666666669,12.131111111111112,0.0116041719758572,-0.9285864039200687,-40.401526684929046,1500.0,1722.0,1425.0,1500.0,1500.0,1021.7000000000002,250.0,289.15,1636037207.569301,1636037208.554203,7dc41e38-9702-426e-b339-33bc253d2278
-0.0385382201321984,0.039682827391931,-0.1488366138378824,-0.3174001794312224,-0.1385915867753689,0.1446395540832803,-0.1952542549601362,-0.225633224378301,-12.688036440989352,1.3887183252755595,-16.72378295275811,1.0337436416963033,0.4165268586762919,0.638636100955216,7722.00537109375,10.692444444444444,12.135555555555555,0.0729293663553768,-0.9974426674498618,-40.39693376216716,1500.0,1722.0,1425.0,1500.0,1500.0,1021.7000000000002,250.0,289.15,1636037208.6903026,1636037209.8937724,7dc41e38-9702-426e-b339-33bc253d2278
-0.0362371982030358,0.0383542611014245,-0.1475080468368719,-0.3123324522103038,-0.1359481503579412,0.1421878696435661,-0.1945557295287264,-0.2154566796791971,-12.743722956583946,1.3694237647814969,-16.58572471120435,1.0167350522983167,0.4101744072316814,0.6322774830985646,7722.00537109375,10.69375,12.1225,0.0565301031875401,-1.0087088302909433,-40.40511955415994,1500.0,1722.0,1425.0,1500.0,1500.0,1021.7000000000002,250.0,289.15,1636037210.0026217,1636037211.2069652,7dc41e38-9702-426e-b339-33bc253d2278
-0.0283342836686961,0.0431891463479452,-0.1733397585081137,-0.4663365878052763,-0.1662723334325637,0.2897134956976154,-0.1691212181030054,-0.1897619332706742,-12.833380174391246,-0.1838131409327301,-15.08347923667978,1.684251924224452,0.4329256452324045,0.6745065198713304,7848.087999131944,10.258666666666668,15.58888888888889,0.0523006790949302,-1.0684505828638164,-40.34375390928944,1500.0,2000.0,1500.0,1500.0,1500.0,1021.7000000000002,250.0,289.15,1636037213.1453314,1636037214.1903927,a4e78c80-686f-44d5-9710-65e1a0f87d41
-0.0276905453654295,0.0429973945468706,-0.1630810347192694,-0.478690887585961,-0.1709565565901072,0.2914118688185261,-0.1709428603708006,-0.1958705989730277,-12.794012544157107,1.2541765773764757,-16.470184329409786,1.725778860269343,0.4464139717185763,0.6668464639822176,8359.310791015625,10.27875,15.4575,0.0401243760842346,-1.0747118430670457,-39.70596901099957,1500.0,2000.0,1500.0,1500.0,1500.0,1021.7000000000002,250.0,289.15,1636037214.299195,1636037215.3068206,a4e78c80-686f-44d5-9710-65e1a0f87d41
-0.0329774171582977,0.0378337918162676,-0.1576298040234313,-0.4936886241675813,-0.1812015834195953,0.3012459965839975,-0.1749559521024665,-0.2014177056551439,-12.59781401666384,2.769170690807301,-17.767659748113108,1.791915127865714,0.4393759836396502,0.6760128728961119,8354.216796875,10.27288888888889,15.467777777777778,0.0006362051558911,-1.07476977664858,-39.159097061065935,1500.0,2000.0,1500.0,1500.0,1500.0,1021.7000000000002,250.0,289.15,1636037215.4166503,1636037216.5348177,a4e78c80-686f-44d5-9710-65e1a0f87d41
-0.035607156535988,0.0399019722741541,-0.193884599118576,-0.4404637829093684,-0.1725727517142137,0.2762634760412292,-0.1824342753923705,-0.2107313674010111,-12.73910938946671,-1.3391947444925494,-14.18400019673202,1.5871739007380217,0.4074499344713126,0.7316856120503429,8362.3671875,10.303,15.44,0.0282021012119805,-1.0280111316483844,-37.93699825417728,1500.0,1890.0,1500.0,1500.0,1500.0,1021.7000000000002,250.0,289.15,1636037219.606492,1636037220.6337864,00ec6729-ddda-4b41-8db5-cf2806b8a8cc
-0.0332376517575996,0.0374776814089819,-0.1653546637215852,-0.452790686505043,-0.1639028284540671,0.2736063444573546,-0.1726549299143608,-0.1998015114863978,-12.851054627595444,0.7218182178617462,-16.388444134800107,1.6236849984419357,0.4220489265314873,0.662628955809175,8362.3671875,10.310444444444446,15.381111111111112,0.0324593904160823,-1.025446016160091,-37.68625328228217,1500.0,1890.0,1500.0,1500.0,1500.0,1021.7000000000002,250.0,289.15,1636037220.7446263,1636037221.867519,00ec6729-ddda-4b41-8db5-cf2806b8a8cc
-0.0332114496629918,0.0433225389025745,-0.178661765516253,-0.4595008120741212,-0.1741740579432046,0.2792844603457754,-0.1791048194786815,-0.2031154839849445,-12.676959183379696,0.111463052594285,-15.715569164974108,1.647067054703774,0.4367470266999707,0.7059107290660817,8362.3671875,10.305,15.4,0.0506593029656263,-0.9970442278903102,-37.50658022325059,1500.0,1890.0,1500.0,1500.0,1500.0,1021.7000000000002,250.0,289.15,1636037221.9837768,1636037223.0866947,00ec6729-ddda-4b41-8db5-cf2806b8a8cc
-0.0397709104258061,0.0347931558701827,-0.1762845187891663,-0.4424771762334531,-0.1852009791784438,0.2568417573208457,-0.2000754433917747,-0.2281670877399121,-12.809831155048348,2.069696935714448,-17.95865060770964,1.570909448267369,0.4236654050782761,0.7426039695444823,8346.08203125,10.304555555555556,15.357777777777777,-0.0321509099359155,-0.9759306783517564,-37.096661487297865,1500.0,1861.0,1500.0,1500.0,1500.0,1021.7000000000002,250.0,289.15,1636037225.5720477,1636037226.683426,8e412167-0705-4533-977c-45465142843a
-0.0378533921673714,0.0311909608835524,-0.1722440333177366,-0.4382312418306639,-0.1719290122466037,0.2613753181622394,-0.1870774075999847,-0.2086220962194872,-12.90603851122051,1.2245674531770034,-17.18428745131346,1.5661929104411962,0.4036918016467427,0.7014861213355202,8354.216796875,10.295,15.422499999999998,0.0002446828558771,-1.0450804280546944,-37.04724487892536,1500.0,1861.0,1500.0,1500.0,1500.0,1021.7000000000002,250.0,289.15,1636037226.7924664,1636037227.7961662,8e412167-0705-4533-977c-45465142843a
-0.0371000813886755,0.0421756010541767,-0.1921451345478607,-0.3997849947800539,-0.1661901536154454,0.2345026712432738,-0.1896797540738962,-0.2087590617591959,-12.566256432215155,-1.4631968385709506,-14.499326829405607,1.4008717504494896,0.4126484862801404,0.7312960361515048,8354.216796875,10.227,15.16,0.0185204981615259,-1.0365210137456915,-37.02159922613925,1500.0,1861.0,1500.0,1500.0,1500.0,1021.7000000000002,250.0,289.15,1636037227.9040844,1636037229.137704,8e412167-0705-4533-977c-45465142843a
-0.0377164265639624,0.0378885782198598,-0.1914192171928771,-0.4024695199882757,-0.1653683603922415,0.2391321081596615,-0.1891592849945415,-0.2104026491095458,-12.719678436067534,-1.334783062092489,-14.785526961345909,1.4180949100823563,0.4005707315551923,0.7273402582225325,8354.216796875,10.303,15.43,0.0037462057641815,-0.9591239781137516,-36.92134912459638,1500.0,1831.0,1500.0,1500.0,1500.0,1021.7000000000002,250.0,289.15,1636037230.5725887,1636037231.5952332,704f385f-6f75-4303-95ef-d40789b99149
-0.0320597477361243,0.0313964093014599,-0.17114830930081,-0.4230554512259199,-0.1595747161878532,0.2510207204764687,-0.1826397231109374,-0.2082111997550314,-13.245276107733652,0.3701849432030915,-16.608024299916337,1.5030037323266825,0.399942501313796,0.6779313216968345,8350.1494140625,10.3055,15.425,-0.0105529445068755,-0.9572656330509792,-36.93544151240141,1500.0,1831.0,1500.0,1500.0,1500.0,1021.7000000000002,250.0,289.15,1636037231.7050898,1636037232.8237822,704f385f-6f75-4303-95ef-d40789b99149
-0.027512490149986,0.0331358721903549,-0.1719974954051143,-0.4092356205868165,-0.1499871238688737,0.2419946887342362,-0.176065373823387,-0.2019381750703957,-13.173643437350313,-0.6767340531733516,-15.805998563316294,1.444728351070098,0.3970781065495574,0.6586123406973957,8354.216796875,10.29622222222222,15.369999999999996,-0.0029877715183801,-0.9848068649172071,-36.911690098745126,1500.0,1831.0,1500.0,1500.0,1500.0,1021.7000000000002,250.0,289.15,1636037232.9342098,1636037234.063242,704f385f-6f75-4303-95ef-d40789b99149
-0.0390312962835878,0.0405868001020443,-0.1676967763863402,-0.3693786288703604,-0.1616292005582879,0.1857703175010605,-0.2014451000920586,-0.2289477917902493,-12.67890396128036,1.1673058187394882,-17.648308041351626,1.240870948083755,0.4332469819610996,0.7029840118797709,8354.216796875,10.302555555555555,15.404444444444444,-0.0008859509700876,-0.9953681635010128,-36.978145562639625,1500.0,1722.0,1500.0,1500.0,1500.0,1021.7000000000002,250.0,289.15,1636037236.0826576,1636037237.134845,4c8179cc-1a39-45d3-9651-66d32e2cc020
-0.0369845539130478,0.0425364755493903,-0.1646984198738956,-0.3599280012796364,-0.1516068907312633,0.1775106978080958,-0.1948117954564676,-0.2240533554365802,-12.734784509062496,0.4969118520073555,-17.26855521504189,1.1967297608495155,0.4366043551777468,0.6768922074875177,8346.08203125,10.298,15.395,-0.034294824218487,-0.9902159597110016,-36.96359384461291,1500.0,1722.0,1500.0,1500.0,1500.0,1021.7000000000002,250.0,289.15,1636037237.2592394,1636037238.3572404,4c8179cc-1a39-45d3-9651-66d32e2cc020
-0.0417158218389175,0.0297802153662786,-0.1806674178392484,-0.3551752942402464,-0.158383115043336,0.1860442490919084,-0.2051431709489677,-0.233193725382374,-13.06630038797948,0.0458756323481903,-17.304149691058917,1.2012271736464673,0.3898173260264095,0.7210000864957841,8346.08203125,10.303,15.39,-0.0228718205831866,-1.0180045843491985,-37.04874239790088,1500.0,1722.0,1500.0,1500.0,1500.0,1021.7000000000002,250.0,289.15,1636037238.467523,1636037239.5821812,4c8179cc-1a39-45d3-9651-66d32e2cc020
-0.05796530035503087,0.02508586888802793,-0.0733292669431865,-0.059465966881014284,-0.0967396642538566,-0.08644937953701594,-0.24583445890895692,-0.2677298994119748,-12.641928709157398,8.722615269638784,-17.83516039264535,-0.015157336759723798,0.34445707930147573,0.5466730119582492,8343.375651041666,12.168333333333333,0.0,-0.008258066118251257,-0.9548286428994596,-38.57687541965103,1500.0,1500.0,1000.0,1500.0,1500.0,1021.7000000000002,250.0,289.15,1636037242.636048,1636037243.7191093,e88cb595-e755-46dd-b3b1-1c11470a29f3
-0.05506996685032702,0.02875297361559749,-0.0666983455730323,-0.043715519373334476,-0.09133845563633348,-0.10424061451737858,-0.24631502923641527,-0.275064109455317,-12.620334038477424,8.965670285185983,-17.77112511848451,-0.08870327350228137,0.3559758367213635,0.5315494095109785,1828.6563720703125,12.1675,0.0,0.047937275813231206,-1.0090498861821944,-46.47670010362689,1500.0,1500.0,1000.0,1500.0,1500.0,1021.7000000000002,250.0,289.15,1636037243.8532782,1636037244.794059,e88cb595-e755-46dd-b3b1-1c11470a29f3
-0.05322093137065927,0.0315607681489339,-0.06506845501754081,-0.044235988615110355,-0.09083168292715427,-0.1070210160680437,-0.2465341741785918,-0.27362597058895616,-12.654492555413478,9.039097230262195,-17.83864455560198,-0.09323719969582445,0.36751561454625814,0.5291353882637536,-1.0,12.168750000000001,0.0,0.10664065648225152,-1.0667239768533556,-54.6242462149934,1500.0,1500.0,1000.0,1500.0,1500.0,1021.7000000000002,250.0,289.15,1636037244.9032657,1636037246.0232666,e88cb595-e755-46dd-b3b1-1c11470a29f3
