raw_voltage_G-,raw_voltage_G0,raw_voltage_G1,raw_voltage_G2,raw_voltage_G3,raw_voltage_G4,raw_voltage_G5,raw_voltage_G6,load_x,load_y,load_z,load_l,load_m,load_n,rpm,voltage,current,roll,pitch,yaw,aileron1_pwm,elevator_pwm,throttle_pwm,rudder_pwm,aileron2_pwm,pbaro,pdiff,Tt,sample_start_time,sample_end_time,uid
-0.0499080077948858,0.0691928846846358,0.0103919148138143,0.1603396453540895,-0.1071705825148403,-0.2571051794320843,-0.3541162748161393,-0.3778628248496938,-14.567923406780835,22.343380292259823,-7.432444676294377,-0.7993201047154495,0.4097936156182528,0.6159285809506622,4003.684868706597,12.04,0.3788888888888889,179.08931008398167,10.60468015086369,61.10236460420577,1525.0,1435.0,1200.0,1528.0,1475.0,1021.7000000000002,93.0,292.65,1637157920.8093493,1637157921.7973216,db2304ea-6f81-4f91-9457-db3010b7cb50
-0.0575868466902935,0.077029507599328,0.0179655639516697,0.1585119766324288,-0.1016349810796006,-0.2659805505305139,-0.3488436467104561,-0.3714068138104698,-14.51422766964476,22.32144659934956,-7.792182652331252,-0.8149400749618165,0.4426988016811294,0.5910294562807825,4034.886094835069,12.039333333333335,0.3755555555555555,179.1914350724517,10.662411660777051,59.973044430817886,1525.0,1435.0,1200.0,1528.0,1475.0,1021.7000000000002,93.0,292.65,1637157921.9055605,1637157923.031777,db2304ea-6f81-4f91-9457-db3010b7cb50
-0.0476858780643679,0.0762142884389227,0.0144417133033597,0.1541466095907158,-0.1054481032214331,-0.2616283315386791,-0.3514996838119376,-0.38491052782197,-14.540715564557525,22.336585003608945,-7.882259216072247,-0.7954156612263671,0.4409413888167101,0.6045193944134717,4053.750244140625,12.037444444444446,0.3788888888888889,179.3117420244923,10.750692424981898,59.00300199214499,1525.0,1435.0,1200.0,1528.0,1475.0,1021.7000000000002,93.0,292.65,1637157923.1397874,1637157924.2640054,db2304ea-6f81-4f91-9457-db3010b7cb50
0.0633778736396533,0.2902202693243187,0.0113172543295199,0.0594469614788369,-0.1552739952972242,-0.374843554607739,-0.4062497695565814,-0.4248086116002529,-14.79042264073968,21.895814322084544,-6.781300870920371,-0.8392338759636574,1.2470575353572615,0.7812189879155621,4069.788330078125,12.038888888888888,0.3722222222222222,179.61629864176336,10.898020933471413,57.26415573722516,1610.0,1435.0,1200.0,1528.0,1542.0,1021.7000000000002,93.0,292.65,1637157926.4021232,1637157927.5365553,64a250ed-5f22-4323-80f0-87058c228598
0.0645831708343391,0.2940279123764092,0.0166726088084633,0.0570500637061298,-0.1519731244232814,-0.3747065890399653,-0.4011820418485399,-0.4206311602460416,-14.698041034707536,21.94526318500728,-6.506353313933069,-0.8328344877488364,1.2588832532287035,0.7630795885528521,4066.784912109375,12.037,0.3899999999999999,179.77742280428396,10.962054336395234,56.7446424420351,1610.0,1435.0,1200.0,1528.0,1542.0,1021.7000000000002,93.0,292.65,1637157927.64545,1637157928.7642224,64a250ed-5f22-4323-80f0-87058c228598
0.0622136661869953,0.2951784232290264,0.0152070770149828,0.0577622847454803,-0.1543974154942621,-0.3755831689281131,-0.4047020581148086,-0.4172618055310584,-14.75748181372006,22.07863538381483,-6.398026375541132,-0.8356123622829545,1.262480642080282,0.7735929304873522,4071.9365234375,12.038222222222224,0.39,179.91343312013632,11.018852007667077,56.31245690993318,1610.0,1435.0,1200.0,1528.0,1542.0,1021.7000000000002,93.0,292.65,1637157928.8721497,1637157929.9917145,64a250ed-5f22-4323-80f0-87058c228598
0.2135880280057741,0.5685343171295563,0.0182477130444377,-0.0758202540212835,-0.2146485822444765,-0.5133979725455442,-0.4654873985498302,-0.4950993663356657,-14.91608152710687,21.627702175850487,-5.616873623601493,-0.8467643499254498,2.298562618145945,0.971138582234713,4068.071533203125,12.032666666666666,0.3966666666666666,60.00537475179918,11.10694029334656,55.884015839316255,1695.0,1435.0,1200.0,1528.0,1609.0,1021.7000000000002,93.0,292.65,1637157930.9029114,1637157932.0414698,871b73df-bdab-48ee-98b0-84a4c52983be
0.2171491330840856,0.568493227458711,0.0157686359288963,-0.0757243781230758,-0.21710026646508,-0.5135075450647352,-0.4661996197315827,-0.4871690570265496,-14.741407954443304,21.531048336986448,-5.637666813766477,-0.8479064063351219,2.2971858959796063,0.9789995347700854,4066.3560384114585,12.029222222222224,0.4099999999999999,-179.90048308147,11.132978966601158,55.63010507474085,1695.0,1435.0,1200.0,1528.0,1609.0,1021.7000000000002,93.0,292.65,1637157932.150622,1637157933.2792568,871b73df-bdab-48ee-98b0-84a4c52983be
0.2129853794668772,0.5634665909352213,0.0164671604175653,-0.0714784447759853,-0.2154566792655289,-0.5108230188780924,-0.4648299635485275,-0.5008519223285414,-14.736892129294604,21.588278563358585,-5.393284808489824,-0.8509963059241068,2.2756575274399213,0.9736119994013462,4063.7855631510415,12.031,0.4099999999999999,-179.8479908009687,11.16800673798592,55.427923886209406,1695.0,1435.0,1200.0,1528.0,1609.0,1021.7000000000002,93.0,292.65,1637157933.388038,1637157934.4086363,871b73df-bdab-48ee-98b0-84a4c52983be
0.3322687013708537,0.7645594447106934,0.0182203199399626,-0.1787635952850843,-0.2630385293507839,-0.598946702680101,-0.5083576376397553,-0.5331484163080455,-14.819959778318731,21.43460421260352,-4.114002676738223,-0.8077822947221017,3.032445312774487,1.1232054473642064,4054.60107421875,12.028444444444444,0.4055555555555556,-179.81686638783088,11.233068368971049,54.97234647402,1779.0,1435.0,1200.0,1528.0,1677.0,1021.7000000000002,93.0,292.65,1637157936.339619,1637157937.364642,90e24bf8-4450-4b9d-9bb0-b825d783f0eb
0.3178462261689972,0.7649566448741577,0.0198365138691748,-0.1781746432137295,-0.26201128732884,-0.6006998627932071,-0.5085356929810043,-0.5364355913002349,-14.894622149875024,21.53793751293577,-4.226045966122537,-0.8123403700452027,3.0354882315779963,1.1196573442019055,4052.683837890625,12.018888888888888,0.4499999999999999,-179.78933010073703,11.25921841225461,54.81864862440197,1779.0,1435.0,1200.0,1528.0,1677.0,1021.7000000000002,93.0,292.65,1637157937.4734857,1637157938.594038,90e24bf8-4450-4b9d-9bb0-b825d783f0eb
0.3079436149639031,0.7593821460539196,0.0180011749958268,-0.1769967390886819,-0.2627645981494529,-0.5957827966884183,-0.508480906763055,-0.5464477783860422,-14.872111872739104,21.544389918620084,-4.156419747485906,-0.8039743130121341,3.013542787629273,1.1225542542586258,4052.2582194010415,12.018666666666668,0.4422222222222222,-179.7965351914015,11.284443628951806,54.70120352162361,1779.0,1435.0,1200.0,1528.0,1677.0,1021.7000000000002,93.0,292.65,1637157938.7023869,1637157939.7316558,90e24bf8-4450-4b9d-9bb0-b825d783f0eb
0.4163841920968636,0.9435811199962026,0.0181890917437023,-0.3388900822286229,-0.3221123429065012,-0.6049540154795919,-0.5394603393037483,-0.5691632533028708,-14.990635878216285,22.19406486397468,-1.123292620147007,-0.4546515814215996,3.698312753201139,1.2720370198884554,4052.683837890625,12.015666666666666,0.4588888888888889,-179.85989657960192,11.275564952213225,54.50520479265588,1864.0,1435.0,1200.0,1528.0,1744.0,1021.7000000000002,93.0,292.65,1637157941.3016956,1637157942.3957224,6589491e-9f6d-4237-b2cf-be7464eaff68
0.4192692349637889,0.948517907190178,0.00571536176189,-0.3595307994365118,-0.3373286740687578,-0.5905781028150523,-0.549529504198773,-0.5777992098808903,-15.06650794420854,22.195753671117306,-1.1803400025342716,-0.3764437840613523,3.719621894818181,1.3243837848373108,4052.683837890625,12.009,0.4911111111111111,-179.87990448041063,11.317783110382978,54.362316855764256,1864.0,1435.0,1200.0,1528.0,1744.0,1021.7000000000002,93.0,292.65,1637157942.5041611,1637157943.6257613,6589491e-9f6d-4237-b2cf-be7464eaff68
0.4254041970014466,0.9626861742058722,0.0056452353443993,-0.3564567434116352,-0.3406783050670814,-0.6086619489753662,-0.5576055454054996,-0.5893859545770663,-15.132070094307096,22.33988092783287,-1.407806817904958,-0.4231322348936458,3.774861092357564,1.3418557470735692,4058.447970920138,12.006333333333334,0.49,-179.93928007377548,11.317885752948005,54.23061335363853,1864.0,1435.0,1200.0,1528.0,1744.0,1021.7000000000002,93.0,292.65,1637157943.7348173,1637157944.8528776,6589491e-9f6d-4237-b2cf-be7464eaff68
-0.224537498694429,-0.2358919469585138,0.019398223996203,0.3129428585646581,-0.0311146851054673,-0.1029120483108352,-0.2760639582775739,-0.3046349845468459,-14.25189798209002,23.185033903515247,-7.707900010463747,-0.790919964366282,-0.7524588856463627,0.3528410520407831,4113.407063802083,12.013333333333334,0.4611111111111111,-179.71317956277065,11.31128617752622,53.9799829771395,1440.0,1435.0,1200.0,1528.0,1408.0,1021.7000000000002,93.0,292.65,1637157946.9904106,1637157948.0147858,ab79d40c-7fbe-4691-8ec8-71b40b2c374e
-0.2179905430064316,-0.2468491950994208,0.014070262626224,0.3164217842292239,-0.0335663691772244,-0.0942147330966491,-0.2814877962216204,-0.2967594618817693,-14.578840013898477,23.35331474050604,-7.584084292369346,-0.7785181200088421,-0.793101829001977,0.3697469243103592,4114.94287109375,12.043,0.35,-179.70608830859234,11.329880229176716,54.00999406944263,1440.0,1435.0,1200.0,1528.0,1408.0,1021.7000000000002,93.0,292.65,1637157948.1234558,1637157949.3557332,ab79d40c-7fbe-4691-8ec8-71b40b2c374e
-0.2190862678029755,-0.2442468486573222,0.010536550473654,0.3147781972902588,-0.0389491168551114,-0.0954748165803747,-0.2848434535329741,-0.3023750524733384,-14.376988300054924,23.37353462587866,-7.643697914281724,-0.7775919773471219,-0.7842630652732065,0.3870222553415631,4119.557942708333,12.041333333333334,0.35,-179.73351379483964,11.313421465415496,54.07970070338205,1440.0,1435.0,1200.0,1528.0,1408.0,1021.7000000000002,93.0,292.65,1637157949.4641054,1637157950.4718173,ab79d40c-7fbe-4691-8ec8-71b40b2c374e
-0.3436701819197923,-0.4565435436642898,0.0195488861298153,0.3963548943138934,0.0130293241601542,0.047982941931273,-0.2202641718516607,-0.2513142742480858,-14.194165000071893,24.07461341458122,-5.869209206405124,-0.6337690987659944,-1.6069865874881668,0.1893640239905412,4031.1175944010415,12.039888888888887,0.3611111111111111,-179.73428181166636,11.311565551236018,54.1165370519408,1355.0,1435.0,1200.0,1528.0,1341.0,1021.7000000000002,93.0,292.65,1637157952.325925,1637157953.4583046,357335bb-6397-4b37-b747-661992d1e268
-0.3462040457135839,-0.4585843313563878,0.0118377235575337,0.3998886061570572,0.008194438920467,0.0484897145878704,-0.228742342539207,-0.2523826064418169,-14.441411091130902,24.01510926032048,-5.67925791364478,-0.6414741037879114,-1.6154992998885034,0.2184350588871818,3978.094482421875,12.031666666666666,0.4,-179.76225067740765,11.306987996399776,54.10260005093939,1355.0,1435.0,1200.0,1528.0,1341.0,1021.7000000000002,93.0,292.65,1637157953.5668268,1637157954.686486,357335bb-6397-4b37-b747-661992d1e268
-0.3241525826782027,-0.4495582971655834,0.0186586097867489,0.3958070320172839,0.011262468058242,0.0435041672536966,-0.2237704912590794,-0.2539988003266152,-14.28543950668059,24.076338998364307,-5.621255926578599,-0.6426369711581633,-1.5823282072001692,0.1991019316737226,3963.767930772569,12.033333333333337,0.4,-179.80159104920708,11.302623315792658,54.1233122201425,1355.0,1435.0,1200.0,1528.0,1341.0,1021.7000000000002,93.0,292.65,1637157954.7950697,1637157955.916324,357335bb-6397-4b37-b747-661992d1e268
-0.4402035457883669,-0.6505553529624342,0.026862848471292,0.4962164944899987,0.0580088228156651,0.1611439071916935,-0.1732712748108821,-0.1982127113295041,-14.108879752716428,25.299643371979432,-3.5415345202075983,-0.5958455707784288,-2.36769323907842,0.0314627063337985,3961.3247341579854,12.030444444444443,0.4088888888888889,-179.82268722682355,11.30075032614026,54.06450239411392,1271.0,1435.0,1200.0,1528.0,1273.0,1021.7000000000002,93.0,292.65,1637157956.8199856,1637157957.958233,c2613a50-7f31-4683-aff2-2b6c78c32f02
-0.4331772096421079,-0.65539023986888,0.0257945169101866,0.4812735503830643,0.053762889673236,0.1789494327149967,-0.1705182662949122,-0.1944872466083714,-14.016888023796,25.50212747103825,-3.636276960271356,-0.5208062570537334,-2.383862895820132,0.0339139367434578,3969.478759765625,12.021,0.4311111111111111,-179.83945761796565,11.296445884007072,53.99885213363157,1271.0,1435.0,1200.0,1528.0,1273.0,1021.7000000000002,93.0,292.65,1637157958.066488,1637157959.2063162,c2613a50-7f31-4683-aff2-2b6c78c32f02
-0.4413540569490708,-0.6558422264458857,0.0276435523473217,0.4982435849893059,0.0603509343605162,0.163458625580436,-0.1712304873651141,-0.1953775235728811,-14.14485244628306,25.28205922521714,-3.6721859292894,-0.5953333369395771,-2.386310046990324,0.0234786834128691,3975.615234375,12.021,0.44,-179.87661536487036,11.283460461166278,53.9806257738314,1271.0,1435.0,1200.0,1528.0,1273.0,1021.7000000000002,93.0,292.65,1637157959.315398,1637157960.4157612,c2613a50-7f31-4683-aff2-2b6c78c32f02
-0.5602878803708056,-0.9039554975963784,0.0349668282996898,0.5581797197878163,0.1051414197943571,0.3565707774702737,-0.1001360297100438,-0.1330340705106025,-13.864499260957778,27.00304476708902,-2.654432617334052,-0.2845091528054924,-3.3347762358948825,-0.1773043887589255,4016.650336371528,12.01988888888889,0.4488888888888888,-179.86081637841022,11.29066194700867,53.97070682133671,1186.0,1435.0,1200.0,1528.0,1206.0,1021.7000000000002,93.0,292.65,1637157961.3249328,1637157962.4675455,d07276f4-4b0b-4bfa-b0ba-a55e551c4be3
-0.5900028472633139,-0.9319649756731124,0.0332454448036501,0.5753825957648547,0.1081382267681521,0.3647295429630688,-0.0987209011878849,-0.1119106886088285,-13.813442813493609,27.273699922289627,-3.148510980816288,-0.3033253569572494,-3.438033747859509,-0.1850650986752111,4112.781195746527,12.010666666666667,0.48,-179.8680078086963,11.272535858180058,53.9265807636588,1186.0,1435.0,1200.0,1528.0,1206.0,1021.7000000000002,93.0,292.65,1637157962.5761597,1637157963.7044127,d07276f4-4b0b-4bfa-b0ba-a55e551c4be3
-0.5985374495156325,-0.9362355651148324,0.0299308776150789,0.5812951256024362,0.106272207673991,0.3618697017228384,-0.1009643975859437,-0.1227517891389707,-13.67638042552234,27.209004084713293,-3.3971343280110142,-0.3236535789368723,-3.453756788256086,-0.1755042904971,4159.997178819444,12.010666666666667,0.4777777777777777,-179.88033098777882,11.296211950028,53.9182782892677,1186.0,1435.0,1200.0,1528.0,1206.0,1021.7000000000002,93.0,292.65,1637157963.817067,1637157964.923518,d07276f4-4b0b-4bfa-b0ba-a55e551c4be3
-0.067794070465917,0.0595291408172659,-0.0006124484038145,0.1662390268488413,-0.1159511728647892,-0.252533267638218,-0.363968485094079,-0.381883587959102,-14.575634287612068,22.41755094837165,-7.437465169511493,-0.8024149070948688,0.3722250726369971,0.6557551669633025,4181.191731770833,12.020666666666664,0.4266666666666666,179.78269115686376,11.251521453106175,53.93934259266801,1525.0,1435.0,1200.0,1528.0,1475.0,1021.7000000000002,93.0,292.65,1637157966.8592336,1637157967.9919548,7d3a6311-742d-4018-ab6f-005300380d9b
-0.0576312235468294,0.0751021278668598,0.0137689383501537,0.1579663057430168,-0.1070621057769367,-0.2596006927352672,-0.3542165336464446,-0.377582868196721,-14.594611304347264,22.55916996231252,-7.264724717915262,-0.7979622330789314,0.43116921680128,0.6121438601236867,4138.7861328125,12.042,0.35,179.7655929166415,11.24576388822707,53.98206201083186,1525.0,1435.0,1200.0,1528.0,1475.0,1021.7000000000002,93.0,292.65,1637157968.0997264,1637157969.3155806,7d3a6311-742d-4018-ab6f-005300380d9b
-0.0609047012093877,0.0676648965985948,0.0064138862778148,0.1619520041705704,-0.1126092123541059,-0.2548890759633754,-0.3597910339780989,-0.3863212744451423,-14.565140891520912,22.5750455842862,-7.159308091015678,-0.7965947126358097,0.4011754618770224,0.6369596819087973,4106.624728732639,12.041,0.3444444444444444,179.74516609756373,11.246489026643951,54.01678479529744,1525.0,1435.0,1200.0,1528.0,1475.0,1021.7000000000002,93.0,292.65,1637157969.4242852,1637157970.543103,7d3a6311-742d-4018-ab6f-005300380d9b
-0.0478929700368113,0.0633778737836523,-0.0139118070617229,-0.1108149630969669,-0.1583968109139603,0.0139469935732301,-0.3022517819912627,-0.3282752487824141,-14.45310958569155,21.814774309989968,-5.09518923116756,0.417144693288195,0.3982913740994913,0.6454978258893226,4094.6311848958335,12.041,0.3488888888888888,179.714698900406,11.306176721708356,54.0813782737332,1525.0,1535.0,1200.0,1528.0,1475.0,1021.7000000000002,93.0,292.65,1637157971.3613255,1637157972.3868325,9d6e69e1-4459-44c4-a9dd-601a1e881301
-0.0480025425238692,0.0702124564939798,-0.0036393879014837,-0.1124174605322038,-0.1517950691492081,0.0103721917457937,-0.2950747842430835,-0.3257687778032809,-14.412502072053163,22.007860711407,-4.796699914870939,0.4145859905541819,0.4218440943277788,0.6134681401038247,4086.173828125,12.04288888888889,0.3400000000000001,179.71548057761103,11.298443524611825,54.09251831226949,1525.0,1535.0,1200.0,1528.0,1475.0,1021.7000000000002,93.0,292.65,1637157972.4953754,1637157973.6110325,9d6e69e1-4459-44c4-a9dd-601a1e881301
-0.0549439586335029,0.0691139924930944,-0.0087262898583642,-0.1178341758603625,-0.1557287210870049,0.0146257950493284,-0.2984315373130456,-0.3295545069222111,-14.508899548823427,21.89651716376656,-5.084576033462352,0.435277371066766,0.4213004457066582,0.6299310766822431,4085.5224609375,12.042,0.35,179.70637517653748,11.29138869810911,54.093677547153625,1525.0,1535.0,1200.0,1528.0,1475.0,1021.7000000000002,93.0,292.65,1637157973.7191074,1637157974.956453,9d6e69e1-4459-44c4-a9dd-601a1e881301
-0.0449892994977121,0.0605289896060951,-0.0254306131206893,-0.394155706046617,-0.2012670431155797,0.294411415961075,-0.2394530525683692,-0.2647232070886505,-14.53282824003515,21.63229050305493,-2.5139322104395148,1.685121067947119,0.3994449238971215,0.6310087302056574,4081.63134765625,12.041,0.3533333333333333,179.63812792635073,11.368298620301962,54.0764563635263,1525.0,1636.0,1200.0,1528.0,1475.0,1021.7000000000002,93.0,292.65,1637157976.8917236,1637157978.0238094,4799e216-470d-405b-a763-f19dee739755
-0.0365933087973723,0.0635559290515927,-0.0225269426204255,-0.3957992933575127,-0.2005000357527805,0.292343235765489,-0.2375218375938593,-0.2743107992987044,-14.429240510412804,21.714254186390693,-2.584353797233009,1.684909969573484,0.4110765914971625,0.6235477046890866,4070.863471137153,12.039222222222223,0.37,179.6329551964193,11.391963518228762,54.048193040740784,1525.0,1636.0,1200.0,1528.0,1475.0,1021.7000000000002,93.0,292.65,1637157978.1326458,1637157979.2610655,4799e216-470d-405b-a763-f19dee739755
-0.0378807853452038,0.056200877098738,-0.0245266402331345,-0.3866089006766482,-0.1994864903376232,0.2907681316326529,-0.2392886938496176,-0.2570805262127275,-14.484366608515666,21.696266561162123,-2.6436409260461806,1.6603832125300837,0.3831476948637393,0.6264844863560305,4075.80859375,12.039888888888887,0.36,179.60913756787355,11.388646607613076,54.00489343595244,1525.0,1636.0,1200.0,1528.0,1475.0,1021.7000000000002,93.0,292.65,1637157979.369687,1637157980.5808425,4799e216-470d-405b-a763-f19dee739755
-0.0218749865489527,0.0494303942567031,-0.0464630491493096,-0.6594290826110968,-0.2532394622770791,0.5611381761908324,-0.1902046056025978,-0.2259822128275108,-14.393733976215918,21.714873742472736,-0.7622467073816478,2.882732881990529,0.3726377108434156,0.659212377783518,4078.610432942709,12.033333333333331,0.3833333333333333,179.5751763495004,11.467213609589562,53.83517196254157,1525.0,1737.0,1200.0,1528.0,1475.0,1021.7000000000002,93.0,292.65,1637157981.3981657,1637157982.4507449,0bdc8731-a414-4f30-8967-9b20cb2b463a
-0.0239650814343055,0.0477774935596698,-0.0477149146371352,-0.6562531235302548,-0.2526154469776753,0.56458970862783,-0.1919533823697416,-0.2134706786237238,-14.611608171138224,21.72359260499449,-0.0969640163504426,2.8833165920976023,0.3616137622891135,0.6631689878308856,4082.4957139756943,12.032444444444444,0.38,179.56513900706014,11.466538559226592,53.75396822295424,1525.0,1737.0,1200.0,1528.0,1475.0,1021.7000000000002,93.0,292.65,1637157982.5591996,1637157983.5058815,0bdc8731-a414-4f30-8967-9b20cb2b463a
-0.0247594818253087,0.0561050011890794,-0.0424691325196088,-0.6644710616059148,-0.2521497639183804,0.5618230040568392,-0.1864336687477951,-0.2019518716574782,-14.267362982374,21.74797898041652,-0.366622777884545,2.89619025665332,0.3941452472256405,0.648311210150506,4081.63134765625,12.034555555555556,0.3777777777777778,179.55715679265012,11.459820309267975,53.68955232943689,1525.0,1737.0,1200.0,1528.0,1475.0,1021.7000000000002,93.0,292.65,1637157983.6157591,1637157984.6910431,0bdc8731-a414-4f30-8967-9b20cb2b463a
-0.0156238770369819,0.0633504806818029,-0.0322104098220938,-0.6896453457417175,-0.2520675845502995,0.5819569432618161,-0.1791881886108477,-0.2033352247428564,-14.422267554233583,22.45858967021601,0.2686492313481595,3.003465754685056,0.4205480702416501,0.6250514828414059,4074.312147352431,12.033333333333331,0.3888888888888889,179.53597865276365,11.478712422784756,53.49575292138192,1525.0,1837.0,1200.0,1528.0,1475.0,1021.7000000000002,93.0,292.65,1637157986.2990634,1637157987.450124,53714137-32c4-4bb8-81bb-693892968328
-0.0369768124693864,0.054077910523994,-0.0401544140602376,-0.6920559413713886,-0.2586282369520493,0.5969957631267957,-0.1834889083985969,-0.2126899746263671,-14.468658101310204,22.52483758094858,0.7514176135768995,3.0427949153603167,0.3816141833019089,0.6504173419920154,4031.7435709635415,12.026333333333334,0.42,179.5423641207277,11.46213033616352,53.42055898935429,1525.0,1837.0,1200.0,1528.0,1475.0,1021.7000000000002,93.0,292.65,1637157987.5585544,1637157988.6757338,53714137-32c4-4bb8-81bb-693892968328
-0.0157745391773789,0.0629669770337723,-0.030484643394995,-0.6719082957148633,-0.2469724641515712,0.5676577374592262,-0.17980453379942,-0.2013081336252569,-14.403553129000231,22.318313520605983,0.5100644304813281,2.9305270181730028,0.4147608003690695,0.617157149645142,4004.50843641493,12.025222222222222,0.4277777777777778,179.5425128670696,11.465534047099908,53.343752373772624,1525.0,1837.0,1200.0,1528.0,1475.0,1021.7000000000002,93.0,292.65,1637157988.7903547,1637157989.9057355,53714137-32c4-4bb8-81bb-693892968328
-0.083490327340067,0.0624465078080901,0.0225073428295614,0.5152821023181984,-0.0612608115929771,-0.5905917992681444,-0.4402720283359478,-0.4752119584028326,-14.68336190398946,23.55166937465244,-9.61391865421674,-2.3411649754892463,0.3617295264003284,0.6581930332407595,4031.982259114584,12.032888888888888,0.3833333333333333,179.5163623494674,11.14366935101709,53.20852601185499,1525.0,1334.0,1200.0,1528.0,1475.0,1021.7000000000002,93.0,292.65,1637157991.937589,1637157993.0729573,ee711721-9f6a-4911-993c-1c8fb5028440
-0.0668353113150453,0.0667746203013628,0.0265478276402433,0.5224043121283445,-0.0566587677409682,-0.6036857135143929,-0.4401350627450262,-0.4717604248290461,-14.76777789596538,23.52785765364476,-9.923120690553697,-2.386703152569098,0.3806793500960848,0.6463230344558369,4081.644476996528,12.041777777777778,0.3499999999999999,179.55382214251534,11.131868112223646,53.38970626596343,1525.0,1334.0,1200.0,1528.0,1475.0,1021.7000000000002,93.0,292.65,1637157993.1804342,1637157994.2089596,ee711721-9f6a-4911-993c-1c8fb5028440
-0.0796415941742199,0.0679388277808304,0.0271367796745914,0.5187336347685872,-0.0560698156904158,-0.600946400851024,-0.4394091449628565,-0.4758693933553774,-14.873442690224934,23.51445536790948,-9.846310910460204,-2.3723678669881028,0.385601990345963,0.6438331261920985,4105.963541666667,12.042222222222222,0.3400000000000001,179.58040675658484,11.130010680224355,53.50740636247081,1525.0,1334.0,1200.0,1528.0,1475.0,1021.7000000000002,93.0,292.65,1637157994.3167193,1637157995.4409478,ee711721-9f6a-4911-993c-1c8fb5028440
-0.0807510154746651,0.0708151050454429,0.0483253559102683,0.7623406024589382,-0.0161580427430325,-0.8398007838065631,-0.4917574043833586,-0.523341677442934,-14.983817359088242,24.66113260711577,-11.643493994485285,-3.45030872248901,0.3844688297218971,0.6345236791546761,4116.91943359375,12.037,0.3533333333333333,179.59773874105872,11.044320834444669,53.75871140987786,1525.0,1234.0,1200.0,1528.0,1475.0,1021.7000000000002,93.0,292.65,1637157996.346365,1637157997.485768,a91cd546-96f0-4612-8215-f8023fcdfe2e
-0.0914754213646145,0.0660487026864237,0.0434082913693443,0.765312755373996,-0.0199382930073394,-0.8378010851671439,-0.4966744701315222,-0.5160824998775188,-15.040330391241117,24.723291991815604,-11.672355427876605,-3.452385404252618,0.3665711093025859,0.6527194569731666,4112.749945746527,12.030888888888889,0.39,179.6044004522292,11.061817881823472,53.8740706487747,1525.0,1234.0,1200.0,1528.0,1475.0,1021.7000000000002,93.0,292.65,1637157997.594844,1637157998.5417376,a91cd546-96f0-4612-8215-f8023fcdfe2e
-0.0827507131219468,0.0696782906929967,0.0455312579519795,0.762956947516229,-0.018842568291431,-0.8399377492481804,-0.4931544536970136,-0.5184109158189987,-14.837495755956994,24.602165557435445,-11.756768757061584,-3.452481254772947,0.3799193915261629,0.6438124764698648,4111.214789496527,12.032666666666664,0.38,179.61801377815493,11.051549451316266,53.95001628106598,1525.0,1234.0,1200.0,1528.0,1475.0,1021.7000000000002,93.0,292.65,1637157998.6498947,1637157999.828975,a91cd546-96f0-4612-8215-f8023fcdfe2e
-0.0978717146153363,0.0744583896210202,0.0597893754391947,0.892526380158909,0.0021405598901561,-0.969110064560943,-0.522122682771213,-0.5453109632792642,-14.941200202801838,25.52459687745141,-12.55925718271734,-4.02838084574564,0.3906608600267809,0.6371734237953248,4109.02490234375,12.031777777777778,0.39,179.59825176415637,11.001616404751502,54.11609157182493,1525.0,1133.0,1200.0,1528.0,1475.0,1021.7000000000002,93.0,292.65,1637158000.8528006,1637158001.8791544,161bbcca-3635-403a-8864-fb8241a4a9f7
-0.1076373613565683,0.0772250944297226,0.0613918727767137,0.9104825670193278,0.0037567538253265,-0.9885044034422596,-0.5276697905268809,-0.5634726064092928,-14.94746659513512,25.70778633954949,-12.59772631318584,-4.111182380851052,0.3993168937425574,0.6410440176458992,4107.93115234375,12.029444444444444,0.3955555555555555,179.58173636674326,10.998553539227444,54.18610480536709,1525.0,1133.0,1200.0,1528.0,1475.0,1021.7000000000002,93.0,292.65,1637158001.9869602,1637158003.111222,161bbcca-3635-403a-8864-fb8241a4a9f7
-0.0888938938510522,0.0798696259399932,0.0588185633402441,0.8946679738720938,0.0001885262779337,-0.9750899856152472,-0.5268770334883217,-0.5492298237991393,-15.051223532278277,25.61841773722996,-12.397956031489247,-4.046105498282045,0.4099817670776748,0.6487102614127745,4107.05615234375,12.029777777777776,0.3911111111111111,179.601727571534,10.986833219202918,54.27657445547345,1525.0,1133.0,1200.0,1528.0,1475.0,1021.7000000000002,93.0,292.65,1637158003.24182,1637158004.24358,161bbcca-3635-403a-8864-fb8241a4a9f7
-0.0989263496394915,0.0805259650452828,0.0621725766337635,0.9162077280092848,-0.000790503682942,-0.9981878762542792,-0.5351070239022934,-0.5506115333471998,-14.9180825891997,26.29035067950315,-12.797755433468952,-4.141973329142464,0.4126165282515199,0.6567113318389981,4100.943196614583,12.02588888888889,0.4022222222222222,179.56270290625616,10.974142063678864,54.45972521915744,1525.0,1033.0,1200.0,1528.0,1475.0,1021.7000000000002,93.0,292.65,1637158006.3815534,1637158007.4066503,a715702e-e05f-4508-bb22-f3c53ae9e170
-0.0888319854323611,0.0776222946324609,0.0641585776285101,0.9158653140901438,0.0041950437292888,-0.9933803813050116,-0.5313815588830172,-0.5578844082861211,-15.14473256560026,26.142271929399897,-12.53878172668196,-4.131353394428426,0.4012004432097365,0.6418226150030747,4104.652235243056,12.023444444444443,0.4177777777777777,179.55321653240895,10.987786410047088,54.469383106643846,1525.0,1033.0,1200.0,1528.0,1475.0,1021.7000000000002,93.0,292.65,1637158007.5147088,1637158008.749954,a715702e-e05f-4508-bb22-f3c53ae9e170
-0.0895907747905906,0.0765824519178047,0.062289819184733,0.9217805833597374,0.0018058160134674,-0.999717508991942,-0.5352527552741533,-0.5548969139264012,-15.049346644059815,26.24912797661827,-12.833874046484992,-4.158320879336666,0.3983957251228815,0.6526686046268969,4105.0888671875,12.021666666666668,0.4166666666666667,179.5429879446719,10.977912612691927,54.44660139012221,1525.0,1033.0,1200.0,1528.0,1475.0,1021.7000000000002,93.0,292.65,1637158008.8622322,1637158009.9802542,a715702e-e05f-4508-bb22-f3c53ae9e170
-0.0639864269936096,0.0594606580401465,-0.0008178967799797,0.1634038393363589,-0.116800359513974,-0.2443290280309945,-0.3628042774022697,-0.3886633863915683,-14.57856269756264,22.46449564401825,-6.649179765641776,-0.7771582415796324,0.3653392375919318,0.6565916015039958,4094.413330078125,12.03411111111111,0.3788888888888889,179.51778454663452,11.171096260220493,54.442460398210414,1525.0,1435.0,1200.0,1528.0,1475.0,1021.7000000000002,93.0,292.65,1637158011.909177,1637158013.0509508,c2ed82e9-c04f-4fab-a2ba-77f37de335cf
-0.0657395865784866,0.0669800686941056,0.0055646996268789,0.1577471608034401,-0.1131844678193703,-0.2439318278074345,-0.3572160805092866,-0.3921834018660752,-14.537714475712583,22.49927424682131,-6.240616716464626,-0.7628715472497767,0.3907330722412118,0.6364608288345285,4071.294976128472,12.038555555555556,0.3400000000000001,179.49685077573835,11.185304286922715,54.369006267146375,1525.0,1435.0,1200.0,1528.0,1475.0,1021.7000000000002,93.0,292.65,1637158013.159489,1637158014.278798,c2ed82e9-c04f-4fab-a2ba-77f37de335cf
-0.0506459783774004,0.0667198340828647,0.0043046162189469,0.1573088709730151,-0.1132118609395175,-0.2430552479066573,-0.3602841101681606,-0.3801030348077314,-14.836517978666128,22.540753105882025,-6.225202891848016,-0.759848809087166,0.3917100633728909,0.6423444164581059,4039.9545084635415,12.042,0.3400000000000001,179.49178429319403,11.171502656476106,54.34688859679406,1525.0,1435.0,1200.0,1528.0,1475.0,1021.7000000000002,93.0,292.65,1637158014.3869426,1637158015.510868,c2ed82e9-c04f-4fab-a2ba-77f37de335cf
-0.023458308755124,0.0906340251845827,0.1212732262568266,0.1418317601863592,-0.010980743459466,-0.2578064433354266,-0.2392749972954647,-0.2730644120856416,-13.743043247994157,22.480126251763707,-6.106162658045388,-0.7520923886489143,0.4819281453627845,0.1750850408658228,4016.6005859375,12.039,0.3400000000000001,179.45593946042976,11.164867981471083,54.27120099387143,1525.0,1435.0,1200.0,1439.0,1475.0,1021.7000000000002,93.0,292.65,1637158016.3060637,1637158017.3495867,ff38a2b4-f096-465e-b07e-ac9909ee2cff
-0.0151560026252328,0.0900335680667934,0.1181323315067496,0.1425757572112524,-0.0125262631579685,-0.2598006625564657,-0.2422602995575004,-0.2587619154654839,-13.818025771848925,22.374308483876423,-6.397638350056587,-0.7591940220798439,0.4824976031344615,0.185235673976959,4010.96240234375,12.041444444444444,0.3344444444444444,179.44730306567928,11.169344316698382,54.22832030735217,1525.0,1435.0,1200.0,1439.0,1475.0,1021.7000000000002,93.0,292.65,1637158017.4573605,1637158018.580841,ff38a2b4-f096-465e-b07e-ac9909ee2cff
-0.0306490022324714,0.0854156364090172,0.1164520377345421,0.1521589650673372,-0.0145144556438801,-0.267667966745696,-0.2480681889446733,-0.2710784109606026,-13.839335008778423,22.64864060603162,-6.936474822142565,-0.7968519808827254,0.4688223001589966,0.1971410682383066,4011.588704427084,12.041333333333332,0.3400000000000001,179.4603335487958,11.16731745806218,54.24102407975344,1525.0,1435.0,1200.0,1439.0,1475.0,1021.7000000000002,93.0,292.65,1637158018.689109,1637158019.6978548,ff38a2b4-f096-465e-b07e-ac9909ee2cff
0.024224343338497,0.1193420115283746,0.2689873175898835,0.1406166015592387,0.1209987472090558,-0.2989180391305062,-0.0959941900815423,-0.1090508465679425,-12.78812059189378,22.601378736783268,-6.996494542104821,-0.8332368009261149,0.6002487838013171,-0.4072023870400501,4079.261664496528,12.041333333333334,0.34,179.39880568693252,11.16939345611491,54.124833075597685,1525.0,1435.0,1200.0,1351.0,1475.0,1021.7000000000002,93.0,292.65,1637158020.3310995,1637158021.450948,58e1be2a-baa8-48b0-b05a-0b8800099c3a
0.0208226660280528,0.1153289199231296,0.2575128893094877,0.1436123127668975,0.1113843111247685,-0.2983482622177433,-0.1056924498263498,-0.1245663089148613,-12.694348415586148,22.496176486102783,-7.162978158809,-0.8399621109347976,0.5849110561266678,-0.3652433874594231,4105.090983072917,12.038666666666668,0.3400000000000001,179.39762330529624,11.16611278344732,54.11359665550311,1525.0,1435.0,1200.0,1351.0,1475.0,1021.7000000000002,93.0,292.65,1637158021.5643282,1637158022.681761,58e1be2a-baa8-48b0-b05a-0b8800099c3a
0.0172423855574933,0.1165018931865431,0.2649375193794857,0.1426677980937291,0.1183295619237734,-0.2986024704028756,-0.0985713346936439,-0.128760744110333,-12.73020817430274,22.5117596091394,-7.103403151136393,-0.8379383118483286,0.5896234500009805,-0.3947764084279651,4114.94287109375,12.041,0.33,179.37669560567932,11.169181245931949,54.13329947452887,1525.0,1435.0,1200.0,1351.0,1475.0,1021.7000000000002,93.0,292.65,1637158022.7900894,1637158023.740303,58e1be2a-baa8-48b0-b05a-0b8800099c3a
0.0552695110337731,0.131737396762637,0.3818502399221639,0.1448450030026986,0.2256820887688997,-0.3196053243739004,0.0175902782330899,-0.0172263747918871,-12.131906897862526,22.5910450163791,-6.788941584778584,-0.8833474078207613,0.6468890844026939,-0.8630567502614085,4118.89794921875,12.039555555555555,0.3322222222222222,179.34241564514494,11.167446188155289,54.05920406459276,1525.0,1435.0,1200.0,1262.0,1475.0,1021.7000000000002,93.0,292.65,1637158024.299049,1637158025.442731,0d6fc0f3-ca7c-4f71-a4a0-4374af979007
0.0635833220755297,0.1416810980555419,0.3916569751021163,0.1367914267626059,0.2297225733462942,-0.324248458454125,0.0261095377394418,0.0140017793696584,-11.82603552292578,22.70287022459173,-7.050457896412472,-0.874272361796992,0.6859520988565994,-0.8931255694410926,4110.777506510417,12.039444444444444,0.3400000000000001,179.3280540340501,11.15036559258838,54.03416003763604,1525.0,1435.0,1200.0,1262.0,1475.0,1021.7000000000002,93.0,292.65,1637158025.5601127,1637158026.5665195,0d6fc0f3-ca7c-4f71-a4a0-4374af979007
0.0712807879534781,0.1405990699599282,0.3946017349735466,0.1339973288646144,0.2310922291435979,-0.3216872016477818,0.0286570976719749,0.0061810442035097,-11.818617737938956,22.84933080887269,-7.183407400726878,-0.861114000174115,0.6835528416792274,-0.9030301652162226,4110.557888454861,12.039777777777775,0.3400000000000001,179.30345928175882,11.163022407439106,54.01123298986708,1525.0,1435.0,1200.0,1262.0,1475.0,1021.7000000000002,93.0,292.65,1637158026.6788266,1637158027.7979715,0d6fc0f3-ca7c-4f71-a4a0-4374af979007
0.0936609645043589,0.1510495438686916,0.4936415417218935,0.1505564677672654,0.3228180766483136,-0.3524496773105599,0.1228209373339765,0.0897026588934785,-11.280857013285322,23.060000879711698,-7.194764116666275,-0.960997787573928,0.7232863727763755,-1.2953521990448322,4122.201443142361,12.036555555555555,0.3511111111111111,179.2878970751899,11.133890607127878,53.96377759442374,1525.0,1435.0,1200.0,1173.0,1475.0,1021.7000000000002,93.0,292.65,1637158028.9120538,1637158030.1413813,a78b19b2-666b-4f54-8fbc-58ac3a773b27
0.1007420851945158,0.1548297939351664,0.4931210725431511,0.1441190853750176,0.3209964344853283,-0.3452863759662254,0.1241221103571823,0.0994956975994776,-11.230806107481762,23.01830279520529,-6.489762365768068,-0.9305444973076548,0.7316208255751477,-1.292566767565276,4120.22119140625,12.033,0.3633333333333333,179.24839277885033,11.12366628825906,53.8873534694356,1525.0,1435.0,1200.0,1173.0,1475.0,1021.7000000000002,93.0,292.65,1637158030.249777,1637158031.4880068,a78b19b2-666b-4f54-8fbc-58ac3a773b27
0.1041936178992643,0.1523370203596166,0.4820131645186528,0.1385445862171991,0.3126963205318818,-0.335890535166242,0.1161644099727881,0.0887986857687556,-11.41380888941021,22.824019775916977,-6.301219244678742,-0.8987591734810696,0.7218744679632945,-1.2549231621957184,4083.386962890625,12.034444444444444,0.36,179.2467064810353,11.121884367795596,53.87153247458813,1525.0,1435.0,1200.0,1173.0,1475.0,1021.7000000000002,93.0,292.65,1637158031.5972178,1637158032.716819,a78b19b2-666b-4f54-8fbc-58ac3a773b27
-0.1102534042819605,0.0367791569817057,-0.1367151570186678,0.1732653611912621,-0.2418636471676658,-0.2208120342639083,-0.5048102280357759,-0.531559616016557,-15.63235777375418,22.89900339957412,-6.244243967111487,-0.7509098701228069,0.2743174280189223,1.2113593161064624,4018.065375434028,12.03711111111111,0.3555555555555555,179.2548920833006,11.13057862942659,53.78179365472296,1525.0,1435.0,1200.0,1617.0,1475.0,1021.7000000000002,93.0,292.65,1637158034.3072965,1637158035.3736432,abcaacc0-4093-494b-a406-d777f220e83b
-0.103377731452888,0.0445040160665339,-0.1253881022956813,0.169444021480215,-0.2333443867329755,-0.2260989064437389,-0.494962399872666,-0.5328196988111208,-15.546986586539044,22.91186118528329,-6.339078664832051,-0.7534930676710573,0.3047154091583603,1.1711164159359135,4016.6005859375,12.040555555555557,0.3355555555555555,179.24518410776025,11.1162106624613,53.758551279887314,1525.0,1435.0,1200.0,1617.0,1475.0,1021.7000000000002,93.0,292.65,1637158035.482127,1637158036.6050522,abcaacc0-4093-494b-a406-d777f220e83b
-0.1163894628731923,0.0362997774341194,-0.1357837909750827,0.1787165913046415,-0.2414664469238106,-0.2274685624973623,-0.5063579395665324,-0.5256563970109375,-15.597839570315964,23.01655371454068,-6.547491921462016,-0.7773699502761858,0.2743527049776288,1.2112903540169428,4016.6005859375,12.041,0.3400000000000001,179.24602042647862,11.110142798293651,53.73447789870266,1525.0,1435.0,1200.0,1617.0,1475.0,1021.7000000000002,93.0,292.65,1637158036.7162387,1637158037.8151238,abcaacc0-4093-494b-a406-d777f220e83b
-0.1734531651819128,0.0013982064177118,-0.2842966868569066,0.2224409352892495,-0.3713542187242955,-0.2304527689641483,-0.6669106934259547,-0.6823341206802351,-16.79166985540397,23.406276270547536,-7.297234807768064,-0.888239158074808,0.1437534643981072,1.813342547351681,4082.0636935763887,12.040444444444445,0.3322222222222222,179.2738041182024,11.108724111084792,53.7297901122023,1525.0,1435.0,1200.0,1706.0,1475.0,1021.7000000000002,93.0,292.65,1637158039.857329,1637158040.9082692,2d66bb23-06f7-4daf-96d5-fd7624b7ecad
-0.1507453649211896,0.0074860528848463,-0.2793396276986846,0.2215599726879229,-0.3690663451494977,-0.2362381959859256,-0.6627951500101201,-0.678757673320318,-16.563111332675376,23.41366064002393,-7.35337029442404,-0.8988506667372033,0.1658892780982811,1.7984162439524556,4085.5224609375,12.039444444444444,0.3400000000000001,179.2786672128915,11.106992752993936,53.69044480748844,1525.0,1435.0,1200.0,1706.0,1475.0,1021.7000000000002,93.0,292.65,1637158041.0173378,1637158042.140788,2d66bb23-06f7-4daf-96d5-fd7624b7ecad
-0.1684172141082048,7.018807251935544e-05,-0.2886094598074491,0.2247945517817063,-0.3754697613966228,-0.232819534617786,-0.6695798797392137,-0.6934579218729577,-16.553550669192294,23.31414664195672,-7.537468405572043,-0.8996106959118254,0.138651673595351,1.8283526543439448,4087.470703125,12.038111111111112,0.3488888888888888,179.2892054358709,11.109601126346972,53.6845044401853,1525.0,1435.0,1200.0,1706.0,1475.0,1021.7000000000002,93.0,292.65,1637158042.2548058,1637158043.3657348,2d66bb23-06f7-4daf-96d5-fd7624b7ecad
-0.2187241308287606,-0.0252410527496856,-0.422699887784674,0.2805976156653453,-0.4953727489526869,-0.2526214735048922,-0.8245241825023801,-0.8433531260498502,-17.703665221702913,24.100521530373808,-7.689232836724492,-1.0720533013296654,0.0378466105176038,2.3911380720528586,4087.470703125,12.037333333333333,0.3466666666666667,179.30480103447576,11.096373990700553,53.68827736079183,1525.0,1435.0,1200.0,1795.0,1475.0,1021.7000000000002,93.0,292.65,1637158044.362984,1637158045.5054176,f38f66d4-58e7-4c6f-b7b9-f1e470eb3543
-0.2085673097829288,-0.0160210771421323,-0.4161112938704854,0.2778111879701983,-0.489812492619636,-0.2592171890714486,-0.8195024738617915,-0.8440056314250439,-17.733588127968613,23.980020765773,-7.661078614260167,-1.0810705773010565,0.0731480885526626,2.368593405380187,4087.470703125,12.036,0.3622222222222222,179.30929074549016,11.093819215359751,53.702449244409685,1525.0,1435.0,1200.0,1795.0,1475.0,1021.7000000000002,93.0,292.65,1637158045.6136732,1637158046.7319753,f38f66d4-58e7-4c6f-b7b9-f1e470eb3543
-0.2187164607160987,-0.02096553491677,-0.4228500020974091,0.2774002912255061,-0.4954006899454833,-0.2550123450630343,-0.8236251399656118,-0.8388831147401324,-17.643113906683944,23.9151466321468,-7.847236020607258,-1.0714445822871237,0.0552352115841932,2.3904855864051124,4081.63134765625,12.036444444444443,0.36,179.32014771063086,11.095526762652254,53.7005819465816,1525.0,1435.0,1200.0,1795.0,1475.0,1021.7000000000002,93.0,292.65,1637158046.840231,1637158047.9867277,f38f66d4-58e7-4c6f-b7b9-f1e470eb3543
-0.2455891117059697,-0.0354154046307278,-0.5173288861743454,0.3322550048716114,-0.5814972817536123,-0.2883497730598757,-0.9404842402934483,-0.9650284896621844,-18.38758318873352,24.7477854321162,-8.237878324975233,-1.2697188007618658,-0.0029582876416215,2.80023904852615,4099.19970703125,12.029333333333332,0.3877777777777778,179.33349997154835,11.077926503525994,53.73696067246596,1525.0,1435.0,1200.0,1883.0,1475.0,1021.7000000000002,93.0,292.65,1637158049.8932953,1637158051.1464918,b1616785-29be-4b37-a452-9ae6114f308f
-0.2532317924291721,-0.0340183556253641,-0.5064538156276216,0.3299813762915556,-0.5720877430209699,-0.2866240064310216,-0.9274040191115992,-0.9525646141484914,-18.177313591178105,24.6977705274727,-8.00401224195936,-1.2603589486555289,-0.000310984581421,2.75462207924446,4103.1240234375,12.023555555555554,0.4111111111111111,179.3325285668664,11.077614496690156,53.72851855865181,1525.0,1435.0,1200.0,1883.0,1475.0,1021.7000000000002,93.0,292.65,1637158051.2552044,1637158052.373767,b1616785-29be-4b37-a452-9ae6114f308f
-0.2382066657294098,-0.0328404515356473,-0.4887852504971526,0.3193117578459458,-0.5539671905775948,-0.2756941512623329,-0.9036952629731646,-0.9327456807557752,-18.1500059304878,24.41367996053574,-7.520591608593013,-1.2126427476545203,0.0020579833554529,2.672967304951744,4097.023464626736,12.023222222222223,0.4044444444444445,179.34519932668664,11.071671947521033,53.70771304353005,1525.0,1435.0,1200.0,1883.0,1475.0,1021.7000000000002,93.0,292.65,1637158052.4825585,1637158053.610699,b1616785-29be-4b37-a452-9ae6114f308f
-0.0812577881319046,0.0386144958512671,-0.0328678446582238,0.1223963440025531,-0.114129530421311,-0.1968430542747772,-0.3496692754350425,-0.3732821477261927,-15.187288040492424,18.89443402408644,-8.196085518500842,-0.6037633013384692,0.3081286087145677,0.6739158023216628,7160.7568359375,11.812,8.31,178.13054276980864,10.906799623829649,45.98289317401555,1525.0,1435.0,1350.0,1528.0,1475.0,1021.7000000000002,93.0,292.65,1637158057.8005276,1637158058.9372473,be4af882-5c83-4c98-a6aa-43bc0ffc39f3
-0.0675612289694401,0.0344507420145447,-0.0308681470312868,0.1246836692597814,-0.1103766731341307,-0.1957062398262101,-0.3452041965580754,-0.3708167662463377,-15.115893302509642,18.768635583608223,-8.288946720488761,-0.6070815986545033,0.2926727303818845,0.6592079724787051,7164.748372395833,11.81,8.333333333333334,177.8513595463943,10.822993107849854,42.77509103576953,1525.0,1435.0,1350.0,1528.0,1475.0,1021.7000000000002,93.0,292.65,1637158059.0504324,1637158060.1586423,be4af882-5c83-4c98-a6aa-43bc0ffc39f3
-0.0876447676156695,0.0330997134640219,-0.0357468613478833,0.1267973221208997,-0.1145995963357675,-0.196450236955881,-0.3514470890294669,-0.381373527929859,-15.22365034671322,18.83004512210054,-8.349156053198856,-0.6134210185703926,0.2883333846498496,0.6801680973274046,7172.74169921875,11.809333333333331,8.366666666666667,177.74341979021085,10.777317356140252,40.05373193457217,1525.0,1435.0,1350.0,1528.0,1475.0,1021.7000000000002,93.0,292.65,1637158060.267639,1637158061.3847282,be4af882-5c83-4c98-a6aa-43bc0ffc39f3
0.042107118141691,0.2626217053852366,-0.0376890334278709,0.0168506640150679,-0.1696005967564979,-0.3119215538813032,-0.4083864331635451,-0.4412033966205586,-15.431833445859,18.53338454309253,-7.409337081715773,-0.6269060495941265,1.1557329119063864,0.8669081978817276,7178.7490234375,11.807111111111112,8.37,177.78351300063883,10.768194974457534,36.27922710361542,1610.0,1435.0,1350.0,1528.0,1542.0,1021.7000000000002,93.0,292.65,1637158062.385926,1637158063.6406505,321e0da6-dcb0-4e17-b6b6-859c63e2a2b7
0.0408744278828344,0.2651692651428546,-0.0372370469606832,0.0184531613997318,-0.169381451788156,-0.3121954850562505,-0.4074961566548827,-0.4353549645159455,-15.341552866077745,18.47922205824951,-6.878637069904847,-0.6313429531580826,1.1597756785793087,0.8658822192342441,7178.7490234375,11.803333333333333,8.366666666666667,177.91263089670875,10.814749354112864,34.509420360097835,1610.0,1435.0,1350.0,1528.0,1542.0,1021.7000000000002,93.0,292.65,1637158063.7496643,1637158064.9630268,321e0da6-dcb0-4e17-b6b6-859c63e2a2b7
0.0490238802713804,0.2644296510205907,-0.0354838874452641,0.0155220978110509,-0.1669160710761239,-0.3128940097160067,-0.406044321218525,-0.4291504221799783,-15.48788691878302,18.44907005271309,-7.450819804522555,-0.6265783257157092,1.1635801398025276,0.8570552613610444,7184.7666015625,11.804,8.385555555555555,178.05065080599692,10.861963605933006,33.174564995841074,1610.0,1435.0,1350.0,1528.0,1542.0,1021.7000000000002,93.0,292.65,1637158065.0710905,1637158066.190759,321e0da6-dcb0-4e17-b6b6-859c63e2a2b7
0.1866332018281359,0.548249715782978,-0.0361550188113735,-0.1265386133725411,-0.2346455599559282,-0.4504622703158592,-0.471500189202606,-0.4864157462087782,-15.522166103562652,18.02399057842594,-6.320356935542986,-0.617946790341382,2.235742258561584,1.078256870754721,7196.83154296875,11.803999999999998,8.399999999999999,178.19989499282116,10.938034837814024,31.72105141131836,1695.0,1435.0,1350.0,1528.0,1609.0,1021.7000000000002,93.0,292.65,1637158066.802192,1637158067.8256853,421ee547-4885-469f-af27-9c780467570e
0.1932212462451512,0.5435517966252722,-0.0452632305865052,-0.1239362670496268,-0.2429593720088181,-0.4493665454228103,-0.481882183167604,-0.5196162137757776,-15.62997686912371,18.15817858555363,-6.554242074261491,-0.6210103373920753,2.2200626407379094,1.1157718524974027,7196.83154296875,11.797666666666666,8.396666666666667,178.37513487962644,10.998431354732292,30.77022988387977,1695.0,1435.0,1350.0,1528.0,1609.0,1021.7000000000002,93.0,292.65,1637158067.9344387,1637158069.2638562,421ee547-4885-469f-af27-9c780467570e
0.2070547698425989,0.5508383651104397,-0.0411679594464395,-0.1296614288931369,-0.2399324321944206,-0.4560504674843575,-0.4772116555472368,-0.4992768181227702,-15.497799462711257,17.94669943101513,-7.202939608038245,-0.6243503153726102,2.2531664952086743,1.0995126854329376,7202.87890625,11.795555555555556,8.51,178.55077547086302,11.052356646866928,30.12716453788344,1695.0,1435.0,1350.0,1528.0,1609.0,1021.7000000000002,93.0,292.65,1637158069.3724625,1637158070.497783,421ee547-4885-469f-af27-9c780467570e
0.3026430471182776,0.7560401860768233,-0.0470985694967258,-0.2450412492157378,-0.2974031995566412,-0.5353261689068342,-0.5307241239170574,-0.5513648452681686,-15.837793545615384,18.025117633923045,-5.223009891829844,-0.5418557882606548,3.021487499246702,1.2884047218688737,7202.87890625,11.792333333333334,8.462222222222222,178.88563080729224,11.19647961476972,28.8053104387118,1779.0,1435.0,1350.0,1528.0,1677.0,1021.7000000000002,93.0,292.65,1637158072.3034976,1637158073.4771595,be192cdd-403c-413c-aac6-ac250c1dc2b9
0.304766013561547,0.7549718546073784,-0.0478929699245989,-0.2461780637891377,-0.2999370632766194,-0.54009257269748,-0.532655339228528,-0.5559257995196899,-15.707104864141805,18.14027307704384,-6.210196328593429,-0.5493699132074797,3.025396591234493,1.2942009866618631,7208.9375,11.785777777777776,8.491111111111113,178.99464214426547,11.22033822445048,28.47552556910392,1779.0,1435.0,1350.0,1528.0,1677.0,1021.7000000000002,93.0,292.65,1637158073.5853555,1637158074.5833256,be192cdd-403c-413c-aac6-ac250c1dc2b9
0.2990271558942503,0.7553827513279078,-0.0540016353008694,-0.2488214999539419,-0.3046075904431385,-0.5335867055874012,-0.5374217429697206,-0.5528303766502743,-15.850226728824486,18.04430802878011,-5.61445096337912,-0.5297048300886754,3.0226071882490806,1.3164816244098871,7215.00537109375,11.789,8.53,179.08594811309024,11.276960777261102,28.16011521205929,1779.0,1435.0,1350.0,1528.0,1677.0,1021.7000000000002,93.0,292.65,1637158074.6945727,1637158075.8217402,be192cdd-403c-413c-aac6-ac250c1dc2b9
0.4135440739275783,0.9458558442647385,-0.0475806884617565,-0.4071975718278338,-0.3607695164302631,-0.5534374076397455,-0.5664546206732561,-0.5899381999171338,-15.860169970028345,18.86543158863693,-2.736204932636812,-0.2108375408597298,3.7314781111281854,1.4509345343721278,7212.986002604167,11.783333333333331,8.530000000000001,179.3292531117044,11.35588617444154,27.489868179623503,1864.0,1435.0,1350.0,1528.0,1744.0,1021.7000000000002,93.0,292.65,1637158077.856164,1637158078.9986105,a3d9ada3-00bb-4d7b-9d69-7188d8151f13
0.412899787895912,0.9416351130962932,-0.0506969295367067,-0.4176376388312052,-0.3660947393289888,-0.544864455325633,-0.5666518511982508,-0.5904247015586868,-15.694974013868576,18.96271544415056,-3.48640964066678,-0.167569432102362,3.7222171246056406,1.4611315267458482,7215.00537109375,11.773777777777775,8.618888888888888,179.42304526938702,11.380603775274167,27.3121176291158,1864.0,1435.0,1350.0,1528.0,1744.0,1021.7000000000002,93.0,292.65,1637158079.1074097,1637158080.171631,a3d9ada3-00bb-4d7b-9d69-7188d8151f13
0.4081339337214038,0.9404232416860046,-0.0529743934276859,-0.4187958206096686,-0.3663790800213788,-0.5358329424863928,-0.566910442277971,-0.5921395114578444,-15.86457019999471,18.867977406469805,-2.5312162578929467,-0.1453363819559081,3.710402986471939,1.466102125620136,7215.00537109375,11.772444444444444,8.586666666666666,179.51144764890458,11.384597728391334,27.15534714300865,1864.0,1435.0,1350.0,1528.0,1744.0,1021.7000000000002,93.0,292.65,1637158080.2796032,1637158081.3430388,a3d9ada3-00bb-4d7b-9d69-7188d8151f13
-0.2357275883590398,-0.2633809433586252,-0.0189795338607712,0.2596906419972586,-0.0343881626972202,-0.0309092367187483,-0.2637918401888766,-0.2958828824302757,-14.997266063949638,19.656947188629708,-8.325736944569407,-0.5347688343432598,-0.8407442216846158,0.3884021161236075,7208.9375,11.8,8.495555555555557,179.94333720614244,11.40227719873922,26.919340770705045,1440.0,1435.0,1350.0,1528.0,1408.0,1021.7000000000002,93.0,292.65,1637158082.4691591,1637158083.70924,875d40d9-a5d6-4369-a6da-2d03772aaa4c
-0.2291532396103188,-0.2623947910043582,-0.0182536162372594,0.2607041872672491,-0.035223652789105,-0.0337307279134951,-0.2638466264212152,-0.2886921883511504,-14.85614319251528,19.73777286318392,-8.455859104412964,-0.5427731671509809,-0.836968513412221,0.3886387859492383,7204.225260416667,11.809333333333337,8.437777777777777,99.9922452056762,11.40232491519967,26.82962604622945,1440.0,1435.0,1350.0,1528.0,1408.0,1021.7000000000002,93.0,292.65,1637158083.8174083,1637158084.9380882,875d40d9-a5d6-4369-a6da-2d03772aaa4c
-0.2375355343586565,-0.2608470796973567,-0.0200478654827346,0.2605124354273474,-0.0360865360306903,-0.0341964109967022,-0.2659422001879565,-0.2861446278836771,-14.961487545127858,19.66673717504624,-8.34520579452667,-0.5439827087259225,-0.8314901128707016,0.3955406170721235,7209.611707899306,11.804666666666668,8.435555555555554,-179.9830479259769,11.391467570604028,26.710556117338527,1440.0,1435.0,1350.0,1528.0,1408.0,1021.7000000000002,93.0,292.65,1637158085.046348,1637158086.2067778,875d40d9-a5d6-4369-a6da-2d03772aaa4c
-0.3847187753838161,-0.5281902598354865,-0.026019565192111,0.3818776330049649,0.0158097255776218,0.115863085654823,-0.2095808550523199,-0.2456028087591435,-14.83636323387646,20.470717472817068,-8.180434992751687,-0.4754275530101786,-1.8518431327126323,0.2214550880141648,7216.35595703125,11.804555555555556,8.43222222222222,-179.84720457030426,11.392500921307208,26.639162047219155,1355.0,1435.0,1350.0,1528.0,1341.0,1021.7000000000002,93.0,292.65,1637158087.796502,1637158088.9216833,70294fb1-c610-4d52-9884-d9add62c5479
-0.3777198326106532,-0.5310117516926551,-0.0141583451425283,0.3882191391379139,0.0263697723743431,0.111370614525871,-0.1990892901016472,-0.2177850953268356,-14.703450604049811,20.64782084893991,-8.298656431761659,-0.498014910740174,-1.8623442053965984,0.1755337446086146,7225.820475260417,11.795333333333334,8.492222222222223,-179.79094050756132,11.391793048090726,26.60670328073596,1355.0,1435.0,1350.0,1528.0,1341.0,1021.7000000000002,93.0,292.65,1637158089.03154,1637158090.4689505,70294fb1-c610-4d52-9884-d9add62c5479
-0.3722822978588647,-0.5383120194582985,-0.0163224014402339,0.3909721472010032,0.0245344335098398,0.1134661879419318,-0.2008424497669626,-0.2318377658405573,-14.66170228885962,20.78095743059569,-8.673906765676284,-0.4987799682734286,-1.8871681840517207,0.1820656170955713,7234.628255208333,11.798333333333334,8.425555555555555,-179.81531517597938,11.369552718924565,26.60059348679591,1355.0,1435.0,1350.0,1528.0,1341.0,1021.7000000000002,93.0,292.65,1637158090.577521,1637158091.6936157,70294fb1-c610-4d52-9884-d9add62c5479
-0.4978523747550873,-0.7560462888015679,-0.0027491115939229,0.4883135808798546,0.0811149170477968,0.2469802362793839,-0.1360029359573765,-0.1640808840478824,-14.434351661187534,21.76720341706288,-6.991767265547075,-0.4107381118701163,-2.7314295809123177,-0.0291842299247866,7239.38037109375,11.796222222222225,8.469999999999999,-179.75902379247975,11.3464594698858,26.652937020955253,1271.0,1435.0,1350.0,1528.0,1273.0,1021.7000000000002,93.0,292.65,1637158092.2964067,1637158093.4240773,3315cf80-74ca-4531-a2e3-7bbb6781266a
-0.4863198694362152,-0.7484446955205885,0.0037430572781582,0.4816844470942985,0.0841144633264178,0.2401730469595025,-0.1310310848429944,-0.1547535268422261,-14.285693368542562,21.790288599757464,-7.724914287793439,-0.4106468094542857,-2.6962451390121025,-0.0492760026182708,7239.38037109375,11.784,8.51,-179.7569595575306,11.33298938820515,26.71436508616567,1271.0,1435.0,1350.0,1528.0,1273.0,1021.7000000000002,93.0,292.65,1637158093.5321949,1637158094.6524055,3315cf80-74ca-4531-a2e3-7bbb6781266a
-0.4812247484289324,-0.7495541172512171,-0.0062554306856267,0.4857112350052748,0.0760061007191593,0.2451448975429506,-0.1416870082000043,-0.1653135746087828,-14.483117398947972,21.81565707770496,-6.724908205024017,-0.4088275030186272,-2.709001059321525,-0.0082683031010037,7239.38037109375,11.78377777777778,8.515555555555556,-179.77883437671244,11.33915401338604,26.721447043697587,1271.0,1435.0,1350.0,1528.0,1273.0,1021.7000000000002,93.0,292.65,1637158094.7609584,1637158095.8768332,3315cf80-74ca-4531-a2e3-7bbb6781266a
-0.5778539960349832,-0.9332387562902756,0.0007709039783021,0.5560019671269224,0.110918628120639,0.3716600009593144,-0.0937627467774213,-0.1218954799712761,-14.119835055447366,23.34322712693612,-4.933657421342931,-0.2721451296244188,-3.424560123553833,-0.1530880663230529,7233.2705078125,11.780333333333331,8.54,-179.76215505475926,11.307732487019305,26.8344159061124,1186.0,1435.0,1350.0,1528.0,1206.0,1021.7000000000002,93.0,292.65,1637158097.8154004,1637158098.9531105,e02e9dc7-19de-47e2-99e8-33b8f5b02ca6
-0.5932516719994216,-0.9412189237990214,-0.0084764647370403,0.5417832970906945,0.1033794945048022,0.3952016440775783,-0.0953499041356999,-0.1110494486068937,-14.187354676176431,23.198943078368973,-4.599694257230328,-0.1885677638107142,-3.4558106816454,-0.1285617857778059,7227.17236328125,11.775444444444444,8.581111111111111,-179.74780255058334,11.319685887249255,26.90864033073284,1186.0,1435.0,1350.0,1528.0,1206.0,1021.7000000000002,93.0,292.65,1637158099.071376,1637158100.1782644,e02e9dc7-19de-47e2-99e8-33b8f5b02ca6
-0.5789721833939349,-0.923704850396957,-0.0005609493875132,0.5434137352495761,0.1101642216815693,0.3872861294706172,-0.0910108340593698,-0.1145995965919936,-14.304991104070483,23.040801368320444,-3.023218720755066,-0.2104949676051917,-3.402963541457845,-0.1504308408735155,7233.2705078125,11.776000000000002,8.55,-179.78514091804607,11.300817774258311,26.92527165163434,1186.0,1435.0,1350.0,1528.0,1206.0,1021.7000000000002,93.0,292.65,1637158100.2866688,1637158101.3204644,e02e9dc7-19de-47e2-99e8-33b8f5b02ca6
-0.0664792007730697,0.0440383330755755,-0.0426060981184866,0.1043168869872021,-0.1221831073866909,-0.1770241321689389,-0.3529290569363883,-0.3746655006898935,-15.382457409987012,18.50210974304512,-7.034850825597174,-0.5214435123978256,0.3211626242306012,0.7049607231796869,7208.264322916667,11.775555555555556,8.591111111111111,179.90516100214157,11.257361264846535,27.05413721015992,1525.0,1435.0,1350.0,1528.0,1475.0,1021.7000000000002,93.0,292.65,1637158102.3215673,1637158103.3380637,1ec84ed0-8166-45f6-9792-f93b5e9cc02b
-0.0696294093644916,0.0431891464396565,-0.0420719323083704,0.1064398535520223,-0.1218543899486198,-0.1759694970458589,-0.351997690781161,-0.3670091224740662,-15.3074337816659,18.530241686410204,-6.720589137145891,-0.5235615508429105,0.3144343235698654,0.7028588254482727,7194.14794921875,11.804444444444446,8.512222222222224,179.88924969701503,11.2810149688522,27.06645317959832,1525.0,1435.0,1350.0,1528.0,1475.0,1021.7000000000002,93.0,292.65,1637158103.4465492,1637158104.490371,1ec84ed0-8166-45f6-9792-f93b5e9cc02b
-0.0601103007928546,0.0533109032546363,-0.0322104098139951,0.0975096974806095,-0.1159922625074876,-0.1773665461546804,-0.3423279187737959,-0.3681596341243532,-15.144442325870664,18.517135016616496,-6.603917008385987,-0.5060518662868345,0.35193382902665,0.6690947122868022,7184.102105034723,11.805444444444444,8.472222222222221,179.85701879323165,11.267896547050066,27.068508307628587,1525.0,1435.0,1350.0,1528.0,1475.0,1021.7000000000002,93.0,292.65,1637158104.5987053,1637158105.622686,1ec84ed0-8166-45f6-9792-f93b5e9cc02b
-0.0565081057047227,0.0416825249874347,-0.0558643673110264,-0.1910220163612457,-0.1666558364085583,0.1154384923821057,-0.2828574522945116,-0.2968827309823775,-15.071258807409327,17.907746997415817,-4.225853976258861,0.7979754067792443,0.3207402130196228,0.6853884299748296,7178.7490234375,11.804555555555558,8.525555555555554,179.81687549474975,11.346254184755743,27.082435442801195,1525.0,1535.0,1350.0,1528.0,1475.0,1021.7000000000002,93.0,292.65,1637158106.325017,1637158107.555746,95a7201f-e0d9-46a1-a31a-28dfc3590bcd
-0.0540838147626411,0.0484623215040837,-0.0537961868745321,-0.1932819487718248,-0.1653272701185576,0.1091928617367707,-0.2821452311527597,-0.2950473918962698,-15.078554666741631,17.810951694303384,-4.453152250470662,0.7884599032305336,0.3486424652849937,0.6802602469377644,7184.097981770833,11.805,8.454444444444444,179.79820023973917,11.328764821339758,27.084579363290672,1525.0,1535.0,1350.0,1528.0,1475.0,1021.7000000000002,93.0,292.65,1637158107.6657236,1637158108.9051158,95a7201f-e0d9-46a1-a31a-28dfc3590bcd
-0.0666331500791029,0.0473397515660612,-0.0564297612705076,-0.193202508680219,-0.1684435113866793,0.1095067869048791,-0.2838759285302127,-0.3035463816101844,-14.938120459978224,17.81360036794508,-4.572001970313474,0.788924307240879,0.3443148583470352,0.6903530366593011,7182.7607421875,11.806,8.506666666666668,179.80660137241824,11.33636748593215,27.11752781639186,1525.0,1535.0,1350.0,1528.0,1475.0,1021.7000000000002,93.0,292.65,1637158109.0185308,1637158110.1311808,95a7201f-e0d9-46a1-a31a-28dfc3590bcd
-0.0438524851358781,0.0379844541536331,-0.0714647481925588,-0.5213282822189452,-0.2198943647290263,0.4316920126033425,-0.2134021952813529,-0.2401515782992014,-15.008835691620874,17.72029753838036,-2.8132683359184014,2.2519664804570887,0.3335842838322986,0.679046070684531,7202.211968315973,11.803888888888888,8.48,179.75508960351786,11.412339016024031,27.18552899004103,1525.0,1636.0,1350.0,1528.0,1475.0,1021.7000000000002,93.0,292.65,1637158111.79697,1637158112.9927826,49adcc97-49b9-460d-9799-426b01e62a03
