raw_voltage_G-,raw_voltage_G0,raw_voltage_G1,raw_voltage_G2,raw_voltage_G3,raw_voltage_G4,raw_voltage_G5,raw_voltage_G6,load_x,load_y,load_z,load_l,load_m,load_n,rpm,voltage,current,roll,pitch,yaw,aileron1_pwm,elevator_pwm,throttle_pwm,rudder_pwm,aileron2_pwm,pbaro,pdiff,Tt,sample_start_time,sample_end_time,uid
-0.0440442369478789,0.0758143489220041,0.0229867223856237,0.1478993354760398,-0.1026107239798199,-0.2158949691830672,-0.3386435438666995,-0.3686801036168228,-14.53165502924808,22.93873848991606,-2.182742721818821,-0.6732240404365329,0.3901836666340829,0.57839728671101,4037.412353515625,12.044000000000002,0.3499999999999999,179.55697161863262,8.521537815125605,65.56711810740025,1525.0,1435.0,1200.0,1528.0,1475.0,1021.7000000000002,93.0,292.65,1637155679.8444855,1637155680.84881,6956e413-8f8c-4daa-aaf6-2449e9a0c2ce
-0.0426197947979704,0.0743899068382184,0.0236030675166059,0.1601714516140029,-0.1021998272186402,-0.2287286460024648,-0.3418896288060439,-0.3807056841617369,-14.422402027739372,23.08802196088925,-2.611329550096149,-0.7287389291543436,0.3863970757013645,0.580965113542256,4134.870388454861,12.042444444444444,0.3400000000000001,179.5863490211628,8.541192348508488,64.80721250982207,1525.0,1435.0,1200.0,1528.0,1475.0,1021.7000000000002,93.0,292.65,1637155680.957266,1637155682.0844848,6956e413-8f8c-4daa-aaf6-2449e9a0c2ce
-0.0508788199514299,0.0727600163760081,0.019863906984086,0.1615958936748743,-0.1059252913467272,-0.2281944801551516,-0.3459575074209683,-0.3804317524913748,-14.41417590473542,23.14693478897148,-2.6067684598635323,-0.730542556562258,0.3797739251762695,0.5967312897076732,4184.607584635417,12.042333333333334,0.35,179.61821109473098,8.58195823770597,64.1832261589073,1525.0,1435.0,1200.0,1528.0,1475.0,1021.7000000000002,93.0,292.65,1637155682.1943195,1637155683.1434832,6956e413-8f8c-4daa-aaf6-2449e9a0c2ce
0.0747734103616488,0.3179421021403502,0.0139196004982915,0.0384912267842951,-0.1669023744655335,-0.3478750259494254,-0.408441219380858,-0.445038432642062,-14.739617007437635,22.637782265188644,-1.8399442980828544,-0.7254995582064244,1.3096342123694364,0.8065010967954036,4217.760525173611,12.041111111111112,0.3466666666666667,179.6094805951519,8.644623990112239,62.9488561582648,1610.0,1435.0,1200.0,1528.0,1542.0,1021.7000000000002,93.0,292.65,1637155684.9441082,1637155685.9725332,19cbf754-ebe8-46d1-86ff-7f82b4382b6d
0.0669937651442006,0.3205718412103471,0.0168506640680546,0.0375598607820578,-0.1644232971770401,-0.3465327629943762,-0.4044555200271129,-0.4175631301957872,-14.659362725161818,22.56949167070378,-1.3780100416485517,-0.7205751068605797,1.315134527735455,0.794500056395842,4202.375271267361,12.038333333333334,0.37,179.65010656033508,8.66626250372153,62.56596941377222,1610.0,1435.0,1200.0,1528.0,1542.0,1021.7000000000002,93.0,292.65,1637155686.081458,1637155687.1059191,19cbf754-ebe8-46d1-86ff-7f82b4382b6d
0.0764443905014166,0.3107514093457525,0.0133169519098139,0.0398197929968442,-0.16520400108138,-0.3391640131879554,-0.4036885125830979,-0.423301989457949,-14.586613470830526,22.468000264490225,-1.4123340109505662,-0.7099320009290367,1.277587262843592,0.7981638471709388,4167.857150607639,12.037333333333336,0.38,179.67537067116507,8.690776811562614,62.17643461848751,1610.0,1435.0,1200.0,1528.0,1542.0,1021.7000000000002,93.0,292.65,1637155687.2137043,1637155688.3389423,19cbf754-ebe8-46d1-86ff-7f82b4382b6d
0.239912812370762,0.6233479393236746,0.0291090841172494,-0.1133625231724689,-0.2254551681283209,-0.4970442773811575,-0.459967684133073,-0.4817726116821632,-14.400035013070758,22.10358964375153,-0.520030780159192,-0.7205614818308819,2.4606402685160447,0.9768508992428336,4145.681315104167,12.035222222222224,0.3888888888888889,179.6536597765233,8.736478840527768,61.39600430245342,1695.0,1435.0,1200.0,1528.0,1609.0,1021.7000000000002,93.0,292.65,1637155690.4734447,1637155691.611347,d5065bcc-24e5-43a2-b649-f64520d4ccf0
0.2307635116855878,0.617581688717539,0.0241783229954734,-0.1109245355691349,-0.2267426447526911,-0.4945241099243344,-0.4641725285755866,-0.4879086713442446,-14.650139128212851,22.01149036804137,-0.6784392056030987,-0.7214050352514726,2.441573153851572,0.990275595566049,4146.79541015625,12.031777777777778,0.4,179.6827958457028,8.76485211038617,61.17419770370678,1695.0,1435.0,1200.0,1528.0,1609.0,1021.7000000000002,93.0,292.65,1637155691.7196722,1637155692.845039,d5065bcc-24e5-43a2-b649-f64520d4ccf0
0.2475549438284846,0.6103537415175839,0.0264859191999983,-0.1066709320836855,-0.2229317138932699,-0.4883513433318199,-0.459608286322521,-0.4808434365543545,-14.620436520492758,22.036037163984552,-0.2251651819951949,-0.7167642592436857,2.4098593692647743,0.9752536678433112,4146.79541015625,12.028333333333332,0.3977777777777778,179.70896761278243,8.764267654893443,61.00921827885467,1695.0,1435.0,1200.0,1528.0,1609.0,1021.7000000000002,93.0,292.65,1637155692.9534576,1637155693.956495,d5065bcc-24e5-43a2-b649-f64520d4ccf0
0.3611547413977864,0.843479008049782,0.0229045429948599,-0.2214968622864697,-0.2828848454577715,-0.6051238526308967,-0.519849053423462,-0.5448315846396082,-14.722108745685803,21.905110342284644,0.3714806050621542,-0.721150842096166,3.2935606813443123,1.1755893531343489,4112.749077690973,12.032111111111112,0.3944444444444445,179.66755086347533,8.769129611217629,60.647752525419065,1779.0,1435.0,1200.0,1528.0,1677.0,1021.7000000000002,93.0,292.65,1637155695.890704,1637155696.9362075,f06dab6d-4204-4ee9-8062-f59ac93aae92
0.3821515641487776,0.8615036775660797,0.0342315970793196,-0.2278109764567104,-0.2751599852984716,-0.6169439865545648,-0.5128227169232389,-0.5369971506763895,-14.764565927293257,21.83141540371015,0.4469935676195369,-0.7334030223127558,3.3622896105625686,1.1418564696655824,4110.99560546875,12.025555555555554,0.43,179.6658023350478,8.784379716086976,60.5087384441517,1779.0,1435.0,1200.0,1528.0,1677.0,1021.7000000000002,93.0,292.65,1637155697.044977,1637155698.1647997,f06dab6d-4204-4ee9-8062-f59ac93aae92
0.3634146734063773,0.8540938400178217,0.0295610705577532,-0.2305091988762026,-0.2793922225014857,-0.6085069037769136,-0.5137266900738756,-0.5284504953902583,-14.622146740339742,21.830441500772377,0.2389797133421879,-0.708557727642841,3.3353699341001426,1.1541607989498184,4113.187662760417,12.025222222222222,0.43,179.6539785186846,8.788691747319241,60.39412559314917,1779.0,1435.0,1200.0,1528.0,1677.0,1021.7000000000002,93.0,292.65,1637155698.2727802,1637155699.3128846,f06dab6d-4204-4ee9-8062-f59ac93aae92
0.4534695388711823,1.003975268981745,0.0433672016792906,-0.3320281052922962,-0.3116887123294234,-0.639461136805604,-0.531080234553336,-0.5566517178996956,-14.595833192279008,22.40485145990358,3.40363779379428,-0.5441012451882127,3.882666021309713,1.2255299244638314,4116.91943359375,12.023,0.43,179.60160007466948,8.784961135940073,60.31526271117238,1864.0,1435.0,1200.0,1528.0,1744.0,1021.7000000000002,93.0,292.65,1637155699.8448668,1637155700.8267295,48028b51-5668-4ff1-b909-80907f76d2fa
0.4405810783683566,0.9988253633044756,0.0339302727725913,-0.3293572759648664,-0.3191533378812003,-0.6384475912756524,-0.5402843245183169,-0.5559121029745752,-14.67583384500081,22.40150804405826,3.1088906758164185,-0.5484277243072311,3.865602161196856,1.2605952401338585,4122.640733506944,12.012999999999998,0.48,179.5967248374219,8.801367345190183,60.17742569917199,1864.0,1435.0,1200.0,1528.0,1744.0,1021.7000000000002,93.0,292.65,1637155700.934348,1637155702.0635135,48028b51-5668-4ff1-b909-80907f76d2fa
0.4623996942753529,1.0114946791521426,0.0461065134065323,-0.3463410114573433,-0.3123187541444104,-0.6335579179748834,-0.5273821627057346,-0.5418457334163417,-14.56915222071756,22.403591558685367,3.44121227867739,-0.4984020471284032,3.912282379633728,1.218245338159864,4123.521647135417,12.011333333333331,0.4733333333333333,179.5887046775165,8.796699669802386,60.09290590274262,1864.0,1435.0,1200.0,1528.0,1744.0,1021.7000000000002,93.0,292.65,1637155702.1921349,1637155703.176139,48028b51-5668-4ff1-b909-80907f76d2fa
-0.2133884988757344,-0.2346866496475572,0.0211239903889585,0.2770578772918323,-0.0391682617980091,-0.0305394296395315,-0.264408185388315,-0.2777212428214715,-14.296545760071856,23.85774477548349,-1.9090252889919928,-0.5418939880796548,-0.7944785398727928,0.352565251469177,4124.84423828125,12.014,0.47,179.89984711496723,8.79244190062853,59.95172589259846,1440.0,1435.0,1200.0,1528.0,1408.0,1021.7000000000002,93.0,292.65,1637155704.8417375,1637155705.8420951,02431f33-434c-45ca-8425-75436bda68f8
-0.2152923207463524,-0.2396174113355542,0.0184668580065808,0.2826871625392826,-0.0389628134191628,-0.030895540163353,-0.2677090564171631,-0.2875827668749723,-14.501915506179325,23.84742993543757,-1.9312592556278008,-0.5557001122071509,-0.8121829868786247,0.3598891140715152,4126.168782552083,12.041000000000002,0.3499999999999999,179.92667154456765,8.789868342267512,60.061921887937714,1440.0,1435.0,1200.0,1528.0,1408.0,1021.7000000000002,93.0,292.65,1637155705.9756238,1637155706.9709766,02431f33-434c-45ca-8425-75436bda68f8
-0.215812789958929,-0.2454795390751537,0.0137141521105644,0.2858647639387973,-0.0425102221988494,-0.0295258842894281,-0.2711605896413851,-0.2860350549887047,-14.43204382859057,23.85048070183684,-2.168977833692264,-0.5600093540369636,-0.8332496460608301,0.3751443954562312,4131.471516927083,12.040666666666668,0.3400000000000001,179.93880196053357,8.79478807060843,60.16415160597504,1440.0,1435.0,1200.0,1528.0,1408.0,1021.7000000000002,93.0,292.65,1637155707.0787952,1637155708.2003925,02431f33-434c-45ca-8425-75436bda68f8
-0.3629001535335963,-0.5087685345549547,0.0187544857175868,0.4080654509802404,0.0177546369078899,0.1182325902893556,-0.2070469914334791,-0.2253729895497463,-14.357864175567784,24.87806602523929,-1.5876644806467113,-0.4964381761716345,-1.841129211114554,0.1645703443908159,4128.81787109375,12.038444444444444,0.3633333333333333,179.97799965727037,8.781985450191671,60.3598479093445,1355.0,1435.0,1200.0,1528.0,1341.0,1021.7000000000002,93.0,292.65,1637155709.8423011,1637155711.067643,31772201-8d9a-409c-ad9b-a7ff1fcd9082
-0.3584761643117131,-0.4998794657024495,0.0224388600300908,0.4002310200995753,0.0182888026995997,0.1165616101779365,-0.2036502445388458,-0.2238937614514292,-14.225955919184338,24.846328845350587,-1.5856744126019289,-0.4824807508465388,-1.8075434329711613,0.1550993038815453,4126.830078125,12.032333333333334,0.3899999999999999,179.96641869207767,8.779541380833669,60.382471772605314,1355.0,1435.0,1200.0,1528.0,1341.0,1021.7000000000002,93.0,292.65,1637155711.1765096,1637155712.1827347,31772201-8d9a-409c-ad9b-a7ff1fcd9082
-0.343097665569702,-0.5072460246785471,0.0180576048124585,0.4009739213731418,0.0167164377693764,0.1226686315929073,-0.205325607790786,-0.2338582819384869,-14.308287417968575,24.75901285966522,-1.6681297887951745,-0.4712848344870431,-1.8342296820222848,0.1645755382891515,4126.830078125,12.033222222222223,0.3899999999999999,179.9605477650311,8.795607029262662,60.420128123319415,1355.0,1435.0,1200.0,1528.0,1341.0,1021.7000000000002,93.0,292.65,1637155712.2903738,1637155713.525708,31772201-8d9a-409c-ad9b-a7ff1fcd9082
-0.4714590996876217,-0.7069714990591874,0.0254521029533991,0.4981751021994436,0.0616247142845618,0.2417207580828488,-0.1530551526302011,-0.1862008278671774,-13.878002469243498,25.8791291551794,0.3731247618260139,-0.4146852945276917,-2.6159384593523347,-0.0016869957733549,4114.727593315973,12.031444444444444,0.3966666666666666,179.94197723958771,8.76635133690899,60.45459477569112,1271.0,1435.0,1200.0,1528.0,1273.0,1021.7000000000002,93.0,292.65,1637155715.346655,1637155716.3865411,a91192a1-2cc6-4e9b-81f5-b63846945cdc
-0.4638575078819205,-0.7060949189509161,0.0307937608439893,0.4999145649855256,0.067322482644299,0.2395019157072632,-0.1486174673127058,-0.1595199294783794,-13.95519368579838,25.87479936594742,0.4455737551700111,-0.4233851625840898,-2.612622130039405,-0.0228758519729683,4103.343207465277,12.023,0.43,179.9466673028178,8.762138153692216,60.44824042303328,1271.0,1435.0,1200.0,1528.0,1273.0,1021.7000000000002,93.0,292.65,1637155716.4962342,1637155717.6214511,a91192a1-2cc6-4e9b-81f5-b63846945cdc
-0.4617893270753447,-0.7054237873182424,0.0292049600340753,0.4988188403936472,0.0669937652264083,0.2418303305405714,-0.1486585569850596,-0.177873319797159,-13.988329095943968,25.732141456486488,0.7220744264950971,-0.4166786292398162,-2.6122893062927264,-0.0197069571704948,4101.1611328125,12.019666666666666,0.4222222222222222,179.9150693298975,8.772236398652602,60.40171545113688,1271.0,1435.0,1200.0,1528.0,1273.0,1021.7000000000002,93.0,292.65,1637155717.7300131,1637155718.737705,a91192a1-2cc6-4e9b-81f5-b63846945cdc
-0.5651528994870446,-0.8903728869875556,0.0367550510193354,0.573747774675188,0.1033794945323423,0.3669450980672835,-0.1024239029645861,-0.1271040076052867,-13.810377100204434,27.353996572548304,2.740521718241061,-0.2930116127443333,-3.3338290405420707,-0.1648017645757312,4099.19970703125,12.018999999999998,0.43,179.9061718701387,8.746111873714689,60.349113128698974,1186.0,1435.0,1200.0,1528.0,1206.0,1021.7000000000002,93.0,292.65,1637155720.341964,1637155721.3039722,aad4373d-bfbf-468d-be1c-84ebc06b434a
-0.5629384391454524,-0.8916696778684065,0.033615251899839,0.5738485813466042,0.1019062927151833,0.36909874481886,-0.1047884769711759,-0.1171701671213286,-13.917053059922862,27.269971839664905,2.8595623753654675,-0.28914754941909,-3.339205705894475,-0.1551769164162824,4098.546549479167,12.009333333333334,0.4866666666666666,179.89320361763455,8.74934283778332,60.3034305468002,1186.0,1435.0,1200.0,1528.0,1206.0,1021.7000000000002,93.0,292.65,1637155721.4121587,1637155722.550125,aad4373d-bfbf-468d-be1c-84ebc06b434a
-0.5572505307226394,-0.8839037249861973,0.0303384872327038,0.5838328237342207,0.098238354399549,0.3523500463060133,-0.1136528901634847,-0.1361503115763223,-13.913060576382025,27.291938183811,2.8202997102241185,-0.34932790840932,-3.311195565545264,-0.1321278012876234,4097.022705078125,12.011666666666668,0.471111111111111,179.8910832233522,8.744583808615374,60.27075188617123,1186.0,1435.0,1200.0,1528.0,1206.0,1021.7000000000002,93.0,292.65,1637155722.6581604,1637155723.870756,aad4373d-bfbf-468d-be1c-84ebc06b434a
-0.0420856289921532,0.0827037178305166,0.0190010237965712,0.1107679659802,-0.1112121632773617,-0.181092010449457,-0.3324800914873965,-0.3476010954754516,-14.419198019925725,22.761124073953084,-1.126995784108052,-0.512408861291293,0.4101859692844713,0.5889188821181688,4093.544189453125,12.012555555555556,0.4655555555555555,179.5907810550242,8.750453502433354,60.23078541369786,1525.0,1435.0,1200.0,1528.0,1475.0,1021.7000000000002,93.0,292.65,1637155725.9041202,1637155726.931735,66a72bda-92b7-4289-b572-a229bbc1913d
-0.0442633818930903,0.08052596503283,0.0185627339132612,0.1120828355704234,-0.1122531017923486,-0.1800921615622426,-0.3323568224404957,-0.3532714719434865,-14.297650394805094,22.82265190476525,-1.118683178792042,-0.5126795304201345,0.4008954832490038,0.5905781003016461,4097.240234375,12.042666666666667,0.3499999999999999,179.6035823473486,8.751793357875538,60.36070471863039,1525.0,1435.0,1200.0,1528.0,1475.0,1021.7000000000002,93.0,292.65,1637155727.0402143,1637155728.159049,66a72bda-92b7-4289-b572-a229bbc1913d
-0.0511527510961166,0.080786199649824,0.0187270926201014,0.10817931648085,-0.1130748953566532,-0.1788183814747192,-0.3319733187378488,-0.3518881190990697,-14.276473622776008,22.857703103604067,-1.410595966197591,-0.5008071239274562,0.4048004736290347,0.5905133147872109,4101.1611328125,12.042777777777776,0.3400000000000001,179.63141764494614,8.75666489543731,60.50061355467902,1525.0,1435.0,1200.0,1528.0,1475.0,1021.7000000000002,93.0,292.65,1637155728.26735,1637155729.388033,66a72bda-92b7-4289-b572-a229bbc1913d
-0.0348264526980615,0.0738694376050489,-0.0046255401394455,-0.1477956737617948,-0.1589035836398302,0.0791015229634446,-0.2833094387495777,-0.3180302205256629,-14.472453819988624,22.24151278806365,0.8875016899931114,0.6512102764960175,0.38990264631666,0.6157546227245316,4103.778971354167,12.042,0.3400000000000001,179.59889987321762,8.820048386888862,60.67526604521569,1525.0,1535.0,1200.0,1528.0,1475.0,1021.7000000000002,93.0,292.65,1637155731.4343083,1637155732.4936075,bdc130e3-5afc-4c76-a7d1-c3454839a06a
-0.0241705298164175,0.0744994793060317,0.0024281876540354,-0.1465218937912365,-0.1533701735408843,0.0772661840803049,-0.2761598341892624,-0.3038131912578695,-14.301495207400706,22.29459540192384,0.9342006364026932,0.645009309337206,0.390933030537666,0.5886744350479588,4108.14990234375,12.041666666666666,0.3455555555555555,179.59450274921196,8.819552344400387,60.735169839876335,1525.0,1535.0,1200.0,1528.0,1475.0,1021.7000000000002,93.0,292.65,1637155732.602042,1637155733.53328,bdc130e3-5afc-4c76-a7d1-c3454839a06a
-0.0386614892287465,0.0744720861866202,0.0007846006032529,-0.1484394120655782,-0.1554109609125532,0.0790741298359435,-0.2783923735450742,-0.2916232515695841,-14.37317662310033,22.360457056381776,0.9210610526568938,0.653714044361347,0.3915870987808722,0.5967572924881419,4107.05615234375,12.041777777777778,0.3400000000000001,179.60016421712396,8.811459329143831,60.74242501859471,1525.0,1535.0,1200.0,1528.0,1475.0,1021.7000000000002,93.0,292.65,1637155733.642651,1637155734.7081792,bdc130e3-5afc-4c76-a7d1-c3454839a06a
-0.0309092368198867,0.0681853658211401,-0.0178427194582772,-0.4236717957698825,-0.2047596659074745,0.3564294290825253,-0.2230719666366748,-0.2396311086709933,-14.303699835963664,22.22548856401077,3.5853188880335947,1.8964626925037849,0.3766069212744997,0.6112863522936673,4107.05615234375,12.043111111111113,0.3444444444444444,179.57844725120296,8.883142733665546,60.783566283605325,1525.0,1636.0,1200.0,1528.0,1475.0,1021.7000000000002,93.0,292.65,1637155735.341035,1637155736.4687269,884bd571-9561-4132-90bf-5b446efb4ffa
-0.0139118071953605,0.069883739084034,-0.0149527455376289,-0.4280546955415157,-0.2020614436222875,0.3561007116911218,-0.220497013347535,-0.2551219183693245,-14.406060412262796,22.19824894793141,3.223546236728465,1.905464901043845,0.3876300942329432,0.5996021602640987,4105.74462890625,12.037,0.36,179.55772749290077,8.892898615393785,60.76651054233791,1525.0,1636.0,1200.0,1528.0,1475.0,1021.7000000000002,93.0,292.65,1637155736.581322,1637155737.6912687,884bd571-9561-4132-90bf-5b446efb4ffa
-0.021390128357594,0.0692673939499977,-0.0182125265557994,-0.4284929854299078,-0.2058006044671783,0.3575251536947758,-0.2219762418393677,-0.2404529020886855,-14.211872290733156,22.15487548065829,3.2640319010411623,1.9093088467442432,0.3834317605838036,0.6113768614184544,4104.870551215277,12.040444444444445,0.36,179.55042677958792,8.887673046360034,60.72757239278956,1525.0,1636.0,1200.0,1528.0,1475.0,1021.7000000000002,93.0,292.65,1637155737.8003788,1637155738.927613,884bd571-9561-4132-90bf-5b446efb4ffa
-0.0116518749409098,0.0622410594186351,-0.0317721199310645,-0.6869745157708284,-0.2485475686015024,0.6145547495606601,-0.1689157687603873,-0.1903645822907016,-14.332055470569143,22.179316828965806,5.138956894865047,3.069684896085568,0.3722773657078129,0.6119699431891118,4110.99560546875,12.035,0.36,179.52506097483032,8.962779988339479,60.69519881394352,1525.0,1737.0,1200.0,1528.0,1475.0,1021.7000000000002,93.0,292.65,1637155740.854658,1637155741.881903,1a7489af-b2e2-4b6b-ac44-557db7b7b284
-0.0131174067567708,0.065117336706059,-0.0319227821037271,-0.6920696375932135,-0.2506431423362279,0.6165955365929608,-0.1669571607331871,-0.1834341226813892,-14.083293413710118,22.12072462199552,5.169051106807269,3.085498264442427,0.3816545270593516,0.6127847321876102,4112.96826171875,12.035444444444446,0.3755555555555555,179.50467210124793,8.96468513679922,60.61096436763948,1525.0,1737.0,1200.0,1528.0,1475.0,1021.7000000000002,93.0,292.65,1637155741.991119,1637155743.1087558,1a7489af-b2e2-4b6b-ac44-557db7b7b284
-0.0045981471397525,0.0681305795930347,-0.0308544504636867,-0.6984385397509612,-0.2505609629361037,0.6191020065715888,-0.1669434641461959,-0.2039378728881604,-14.252074032601636,22.175779464353965,5.115797151765795,3.10582203216355,0.395475404509683,0.611290067917835,4112.529893663194,12.033555555555555,0.3722222222222222,179.48600139969676,8.958351654163847,60.5704325072848,1525.0,1737.0,1200.0,1528.0,1475.0,1021.7000000000002,93.0,292.65,1637155743.2172186,1637155744.2468274,1a7489af-b2e2-4b6b-ac44-557db7b7b284
-0.0260880480863718,0.0652406057330691,-0.0282931939456522,-0.6863033843078249,-0.2537933511803075,0.6115004172879785,-0.1725864467701648,-0.1959664754668506,-14.096038306927824,22.95314955634116,5.199072316757271,3.066738941202221,0.3814752535689634,0.6199000676236391,4110.99560546875,12.031333333333334,0.3855555555555555,179.4523604413047,8.9861517573144,60.38910160955968,1525.0,1837.0,1200.0,1528.0,1475.0,1021.7000000000002,93.0,292.65,1637155745.841458,1637155746.9037144,6c976e4d-02ae-4e1e-af42-ece1b6c83112
-0.0167332983419287,0.0692263042797638,-0.0207737830902271,-0.6983289673282727,-0.2478764371387611,0.6193074549293685,-0.1624235994624732,-0.1986373041747125,-14.098961654696472,22.86503737740865,5.35892435079965,3.11122348618378,0.3969837754877872,0.5877579071559129,4104.433919270833,12.02,0.44,179.45905858015078,8.958632355965987,60.29645464692791,1525.0,1837.0,1200.0,1528.0,1475.0,1021.7000000000002,93.0,292.65,1637155747.012046,1637155748.1324778,6c976e4d-02ae-4e1e-af42-ece1b6c83112
-0.0183494922913086,0.0658295577579243,-0.0262524066820095,-0.6934803837637947,-0.2516155981233279,0.6182802131328452,-0.1690801274730254,-0.1868445663689012,-14.23389159658568,22.90405347901681,5.328011742510452,3.097890915724284,0.3845292712026591,0.6092737581381952,4101.1611328125,12.021,0.43,179.45184134692778,8.97988278202119,60.1728805877343,1525.0,1837.0,1200.0,1528.0,1475.0,1021.7000000000002,93.0,292.65,1637155748.241563,1637155749.366017,6c976e4d-02ae-4e1e-af42-ece1b6c83112
-0.0604938044043493,0.0835529044568437,0.0432713257857067,0.4607287143459624,-0.0559465466735673,-0.5211091371611376,-0.407496156643786,-0.4249729697886922,-14.412457151018662,23.939861822663563,-3.741325581218663,-2.057289304435854,0.394964903934115,0.5863738108046234,4105.963216145833,12.033666666666669,0.3788888888888889,179.428583793894,8.624596547373423,60.05299862524205,1525.0,1334.0,1200.0,1528.0,1475.0,1021.7000000000002,93.0,292.65,1637155750.480697,1637155751.6195326,b839cc92-e9b5-40d4-a197-6744be970a0d
-0.0680816982127773,0.0793754541214234,0.0424769253884039,0.4693849386071116,-0.0546453735610571,-0.5285326739732369,-0.4109476901103601,-0.4333415692037456,-14.562537982897547,23.99646299053782,-4.2612892519989645,-2.093320075945652,0.3838524181225893,0.5893075478460623,4112.311360677083,12.042777777777776,0.3400000000000001,179.4525623113402,8.61961259628156,60.20659591929729,1525.0,1334.0,1200.0,1528.0,1475.0,1021.7000000000002,93.0,292.65,1637155751.727495,1637155752.8545778,b839cc92-e9b5-40d4-a197-6744be970a0d
-0.069478747240702,0.0761156732072848,0.0434493810439322,0.4729323469797473,-0.0526456759327848,-0.5290668398434719,-0.4104820070325286,-0.4349988528338921,-14.634922019028789,24.038120636147067,-4.3214487346053625,-2.1022439528322963,0.3722973592447127,0.5840793933710846,4132.80712890625,12.042333333333334,0.3400000000000001,179.4810517892782,8.609719256996271,60.39537172321775,1525.0,1334.0,1200.0,1528.0,1475.0,1021.7000000000002,93.0,292.65,1637155752.9678304,1637155754.168555,b839cc92-e9b5-40d4-a197-6744be970a0d
-0.0628222194703975,0.0862785195876343,0.0664048132185103,0.7631350027633399,-0.0065019687326537,-0.8192970254289919,-0.4740614462900006,-0.4945652004917589,-14.655381088748598,25.10485433972249,-6.343385709902324,-3.4011740965562764,0.3942225774812809,0.5809331403468789,4148.802734375,12.039,0.34,179.50100504857355,8.517121244053548,60.60382454322709,1525.0,1234.0,1200.0,1528.0,1475.0,1021.7000000000002,93.0,292.65,1637155754.8414805,1637155755.800722,495f5d35-e193-4511-86e9-25542208a8cb
-0.0826274440805913,0.0831283111480857,0.0630080667158408,0.7595602013121189,-0.0105287570298431,-0.813147267661774,-0.4761022339821766,-0.5011806406336895,-14.618209957454228,25.181132036015367,-6.397918717920896,-3.378944356591392,0.382853709644646,0.5934588129481339,4150.142740885417,12.034333333333333,0.3699999999999999,179.51921888636022,8.52425196154704,60.71681408593689,1525.0,1234.0,1200.0,1528.0,1475.0,1021.7000000000002,93.0,292.65,1637155755.9134245,1637155757.0431037,495f5d35-e193-4511-86e9-25542208a8cb
-0.0909549520982787,0.0781838535341268,0.0557488906770826,0.7613407537677072,-0.0145829384646447,-0.8067646684267192,-0.4816767346970696,-0.5032762144396482,-14.804857471146752,25.08820140731016,-5.993752067557256,-3.3696253279651898,0.3613669205674134,0.616707698830047,4152.82275390625,12.032777777777776,0.3622222222222222,179.5326212353316,8.529882693607808,60.83034928487038,1525.0,1234.0,1200.0,1528.0,1475.0,1021.7000000000002,93.0,292.65,1637155757.1509955,1637155758.28105,495f5d35-e193-4511-86e9-25542208a8cb
-0.0858828422802793,0.0905989619700863,0.0704683082104013,0.8653069376884264,-0.0003900163183131,-0.9169858631923924,-0.5053263145403882,-0.5276396590409975,-14.567693853101144,26.114073063521182,-6.37136419794118,-3.844236564198924,0.3977493746884049,0.6126102454776965,4115.614908854167,12.032666666666668,0.3766666666666666,179.5357980322056,8.485404122277732,61.00552845888304,1525.0,1133.0,1200.0,1528.0,1475.0,1021.7000000000002,93.0,292.65,1637155759.387862,1637155760.5283558,db0a210b-b872-40b6-8df1-abc81a6a7266
-0.0772572971052005,0.089047415846803,0.072164490010228,0.8606785969868801,0.0035808900369194,-0.91116098737784,-0.5018287604077531,-0.5161871415527465,-14.814333916728874,25.96972702233341,-6.342265514168762,-3.8216988304659,0.3940928189050566,0.5996093562462991,4087.909830729168,12.03122222222222,0.3844444444444444,179.5365979232484,8.496554406097777,61.07723254369975,1525.0,1133.0,1200.0,1528.0,1475.0,1021.7000000000002,93.0,292.65,1637155760.6368742,1637155761.6630971,db0a210b-b872-40b6-8df1-abc81a6a7266
-0.0822406532320677,0.087903479290582,0.0699160629661106,0.8573651258149583,0.0010168942210275,-0.9059146545602138,-0.5022232214248197,-0.5270348181901338,-14.75123411714218,25.95544800649416,-6.199972250532985,-3.802587409739937,0.3883597936110858,0.6068113036550593,4070.863471137153,12.029000000000002,0.3899999999999999,179.54177368881946,8.489742999947984,61.15477188679736,1525.0,1133.0,1200.0,1528.0,1475.0,1021.7000000000002,93.0,292.65,1637155761.770689,1637155762.7881496,db0a210b-b872-40b6-8df1-abc81a6a7266
-0.0780664898443828,0.0931815850430431,0.0779784051674737,0.8570112067519547,0.0029897465562327,-0.9122556166646244,-0.5002766659792949,-0.525670094373734,-14.667114899316472,26.444578976740527,-6.380224558508552,-3.812380474226694,0.4097210756144796,0.5906022636829503,4068.071533203125,12.028888888888888,0.3966666666666667,179.5237981487438,8.485922647472222,61.20393482953321,1525.0,1033.0,1200.0,1528.0,1475.0,1021.7000000000002,93.0,292.65,1637155763.3433397,1637155764.416114,8f611f33-30b4-4e62-bb05-4e03aa144287
-0.0847778039201352,0.0858539262864367,0.0774031496995849,0.8902390550535011,0.0058523273452539,-0.9407444747823268,-0.5100697079503608,-0.54613275832568,-14.734065395911443,26.700560894771144,-7.143308366018272,-3.949839677176856,0.3853517656111001,0.5996072219833418,4075.604763454861,12.025666666666666,0.4,179.5096141225674,8.489251416055218,61.23178075186944,1525.0,1033.0,1200.0,1528.0,1475.0,1021.7000000000002,93.0,292.65,1637155764.5242531,1637155765.642955,8f611f33-30b4-4e62-bb05-4e03aa144287
-0.0812988778371101,0.0908942597884825,0.0778551361374604,0.9041136677448164,0.0054003409155705,-0.95934441224441,-0.5163701265851048,-0.5415033203689109,-14.700345127730609,26.86097795781837,-7.293652854089058,-4.021855008947689,0.4036730286811837,0.6090544206433314,4120.891330295139,12.023555555555554,0.4099999999999999,179.50613679736995,8.480335457867413,61.265729068774135,1525.0,1033.0,1200.0,1528.0,1475.0,1021.7000000000002,93.0,292.65,1637155765.750512,1637155766.8788326,8f611f33-30b4-4e62-bb05-4e03aa144287
-0.0495228605781683,0.0812107929652115,0.0241920195550247,0.1396814005409477,-0.1056924498217955,-0.2118681805885713,-0.3361644663521563,-0.3616811611433918,-14.233576727581342,23.01600297171792,-1.9228924657671096,-0.6448739829952491,0.4071003650558027,0.5785462309278652,4169.661295572917,12.029999999999998,0.3766666666666667,179.49127885919546,8.690247187310725,61.26416040199476,1525.0,1435.0,1200.0,1528.0,1475.0,1021.7000000000002,93.0,292.65,1637155767.8979523,1637155769.0385857,b578edc3-d140-48ba-b33a-d7816685d1a9
-0.051878668739536,0.0740200997634697,0.0156727600200276,0.1456941896106121,-0.1104725490527626,-0.2097589103188467,-0.3444371891225395,-0.3591609928693877,-14.442920044874024,22.98116034940234,-1.90065881370812,-0.6544545621867984,0.3801345483173312,0.6075300878629469,4192.779513888889,12.041777777777778,0.3299999999999999,179.48218863632007,8.685943124632491,61.26888233944096,1525.0,1435.0,1200.0,1528.0,1475.0,1021.7000000000002,93.0,292.65,1637155769.1461036,1637155770.2612965,b578edc3-d140-48ba-b33a-d7816685d1a9
-0.0549466979621786,0.0782797294448855,0.0191790790600136,0.1463790175148404,-0.1073908231949102,-0.2148540306202646,-0.3411637110655386,-0.3764323563804086,-14.348942874419912,22.88152350652958,-1.91519050928242,-0.6678897058964529,0.3957106713785177,0.5944999696522294,4197.107855902777,12.041222222222224,0.33,179.4584954689992,8.675672701986777,61.25604689617067,1525.0,1435.0,1200.0,1528.0,1475.0,1021.7000000000002,93.0,292.65,1637155770.3689451,1637155771.5036533,b578edc3-d140-48ba-b33a-d7816685d1a9
-0.0088440803692028,0.090455969912222,0.1250808694659782,0.1290665678825486,-0.0124736683893232,-0.2149909962801768,-0.2297421914128225,-0.2564504847801105,-13.689304591903351,22.915155804527966,-1.6722695381413588,-0.6232779184061068,0.4434029284723008,0.1643347181099073,4189.131130642361,12.039888888888887,0.33,179.45320890258162,8.680613584941373,61.22271860866066,1525.0,1435.0,1200.0,1439.0,1475.0,1021.7000000000002,93.0,292.65,1637155773.5157764,1637155774.652568,f44a7050-0cfd-4feb-ad8b-7eab32ce2cb0
-0.0066800240941141,0.0994820018984542,0.1316689140003997,0.1202870739862824,-0.007803141804422,-0.2146485823270216,-0.2216201312869641,-0.2422334551810391,-13.578546356388236,22.735988429159324,-1.457563830286172,-0.6034737846294179,0.4760647373140205,0.138897963500019,4187.765896267361,12.040888888888889,0.3222222222222222,179.4459097070886,8.674055180382085,61.20728465786616,1525.0,1435.0,1200.0,1439.0,1475.0,1021.7000000000002,93.0,292.65,1637155774.7602477,1637155775.7825108,f44a7050-0cfd-4feb-ad8b-7eab32ce2cb0
-0.0057678332816139,0.0949511803946808,0.1262056308252254,0.1213011672175031,-0.0131574006230288,-0.2085338899626833,-0.2270604049458126,-0.2541204256138967,-13.636353791517582,22.88831754840326,-1.1303622047070845,-0.5912599681663973,0.45611195281982,0.1612027104482814,4149.486002604167,12.041,0.33,179.43638235210634,8.661331296868259,61.19114112630786,1525.0,1435.0,1200.0,1439.0,1475.0,1021.7000000000002,93.0,292.65,1637155775.8906898,1637155777.0202138,f44a7050-0cfd-4feb-ad8b-7eab32ce2cb0
0.0288488493750769,0.122875723574612,0.2601974146463803,0.10765884726221,0.104426459485694,-0.2288793081292477,-0.0905988414321397,-0.113266648323109,-12.49317644492768,22.876099690299668,-0.8836904571153417,-0.5989994380430614,0.5607424129990138,-0.3714768686442429,4090.071940104168,12.041666666666666,0.33,179.41148858931135,8.675413154798317,61.13963694650652,1525.0,1435.0,1200.0,1351.0,1475.0,1021.7000000000002,93.0,292.65,1637155777.9187765,1637155779.0565784,83778519-ab21-49dc-8dbc-02c0d9270a53
0.0354642872442098,0.120410343079075,0.2569924201132331,0.1071109849199309,0.1027691759187332,-0.2260304236384963,-0.0938175328679202,-0.105185677945615,-12.681599286581816,22.86783524665856,-0.917425476386796,-0.5916763691283277,0.5529924742379059,-0.3607471693959818,4077.532335069444,12.041,0.33,179.40500901651876,8.672177352679022,61.12045777531713,1525.0,1435.0,1200.0,1351.0,1475.0,1021.7000000000002,93.0,292.65,1637155779.1646502,1637155780.2907865,83778519-ab21-49dc-8dbc-02c0d9270a53
0.0313416230708857,0.1154932786368553,0.2526780043862106,0.1103844623512218,0.0991669810682681,-0.2234691669268877,-0.0973649417598217,-0.1247854547471656,-12.634566307554346,22.92336548789005,-0.8409409855893958,-0.5931158915382027,0.5328641207219771,-0.3453573596952513,4077.101399739584,12.041,0.33,179.3856386000326,8.651242822872932,61.11285805150063,1525.0,1435.0,1200.0,1351.0,1475.0,1021.7000000000002,93.0,292.65,1637155780.3997114,1637155781.5199535,83778519-ab21-49dc-8dbc-02c0d9270a53
0.0741844583606515,0.1461324794854696,0.3951222041641515,0.1148769334653136,0.2257231784457839,-0.2678597186563154,0.0377927023311938,0.0118377228719344,-11.73803451928587,23.15492799257289,-1.234128157102531,-0.6939848616341863,0.6534001392610699,-0.9006101767858931,4110.779242621527,12.041111111111112,0.3322222222222222,179.3731256934731,8.638702785284268,61.0677734906092,1525.0,1435.0,1200.0,1262.0,1475.0,1021.7000000000002,93.0,292.65,1637155783.4471843,1637155784.6006649,5a0a9c21-2ad5-42e1-a10b-ca517855be73
0.0784440880161868,0.1484608943706222,0.3999296958460539,0.1122061046117968,0.2303252218981179,-0.2678049323693275,0.0432302361076002,0.0211513825523581,-11.739821728704188,23.078990645815352,-1.2112850849422303,-0.68809828916996,0.6625756202893708,-0.9208529014369814,4136.1240234375,12.042777777777776,0.3400000000000001,179.3572614407609,8.632674953614254,61.05021990444225,1525.0,1435.0,1200.0,1262.0,1475.0,1021.7000000000002,93.0,292.65,1637155784.7083578,1637155785.8110368,5a0a9c21-2ad5-42e1-a10b-ca517855be73
0.0867715956062955,0.1483787150270678,0.3943004107100374,0.1165616101716426,0.2255177300685157,-0.272749390674511,0.0362997774269055,0.0117418466617727,-11.743552571390794,23.064761363278688,-1.4035185335127336,-0.7094412501995153,0.6631042000394013,-0.897003743673281,4147.018446180556,12.039,0.3400000000000001,179.34746087821182,8.614434364253304,61.00845177984783,1525.0,1435.0,1200.0,1262.0,1475.0,1021.7000000000002,93.0,292.65,1637155785.919047,1637155787.1595097,5a0a9c21-2ad5-42e1-a10b-ca517855be73
0.106412460355409,0.1658966129204121,0.5089816859508473,0.1323126521553025,0.3303374868162425,-0.3092233314098619,0.1429685745039018,0.116589002747404,-11.256178429501048,23.384683149472867,-1.2409515004077314,-0.818831148906027,0.729252942644442,-1.3452722912622972,4158.86767578125,12.038444444444444,0.3444444444444444,179.3167766328205,8.586747623270227,60.97264185693934,1525.0,1435.0,1200.0,1173.0,1475.0,1021.7000000000002,93.0,292.65,1637155788.361205,1637155789.502882,7d9799cb-c708-47e0-af69-50ae403ee787
0.1084806406621224,0.1631436047411233,0.503982442521619,0.1340521150690825,0.324338394555659,-0.3084700205904281,0.1384350137605652,0.1246973652658204,-11.06756613727734,23.48162434714531,-1.3284482893501697,-0.8205874599785569,0.7178385721196143,-1.324181121478538,4162.233561197917,12.034666666666668,0.36,179.28993398938235,8.570587680285193,60.92901212634112,1525.0,1435.0,1200.0,1173.0,1475.0,1021.7000000000002,93.0,292.65,1637155789.6107533,1637155790.736096,7d9799cb-c708-47e0-af69-50ae403ee787
0.1049743216974583,0.1646776192563827,0.4880670428685357,0.1182462868335102,0.3082860289347321,-0.2924998309032784,0.1266422770535718,0.1132744357602901,-11.155062084405737,23.351473584516683,-1.0183780650079817,-0.7506961173495367,0.722398066474086,-1.2633558492749604,4150.147840711806,12.033,0.3577777777777778,179.25977187400758,8.563668034609798,60.877717405674325,1525.0,1435.0,1200.0,1173.0,1475.0,1021.7000000000002,93.0,292.65,1637155790.8438518,1637155792.0783951,7d9799cb-c708-47e0-af69-50ae403ee787
-0.0892017924978877,0.0498867636055741,-0.1239636601148972,0.1499538192064759,-0.2377546791246773,-0.1738328337362368,-0.4855528617431043,-0.5030296765248173,-15.513854299932882,23.231189148511017,-0.6763653314236647,-0.5889719638542082,0.2769763762274038,1.1701438357957878,4060.36279296875,12.036,0.35,179.2804855610305,8.573133064115883,60.92506883046029,1525.0,1435.0,1200.0,1617.0,1475.0,1021.7000000000002,93.0,292.65,1637155792.849889,1637155793.806073,7ad8fef9-560b-42af-8941-4899a756fdce
-0.0970773141030612,0.0466269826533924,-0.1283054694700268,0.1540490901110572,-0.2413979641249029,-0.1740519786802079,-0.4891824506789062,-0.5149182918797826,-15.410486574767916,23.23043658290288,-0.6567283190653391,-0.5988683586514773,0.2630650862061024,1.1859340135984484,4042.27888997396,12.038666666666668,0.3299999999999999,179.24659871582833,8.553165954714736,60.8536387121203,1525.0,1435.0,1200.0,1617.0,1475.0,1021.7000000000002,93.0,292.65,1637155793.913684,1637155794.942084,7ad8fef9-560b-42af-8941-4899a756fdce
-0.0885991439260764,0.06063856209212,-0.1131981643820224,0.1482417494425898,-0.2311255440000292,-0.1851324955666894,-0.4767185792675339,-0.4910725778675118,-15.201818036555686,23.22340380143649,-0.9351572266569564,-0.609901544823927,0.3182804430871269,1.135004386192325,4038.046549479168,12.041333333333334,0.3299999999999999,179.2334938595408,8.550253068761203,60.830131477726844,1525.0,1435.0,1200.0,1617.0,1475.0,1021.7000000000002,93.0,292.65,1637155795.0499508,1637155796.1002305,7ad8fef9-560b-42af-8941-4899a756fdce
-0.1351904561597361,0.0332969438948802,-0.2647577216481835,0.1874917021494059,-0.3672781221815483,-0.1895471707387592,-0.6411786856860138,-0.6705923306773048,-16.213711525238853,23.656602058227755,-1.4493568780651822,-0.7136264447321783,0.2130187928941265,1.756622770320832,4095.2845052083335,12.039666666666667,0.3333333333333333,179.23238281543584,8.567805801154488,60.77943781370701,1525.0,1435.0,1200.0,1706.0,1475.0,1021.7000000000002,93.0,292.65,1637155797.8956022,1637155799.0370362,f4871209-860e-4ae1-81bc-f7878ff3694b
-0.1377807494883313,0.0238035851178308,-0.2735147544607333,0.1913968647704275,-0.3729846573655119,-0.182801888938947,-0.6498042333855752,-0.6705791818781635,-16.4794689835971,23.753729061891963,-1.3683104544611835,-0.7071910173810297,0.1775412680390201,1.787387158230282,4104.436143663194,12.036444444444443,0.3400000000000001,179.22496674781704,8.560641027578884,60.75999605968952,1525.0,1435.0,1200.0,1706.0,1475.0,1021.7000000000002,93.0,292.65,1637155799.1448886,1637155800.1580818,f4871209-860e-4ae1-81bc-f7878ff3694b
-0.1622373263683554,0.0271302053021281,-0.2727521299841033,0.1931193439148902,-0.372182586757912,-0.1889554793795652,-0.65022499182802,-0.6644387388782674,-16.463619696148747,23.68823222949665,-1.5521157356452984,-0.7253219819869067,0.1913701619990066,1.7860505863315963,4111.214789496527,12.038,0.3388888888888889,179.22158352744813,8.561101211574213,60.7312341330946,1525.0,1435.0,1200.0,1706.0,1475.0,1021.7000000000002,93.0,292.65,1637155800.2937896,1637155801.379467,f4871209-860e-4ae1-81bc-f7878ff3694b
-0.206526522268972,-0.0009411658173806,-0.4085918815939416,0.2482677127406888,-0.4933599021583599,-0.2064854324963262,-0.8018749945426847,-0.8269671032617337,-17.23943844101574,24.254109614305904,-1.844372452677784,-0.8925650939052394,0.0787749077239968,2.348080205825235,4116.91943359375,12.034222222222224,0.3411111111111111,179.26021811303335,8.548168912426965,60.74707865414921,1525.0,1435.0,1200.0,1795.0,1475.0,1021.7000000000002,93.0,292.65,1637155802.5053177,1637155803.6358955,8f202bb8-c33a-4a7e-91cb-f477eccded15
-0.2082709161070763,0.0028445630352338,-0.4022273634609642,0.2478442151738643,-0.4864842280185282,-0.2093885553332058,-0.7986738333653612,-0.8306120332782342,-17.57385827916865,24.28985939496803,-1.7470723767874443,-0.8977324199048212,0.0949344903312015,2.3258250321348344,4110.99560546875,12.035999999999998,0.3400000000000001,179.26432533345425,8.546519232014926,60.74732681768905,1525.0,1435.0,1200.0,1795.0,1475.0,1021.7000000000002,93.0,292.65,1637155803.7434132,1637155804.8634243,8f202bb8-c33a-4a7e-91cb-f477eccded15
-0.2035954584968209,0.0003326141502479,-0.4094821580812139,0.2446792145449892,-0.4933051159307744,-0.2033215271818955,-0.8037514239332402,-0.8148319472869759,-17.536153348250547,24.251510083073764,-1.6960509724309147,-0.8775478813271387,0.0847232007567043,2.3520161901075416,4105.526041666667,12.03422222222222,0.35,179.25507270385864,8.536257631696893,60.72415957493427,1525.0,1435.0,1200.0,1795.0,1475.0,1021.7000000000002,93.0,292.65,1637155804.9728825,1637155806.0900776,8f202bb8-c33a-4a7e-91cb-f477eccded15
-0.2321664827464301,-0.0124873649638624,-0.4951404553811243,0.3007666187725082,-0.5703071899203838,-0.2374122651326539,-0.910707904942325,-0.9312390598459628,-18.22362222426073,24.98014872064428,-1.7325696351981543,-1.080460617192659,0.029506402280424,2.724049970336523,4112.96826171875,12.032000000000002,0.3533333333333333,179.28704709609318,8.527393848565247,60.74998603800592,1525.0,1435.0,1200.0,1883.0,1475.0,1021.7000000000002,93.0,292.65,1637155807.9352589,1637155809.0723965,ce9e1043-2368-4b9d-8373-e3e055ea28d9
-0.2203326548192317,-0.0103507017637264,-0.4987289547709945,0.2884397167948008,-0.5742244069589238,-0.2258934580822302,-0.9092834621993874,-0.92700682006239,-18.140512218595124,24.768935845130887,-1.4175384624858196,-1.0282566347121067,0.0354264745562304,2.7329883615189097,4109.243869357639,12.030555555555557,0.3788888888888889,179.2799270033384,8.541386534581141,60.70196070122183,1525.0,1435.0,1200.0,1883.0,1475.0,1021.7000000000002,93.0,292.65,1637155809.180577,1637155810.3999257,ce9e1043-2368-4b9d-8373-e3e055ea28d9
-0.2248662161988825,-0.0161306496104423,-0.4953459039783648,0.2873576887423769,-0.5704578522408997,-0.2196478266801373,-0.9038596220326304,-0.9276231665325382,-18.12849324242679,24.81657552180877,-1.4431184321803698,-1.011294841866151,0.0142382993507811,2.7147682275295737,4077.121988932292,12.028,0.3833333333333333,179.2679681010116,8.543633477090598,60.65338667257442,1525.0,1435.0,1200.0,1883.0,1475.0,1021.7000000000002,93.0,292.65,1637155810.507715,1637155811.6319764,ce9e1043-2368-4b9d-8373-e3e055ea28d9
-0.0766968339314485,0.0502839638056939,-0.0427567602679776,0.1240810206373017,-0.129277925197994,-0.1657244704095919,-0.359366440629392,-0.3855131770071556,-15.119528306947824,19.32455251109008,-2.011039389001201,-0.5342569600282348,0.2957716842427406,0.7318559390506533,7184.7666015625,11.816,8.26,178.22231167367713,8.320363130859343,51.77122881424171,1525.0,1435.0,1350.0,1528.0,1475.0,1021.7000000000002,93.0,292.65,1637155815.8702154,1637155816.8488865,9b6c99bd-9462-4d91-a953-1cce74777725
-0.0651506345599916,0.0539409449474286,-0.0375520678349964,0.1198898738087686,-0.126319468339837,-0.1679980993433436,-0.3544767683369568,-0.3895536620477344,-15.002022980834775,19.352418887502136,-2.335416795597065,-0.5294605773485159,0.3123773041331172,0.7137889720876331,7192.13525390625,11.813444444444444,8.278888888888888,177.997061141769,8.233081851003043,48.16308348580437,1525.0,1435.0,1350.0,1528.0,1475.0,1021.7000000000002,93.0,292.65,1637155816.9572976,1637155817.9644344,9b6c99bd-9462-4d91-a953-1cce74777725
-0.0594145156144369,0.0593313625331775,-0.0316313193136411,0.1190921862706854,-0.1208846735330746,-0.1695874480706967,-0.3482914013937865,-0.3633992569310261,-14.957956210850403,19.243557620167262,-1.867542851784824,-0.5315627453447981,0.3286077087800049,0.6908899459898469,7196.83154296875,11.812333333333337,8.306666666666667,177.8700241766662,8.15606207660104,44.76062361239765,1525.0,1435.0,1350.0,1528.0,1475.0,1021.7000000000002,93.0,292.65,1637155818.073084,1637155819.1939332,9b6c99bd-9462-4d91-a953-1cce74777725
0.0501141263830084,0.2983220571591174,-0.0356022257063217,0.0079462572537703,-0.1793700789131928,-0.2992993514250847,-0.4105373411679744,-0.4294583198218812,-15.105307412293076,18.85151196436152,-1.8171131312808744,-0.5751875033407461,1.238990136689336,0.8926592643254484,7202.87890625,11.816,8.28,177.79252885034325,8.117244404000566,41.12303220008352,1610.0,1435.0,1350.0,1528.0,1542.0,1021.7000000000002,93.0,292.65,1637155819.8395636,1637155820.832765,787da413-a947-428c-9c86-f36fc7789642
0.0630902459519218,0.292466504797768,-0.0392093514960702,0.0070713210622206,-0.1824342732889601,-0.2943214734741395,-0.4126871534585617,-0.4415184163553315,-15.098468029549378,18.90691252929958,-2.0623415671855274,-0.5618759070437703,1.2190332915478337,0.9037305704617694,7205.571614583333,11.807777777777778,8.357777777777777,177.90599802411472,8.145935846837807,38.99190617274254,1610.0,1435.0,1350.0,1528.0,1542.0,1021.7000000000002,93.0,292.65,1637155820.940613,1637155822.0612097,787da413-a947-428c-9c86-f36fc7789642
0.0660623991556279,0.3019445227529339,-0.0305942158657161,-0.0013794558174686,-0.1773528495906324,-0.2960883298729765,-0.4057566933830798,-0.4330128520446535,-15.09328651104462,18.9573935270787,-2.040364662095887,-0.546013654736763,1.2559376484954756,0.8762852567001941,7208.9375,11.805333333333332,8.343333333333332,178.039285371218,8.188857799083287,37.39199013954528,1610.0,1435.0,1350.0,1528.0,1542.0,1021.7000000000002,93.0,292.65,1637155822.1701996,1637155823.207863,787da413-a947-428c-9c86-f36fc7789642
0.2302019527991833,0.5952563003774146,-0.0450166925059039,-0.1439469405330203,-0.2610114384105205,-0.4475175095024335,-0.4902096928505815,-0.5265466731126452,-15.10582266727762,18.58535088376647,-1.7509123096178267,-0.5678425529136366,2.3701909567540547,1.1649266625744026,7215.00537109375,11.806,8.380000000000003,178.25065695873266,8.289762175830397,34.35687946863422,1695.0,1435.0,1350.0,1528.0,1609.0,1021.7000000000002,93.0,292.65,1637155824.8403225,1637155825.8547056,79ef1720-947e-4ed3-bd05-e746c03e229c
0.2238741430385311,0.5952426038204615,-0.0417980011185608,-0.1406460696852816,-0.2557382626852529,-0.4478599235801981,-0.486347262351521,-0.500509508344042,-15.19739925465234,18.450042656336223,-1.3402643559194034,-0.5767753018893281,2.3669435257369664,1.1484556569798168,7225.819173177083,11.798444444444446,8.44111111111111,178.40646419843935,8.333180265428089,33.38044131671351,1695.0,1435.0,1350.0,1528.0,1609.0,1021.7000000000002,93.0,292.65,1637155825.962115,1637155826.988963,79ef1720-947e-4ed3-bd05-e746c03e229c
0.2238467499527157,0.5980914877307121,-0.0429348155349023,-0.1423718361436925,-0.2569983462547998,-0.4503663943498751,-0.4891824507185789,-0.527354770475013,-15.32626096304744,18.456574356400623,-1.540231676784385,-0.5786248180518413,2.380453450911524,1.1557129941427389,7221.0830078125,11.802,8.394444444444444,178.55038842681003,8.399640282782038,32.517213929740706,1695.0,1435.0,1350.0,1528.0,1609.0,1021.7000000000002,93.0,292.65,1637155827.0972736,1637155828.2145865,79ef1720-947e-4ed3-bd05-e746c03e229c
0.3596755131451158,0.8504094660769931,-0.0437566090971782,-0.2948145496602953,-0.3232075198677623,-0.5510909123496773,-0.5427086160996141,-0.556199731018074,-15.196378317392131,18.27014096447419,-0.8772333621759021,-0.4621985898674019,3.338717564777875,1.3535186476536245,7227.17236328125,11.79922222222222,8.458888888888888,178.80387192510742,8.54725195953089,30.98681556191584,1779.0,1435.0,1350.0,1528.0,1677.0,1021.7000000000002,93.0,292.65,1637155829.8510482,1637155830.981357,55adfac0-c540-4ae0-90cd-a0f18842cc67
0.3628668110729076,0.8546143091954752,-0.0435100710364177,-0.3045938940436499,-0.3253030936683969,-0.5419005190108176,-0.5407363110876915,-0.577634851783233,-15.15440875042112,18.291797728082766,-0.2575325541137629,-0.4192109923822876,3.349918883184021,1.354546229907031,7227.17236328125,11.789111111111112,8.486666666666668,178.92496814345208,8.580911511215668,30.46623789558011,1779.0,1435.0,1350.0,1528.0,1677.0,1021.7000000000002,93.0,292.65,1637155831.0904808,1637155832.1068752,55adfac0-c540-4ae0-90cd-a0f18842cc67
0.3654143708050426,0.8579973588723924,-0.0351003837960561,-0.3103464493643804,-0.3172495159516783,-0.54124308387344,-0.53414826455484,-0.5573639392214745,-15.451330023115048,18.32949782361376,-0.3869321765681039,-0.4042587173136536,3.3670978090985866,1.3226869486194108,7227.17236328125,11.795333333333332,8.453333333333333,179.04703576647873,8.626263208394642,30.023716010534244,1779.0,1435.0,1350.0,1528.0,1677.0,1021.7000000000002,93.0,292.65,1637155832.214721,1637155833.3368704,55adfac0-c540-4ae0-90cd-a0f18842cc67
0.4495320525417099,1.020198567633125,-0.0381925189748468,-0.3893284903018818,-0.3636359326653331,-0.6041256476752966,-0.5754614803685422,-0.5879921928372124,-15.310423431432191,18.61772270222232,2.750606993697595,-0.3650723202148306,3.9561789697280303,1.4722423722875717,7240.740288628473,11.786888888888887,8.54888888888889,179.22685643348737,8.697223940956674,29.21268113464915,1864.0,1435.0,1350.0,1528.0,1744.0,1021.7000000000002,93.0,292.65,1637155835.3639214,1637155836.424958,11ea0b62-1361-4f11-9daf-d4c6dcdbeb2f
0.428454694248026,1.0062478018182412,-0.0504602529720751,-0.3932205048046387,-0.372590196397044,-0.5936066867238214,-0.582745860234126,-0.6090432626884453,-15.342728833054752,18.53288711775197,1.719813174908227,-0.3340091920746659,3.912919707842178,1.5083682925586916,7239.38037109375,11.778666666666666,8.523333333333333,179.30272465696805,8.733823225032973,28.984845755595124,1864.0,1435.0,1350.0,1528.0,1744.0,1021.7000000000002,93.0,292.65,1637155836.5328016,1637155837.5313313,11ea0b62-1361-4f11-9daf-d4c6dcdbeb2f
0.4388027173244503,1.0091142174246843,-0.0484090562874509,-0.3888156907921348,-0.3719064640514141,-0.5941194864043136,-0.5844683399939187,-0.6161961547588163,-15.478688268033755,18.77037054931149,2.621378266535371,-0.3433459842201224,3.916233983539759,1.508557950847304,7239.38037109375,11.777555555555557,8.55888888888889,179.3831903566701,8.752864369482891,28.770712874381008,1864.0,1435.0,1350.0,1528.0,1744.0,1021.7000000000002,93.0,292.65,1637155837.6395545,1637155838.7612123,11ea0b62-1361-4f11-9daf-d4c6dcdbeb2f
-0.2309200957409941,-0.2671885871234707,-0.0246909989489889,0.2568828475703351,-0.0453864995941017,0.0104269778851153,-0.2634220330537308,-0.2886374017264376,-14.64945870498738,20.16499372835173,-3.3789095241338685,-0.4315000051869517,-0.901338263138638,0.4171675155743806,7239.38037109375,11.786111111111111,8.561111111111112,179.829423311165,8.794489439559719,28.497927261489224,1440.0,1435.0,1350.0,1528.0,1408.0,1021.7000000000002,93.0,292.65,1637155839.3421333,1637155840.5128992,5417f02d-1a7c-4a5f-97e0-69ad8a4393cc
-0.2332348144424285,-0.262668722212831,-0.0239102950845071,0.2529930251760618,-0.0453591064842776,0.0104132813706961,-0.2618332320522299,-0.2924998316332539,-14.584373062387051,20.061117573407383,-3.250533104014258,-0.4233528041166616,-0.8854578276350432,0.4145859158406473,7236.664876302083,11.809888888888889,8.398888888888889,179.87306518432175,8.817487160813844,28.3959660078318,1440.0,1435.0,1350.0,1528.0,1408.0,1021.7000000000002,93.0,292.65,1637155840.620643,1637155841.6328516,5417f02d-1a7c-4a5f-97e0-69ad8a4393cc
-0.2433702689198783,-0.2633261571060854,-0.0264989447263749,0.2532395631424645,-0.0481669011003516,0.0127964825196702,-0.2651614962201509,-0.2931572664780466,-14.65122076791278,20.15326669953225,-2.9947304892085604,-0.4180644649702786,-0.8899105465918509,0.4268764181297427,7245.5,11.808,8.42,179.91425881411598,8.842757342923075,28.28766045707281,1440.0,1435.0,1350.0,1528.0,1408.0,1021.7000000000002,93.0,292.65,1637155841.7410452,1637155842.8640668,5417f02d-1a7c-4a5f-97e0-69ad8a4393cc
-0.3744326580148239,-0.5403391107185586,-0.0252662544245909,0.3591276509176757,0.0098517225263383,0.1870988848697555,-0.1933641280690243,-0.2182644750030322,-14.393639260418771,20.97514509765854,-2.670419564746792,-0.2595502089924316,-1.9465200087524537,0.2116585800102207,7244.824598524306,11.806,8.42,-179.9337612809261,8.866415220933233,28.15177706890252,1355.0,1435.0,1350.0,1528.0,1341.0,1021.7000000000002,93.0,292.65,1637155844.992323,1637155846.1396844,d4848507-66f5-41ec-a5be-c84c7c85e27c
-0.3712550557851739,-0.5322855319949569,-0.0198835067501214,0.3646199705072712,0.0150975045496018,0.1739090994240185,-0.1921177410912217,-0.2173468057737997,-14.47202138606463,20.92430860290837,-2.678140429726316,-0.3016884080704857,-1.9160268395085367,0.1963795693374503,7245.5,11.799555555555555,8.39,-179.93186552397646,8.875792406617489,28.1550310848596,1355.0,1435.0,1350.0,1528.0,1341.0,1021.7000000000002,93.0,292.65,1637155846.2478092,1637155847.361344,d4848507-66f5-41ec-a5be-c84c7c85e27c
-0.3657216450652048,-0.531737669502862,-0.0208559624591974,0.3626339696593939,0.0133306484479914,0.1741830305841011,-0.1944050666175355,-0.2204833177056008,-14.550836262075348,21.02190130587707,-2.836073129293382,-0.2960592336076495,-1.911829910402054,0.2030992764153324,7248.224392361111,11.799111111111111,8.47111111111111,-179.91573261715692,8.874308358292827,28.168975864687564,1355.0,1435.0,1350.0,1528.0,1341.0,1021.7000000000002,93.0,292.65,1637155847.4696388,1637155848.591936,d4848507-66f5-41ec-a5be-c84c7c85e27c
-0.4895111683847248,-0.7516770847216095,-0.0150623180133674,0.4589892515356395,0.0629806735901885,0.3136413830021912,-0.1364001361804414,-0.1648478913548168,-14.393412429885004,22.015215330411586,-0.8013412898022484,-0.1927547290143481,-2.767363689123579,0.0217944962838596,7233.2705078125,11.792666666666667,8.51,-179.86298686074645,8.872569126511674,28.14369828320673,1271.0,1435.0,1350.0,1528.0,1273.0,1021.7000000000002,93.0,292.65,1637155850.4328518,1637155851.572806,1008065f-dbfa-401a-ac3e-626713b8c224
-0.4681308351556771,-0.7463217280392817,-0.0089125631047852,0.4553870569431584,0.0664732959866562,0.3102857263735507,-0.129538159866179,-0.1585200812742563,-14.12134673175431,21.969283374898108,-0.9546823377415764,-0.1920554333076816,-2.7470118118774693,-0.000506113022542,7239.38037109375,11.783333333333331,8.57,-179.8692296536478,8.864983347664728,28.20304807363469,1271.0,1435.0,1350.0,1528.0,1273.0,1021.7000000000002,93.0,292.65,1637155851.6800022,1637155852.8998826,1008065f-dbfa-401a-ac3e-626713b8c224
-0.4959211594808213,-0.7452533960162969,-0.0158156287553515,0.4561129744923233,0.0606111689657076,0.3101898504543922,-0.1368932123056929,-0.1641904563591934,-14.21218063722814,21.91619251160844,-0.7783556372991148,-0.1946216597484663,-2.7444526902216446,0.0277025753657148,7239.38037109375,11.785555555555554,8.515555555555556,-179.87264626605264,8.86363561853225,28.24078942225846,1271.0,1435.0,1350.0,1528.0,1273.0,1021.7000000000002,93.0,292.65,1637155853.008048,1637155854.1206734,1008065f-dbfa-401a-ac3e-626713b8c224
-0.5718718852786815,-0.9267027548480544,-0.0001007449689279,0.573668882462093,0.1118078087085879,0.3935317597079095,-0.0919443914553096,-0.1071968803975438,-14.097879497397471,23.316290577377885,1.3987004755499275,-0.2620501015332621,-3.458555958749666,-0.1457965556869767,7239.38037109375,11.783222222222223,8.557777777777776,-179.8745951466958,8.838022219417226,28.2668035258048,1186.0,1435.0,1350.0,1528.0,1206.0,1021.7000000000002,93.0,292.65,1637155855.8417509,1637155856.9883363,883a509c-58e0-43d8-a3b1-13ad99a91148
-0.5788669937747819,-0.9318701953821038,-0.0068854723434248,0.5726695816958681,0.1064036946600668,0.3957801867505109,-0.0973090597940704,-0.1219628670713611,-14.115201041082091,23.28116171032329,0.8218330936460296,-0.2554147909062017,-3.47300931983653,-0.1229948213009082,7233.2705078125,11.77777777777778,8.546666666666667,-179.8858239776913,8.841558075541307,28.326319896957514,1186.0,1435.0,1350.0,1528.0,1206.0,1021.7000000000002,93.0,292.65,1637155857.0999098,1637155858.1129255,883a509c-58e0-43d8-a3b1-13ad99a91148
-0.5856473402501245,-0.9234183181962204,0.0027021188317036,0.5706024972584853,0.1137401191625432,0.3933964378469121,-0.0890100405664126,-0.1257168209051434,-14.075028688995426,23.28103582621944,1.4579034690778383,-0.255510378358462,-3.446369145053992,-0.1559424539575923,7239.38037109375,11.778444444444444,8.573333333333332,-179.8982503685213,8.825545361078383,28.401791969466338,1186.0,1435.0,1350.0,1528.0,1206.0,1021.7000000000002,93.0,292.65,1637155858.2208033,1637155859.344825,883a509c-58e0-43d8-a3b1-13ad99a91148
-0.0711908171276561,0.0512564194642752,-0.0497967916174862,0.0965098486981782,-0.1373041090893118,-0.1404406212606342,-0.3571339011372809,-0.3933339128598774,-15.077427782822191,19.03549452142473,-1.905803844166528,-0.4174757455281488,0.3011317057875636,0.749377991549085,7239.38037109375,11.784,8.50111111111111,179.81597694541898,8.818681969599904,28.496413615678154,1525.0,1435.0,1350.0,1528.0,1475.0,1021.7000000000002,93.0,292.65,1637155860.3488553,1637155861.4879782,6e4a4951-0c09-4466-80a6-4249b0006f09
-0.0557547949649819,0.0643640260158432,-0.04046943490402,0.0829091661776997,-0.1340169347974933,-0.1449330928327964,-0.3489844473718683,-0.3719398841131887,-14.840555376449734,19.073826938686068,-2.4332008615825043,-0.3961374056953128,0.3555574714094618,0.7214562826004581,7235.986002604167,11.807444444444444,8.437777777777777,179.78091834331917,8.798560137441306,28.524945782298506,1525.0,1435.0,1350.0,1528.0,1475.0,1021.7000000000002,93.0,292.65,1637155861.6006937,1637155862.556604,6e4a4951-0c09-4466-80a6-4249b0006f09
-0.0581653893801927,0.0597756789042544,-0.0437292159425612,0.0885521482356261,-0.1338525760659832,-0.1425772845801389,-0.3505869450094388,-0.3864582403199808,-14.934354107478606,18.935043655940653,-2.015522617388576,-0.4046357370296966,0.3344066143860789,0.728032225218715,7227.17236328125,11.810666666666666,8.393333333333333,179.76007412379215,8.79797065417044,28.565118109084363,1525.0,1435.0,1350.0,1528.0,1475.0,1021.7000000000002,93.0,292.65,1637155862.6651545,1637155863.646445,6e4a4951-0c09-4466-80a6-4249b0006f09
-0.044057933535757,0.0515440471881771,-0.061206025390985,-0.2141828992645893,-0.1809824379444898,0.1601714515888909,-0.2839120874589488,-0.3079632482652886,-14.97790719752949,18.40696069665659,0.4410820931532893,0.9545759127773504,0.3182246947629136,0.7211174896265559,7235.986002604167,11.808222222222222,8.46888888888889,179.73185329996147,8.875233659197884,28.639649323035016,1525.0,1535.0,1350.0,1528.0,1475.0,1021.7000000000002,93.0,292.65,1637155864.3387482,1637155865.4888463,2748b1af-f543-44f5-94aa-40ae12cd45b4
-0.0541249044357057,0.0550914558623517,-0.0588776103079063,-0.2156347345487691,-0.1798730165838657,0.1603221137558498,-0.2815425824602538,-0.3191396420560762,-14.902736708667854,18.401281905079017,0.7841136546672142,0.958360269737354,0.3282835805716319,0.7140140832956575,7233.2705078125,11.808,8.443333333333333,179.71613779359117,8.849670348136776,28.63419807316744,1525.0,1535.0,1350.0,1528.0,1475.0,1021.7000000000002,93.0,292.65,1637155865.596738,1637155866.718034,2748b1af-f543-44f5-94aa-40ae12cd45b4
-0.0524402276449792,0.0562830564694085,-0.0553438980636034,-0.217237232171029,-0.1776952635983762,0.1557885529951677,-0.279063505035676,-0.2931846595348546,-14.840545774587346,18.45052361104788,0.1184623414468527,0.9522151765586054,0.3386344413644344,0.7019159605704864,7233.2705078125,11.808,8.41,179.69976355342092,8.846639451692582,28.68876843872369,1525.0,1535.0,1350.0,1528.0,1475.0,1021.7000000000002,93.0,292.65,1637155866.826932,1637155867.8344853,2748b1af-f543-44f5-94aa-40ae12cd45b4
-0.0387567697242814,0.0505829060885251,-0.0767593615692587,-0.5656479765687312,-0.236787582865847,0.500668471133381,-0.2077461115095496,-0.2333860733436772,-14.858768217576376,18.14510713287231,2.937467188023867,2.5104848830985462,0.3339336310622077,0.7103966434413292,7233.2705078125,11.806777777777777,8.423333333333334,179.67322902740534,8.946442839890977,28.79521124511403,1525.0,1636.0,1350.0,1528.0,1475.0,1021.7000000000002,93.0,292.65,1637155869.8813117,1637155871.113962,1dace763-1a5f-4d0e-b23d-abf26c14450b
-0.0345936111912923,0.0464078377124992,-0.0837231686972442,-0.5613359412279123,-0.2422334542921094,0.5012157379246749,-0.2148540306134863,-0.2480134032663923,-14.905881521464629,18.17130862389716,2.943940985478655,2.5017920274469447,0.3175787377879704,0.736924769465951,7233.2705078125,11.801666666666668,8.502222222222223,179.6706608762774,8.926384281845943,28.849250563462306,1525.0,1636.0,1350.0,1528.0,1475.0,1021.7000000000002,93.0,292.65,1637155871.2225494,1637155872.3469627,1dace763-1a5f-4d0e-b23d-abf26c14450b
