raw_voltage_G-,raw_voltage_G0,raw_voltage_G1,raw_voltage_G2,raw_voltage_G3,raw_voltage_G4,raw_voltage_G5,raw_voltage_G6,load_x,load_y,load_z,load_l,load_m,load_n,rpm,voltage,current,roll,pitch,yaw,aileron1_pwm,elevator_pwm,throttle_pwm,rudder_pwm,aileron2_pwm,pbaro,pdiff,Tt,sample_start_time,sample_end_time,uid
0.0483253558200393,0.1790590052978219,-0.0122408268612352,-0.0956528718278952,-0.1218269968172402,0.1843869663866214,-0.2257290993004491,-0.2503007287355756,-13.80950494923008,15.798629398887291,37.576489575887926,0.733271645258517,0.4475497861410929,0.5616929296691797,4115.607367621527,12.040111111111113,0.34,178.8876935244216,-8.671360481027037,106.27297525444784,1525.0,1435.0,1200.0,1528.0,1475.0,1021.7000000000002,93.0,292.65,1637156423.831218,1637156425.0092945,fb6e7f4f-33b1-41aa-b28d-85f5ee547d4c
0.0303647845251791,0.1754343481614429,-0.0116058543966499,-0.0917734583814803,-0.1206874430719277,0.1847304760606408,-0.223944163592404,-0.2519377414256375,-13.687583584416515,15.79913604925401,37.63690093144535,0.7253985291539046,0.4321193879689406,0.5564996014458322,4132.58251953125,12.038555555555554,0.3422222222222222,179.07400590678137,-8.73190583915097,105.78548264499668,1525.0,1435.0,1200.0,1528.0,1475.0,1021.7000000000002,93.0,292.65,1637156425.1172688,1637156426.241886,fb6e7f4f-33b1-41aa-b28d-85f5ee547d4c
0.0485494315635226,0.1734488950963999,-0.0115269622237794,-0.0925360827931397,-0.1208320787468999,0.1868474160831903,-0.2237469331431693,-0.2485716749710903,-13.70275391540575,15.8637318070226,37.56186781243364,0.7322884141865822,0.4255451125769061,0.5559183729514425,4134.350314670139,12.037444444444446,0.3400000000000001,179.1951400706215,-8.76262034607487,105.41121028686732,1525.0,1435.0,1200.0,1528.0,1475.0,1021.7000000000002,93.0,292.65,1637156426.350919,1637156427.474846,fb6e7f4f-33b1-41aa-b28d-85f5ee547d4c
0.1788398603140433,0.4090472202396916,0.0166769917050405,-0.209980246740221,-0.1499695916705011,0.0605673399680031,-0.2470069794715997,-0.264389558216819,-13.301614516138365,15.348686328702238,37.07601896396272,0.7115600279940069,1.3268881102802588,0.6175612989203,4114.723470052083,12.03711111111111,0.3522222222222221,179.28427252147034,-8.807720274891942,104.76936299127296,1610.0,1435.0,1200.0,1528.0,1542.0,1021.7000000000002,93.0,292.65,1637156429.404239,1637156430.4294195,0724287f-5c8c-48e7-a036-4f1efdd1f0c9
0.1666910132217333,0.4075860714862564,0.0191653825030801,-0.2121421117802819,-0.1469327904611073,0.0645146881347265,-0.2440414002325736,-0.2760091727753546,-13.42910543862484,15.357691629190064,37.17215675302179,0.725441635963424,1.3218822719838033,0.6056577482470392,4108.807020399306,12.032444444444444,0.3755555555555555,179.31046098456795,-8.819970408895834,104.49371856475858,1610.0,1435.0,1200.0,1528.0,1542.0,1021.7000000000002,93.0,292.65,1637156430.5375493,1637156431.7713835,0724287f-5c8c-48e7-a036-4f1efdd1f0c9
0.1693618420590123,0.408681796081854,0.0190284169138931,-0.211279228467507,-0.1480696049147237,0.0632272116516262,-0.2457123805843515,-0.2710647144676268,-13.434779298957574,15.462827351671296,37.24647010004562,0.721301178388579,1.325260287021215,0.6099697933208912,4104.433919270833,12.031666666666668,0.37,179.3413015654003,-8.809537010347427,104.26017845992776,1610.0,1435.0,1200.0,1528.0,1542.0,1021.7000000000002,93.0,292.65,1637156431.8811617,1637156432.9994595,0724287f-5c8c-48e7-a036-4f1efdd1f0c9
0.321557993297418,0.6748332980449069,0.0546394694434914,-0.3512580765257406,-0.1802154305667065,-0.0674516563319914,-0.2656545723702873,-0.291431500168878,-12.815478832895929,15.015559939139258,37.480028677209326,0.7425634733314507,2.336521315682587,0.6655283012933414,4110.99560546875,12.032,0.37,179.28726110868718,-8.809430288641645,103.82442149779985,1695.0,1435.0,1200.0,1528.0,1609.0,1021.7000000000002,93.0,292.65,1637156434.828223,1637156435.8666108,03d7d8ba-d16b-4e34-8fed-66a66e2a7a8e
0.3299402865843033,0.6859001163065009,0.0624328112555337,-0.3612702626171506,-0.1766817181543176,-0.063767281943381,-0.2576420845943886,-0.2768720561959136,-12.685883794211309,15.031217127777516,38.29412793731593,0.7741146501097105,2.3716230659624227,0.641167715658017,4163.397732204861,12.024111111111113,0.39,179.27173988325328,-8.803570365788728,103.63713239838876,1695.0,1435.0,1200.0,1528.0,1609.0,1021.7000000000002,93.0,292.65,1637156435.9750645,1637156437.0963335,03d7d8ba-d16b-4e34-8fed-66a66e2a7a8e
0.3226537179001814,0.6936934573854625,0.0555571388607279,-0.3632699605109037,-0.1851461921071608,-0.0718345552856564,-0.2671338009013336,-0.286267896269761,-12.642774564675335,15.006554307680998,37.90834838761995,0.7599515874707444,2.4037767775874967,0.6760047379958586,4198.253309461806,12.024444444444445,0.3888888888888889,179.27434597987656,-8.791985321455263,103.48836556589652,1695.0,1435.0,1200.0,1528.0,1609.0,1021.7000000000002,93.0,292.65,1637156437.204836,1637156438.3248415,03d7d8ba-d16b-4e34-8fed-66a66e2a7a8e
0.4122155078708259,0.8641334165868608,0.0861826436991187,-0.452092161121421,-0.202075140139889,-0.1664366914587523,-0.2815562790140269,-0.3054978672598001,-12.545431700271074,15.332939329209838,36.63193637160523,0.7512632029035337,3.0665370328689483,0.6958294831822665,4213.843641493056,12.02588888888889,0.3933333333333333,179.17786879894027,-8.763601426858152,103.12158213073712,1779.0,1435.0,1200.0,1528.0,1677.0,1021.7000000000002,93.0,292.65,1637156440.351781,1637156441.3967526,783dbee0-111c-4413-8e68-c81ff54b6221
0.4234192918824878,0.8654345895392163,0.0887028104326683,-0.4520647680372203,-0.2011300775375959,-0.1715318117078154,-0.2808440578962117,-0.3028681281056149,-12.485798998148097,15.432872420180956,36.10369355134483,0.740485763940967,3.075835046986456,0.6895062884774935,4209.9345703125,12.015333333333334,0.43,179.16590989661347,-8.758809574836697,102.9401457445348,1779.0,1435.0,1200.0,1528.0,1677.0,1021.7000000000002,93.0,292.65,1637156441.5055375,1637156442.7177684,783dbee0-111c-4413-8e68-c81ff54b6221
0.4409591033450307,0.871854987792658,0.085037063547805,-0.4454734346937797,-0.2030114369843585,-0.179869729457289,-0.2848489321697711,-0.3119352508465508,-12.41642527450428,15.163351202004266,36.648538387464725,0.7050334702668459,3.093546993884309,0.704529921312183,4209.475260416667,12.017111111111111,0.42,179.15851356065227,-8.75611838543997,102.78920084060724,1779.0,1435.0,1200.0,1528.0,1677.0,1021.7000000000002,93.0,292.65,1637156442.8257072,1637156443.9424963,783dbee0-111c-4413-8e68-c81ff54b6221
0.5251573201374314,1.03547735174291,0.1092476480349319,-0.5326142495315301,-0.2298654604722308,-0.2775157937247806,-0.3096479247634953,-0.3227692301114968,-12.213050754791007,15.992106371952872,34.13936926103438,0.6885798957051277,3.740307384635701,0.7587102523698391,4203.740234375,12.012999999999998,0.43,179.0595107275428,-8.737891741048578,102.41158093087466,1864.0,1435.0,1200.0,1528.0,1744.0,1021.7000000000002,93.0,292.65,1637156445.993789,1637156447.0187652,3e3d1441-e3d0-4833-ba95-df95ee817421
0.5200485042387538,1.0368333109475645,0.1172053484204173,-0.5284504946443628,-0.2222775662083935,-0.2838299081041619,-0.3025804995126203,-0.3353426734152735,-12.12007716948522,15.98171370742958,34.0332359573954,0.6653560551159053,3.7456673208517,0.7275857085430308,4189.589572482639,12.00511111111111,0.4499999999999999,179.06677349536025,-8.717664040957846,102.22207657344272,1864.0,1435.0,1200.0,1528.0,1744.0,1021.7000000000002,93.0,292.65,1637156447.1278286,1637156448.248936,3e3d1441-e3d0-4833-ba95-df95ee817421
0.5062292257680894,1.0252739640762083,0.1092043669091601,-0.5313081454841647,-0.2286513973840457,-0.2713846654410889,-0.3077013695497419,-0.3341959969021518,-12.220146164944277,16.08568428586006,33.76716752107871,0.6999663902944261,3.7052255453407774,0.7525526868678907,4180.504069010417,12.006333333333332,0.4533333333333333,179.05123253826875,-8.725451405249046,102.07477519598244,1864.0,1435.0,1200.0,1528.0,1744.0,1021.7000000000002,93.0,292.65,1637156448.3568904,1637156449.5877144,3e3d1441-e3d0-4833-ba95-df95ee817421
-0.1530551527636689,-0.1516718000966661,-0.0504679230034377,0.0580636090619789,-0.0852160936334477,0.3590865612586995,-0.1941174388336385,-0.2292765089692121,-14.211304141608396,16.88130438373607,36.43049744121524,0.7839870369243623,-0.8012219029835238,0.4779147073341652,4161.784884982639,12.012,0.43,179.3133023432627,-8.697660598744864,101.7245549695603,1440.0,1435.0,1200.0,1528.0,1408.0,1021.7000000000002,93.0,292.65,1637156451.3280256,1637156452.4553206,47b3f7ff-e2db-481a-b842-522e5558d0c4
-0.1584652938449832,-0.1614100540281019,-0.0569326988978233,0.0666787443726592,-0.0874349362317383,0.3601138030627759,-0.1999932630300975,-0.2134980717712974,-14.380481284594902,16.847713149476284,36.30172201128964,0.7662114818342749,-0.8368786579787785,0.4967260330218928,4178.469401041667,12.034333333333333,0.3566666666666667,179.2940047821277,-8.683747693133025,101.7609507709176,1440.0,1435.0,1200.0,1528.0,1408.0,1021.7000000000002,93.0,292.65,1637156452.564376,1637156453.6809168,47b3f7ff-e2db-481a-b842-522e5558d0c4
-0.1593314641973917,-0.1576878769655568,-0.0527744235538445,0.0703236725586485,-0.0819645304652168,0.3597527618214755,-0.1931762112369205,-0.2141220866204465,-14.221030782111278,16.577298118125086,37.290060557990046,0.7558303596203817,-0.832996144246256,0.475999724534503,4183.677788628473,12.03422222222222,0.3499999999999999,179.26609055789973,-8.683664497634384,101.81846703500835,1440.0,1435.0,1200.0,1528.0,1408.0,1021.7000000000002,93.0,292.65,1637156453.7895396,1637156454.9135275,47b3f7ff-e2db-481a-b842-522e5558d0c4
-0.2882265041262734,-0.3891016748043012,-0.0788608901472634,0.1639106119974258,-0.0582475685783794,0.4856290556659228,-0.1708195905615277,-0.2086768826276647,-14.613065703156344,17.47816502372119,35.17989502222226,0.831721303420948,-1.6926225339938157,0.4166234175167223,4160.00439453125,12.026333333333334,0.3833333333333333,179.28301121320362,-8.680500412501374,101.7476356965856,1355.0,1435.0,1200.0,1528.0,1341.0,1021.7000000000002,93.0,292.65,1637156455.9147136,1637156457.1689332,53d66e6a-1e27-43e9-b5da-53ded439c91c
-0.2904042572369656,-0.3848420442542486,-0.0762311507780961,0.1656911645179274,-0.0575627406356717,0.4798628050053772,-0.1715044185508354,-0.1954597024312243,-14.615539462142406,17.623517995440125,35.19232795396406,0.8158425205447228,-1.6767890612814218,0.4135682598314716,4118.9044189453125,12.021875,0.4087499999999999,179.28994878812557,-8.668185498422073,101.61219323507171,1355.0,1435.0,1200.0,1528.0,1341.0,1021.7000000000002,93.0,292.65,1637156457.2770376,1637156458.2790024,53d66e6a-1e27-43e9-b5da-53ded439c91c
-0.2781595321607809,-0.391402697112531,-0.0769707649719172,0.1684578693044008,-0.0552480221334006,0.4832732478025421,-0.1716550807206588,-0.1976374554303392,-14.851813257771918,17.599209886747268,35.12365919921607,0.8169373830819303,-1.6995025414835834,0.4106165283224118,4100.728515625,12.021444444444445,0.4,179.28734762441664,-8.661469133880257,101.49089419805418,1355.0,1435.0,1200.0,1528.0,1341.0,1021.7000000000002,93.0,292.65,1637156458.388345,1637156459.623296,53d66e6a-1e27-43e9-b5da-53ded439c91c
-0.4410253394458032,-0.6612660656051363,-0.1087604791333202,0.2847964324300483,-0.0276631522362205,0.6347571715183431,-0.1446865546996651,-0.1765721461846884,-15.169339512976984,18.54459830489759,34.27058406183165,0.8992990496082567,-2.718169125110504,0.3445337092176871,4087.470703125,12.017,0.43,179.35091847175167,-8.66282027810732,101.18436896848236,1271.0,1435.0,1200.0,1528.0,1273.0,1021.7000000000002,93.0,292.65,1637156461.3666885,1637156462.4913666,32b281c5-ead5-4773-84b8-35c1d109d3ad
-0.4542836111262338,-0.6868512466136322,-0.1115408806803141,0.3027800127553827,-0.0257319374067515,0.6426737816120274,-0.1463712315263922,-0.1608211026357328,-15.281917194918645,18.879498269208923,34.165813327656615,0.8785304554127511,-2.81478847862646,0.3447898638605613,4130.16552734375,12.015666666666666,0.42,179.3706395046152,-8.65490010458226,100.97871197257328,1271.0,1435.0,1200.0,1528.0,1273.0,1021.7000000000002,93.0,292.65,1637156462.599559,1637156463.7212431,32b281c5-ead5-4773-84b8-35c1d109d3ad
-0.4541877352307764,-0.6848789414386659,-0.1093631277561472,0.3089434637181029,-0.0221982252154742,0.6449611066733821,-0.1418924565540877,-0.1714496329577685,-15.14495628369773,18.7004006016844,35.59871015932193,0.868985677071456,-2.821684071388791,0.3331144324491528,4174.850477430556,12.016333333333332,0.42,179.38027007134494,-8.641511890307912,100.82702713148562,1271.0,1435.0,1200.0,1528.0,1273.0,1021.7000000000002,93.0,292.65,1637156463.8295135,1637156464.9493077,32b281c5-ead5-4773-84b8-35c1d109d3ad
-0.5640747059598064,-0.8733190189217135,-0.119530357780541,0.3862473826612194,0.0040673917845924,0.7445230250145899,-0.1191753429400368,-0.1500353355778185,-15.651141417061302,19.984960264793763,33.66059726919281,0.9257813936639556,-3.517829362881937,0.2531162441391778,4197.564453125,11.998666666666669,0.4855555555555554,179.42645732833236,-8.656594086360162,100.50340366169152,1186.0,1435.0,1200.0,1528.0,1206.0,1021.7000000000002,93.0,292.65,1637156465.9513671,1637156467.089473,e88439fa-dba4-4290-ab21-a3d1e8e6132e
-0.5617742314282067,-0.8696319034563821,-0.1203203752985386,0.389410739637049,0.0025514566731543,0.7354131708208268,-0.1232377424774287,-0.1340169358618174,-15.666535657193206,20.037713843634407,33.27423416408906,0.8984156112805982,-3.500905820223465,0.2619384050139081,4193.685112847223,11.997777777777776,0.4888888888888889,179.45582107048418,-8.64339673792762,100.21892021148122,1186.0,1435.0,1200.0,1528.0,1206.0,1021.7000000000002,93.0,292.65,1637156467.1985416,1637156468.3217752,e88439fa-dba4-4290-ab21-a3d1e8e6132e
-0.539599496540402,-0.8679883155449883,-0.1190739883753819,0.3954235283982051,0.0056057893095944,0.7308659138050567,-0.1227857560001277,-0.1525620774753512,-15.73561808635285,19.924030829184705,33.65189184064358,0.8739678090946802,-3.4982628049693303,0.2562183930039828,4186.630208333333,12.000444444444444,0.4811111111111111,179.46913083244684,-8.642236554406104,100.00321069493368,1186.0,1435.0,1200.0,1528.0,1206.0,1021.7000000000002,93.0,292.65,1637156468.4303074,1637156469.454547,e88439fa-dba4-4290-ab21-a3d1e8e6132e
0.0027295118707756,0.1357778814694994,-0.0220201699329469,-0.0740397013195694,-0.1192109539622389,0.2067397490980226,-0.2248388229043627,-0.2537796551182254,-13.913018077446829,15.714812425234792,37.52212620707085,0.7336439646446475,0.2831512951412907,0.5650303638515112,4167.631293402777,12.040777777777777,0.3388888888888889,179.1751124381552,-8.661433465114593,99.53222817052632,1525.0,1435.0,1200.0,1528.0,1475.0,1021.7000000000002,93.0,292.65,1637156471.3887806,1637156472.413232,ff6d37a1-38f3-4015-a5e1-b3996016ab1e
0.0116733647521614,0.1420782982654136,-0.0150212283210991,-0.0713003894789289,-0.1150471998929393,0.201726808874174,-0.221195537919713,-0.2421238827139234,-13.854784000858707,15.887584214575412,38.08391543949711,0.7178126938802792,0.3014997562297878,0.546180130460142,4177.1083984375,12.03911111111111,0.3355555555555556,179.11003287792352,-8.617676806834291,99.79452261285294,1525.0,1435.0,1200.0,1528.0,1475.0,1021.7000000000002,93.0,292.65,1637156472.5217793,1637156473.755264,ff6d37a1-38f3-4015-a5e1-b3996016ab1e
0.0179326921050467,0.1439273336227972,-0.0155416975641831,-0.0702731475348915,-0.1135131852388949,0.2002064909387983,-0.2202778683960738,-0.236083699371368,-13.878130169886616,15.64975774376362,38.26422058735668,0.7104936238469182,0.3068384576666218,0.5440619648394359,4189.35791015625,12.037666666666668,0.3377777777777778,179.06084640898047,-8.611225503435739,100.05796604477996,1525.0,1435.0,1200.0,1528.0,1475.0,1021.7000000000002,93.0,292.65,1637156473.863229,1637156474.991348,ff6d37a1-38f3-4015-a5e1-b3996016ab1e
0.01985021029344,0.1384213172072612,-0.0335663691417781,-0.3189752825761064,-0.1567395271670627,0.4382663601944148,-0.1703128178451884,-0.1944050669058702,-13.73775103138172,15.173610706180336,38.910649139706976,1.8025767838073328,0.3089345123224618,0.5547262793576596,4116.926920572917,12.033666666666669,0.35,178.97761675939438,-8.544503187844915,100.56567904981398,1525.0,1535.0,1200.0,1528.0,1475.0,1021.7000000000002,93.0,292.65,1637156476.9186528,1637156478.0565252,9a990868-edbd-4fa2-907b-922ca08b0f7c
0.0267806690267713,0.1342575635105104,-0.0402913796359984,-0.3196053243849241,-0.1620811854662776,0.4437449831588351,-0.1760790695421809,-0.1981168353248799,-13.846773433065913,15.183718172898358,38.97936045147228,1.815997417959136,0.2931319647970345,0.5788858364990944,4105.0888671875,12.034333333333333,0.3466666666666667,178.9823796779756,-8.526684931847642,100.64162392319535,1525.0,1535.0,1200.0,1528.0,1475.0,1021.7000000000002,93.0,292.65,1637156478.1652973,1637156479.2852137,9a990868-edbd-4fa2-907b-922ca08b0f7c
0.0270272070778549,0.1409003942575589,-0.0379218749129296,-0.3247141415444255,-0.1617250748982689,0.4404030231495712,-0.1735178128353042,-0.1964184612810093,-13.693138526185349,15.098241728602446,38.7800979829216,1.8196087515857864,0.319503056115405,0.5721446896304014,4099.854166666667,12.032666666666668,0.3499999999999999,178.98099997976323,-8.52657451045606,100.72673491044289,1525.0,1535.0,1200.0,1528.0,1475.0,1021.7000000000002,93.0,292.65,1637156479.3934124,1637156480.5190425,9a990868-edbd-4fa2-907b-922ca08b0f7c
0.0421619044182055,0.141434560020165,-0.057877761472994,-0.6134239699339249,-0.2121832013997736,0.723510862550684,-0.1164853386402753,-0.155301388908532,-13.714302913427042,14.667277056370612,41.453461379767845,3.10361341560464,0.3322363002202101,0.5883362787909955,4106.401475694444,12.032111111111112,0.36,178.9994642578195,-8.469333540934336,100.89477350113324,1525.0,1636.0,1200.0,1528.0,1475.0,1021.7000000000002,93.0,292.65,1637156482.4487972,1637156483.4966822,e151874a-d15d-42f0-a403-23a6c72ff642
0.043969850157604,0.1461187829388667,-0.0523854412747494,-0.6081644896177397,-0.2082385921199769,0.7143615622935462,-0.1133625230888826,-0.1323733482867114,-13.564773955141424,14.70925967326002,41.52559427494439,3.0718281734662134,0.3478086841215438,0.5718327002958328,4110.99560546875,12.029666666666666,0.36,178.99840785522787,-8.447426562945168,100.8965539037769,1525.0,1636.0,1200.0,1528.0,1475.0,1021.7000000000002,93.0,292.65,1637156483.6057413,1637156484.7022295,e151874a-d15d-42f0-a403-23a6c72ff642
0.0322729890922107,0.1335042528055067,-0.0572340231963144,-0.6045349004258683,-0.2098136965287174,0.725318808105393,-0.1153211310839219,-0.1285109183058449,-13.695170910863652,14.754672989546412,41.77509740513932,3.088296860964783,0.2984546200240224,0.582123379878134,4122.8603515625,12.030333333333331,0.3588888888888888,179.0048069835703,-8.457680004981695,100.90021109062248,1525.0,1636.0,1200.0,1528.0,1475.0,1021.7000000000002,93.0,292.65,1637156484.8109653,1637156485.931382,e151874a-d15d-42f0-a403-23a6c72ff642
0.056269359816421,0.1412975944515853,-0.0588913068659033,-0.7970675002304709,-0.2376998928711581,0.9084554764631736,-0.0703553268883957,-0.0987345977836062,-13.54528182045326,14.84090833518158,43.855170470525366,3.9350319508659104,0.3317891598183602,0.5606007627473295,4171.478624131944,12.017222222222223,0.4155555555555555,179.04901955697767,-8.407772951081276,100.87794239719852,1525.0,1737.0,1200.0,1528.0,1475.0,1021.7000000000002,93.0,292.65,1637156487.978032,1637156489.002818,5a261bd4-397e-426c-af45-7cba6e904bde
0.0510739811554571,0.1434172738027139,-0.0603349241936304,-0.7957548215134334,-0.2389862738090523,0.907277572530441,-0.0714324242898101,-0.0844364857115124,-13.478379231340927,14.764649793386466,44.14548839818723,3.928926507699025,0.3364382158098375,0.5666097700737209,4201.225911458333,12.015666666666666,0.4044444444444444,179.07433830932098,-8.39871223082856,100.73892072683208,1525.0,1737.0,1200.0,1528.0,1475.0,1021.7000000000002,93.0,292.65,1637156489.111559,1637156490.139487,5a261bd4-397e-426c-af45-7cba6e904bde
0.056346608414667,0.1425100137734211,-0.0632276374872275,-0.792244118038325,-0.2411295115454445,0.9046741309064532,-0.0749825724522147,-0.099202472402551,-13.48546796257747,14.759957728184483,44.08390993342071,3.914968413513318,0.3330156748542647,0.5783577995474295,4212.0029296875,12.018,0.4099999999999999,179.07917256543357,-8.40567475491374,100.6179413806132,1525.0,1737.0,1200.0,1528.0,1475.0,1021.7000000000002,93.0,292.65,1637156490.247455,1637156491.368881,5a261bd4-397e-426c-af45-7cba6e904bde
0.0533656893667559,0.1429274848738294,-0.0627537365632616,-0.8574556571117501,-0.253628992438651,0.9594751533553,-0.0690678503792235,-0.0831068241754575,-13.858462641257026,15.523941806134554,43.41375473624705,4.190008440564539,0.3512329142543862,0.5842744022771763,4215.685872395833,12.007555555555555,0.44,179.12410458543354,-8.413254177890211,100.39818915098694,1525.0,1837.0,1200.0,1528.0,1475.0,1021.7000000000002,93.0,292.65,1637156492.3711958,1637156493.5093937,13cdfae4-7b9b-402f-bbe8-b58b3d05ad66
0.0582416642559853,0.1423522294193684,-0.0584941066562343,-0.8389242037684171,-0.2484516926480122,0.9500382251253238,-0.0665613799920248,-0.0984880602705222,-13.63058290353384,15.55210738164572,44.44182334419463,4.127677387352772,0.3363396305884681,0.5695383903537828,4203.286241319444,12.011888888888889,0.4255555555555556,179.13537895102348,-8.381147071285532,100.26756254202034,1525.0,1837.0,1200.0,1528.0,1475.0,1021.7000000000002,93.0,292.65,1637156493.6173904,1637156494.6450813,13cdfae4-7b9b-402f-bbe8-b58b3d05ad66
0.048818431900293,0.147652797463888,-0.0597815832071759,-0.8392666178864093,-0.2501774592366525,0.9463675477218524,-0.0698759473133346,-0.1032818559268023,-13.716329691542803,15.540129079506228,44.59629021701184,4.1200392342834,0.3554181783783579,0.5791643369100771,4195.966579861111,12.012777777777778,0.4122222222222222,179.13559144579767,-8.378897852046354,100.14117748052834,1525.0,1837.0,1200.0,1528.0,1475.0,1021.7000000000002,93.0,292.65,1637156494.753102,1637156495.874437,13cdfae4-7b9b-402f-bbe8-b58b3d05ad66
0.0139743866233149,0.1505701643563338,0.01020783306869,0.2366667282192385,-0.0634248679282121,-0.1084728513832299,-0.2835696734135778,-0.3181260964785916,-13.629886419445183,16.71300070190021,35.33129104323748,-0.6675432784987487,0.3198501304446448,0.5299501161723404,4192.090657552083,12.039,0.32,179.12520804043945,-8.711821193577855,99.85697862153346,1525.0,1334.0,1200.0,1528.0,1475.0,1021.7000000000002,93.0,292.65,1637156497.900884,1637156499.0385044,5861f9a6-0e31-4751-8fdb-affaa8bcf4d5
0.0129882343974847,0.1505016815680642,0.0085779425776126,0.2327221195408451,-0.0663422350274749,-0.1092672518299501,-0.2881854142858331,-0.3215776297395974,-13.825871025425863,16.916906878559544,34.667400295198775,-0.6593642522959243,0.3272502536715606,0.5415172511798363,4162.017306857639,12.039222222222223,0.3222222222222222,179.06514639251796,-8.69543272384684,100.1171443215688,1525.0,1334.0,1200.0,1528.0,1475.0,1021.7000000000002,93.0,292.65,1637156499.1471512,1637156500.2746658,5861f9a6-0e31-4751-8fdb-affaa8bcf4d5
0.0037156641055744,0.150761916175926,0.006537155313493,0.229708876791637,-0.0676708012673041,-0.1085687273103449,-0.2875416759554876,-0.3166742609137415,-13.707350802970804,16.72349952195164,34.404975608500536,-0.6523633473048684,0.3299516376361868,0.5449892810395954,4132.79931640625,12.041,0.33,179.02118425938014,-8.697686686272943,100.31943479312696,1525.0,1334.0,1200.0,1528.0,1475.0,1021.7000000000002,93.0,292.65,1637156500.386513,1637156501.4034774,5861f9a6-0e31-4751-8fdb-affaa8bcf4d5
-0.0057075684582642,0.152898579248308,0.032341471981406,0.527978810964813,-0.01832209902521,-0.3997028132527936,-0.3519702976747097,-0.3858555907355701,-13.93979630681704,18.145142271974752,32.19729234275575,-1.9691642066018704,0.3241138096125438,0.5333470990396051,4110.120171440973,12.040666666666665,0.3299999999999999,178.9845972127261,-8.764462410148528,100.74824014049962,1525.0,1234.0,1200.0,1528.0,1475.0,1021.7000000000002,93.0,292.65,1637156503.43091,1637156504.4828818,a61644ea-8b9f-4b4d-9495-5b301854d42a
0.0104576581785979,0.1584856792598884,0.0341910552744537,0.5254920640173997,-0.017088860852275,-0.4005837760459477,-0.3484228883524862,-0.3779154196656239,-13.774184799080183,17.96271957267586,32.54663579033587,-1.9665125090028348,0.3412207836068534,0.5254330829724687,4103.1240234375,12.038333333333334,0.3255555555555555,178.96747468738678,-8.764752313733299,100.88080500537065,1525.0,1234.0,1200.0,1528.0,1475.0,1021.7000000000002,93.0,292.65,1637156504.5954418,1637156505.654565,a61644ea-8b9f-4b4d-9495-5b301854d42a
0.0056605754203076,0.1594181409337334,0.0349986043648866,0.5394839191069137,-0.0159662908980278,-0.4137828783484635,-0.3536960643314448,-0.3777883159898255,-13.88306404400714,18.161154012127145,32.61272235489256,-2.026423467338564,0.3432348415730075,0.530482338906547,4100.510362413194,12.04011111111111,0.3299999999999999,178.9533407492643,-8.760712920885405,101.0275523785983,1525.0,1234.0,1200.0,1528.0,1475.0,1021.7000000000002,93.0,292.65,1637156505.7630398,1637156506.8217914,a61644ea-8b9f-4b4d-9495-5b301854d42a
-0.0063332271883126,0.1581701105604696,0.0453674470900109,0.7160692490582214,0.0054085588244945,-0.5812206111328482,-0.3992163114355064,-0.4241725423984316,-14.01442728469549,19.39933654249756,31.60322090618579,-2.792514334820508,0.3273678058336229,0.5514197331180775,4150.365505642361,12.02811111111111,0.3522222222222222,178.97249411751685,-8.82729037954758,101.30539916166506,1525.0,1133.0,1200.0,1528.0,1475.0,1021.7000000000002,93.0,292.65,1637156508.8681197,1637156510.0025113,d6e8cdef-dda5-4789-b87a-6a437d47d0cf
-0.0230189231165295,0.1599846305898868,0.0469584393447854,0.7209211175182665,0.0082749746476572,-0.5880053407031806,-0.3980986720235498,-0.4237780820624245,-13.988325498875998,19.26323560526648,31.53856127010693,-2.8195253315181943,0.3340628772485076,0.5440006071720812,4148.802734375,12.028888888888888,0.35,178.982853237758,-8.831207208445369,101.3293814736608,1525.0,1133.0,1200.0,1528.0,1475.0,1021.7000000000002,93.0,292.65,1637156510.1108615,1637156511.2351427,d6e8cdef-dda5-4789-b87a-6a437d47d0cf
-0.014459121690556,0.1588801401332362,0.0479314428636163,0.7262989337558234,0.0102341304241403,-0.5878738535838748,-0.3975858728245401,-0.4146134385034793,-14.03326817571633,19.280354145583896,32.11279863507159,-2.8311300545552065,0.3245488577206782,0.5399607041298573,4148.356662326389,12.031777777777778,0.35,178.9963041569635,-8.84087107234729,101.36574236516232,1525.0,1133.0,1200.0,1528.0,1475.0,1021.7000000000002,93.0,292.65,1637156511.343984,1637156512.4593909,d6e8cdef-dda5-4789-b87a-6a437d47d0cf
-0.0268824485096218,0.1593085684676181,0.052105606052888,0.8102648565102287,0.0167000018674093,-0.6697579354404007,-0.4254386522432852,-0.4597759331237547,-14.264746177676608,20.27604631885666,31.4220488167593,-3.197959290265376,0.3238596707440033,0.5643638233228471,4159.989095052083,12.023888888888887,0.381111111111111,179.027941593199,-8.862483308701027,101.37268335517884,1525.0,1033.0,1200.0,1528.0,1475.0,1021.7000000000002,93.0,292.65,1637156513.465906,1637156514.6035793,b5981352-c17a-4205-ac5b-0152675ed779
-0.0150212285046089,0.1559666082715324,0.0555434422330822,0.8035672401284458,0.0188503615586867,-0.6610606187707725,-0.4189053924620539,-0.4436550805629036,-14.1430743300375,20.317062469100858,31.35347759924789,-3.1628136786260304,0.3121151256788156,0.5469552744267622,4153.270290798611,12.020111111111111,0.3888888888888889,179.0323569310425,-8.875026856248017,101.35147409998616,1525.0,1033.0,1200.0,1528.0,1475.0,1021.7000000000002,93.0,292.65,1637156514.712716,1637156515.7547991,b5981352-c17a-4205-ac5b-0152675ed779
-0.017733147131794,0.1622944181411635,0.0522425716417851,0.7918977731177828,0.0141250488280053,-0.6563763928918775,-0.4212612009722568,-0.4407240158418116,-14.202500826067633,20.227665024734307,31.352803549618187,-3.126751148097213,0.3375008276266864,0.5619024684909606,4154.388563368056,12.02422222222222,0.38,179.04273881858091,-8.908089999609016,101.32057811873057,1525.0,1033.0,1200.0,1528.0,1475.0,1021.7000000000002,93.0,292.65,1637156515.8637578,1637156516.9699783,b5981352-c17a-4205-ac5b-0152675ed779
0.0185704038927293,0.1474933695174073,-0.0116453004924418,-0.0393233068640572,-0.1091954818626289,0.1638109010656475,-0.2263898213835038,-0.2563294067244273,-13.671727789762636,15.808127638064985,37.62734043468883,0.560138859030268,0.3208361566325669,0.5414559401085479,4138.7861328125,12.039666666666667,0.33,179.0890323229554,-8.65442445779756,101.2594426132896,1525.0,1435.0,1200.0,1528.0,1475.0,1021.7000000000002,93.0,292.65,1637156517.8795614,1637156519.2193327,bd9803f8-bcd4-4968-8a52-3c5e2db3339f
0.0121801373970398,0.1452832928856486,-0.0166922085099786,-0.0380314474037069,-0.1131570746932263,0.1631025150838091,-0.2323034481638909,-0.2475477203383297,-13.78942417217089,15.832097973718332,37.34621714839671,0.5554364445962506,0.3153930441175801,0.5614062706907613,4146.79541015625,12.04,0.32,179.06250690385872,-8.649595608918098,101.34005174696416,1525.0,1435.0,1200.0,1528.0,1475.0,1021.7000000000002,93.0,292.65,1637156519.327945,1637156520.5394337,bd9803f8-bcd4-4968-8a52-3c5e2db3339f
0.0279996627731898,0.1517891580361343,-0.0108026881809472,-0.0400996278101348,-0.1096233623632078,0.1640338810198275,-0.2268111275560254,-0.248684534864498,-13.691802856907549,15.864377651005723,38.15650791652287,0.5628802062933641,0.3325500165604749,0.5427122087566588,4148.802734375,12.03711111111111,0.32,179.04495938897105,-8.657897134671819,101.38363594296794,1525.0,1435.0,1200.0,1528.0,1475.0,1021.7000000000002,93.0,292.65,1637156520.6488502,1637156521.7915783,bd9803f8-bcd4-4968-8a52-3c5e2db3339f
0.0565295944227649,0.1690057316405456,0.0919215016798683,-0.0534400763509625,-0.0178701125819913,0.1492279016504143,-0.1214434931722579,-0.1359207574060069,-12.963185104898846,15.801297589197622,37.50192904765783,0.5646612146562725,0.4059207646658896,0.1292739671253298,4156.8505859375,12.037222222222224,0.32,179.06593565882207,-8.645845550472547,101.40983503080427,1525.0,1435.0,1200.0,1439.0,1475.0,1021.7000000000002,93.0,292.65,1637156522.3480985,1637156523.4101112,1ab59861-f25c-4300-9e46-4ed4718bfb3f
0.0415729524162671,0.1593359615886601,0.0844568773303,-0.0485914944161141,-0.021102500490453,0.1578978229745984,-0.1266481857724337,-0.1535345329837387,-13.172241475932728,15.750297036752542,37.97489409578487,0.5724668549928745,0.3658699735827961,0.1506763528357045,4162.009006076389,12.039,0.33,179.06987440124342,-8.654809984030713,101.41882659539164,1525.0,1435.0,1200.0,1439.0,1475.0,1021.7000000000002,93.0,292.65,1637156523.5189092,1637156524.7515774,1ab59861-f25c-4300-9e46-4ed4718bfb3f
0.0492704183716238,0.1658144336028903,0.088278217137491,-0.0485914944184237,-0.0195000030925529,0.1534738346979027,-0.1221694108142505,-0.1410980568997775,-12.852607344306206,15.665165295809638,38.279465642410266,0.5623609374003515,0.3854472895613575,0.1383798999891481,4163.131998697917,12.036888888888887,0.3299999999999999,179.07106437197885,-8.659329861713966,101.44861001472243,1525.0,1435.0,1200.0,1439.0,1475.0,1021.7000000000002,93.0,292.65,1637156524.8605645,1637156525.9767148,1ab59861-f25c-4300-9e46-4ed4718bfb3f
0.0905858131984185,0.1799180534201409,0.2207053074759674,-0.0533135201759179,0.099645264897797,0.1326221944284242,0.0108389704757261,-0.0116321521046058,-11.984578277955713,15.874603193812456,37.67676186735698,0.5344794941328702,0.4465225965628072,-0.392452405833424,4164.93017578125,12.038,0.32,179.07730109360097,-8.6615609619791,101.4290331747414,1525.0,1435.0,1200.0,1351.0,1475.0,1021.7000000000002,93.0,292.65,1637156526.8910797,1637156527.912548,5645f936-7e7f-4a49-b38a-de8f1bb63166
0.0792121910896074,0.1781955742687811,0.2203502927020877,-0.0566532891319491,0.0990535735772796,0.136566803216906,0.0126271932020357,-0.0132757391331184,-11.89078598080473,15.836564533318132,37.56594528626705,0.5506369648980197,0.4407686241150494,-0.3940214223869692,4157.298828125,12.041,0.32,179.0811563559325,-8.660355433590594,101.46670470365363,1525.0,1435.0,1200.0,1351.0,1475.0,1021.7000000000002,93.0,292.65,1637156528.0206463,1637156529.258034,5645f936-7e7f-4a49-b38a-de8f1bb63166
0.0840377625487421,0.1700302341920122,0.2140520674799172,-0.0551937837767084,0.0964501317462256,0.1438380320581094,0.0080645955203102,-0.0113297321391649,-12.141939896453788,15.783577326321476,37.61344911916095,0.5629003802106037,0.4109203458719455,-0.3764562002803143,4148.583930121527,12.038000000000002,0.32,179.0656852185525,-8.653515663182993,101.48868501131264,1525.0,1435.0,1200.0,1351.0,1475.0,1021.7000000000002,93.0,292.65,1637156529.366847,1637156530.4857006,5645f936-7e7f-4a49-b38a-de8f1bb63166
0.1326276729516113,0.1978643795146117,0.3468966250003425,-0.0647397376223534,0.2111363442168541,0.1176162451869203,0.1388870001870519,0.1037553276828442,-11.05644030920272,16.05841061657303,37.519321474644464,0.5344779405255848,0.5180682743632468,-0.8962101570457556,4124.84423828125,12.037777777777778,0.3299999999999999,179.06047757876533,-8.65625893277214,101.48304023941856,1525.0,1435.0,1200.0,1262.0,1475.0,1021.7000000000002,93.0,292.65,1637156531.3967085,1637156532.5358002,9a7fd78f-8bac-42e4-bb5c-e2bbd8669166
0.1327235488899269,0.1960427372978105,0.3410481948955382,-0.0617949774169828,0.2070410733767272,0.1173834036859624,0.1315456449566336,0.1065357288266022,-11.269560182526783,16.08458142620187,37.56797945063544,0.5270948109623942,0.5115802857059145,-0.8724934225160773,4126.830078125,12.035444444444444,0.3299999999999999,179.0742305441141,-8.672183993140717,101.46549803690024,1525.0,1435.0,1200.0,1262.0,1475.0,1021.7000000000002,93.0,292.65,1637156532.6460218,1637156533.7632682,9a7fd78f-8bac-42e4-bb5c-e2bbd8669166
0.1302033821654354,0.2055618451115925,0.3478553840317895,-0.0686843466605547,0.2106843578048371,0.1122882839915519,0.1373392890981754,0.1208623290913751,-11.144710199835188,16.04559029224959,37.31620179772607,0.5312893129282804,0.5499096761189227,-0.8941439610166816,4120.437934027777,12.033444444444443,0.3322222222222222,179.07748930325812,-8.668612847705923,101.4470459014025,1525.0,1435.0,1200.0,1262.0,1475.0,1021.7000000000002,93.0,292.65,1637156533.871395,1637156534.9922311,9a7fd78f-8bac-42e4-bb5c-e2bbd8669166
0.147652797377615,0.2148344148732217,0.4542228495755608,-0.0500159365802514,0.3073135733495499,0.0791426126458797,0.237392645774425,0.2133277932601394,-10.46228384189386,16.472288622212833,37.12572169046913,0.423133381224865,0.585997510576322,-1.3118825460899937,4120.8779296875,12.029333333333334,0.35,179.06650484125288,-8.67405992356901,101.40903665758132,1525.0,1435.0,1200.0,1173.0,1475.0,1021.7000000000002,93.0,292.65,1637156535.9025662,1637156537.039395,8409871d-c2d4-4fc5-9a94-3b2bf232bc60
0.1601166653355299,0.2079861358859788,0.4483744195521783,-0.0419623598382678,0.305081034434407,0.079170005764824,0.2317496638974308,0.2091092531706547,-10.605872013167,16.425608380181156,37.1870193291606,0.4043648720641228,0.5594221843889715,-1.293588118913746,4116.91943359375,12.029999999999998,0.3499999999999999,179.08579784892845,-8.670044151791993,101.35528610445292,1525.0,1435.0,1200.0,1173.0,1475.0,1021.7000000000002,93.0,292.65,1637156537.1474023,1637156538.359933,8409871d-c2d4-4fc5-9a94-3b2bf232bc60
0.1602399343066164,0.2141906766520835,0.4449365836507337,-0.0454960720793719,0.3008077084429823,0.0777729567975617,0.2265175787904154,0.1927281698467268,-10.718395627709674,16.417725518483827,37.35728099699208,0.4089437670034004,0.582197375666578,-1.2747477212639438,4112.312662760417,12.03077777777778,0.3444444444444444,179.08378218421342,-8.675484492329648,101.32502912533968,1525.0,1435.0,1200.0,1173.0,1475.0,1021.7000000000002,93.0,292.65,1637156538.4688275,1637156539.5894678,8409871d-c2d4-4fc5-9a94-3b2bf232bc60
-0.0353469219530885,0.1230674753964627,-0.1515211379385316,-0.0165552429256202,-0.2355906225910023,0.1714848086648035,-0.3762543003876094,-0.4112216221037898,-14.805769919336898,16.2080874429375,37.1823906129074,0.5210687035172072,0.2295304181482409,1.113311261107898,4113.62646484375,12.038333333333334,0.32,179.075507030579,-8.66819250648075,101.39323843003106,1525.0,1435.0,1200.0,1617.0,1475.0,1021.7000000000002,93.0,292.65,1637156540.4081097,1637156541.54509,2e44a5f1-7a88-4e9c-af00-21618ac21c48
-0.028402766557419,0.1251219591410128,-0.1516991932178752,-0.0160210771529043,-0.2383710243117342,0.1670060341425193,-0.3794592957220131,-0.4040994105925907,-14.744994941413138,16.42421464474098,36.88601919466456,0.5112065686651723,0.2393591737356598,1.121693277564785,4120.8779296875,12.037777777777778,0.32,179.07844249410226,-8.669273383916908,101.40926357164372,1525.0,1435.0,1200.0,1617.0,1475.0,1021.7000000000002,93.0,292.65,1637156541.6537693,1637156542.774226,2e44a5f1-7a88-4e9c-af00-21618ac21c48
-0.026225013624581,0.1247521520637774,-0.1556164092900943,-0.0146651178465076,-0.2399050390664971,0.1720600640898092,-0.3814179039815248,-0.4132761069255754,-14.83682859971526,16.259663022120844,37.7098318389343,0.5183041467776696,0.2309026488194396,1.133043269790238,4126.830078125,12.038,0.32,179.09210894372157,-8.662049320504757,101.42457306121337,1525.0,1435.0,1200.0,1617.0,1475.0,1021.7000000000002,93.0,292.65,1637156542.8822925,1637156543.8964531,2e44a5f1-7a88-4e9c-af00-21618ac21c48
-0.08066883610098,0.1073027367583071,-0.2924039549488603,0.0215211905638637,-0.36365346421109,0.1651296056816608,-0.5305871582773264,-0.549488415195417,-15.679267142608763,16.57118750396772,37.93069404290328,0.4159682067765239,0.1563401821973896,1.6982352321084973,4168.083224826389,12.032888888888888,0.3388888888888889,179.0758181836412,-8.677437736704794,101.4331532966307,1525.0,1435.0,1200.0,1706.0,1475.0,1021.7000000000002,93.0,292.65,1637156544.9134257,1637156545.9387157,866ca69a-9e07-4c2a-906b-f224e4691685
-0.0709305824585856,0.103659452231257,-0.2943351699807131,0.0211376869389863,-0.3642424163180036,0.1672388756251084,-0.53076521357334,-0.5637465369522993,-15.67737623965843,16.494431352673985,37.66582059674171,0.4209268502500573,0.1449333204824465,1.7011384211038187,4181.18359375,12.034555555555556,0.3322222222222222,179.07911033482114,-8.679084002022243,101.39933778895988,1525.0,1435.0,1200.0,1706.0,1475.0,1021.7000000000002,93.0,292.65,1637156546.047224,1637156547.2814093,866ca69a-9e07-4c2a-906b-f224e4691685
-0.0802026052325518,0.1009864318993986,-0.2927250023326266,0.0184783631036373,-0.3644905980218187,0.1691361228729844,-0.5303351415560054,-0.5530692442538369,-15.69053794266678,16.720506658292624,37.22055944314088,0.4326902548207162,0.1393806925402995,1.6975925425637106,4185.26708984375,12.036666666666669,0.3288888888888889,179.08834323275914,-8.655054637612231,101.39580506333915,1525.0,1435.0,1200.0,1706.0,1475.0,1021.7000000000002,93.0,292.65,1637156547.3903549,1637156548.3926442,866ca69a-9e07-4c2a-906b-f224e4691685
-0.1232514391195688,0.0910723150580996,-0.3952651274571662,0.0528178271286973,-0.4575981789900221,0.1478308527195431,-0.6485008685501409,-0.6817150360860035,-16.46435220812882,17.095812814678528,36.45644295774032,0.3042238636647532,0.1037238837008688,2.1297533129330186,4169.692545572917,12.030444444444443,0.3455555555555556,179.07830133685945,-8.669913144969163,101.34999953803532,1525.0,1435.0,1200.0,1795.0,1475.0,1021.7000000000002,93.0,292.65,1637156549.4191926,1637156550.6484902,f70e05ee-8430-451f-a1aa-741932982b27
-0.11106150125264,0.0969344420539582,-0.3922244908153253,0.0474761692760888,-0.4569818336860039,0.1476527974529188,-0.6452821760761597,-0.6816876432611649,-16.332619832834066,17.084564864289728,36.57187930502604,0.316034772434704,0.1246051870822876,2.1211084082254845,4120.8779296875,12.03,0.35,179.07695958414246,-8.669285052156738,101.29107701388546,1525.0,1435.0,1200.0,1795.0,1475.0,1021.7000000000002,93.0,292.65,1637156550.7574184,1637156551.9907067,f70e05ee-8430-451f-a1aa-741932982b27
-0.1089522311069148,0.0911407978452812,-0.3894303923590955,0.0452025405313249,-0.451763443690723,0.153309475979198,-0.639570709176987,-0.6696620602573412,-16.44694166732491,16.960896870829018,36.306402007971606,0.3330942858439839,0.1064925251982035,2.100935605110483,4085.5244140625,12.03,0.3466666666666667,179.08667666660168,-8.656372010348399,101.23002650635416,1525.0,1435.0,1200.0,1795.0,1475.0,1021.7000000000002,93.0,292.65,1637156552.0987842,1637156553.216553,f70e05ee-8430-451f-a1aa-741932982b27
-0.1388655169805946,0.0729106785217419,-0.4787593673413259,0.0869222578247985,-0.5329429673161473,0.1366407646272213,-0.7448424994967621,-0.7733039615523721,-17.129624506087783,17.671252273398654,36.10483299091673,0.2014132737652405,0.0339493326531566,2.480261576973346,4069.1456434461807,12.026888888888887,0.3511111111111111,179.09635125010604,-8.663173171214439,101.1603555411804,1525.0,1435.0,1200.0,1883.0,1475.0,1021.7000000000002,93.0,292.65,1637156553.8665426,1637156554.8570547,e7024496-811e-448c-8d8c-cdc12d598ffc
-0.1473299908669642,0.0877440513542489,-0.4792250504444202,0.0845116635381506,-0.5376271916939116,0.1273408015713548,-0.7486090547843007,-0.772865670947445,-16.925166696404375,17.68154922410035,36.51559308393512,0.1861661933480184,0.0847632894910019,2.4951310098485338,4062.074273003472,12.027555555555557,0.36,179.10922995124105,-8.675068514836447,101.08261129240768,1525.0,1435.0,1200.0,1883.0,1475.0,1021.7000000000002,93.0,292.65,1637156554.9647195,1637156556.0728352,e7024496-811e-448c-8d8c-cdc12d598ffc
-0.1478778532130295,0.0807314134190997,-0.4878401882063543,0.0965235452928042,-0.5422292368705177,0.1289432988766032,-0.7577309669761293,-0.7900000742136871,-17.110986640757005,17.68963143544826,37.271172859386944,0.1623228648210327,0.0510552005134614,2.526319406769721,4109.918728298611,12.02811111111111,0.36,179.12011879059787,-8.675054190411936,101.03397882769738,1525.0,1435.0,1200.0,1883.0,1475.0,1021.7000000000002,93.0,292.65,1637156556.181353,1637156557.316244,e7024496-811e-448c-8d8c-cdc12d598ffc
0.0027021186719552,0.1348876051815299,-0.0945434505424022,0.003414339716302,-0.1490420607205948,0.1656226817431917,-0.2771870762761476,-0.302128513312784,-13.707251726968543,12.15097136135688,41.250880407757634,0.4399927383642886,0.2311137197720333,0.7864884267276467,7239.38037109375,11.807,8.190000000000001,-178.88824145737505,-8.693610770885739,86.71513913637642,1525.0,1435.0,1350.0,1528.0,1475.0,1021.7000000000002,93.0,292.65,1637156560.3477297,1637156561.2994776,4031dc8f-360a-4938-bada-19dcfdfa1314
-0.0061869479559613,0.1322989556814429,-0.1085961204273131,-0.0126517237664953,-0.1661490637231187,0.1659650957069665,-0.2896783394243118,-0.3240293140872596,-13.489862144154316,12.21144594659205,38.7332929803684,0.4764125658461063,0.2432676316498541,0.8428512915274271,7251.6298828125,11.808666666666666,8.203333333333335,-178.289948760298,-8.612721694318925,80.07247053329665,1525.0,1435.0,1350.0,1528.0,1475.0,1021.7000000000002,93.0,292.65,1637156561.407879,1637156562.5275118,4031dc8f-360a-4938-bada-19dcfdfa1314
-0.0015438145197159,0.131518251860689,-0.1015834820152541,-5.088956063632281e-05,-0.1567669203180496,0.1640475775648567,-0.2843366808038112,-0.3189478900600597,-13.644968016758275,12.221409550072927,40.048947835821984,0.4442261309551294,0.2286700035637768,0.8146671679464643,7251.6298828125,11.808555555555554,8.190000000000001,-177.95551082431808,-8.444785841057312,74.02491024132081,1525.0,1435.0,1350.0,1528.0,1475.0,1021.7000000000002,93.0,292.65,1637156562.6358747,1637156563.868254,4031dc8f-360a-4938-bada-19dcfdfa1314
0.1378049719996533,0.3939032105449869,-0.0878321364665494,-0.1380163303352819,-0.2072387432891539,0.0220827494708303,-0.3289463788458805,-0.3635575888716083,-13.27086972952983,11.670325437820097,38.24169583193398,0.433360186607964,1.2439918952714626,0.9566594573142436,7246.862196180556,11.798222222222222,8.253333333333334,-178.0021655698087,-8.222892157398768,65.15516055998029,1610.0,1435.0,1350.0,1528.0,1542.0,1021.7000000000002,93.0,292.65,1637156564.8717487,1637156566.0097942,e13c8d7c-da9e-43c5-a53e-94933b4be754
0.1499401225756928,0.4042030217886075,-0.0803127254405747,-0.1415774359218294,-0.2028284510244757,0.0201515346890572,-0.3219474362850652,-0.34768327506907,-13.10430534031203,11.639719449423067,38.99057733070078,0.4374282168461307,1.2757208498628256,0.9328380211408016,7248.224392361111,11.79588888888889,8.309999999999999,-178.0807461372998,-8.189413036544567,61.456367996518175,1610.0,1435.0,1350.0,1528.0,1542.0,1021.7000000000002,93.0,292.65,1637156566.118018,1637156567.1462803,e13c8d7c-da9e-43c5-a53e-94933b4be754
0.1433109884134516,0.3963959840096538,-0.091365848783225,-0.1400434211993822,-0.2125804017164772,0.0192749549133841,-0.3331923127028228,-0.3566134327774006,-13.134394512069406,11.717979657876258,37.89336337980787,0.4317764399261836,1.2554890029924672,0.9746655753221362,7257.76953125,11.797,8.27,-178.24856692084666,-8.126583833916913,58.13000515792934,1610.0,1435.0,1350.0,1528.0,1542.0,1021.7000000000002,93.0,292.65,1637156567.2553127,1637156568.3746817,e13c8d7c-da9e-43c5-a53e-94933b4be754
0.2936991949290981,0.6609723821037491,-0.0574531681899998,-0.2867198824947587,-0.2458904359381488,-0.1031311933071564,-0.355819031377323,-0.3695155931257665,-12.907098001902844,11.389741816788904,38.19055648457671,0.4872541280377517,2.263771921395114,1.0374644877692305,7256.405164930556,11.792444444444444,8.257777777777777,-178.9458169164386,-8.132679493159932,51.46581994114421,1695.0,1435.0,1350.0,1528.0,1609.0,1021.7000000000002,93.0,292.65,1637156570.365669,1637156571.4537957,565fca86-0b7c-46a2-8bb2-704e49cc66e5
0.2962051171240583,0.6617519901427578,-0.0638061801461917,-0.2815091630457963,-0.2502678565641961,-0.1059214563753203,-0.3640172448851206,-0.3918267434116311,-13.089794006249786,11.353821960437813,38.52977748307588,0.4686375825428924,2.2639375884416326,1.064264497247803,7248.905490451389,11.789777777777775,8.383333333333333,-179.21473360662054,-8.147919447609263,49.703268755799954,1695.0,1435.0,1350.0,1528.0,1609.0,1021.7000000000002,93.0,292.65,1637156571.5666287,1637156572.5605829,565fca86-0b7c-46a2-8bb2-704e49cc66e5
0.2857277983040479,0.6629172932338494,-0.0636851025808802,-0.2872403517794124,-0.251656687789881,-0.1092946450027905,-0.3633795329996364,-0.376583018608277,-12.946690413086854,11.32208720923235,37.46550836689113,0.4736837743424241,2.277440691278357,1.0637859204476208,7245.5,11.789111111111112,8.382222222222222,-179.4540968271737,-8.187866947334944,48.13655123651849,1695.0,1435.0,1350.0,1528.0,1609.0,1021.7000000000002,93.0,292.65,1637156572.6686757,1637156573.7906408,565fca86-0b7c-46a2-8bb2-704e49cc66e5
0.3889861463317601,0.8290017469091269,-0.0419212701919448,-0.3852803345526863,-0.27743361438355,-0.1916383615948051,-0.3826505945648626,-0.3966073911166712,-12.808581552420408,11.614582397526718,36.065876233883394,0.5126697201753568,2.9252412665518364,1.113905504598891,7245.5,11.78188888888889,8.424444444444443,179.81204579209668,-8.272631966528264,44.68781948766962,1779.0,1435.0,1350.0,1528.0,1677.0,1021.7000000000002,93.0,292.65,1637156576.0437586,1637156577.1814072,cbdbbed6-21f9-42f3-b0e1-f843c96239b5
0.3851511102271405,0.8384523714927283,-0.0437292159827969,-0.3682829021713966,-0.274447764199907,-0.2001165321300718,-0.3867184732251993,-0.4002780697059928,-13.026173458497777,11.27111943029801,38.38333418899781,0.4531691007396571,2.939474158537537,1.1226448183552045,7250.267686631944,11.78,8.433333333333334,179.66694373554913,-8.307991002087773,43.83065465249511,1779.0,1435.0,1350.0,1528.0,1677.0,1021.7000000000002,93.0,292.65,1637156577.2895672,1637156578.2400672,cbdbbed6-21f9-42f3-b0e1-f843c96239b5
0.3827816057787694,0.8343981905105938,-0.0440853264904389,-0.3809796143032197,-0.2801318367687989,-0.2032119547005301,-0.3863349694842577,-0.4048664177924173,-12.616007550131902,11.507051659184016,35.71321508715376,0.4761810707447496,2.946575322469825,1.1261482789589163,7256.405164930556,11.778666666666668,8.44111111111111,179.3933172504795,-8.365972667679488,42.97731662053058,1779.0,1435.0,1350.0,1528.0,1677.0,1021.7000000000002,93.0,292.65,1637156578.3503687,1637156579.4354188,cbdbbed6-21f9-42f3-b0e1-f843c96239b5
0.5140921454093951,1.012125268676317,-0.0178909313921374,-0.4568865058456493,-0.3021394702612056,-0.2938952365472248,-0.4102612185677645,-0.4421205164218131,-12.73258358024061,12.106274931932704,37.64187141191496,0.449156365267981,3.607907897349214,1.1777156871258512,7252.994249131944,11.768333333333333,8.555555555555555,178.9291846468997,-8.495815702166292,41.36577332863624,1864.0,1435.0,1350.0,1528.0,1744.0,1021.7000000000002,93.0,292.65,1637156581.460592,1637156582.506772,96a0b38c-7087-46d9-9499-6831f1f73619
0.4913843490361991,1.0117571051879926,-0.0202839941638195,-0.4731777444173435,-0.3088716037255904,-0.2997464071782733,-0.4125227947273794,-0.4322721411954677,-12.486036524021156,12.202015454424725,34.607639726211204,0.4729129948144103,3.633530096291076,1.1890333222364395,7257.76953125,11.77,8.45,178.7541967181838,-8.535729809856031,40.879897956198576,1864.0,1435.0,1350.0,1528.0,1744.0,1021.7000000000002,93.0,292.65,1637156582.6150348,1637156583.7321827,96a0b38c-7087-46d9-9499-6831f1f73619
0.4717927933700281,1.0076547122302804,-0.0297116096114814,-0.4747424396020342,-0.3187068300411005,-0.316813417613672,-0.4261448469334452,-0.4505751301981266,-12.510277193930404,12.315175528125062,31.317189836861697,0.4378347131425352,3.6470752783606937,1.2294606396053689,7251.6298828125,11.768999999999998,8.507777777777777,178.6736854838873,-8.549812806150952,40.38945849957553,1864.0,1435.0,1350.0,1528.0,1744.0,1021.7000000000002,93.0,292.65,1637156583.840839,1637156584.9633152,96a0b38c-7087-46d9-9499-6831f1f73619
-0.1811331001969854,-0.1724768742968516,-0.1352907148389473,0.1146714850578368,-0.1233610115225911,0.3273927269034508,-0.2483832098478355,-0.2846653992322864,-13.895848664268993,12.929767518311934,35.94792868520675,0.5547363040222139,-0.8896232715665479,0.7218958581170511,7251.6298828125,11.79788888888889,8.385555555555555,178.74168836508375,-8.641598216309923,39.61428856756722,1440.0,1435.0,1350.0,1528.0,1408.0,1021.7000000000002,93.0,292.65,1637156586.8986225,1637156587.923394,90a5ddb1-aae8-47a0-a067-448688b59a10
-0.1678748303461802,-0.1649026767622596,-0.1257716059768659,0.1228072406664339,-0.1133762197004184,0.3261052504966559,-0.2411377295051865,-0.2561217669621445,-14.038471552952757,12.90808231498535,37.94928336941886,0.5340683702645359,-0.8783425247425093,0.6887243057575115,7257.76953125,11.797666666666666,8.322222222222223,178.68278026022213,-8.644351446591607,39.3447727180131,1440.0,1435.0,1350.0,1528.0,1408.0,1021.7000000000002,93.0,292.65,1637156588.0315154,1637156589.263914,90a5ddb1-aae8-47a0-a067-448688b59a10
-0.1637247727337996,-0.1639165244612672,-0.1252511367003215,0.110589910646183,-0.1186904847335653,0.328241913487693,-0.241808860936872,-0.2601074659081381,-13.845769600684342,13.244335902429595,36.78612697604708,0.5685956095122235,-0.8641558128741424,0.6945770467898456,7257.76953125,11.799555555555555,8.345555555555555,178.6007739734073,-8.658104317076642,39.13458009704017,1440.0,1435.0,1350.0,1528.0,1408.0,1021.7000000000002,93.0,292.65,1637156589.3720343,1637156590.4926434,90a5ddb1-aae8-47a0-a067-448688b59a10
-0.3246631905089666,-0.4148895605069005,-0.1495488333810881,0.2345903299715921,-0.0825956679555908,0.4552648836436219,-0.2128598115199903,-0.2408402405941492,-14.27362176956288,13.82391598994113,36.13128343652053,0.5766311057276678,-1.8134228149575464,0.6065765657469315,7257.76953125,11.786666666666669,8.383333333333333,178.50372305658072,-8.622454429294976,38.77188187391434,1355.0,1435.0,1350.0,1528.0,1341.0,1021.7000000000002,93.0,292.65,1637156592.4278824,1637156593.5666263,1fc2e0cd-c710-4d69-b5c0-828e77413610
-0.3154004803975677,-0.4127008499752032,-0.1526990421277934,0.2234084600999575,-0.0891743993431662,0.4528394972720126,-0.2144842235719446,-0.2441235801214266,-13.952702789506157,13.810229344901645,34.60858766588468,0.5960757237069018,-1.7928128022260286,0.6203931396581033,7268.712510850694,11.785,8.431111111111111,178.47590293718133,-8.64144738296575,38.69335291229698,1355.0,1435.0,1350.0,1528.0,1341.0,1021.7000000000002,93.0,292.65,1637156593.6749032,1637156594.793111,1fc2e0cd-c710-4d69-b5c0-828e77413610
-0.3102231804862865,-0.414673154834019,-0.149548833389864,0.2435971864615631,-0.0798607390384821,0.4563595125351606,-0.2133474090938516,-0.2462054578365446,-14.436678070760664,13.748903559015195,37.49515060388845,0.5584116849112665,-1.8246552189677072,0.6054912585123181,7264.605414496527,11.787777777777778,8.454444444444444,178.46865838320167,-8.637195021024986,38.63709719756303,1355.0,1435.0,1350.0,1528.0,1341.0,1021.7000000000002,93.0,292.65,1637156594.9057858,1637156595.9075315,1fc2e0cd-c710-4d69-b5c0-828e77413610
-0.4662407096778518,-0.68974122158619,-0.1718605291160878,0.349553757104791,-0.0493858948779859,0.6000500954145875,-0.1817494453085727,-0.2096082489810565,-14.658987442580331,15.27774915699539,33.49885706210834,0.6505665381750921,-2.833769245405541,0.5106343686529246,7263.9208984375,11.775333333333334,8.450000000000001,178.49720857393234,-8.592647768348257,38.52760471170828,1271.0,1435.0,1350.0,1528.0,1273.0,1021.7000000000002,93.0,292.65,1637156597.9576051,1637156599.187112,4ee0e428-5cb0-4f5b-9117-e9d3609fdd0d
-0.4645834257291186,-0.6998492857469163,-0.1713263633289541,0.3682358616558712,-0.0420856289386067,0.6116099897433457,-0.1791060093053929,-0.2151553555566384,-14.965808530407882,15.202337218663326,36.19296710036062,0.63420260734594,-2.895654439338802,0.4987562435377217,7263.9208984375,11.775444444444444,8.511111111111111,178.520220240156,-8.592547592240429,38.4889344573574,1271.0,1435.0,1350.0,1528.0,1273.0,1021.7000000000002,93.0,292.65,1637156599.2953403,1637156600.4166477,4ee0e428-5cb0-4f5b-9117-e9d3609fdd0d
-0.463447706707563,-0.6969817731335439,-0.1797119451140356,0.3401875031799209,-0.0575999953596124,0.6124312353227456,-0.1854973720040868,-0.2092044740505871,-14.580027044500731,15.314880214765417,32.97909680703262,0.6993286788473679,-2.856221878042406,0.5362095356968026,7263.9208984375,11.774777777777777,8.488888888888889,178.52882931414987,-8.578963579209873,38.49077291660899,1271.0,1435.0,1350.0,1528.0,1273.0,1021.7000000000002,93.0,292.65,1637156600.5251331,1637156601.7551782,4ee0e428-5cb0-4f5b-9117-e9d3609fdd0d
-0.5829825370292299,-0.9017202179759932,-0.1917824493230833,0.432465046263298,-0.0320389289541226,0.702604985407431,-0.164853917050072,-0.1877195021641817,-14.753293298778436,16.804935184805,29.377742436995813,0.7024210357814327,-3.603071753164412,0.4586796007098864,7257.76953125,11.757666666666664,8.528888888888888,178.64510493676033,-8.498705915686331,38.4851266268951,1186.0,1435.0,1350.0,1528.0,1206.0,1021.7000000000002,93.0,292.65,1637156603.8968313,1637156604.925536,cb1e37c6-5de2-4135-80b9-fc13f2f1d28a
-0.5804837360696018,-0.9013531500199486,-0.1880361662652429,0.4358694625802319,-0.0254306131631736,0.7194566816001862,-0.1593829632281729,-0.1748600761301963,-15.117360033882903,16.76262799225444,32.306301426746664,0.7327991657875664,-3.625256374389823,0.4407502697707331,7257.76953125,11.761777777777777,8.53111111111111,178.65428167536524,-8.527668479088126,38.4843309098568,1186.0,1435.0,1350.0,1528.0,1206.0,1021.7000000000002,93.0,292.65,1637156605.0343795,1637156606.1514308,cb1e37c6-5de2-4135-80b9-fc13f2f1d28a
-0.589961757525648,-0.8995588999369523,-0.1851461921428096,0.4593042723294929,-0.0149938352683504,0.7119783613332894,-0.1588487974481217,-0.1782568230462968,-15.524381269602182,16.458467834648925,34.578495148000194,0.6614160960714817,-3.638491721145454,0.4253026150637298,7257.76953125,11.758,8.575555555555555,178.67165160533446,-8.470274684083725,38.49082831703225,1186.0,1435.0,1350.0,1528.0,1206.0,1021.7000000000002,93.0,292.65,1637156606.260223,1637156607.4923975,cb1e37c6-5de2-4135-80b9-fc13f2f1d28a
-0.0030778291096433,0.1336001287114729,-0.1090891965955997,-0.0113368541096589,-0.1639850073212949,0.1547476145356309,-0.2932805348677018,-0.3214132713706349,-13.813943807231423,12.08104814639906,37.4802909876914,0.4469875191789541,0.2613515585502596,0.8439332460648886,7263.9208984375,11.799555555555555,8.375555555555556,178.47889607785763,-8.467824258855241,38.556593172910674,1525.0,1435.0,1350.0,1528.0,1475.0,1021.7000000000002,93.0,292.65,1637156608.403066,1637156609.6326077,36a708b6-d1e2-40d7-b691-21445e7c2dc0
0.0038049894669789,0.140108375886977,-0.1070871168891015,-0.0144459729846194,-0.1636408067988015,0.1498984374758107,-0.2924265840752407,-0.3128499434068465,-13.752033624238992,12.041301274322551,37.30172860859484,0.4429430848156461,0.2874148974221662,0.8400875326893515,7263.9208984375,11.802333333333332,8.35,178.4668749449184,-8.470555860204556,38.641646103550265,1525.0,1435.0,1350.0,1528.0,1475.0,1021.7000000000002,93.0,292.65,1637156609.7412825,1637156610.7697103,36a708b6-d1e2-40d7-b691-21445e7c2dc0
-0.0017081732144842,0.1390513588938476,-0.1059526844589503,-0.0125284547529297,-0.1625057788445846,0.1547750076682109,-0.2900070568883464,-0.3068127375104595,-13.687796935116712,12.058666552508283,38.11139473049004,0.4499089420956657,0.2756558630658373,0.8346190078474581,7263.9208984375,11.800444444444445,8.341111111111111,178.48725774722155,-8.485530101322423,38.71546223464031,1525.0,1435.0,1350.0,1528.0,1475.0,1021.7000000000002,93.0,292.65,1637156610.8774264,1637156611.9977896,36a708b6-d1e2-40d7-b691-21445e7c2dc0
0.010605033118366,0.1301896857014318,-0.1367151570399721,-0.3681322399613203,-0.2286738597813963,0.5046261807097566,-0.2227295526717334,-0.2507116261819201,-13.604812285713654,11.427208703000693,40.20740963241715,2.0328843699430035,0.2650764800502526,0.8699693403225965,7257.76953125,11.79622222222222,8.389999999999999,178.5275649702435,-8.314622451725688,38.93395922727911,1525.0,1535.0,1350.0,1528.0,1475.0,1021.7000000000002,93.0,292.65,1637156613.9323385,1637156615.0704076,7b9ded48-3b10-4f49-8a7f-dc3af3ad3919
0.0107556953108783,0.1316552174452831,-0.1324829201496717,-0.3640643612113972,-0.2210448758046645,0.5146520606748046,-0.214360954508464,-0.2276603149786708,-13.67830442912439,11.129237237746215,42.420464458385794,2.04478895103888,0.2512414302697754,0.845299496872534,7270.08154296875,11.793333333333331,8.423333333333334,178.53613609874196,-8.323040849605203,38.9941942861145,1525.0,1535.0,1350.0,1528.0,1475.0,1021.7000000000002,93.0,292.65,1637156615.1799014,1637156616.1866796,7b9ded48-3b10-4f49-8a7f-dc3af3ad3919
0.0105502469032088,0.1344082256516637,-0.1337019139349883,-0.3671186943578614,-0.2220584212413539,0.511310100689097,-0.2153881964869749,-0.2511910053714292,-13.677040948141672,11.002751758041144,41.92218589221088,2.0431909702280104,0.2662708035797877,0.8494605299949615,7270.08154296875,11.797888888888888,8.36,178.51556205114207,-8.307533948595811,39.045757281433694,1525.0,1535.0,1350.0,1528.0,1475.0,1021.7000000000002,93.0,292.65,1637156616.2950306,1637156617.5235116,7b9ded48-3b10-4f49-8a7f-dc3af3ad3919
0.033752217434452,0.1375858271639165,-0.1538906427889698,-0.7231745346064887,-0.2799263883756806,0.8553265302062828,-0.1420842084359424,-0.1610402477051404,-13.769534898821428,10.446255727607962,44.86995351621217,3.615145551376619,0.2952661999557508,0.8530128317013382,7266.661349826389,11.790666666666665,8.434444444444445,178.54852909753598,-8.265203946078397,39.24192031439646,1525.0,1636.0,1350.0,1528.0,1475.0,1021.7000000000002,93.0,292.65,1637156619.461944,1637156620.487354,4fda4305-8680-4368-8ac4-4780c8dc4038
0.0217266388736151,0.1314908587362734,-0.1637247726462407,-0.7254755574503458,-0.2897194291588982,0.8621337192229639,-0.1504117166715587,-0.1805715418287646,-13.732686730224314,10.544271814691298,44.61631872568966,3.635770961838882,0.2740550551704068,0.8904830504303541,7272.138671875,11.791333333333334,8.386666666666667,178.6619572901725,-8.262682183318585,39.28356549558584,1525.0,1636.0,1350.0,1528.0,1475.0,1021.7000000000002,93.0,292.65,1637156620.5951588,1637156621.716823,4fda4305-8680-4368-8ac4-4780c8dc4038
