raw_voltage_G-,raw_voltage_G0,raw_voltage_G1,raw_voltage_G2,raw_voltage_G3,raw_voltage_G4,raw_voltage_G5,raw_voltage_G6,load_x,load_y,load_z,load_l,load_m,load_n,rpm,voltage,current,roll,pitch,yaw,aileron1_pwm,elevator_pwm,throttle_pwm,rudder_pwm,aileron2_pwm,pbaro,pdiff,Tt,sample_start_time,sample_end_time,uid
-0.0300189605154976,0.0967837799062624,0.0241235367625527,0.0607070448587134,-0.113951475152174,-0.0718208587300303,-0.3011286640154508,-0.3159072535912133,-14.08968773331958,22.586709056903725,9.948846517610695,-0.1529065510781858,0.3689830119249528,0.5582178890712185,4148.802734375,12.038000000000002,0.3400000000000001,179.20342736681445,3.5123295849175,78.61791572438045,1525.0,1435.0,1200.0,1528.0,1475.0,1021.7000000000002,93.0,292.65,1637154152.872316,1637154153.846755,c8c153b0-a87f-4181-a30b-0cb08ad034f6
-0.0253073442319412,0.0972494628832541,0.0243837713791802,0.0615288383729532,-0.1121435293081332,-0.0725741694771958,-0.2993892008187716,-0.3296586003069106,-14.079420371876536,22.40880117166687,10.023939182272125,-0.1576023821246425,0.3699036918835377,0.5531737098280965,4167.632432725694,12.036666666666669,0.3400000000000001,179.18905513098093,3.4790771646823124,77.88333495042485,1525.0,1435.0,1200.0,1528.0,1475.0,1021.7000000000002,93.0,292.65,1637154153.955004,1637154155.0812988,c8c153b0-a87f-4181-a30b-0cb08ad034f6
-0.0375876789691226,0.0925975637827197,0.0197011918693803,0.0610406930353963,-0.1157829790950507,-0.0681452500935653,-0.3037830574719081,-0.3378776334755962,-14.206367407834394,22.47148978356384,9.906730536980142,-0.1464490490810759,0.3541578728301351,0.569922580465957,4171.01025390625,12.038666666666666,0.3366666666666666,179.17070165377118,3.482674611088597,77.34293341893307,1525.0,1435.0,1200.0,1528.0,1475.0,1021.7000000000002,93.0,292.65,1637154155.1928904,1637154156.1923964,c8c153b0-a87f-4181-a30b-0cb08ad034f6
0.0986739048490002,0.352210889340574,0.028164021576286,-0.0653560828073234,-0.1682446373675729,-0.1999521733721768,-0.354942451382336,-0.3734054168172191,-14.194009850451408,22.02793677268505,10.625373002882466,-0.1599148437536551,1.3375000378607382,0.7341908099717608,4167.405381944444,12.036444444444443,0.3366666666666666,179.1184598135395,3.494456711122804,76.63079209313068,1610.0,1435.0,1200.0,1528.0,1542.0,1021.7000000000002,93.0,292.65,1637154156.8954794,1637154158.041556,e2fe635d-2288-4d56-97d1-fb0f133dabf1
0.1178353899883998,0.3560048357952967,0.0315881612531309,-0.0659724279555902,-0.1662586362013058,-0.205060990227271,-0.3524907669517449,-0.3703921732153946,-14.091583505155636,22.02622270581308,10.369141256393076,-0.1698348631878521,1.3535685991852862,0.7234922531927319,4165.830132378473,12.034111111111107,0.36,179.11774643822616,3.491081672751368,76.19381100932151,1610.0,1435.0,1200.0,1528.0,1542.0,1021.7000000000002,93.0,292.65,1637154158.1753714,1637154159.1721566,e2fe635d-2288-4d56-97d1-fb0f133dabf1
0.104919535434369,0.3582784643571089,0.0296295533527172,-0.0663696281845151,-0.1695458105232513,-0.2052801351975433,-0.3556272794396691,-0.3736656510231221,-14.065980166135397,22.114656498551778,10.581740178010728,-0.1688958345292999,1.3599568539608284,0.7356581158933281,4168.9814453125,12.033,0.36,179.1235961157953,3.494354021125908,75.77794355805666,1610.0,1435.0,1200.0,1528.0,1542.0,1021.7000000000002,93.0,292.65,1637154159.280795,1637154160.4003289,e2fe635d-2288-4d56-97d1-fb0f133dabf1
0.2639250697485191,0.6633692796233795,0.0408048495019917,-0.2182902236113991,-0.2308866760204079,-0.3592442672744903,-0.4122861181020225,-0.4357171003370016,-13.8442716011515,21.5208457068177,11.133988488805867,-0.1753585087286389,2.5171722038483835,0.9214051680373118,4175.07373046875,12.032333333333334,0.37,179.04797226130495,3.498638043839387,75.27873869199877,1695.0,1435.0,1200.0,1528.0,1609.0,1021.7000000000002,93.0,292.65,1637154161.403272,1637154162.5413525,8f192607-c95f-4e89-b0f7-34c7a668ba0a
0.2936854983322025,0.6669714741810605,0.0404087450273995,-0.2232637185329571,-0.2324130206667209,-0.3595581924682769,-0.4139061473877867,-0.4497637466560997,-13.934149236208876,21.55461556363592,10.932489562372432,-0.1647181756289776,2.5336924407436445,0.926361963152326,4171.01025390625,12.029444444444444,0.3855555555555556,179.06343125612636,3.5003331639821496,75.06829752803105,1695.0,1435.0,1200.0,1528.0,1609.0,1021.7000000000002,93.0,292.65,1637154162.6499016,1637154163.6783493,8f192607-c95f-4e89-b0f7-34c7a668ba0a
0.2658677895239777,0.6595479401494947,0.0322455960716348,-0.2144842235552487,-0.2375766238443183,-0.3588596678626524,-0.4215899183619364,-0.4489419526633534,-13.978132223569563,21.5484640929282,11.086248113978115,-0.1833977663275467,2.503199669075393,0.9548296608586818,4173.041015625,12.029111111111112,0.3888888888888889,179.08304604160287,3.518826968377017,74.79986502237028,1695.0,1435.0,1200.0,1528.0,1609.0,1021.7000000000002,93.0,292.65,1637154163.7866127,1637154164.9051409,8f192607-c95f-4e89-b0f7-34c7a668ba0a
0.425199844339814,0.94606622338785,0.0543655382544502,-0.3536412781495919,-0.2852680469438288,-0.5105079979410326,-0.4671035928358531,-0.4897303138614061,-13.840315903132833,21.231223560445205,11.134019355262572,-0.2111922030726564,3.594948725657753,1.0881795184186278,4168.9814453125,12.023444444444443,0.4022222222222222,179.02227860746717,3.516381784370087,74.40872892718015,1779.0,1435.0,1200.0,1528.0,1677.0,1021.7000000000002,93.0,292.65,1637154166.0214052,1637154167.063111,ce8d5d4c-d4ef-478b-b101-2d247effb53e
0.4393757812911611,0.9421353113709188,0.0493252046981229,-0.3549698445337166,-0.2903220777671612,-0.5055909320803152,-0.471554975415076,-0.4951678496101948,-13.860501930771855,21.32435342782536,11.074045851989874,-0.1967993063574591,3.5807254551168395,1.1076474250004622,4167.855685763889,12.019444444444444,0.42,179.0329230778337,3.5112116631914723,74.23934630704309,1779.0,1435.0,1200.0,1528.0,1677.0,1021.7000000000002,93.0,292.65,1637154167.1726797,1637154168.1140606,ce8d5d4c-d4ef-478b-b101-2d247effb53e
0.4319796402697216,0.936369060644386,0.0479281557125425,-0.3561340522385789,-0.289924877494811,-0.5001260038182709,-0.4706783954797282,-0.4977975897004596,-13.926180115874466,21.2707121412218,10.894448261404037,-0.1823795634162055,3.561208995713811,1.106777546032138,4163.131998697917,12.020555555555555,0.42,179.03418893955984,3.516005507351436,74.11624580763197,1779.0,1435.0,1200.0,1528.0,1677.0,1021.7000000000002,93.0,292.65,1637154168.2225845,1637154169.4123847,ce8d5d4c-d4ef-478b-b101-2d247effb53e
0.4559749131528681,0.9950582621935188,0.0590815372998143,-0.385699449216138,-0.2995097305986456,-0.5358970418551049,-0.4799756217637707,-0.5057470735176521,-13.849416041285782,21.854170564898578,10.114062212722056,-0.1917321467381306,3.7920595020463512,1.1234221672354017,4167.180230034723,12.017666666666663,0.4244444444444444,179.01188457737024,3.490876340189444,73.92723246491038,1864.0,1435.0,1200.0,1528.0,1744.0,1021.7000000000002,93.0,292.65,1637154170.414364,1637154171.4600513,b66f67ff-0b65-4fee-9f8d-485da2679145
0.486571926606979,1.0514398681374462,0.0624081574335451,-0.4050148878189015,-0.3106466779635538,-0.5705438664046202,-0.4929402395095266,-0.5175414570754076,-13.788499141121456,21.970665472828927,10.474598072300855,-0.2249912526317225,4.002489238568075,1.159671509582561,4180.968804253473,12.007333333333332,0.4655555555555555,178.9977384966892,3.5095930743697217,73.76910599652551,1864.0,1435.0,1200.0,1528.0,1744.0,1021.7000000000002,93.0,292.65,1637154171.5680244,1637154172.694849,b66f67ff-0b65-4fee-9f8d-485da2679145
0.5038098658355964,1.0674155332743906,0.0691928846548666,-0.4008073042436396,-0.3058211057361031,-0.5911610287543771,-0.4926378194776249,-0.5191850444766709,-13.81945097681788,21.90439572596084,10.348073365567776,-0.2809492721373034,4.063659098761192,1.145217044671356,4246.097873263889,12.004333333333332,0.4688888888888888,179.0071019271314,3.5116409453239945,73.64087223049813,1864.0,1435.0,1200.0,1528.0,1744.0,1021.7000000000002,93.0,292.65,1637154172.8030064,1637154173.9192436,b66f67ff-0b65-4fee-9f8d-485da2679145
-0.2121832015984384,-0.2543275169947003,0.0151659873448137,0.2294349456189348,-0.0440579333660845,0.1099324759022064,-0.2336457110481273,-0.2553410639560714,-14.257144760224431,23.637337719531885,9.181573626969964,-0.1187792287605019,-0.9612363443155446,0.3365135819312789,4308.69873046875,12.017,0.42,179.3547069500113,3.569672224650932,73.43180317564368,1440.0,1435.0,1200.0,1528.0,1408.0,1021.7000000000002,93.0,292.65,1637154175.944723,1637154177.0824518,166fe599-6061-4625-989f-0cb81b79a69f
-0.2154703759785608,-0.2552314899797276,0.0098654190998346,0.2294075525182032,-0.0483175632408944,0.1120143528196667,-0.2371657270086083,-0.2669009608265194,-14.202121104918088,23.52464516603293,9.31505030853556,-0.1150011922280717,-0.9665338032644224,0.3547157290669098,4312.546929253473,12.034777777777776,0.3400000000000001,179.38078461226243,3.595036535304661,73.51783547951926,1440.0,1435.0,1200.0,1528.0,1408.0,1021.7000000000002,93.0,292.65,1637154177.190627,1637154178.218469,166fe599-6061-4625-989f-0cb81b79a69f
-0.2045816107868677,-0.2391791213602931,0.0138511176980054,0.2158479601550442,-0.0486599772125519,0.1073301298519621,-0.2353851741946599,-0.2740368679797394,-14.194966693796166,23.46475229970825,9.133062438637776,-0.0951641328686617,-0.9028442121038728,0.3488103885709699,4276.932400173611,12.03788888888889,0.3400000000000001,179.38435907792805,3.613075823812573,73.6182028326429,1440.0,1435.0,1200.0,1528.0,1408.0,1021.7000000000002,93.0,292.65,1637154178.3268857,1637154179.4473598,166fe599-6061-4625-989f-0cb81b79a69f
-0.3707883190836475,-0.5281049197364116,0.0073758061280991,0.3580287655775146,0.0079447401075946,0.2596916955760263,-0.1792724751124546,-0.2115879284120347,-14.178031270162773,24.49359728068416,9.338661612764035,-0.0669732046221859,-2.0063322585546697,0.1668129212707943,4228.11376953125,12.03225,0.35875,179.4912891044792,3.638494438027596,73.69440288948076,1355.0,1435.0,1200.0,1528.0,1341.0,1021.7000000000002,93.0,292.65,1637154180.450739,1637154181.4920142,f003e2c1-0fee-485b-8672-57433ee9f59b
-0.3499400460055257,-0.5179778922458275,0.020132570266169,0.3557530298551715,0.0185395551209883,0.2521691245852361,-0.1692845222854817,-0.1923706010985202,-14.2169652516358,24.475931421854764,9.469868329339995,-0.0782245145285424,-1.968148461954201,0.1221433057425577,4214.534342447917,12.024777777777778,0.39,179.51745214409493,3.651987364082266,73.67934972173245,1355.0,1435.0,1200.0,1528.0,1341.0,1021.7000000000002,93.0,292.65,1637154181.6012597,1637154182.8163145,f003e2c1-0fee-485b-8672-57433ee9f59b
-0.3504331222606852,-0.5194571209996772,0.0111181274161037,0.3575483324412696,0.0101825470900196,0.2523461261869176,-0.1790575445023387,-0.2133705882038024,-14.268804907229724,24.51544679711484,9.451480912326776,-0.0820924637757922,-1.9739584312215912,0.1594865821083886,4214.07373046875,12.027666666666669,0.39,179.52043921349195,3.6845811216653055,73.6421661718909,1355.0,1435.0,1200.0,1528.0,1341.0,1021.7000000000002,93.0,292.65,1637154182.9249556,1637154184.047349,f003e2c1-0fee-485b-8672-57433ee9f59b
-0.516752534647008,-0.7801999066809793,0.0090244503812725,0.486940090135138,0.0639860009824188,0.3910335077993967,-0.125315784461118,-0.1422250091548814,-14.233384349635774,25.555101598651422,9.971972459887816,-0.0554309583291016,-2.9728122002294124,-0.0175417709553591,4205.115234375,12.022333333333332,0.3999999999999999,179.60118570985983,3.72644235501906,73.59241962743597,1271.0,1435.0,1200.0,1528.0,1273.0,1021.7000000000002,93.0,292.65,1637154184.955768,1637154186.0943544,c05c1994-1b63-4322-8198-f218cde77226
-0.4805804621529633,-0.74514546709616,0.0174264673902373,0.4650606615194957,0.0648932610124793,0.3780820430053472,-0.121870825829815,-0.1346645088004332,-14.23096722085733,25.32708616768952,10.19763633755923,-0.0362359872018918,-2.84013129791072,-0.0306719519722978,4183.915690104167,12.016666666666666,0.4133333333333333,179.61393084285112,3.7486719171509058,73.45567924025232,1271.0,1435.0,1200.0,1528.0,1273.0,1021.7000000000002,93.0,292.65,1637154186.2031453,1637154187.2315042,c05c1994-1b63-4322-8198-f218cde77226
-0.4687456585445048,-0.7310257093428683,0.0129227953727425,0.4522840257918353,0.0571048499680214,0.3767642515572199,-0.1279995796644044,-0.1580711374973539,-14.266230703870423,25.2554965877755,10.264593104996129,-0.0110821868487618,-2.786231117046053,-0.0035031911552761,4109.294250488281,12.017,0.42,179.63830892636372,3.7639924405591154,73.37862616867812,1271.0,1435.0,1200.0,1528.0,1273.0,1021.7000000000002,93.0,292.65,1637154187.340739,1637154188.4601104,c05c1994-1b63-4322-8198-f218cde77226
-0.5366768606671096,-0.887393188501124,0.0269471349829804,0.541933495688422,0.1009591230263907,0.4614735963397324,-0.0847156424774096,-0.0993688539431967,-14.160090784947204,26.38472933901576,12.466978335617368,-0.014367578491957,-3.4031047007092394,-0.1593955068791313,4031.715087890625,12.017,0.43,179.69353442089786,3.794097940068975,73.24874499896845,1186.0,1435.0,1200.0,1528.0,1206.0,1021.7000000000002,93.0,292.65,1637154190.393253,1637154191.3363926,5cf3d418-b635-465a-9801-9609f877bc1d
-0.5803922430355496,-0.937603030229639,0.0190832031375593,0.5806113934614979,0.10453657981873,0.4764868775288167,-0.0870530761827737,-0.1059346054553845,-14.203332989180444,26.74937102275353,12.627099218575056,-0.0658491526482762,-3.5977896485113967,-0.1559110443133051,4054.646321614584,12.007333333333332,0.4600000000000001,179.71765864904634,3.792699316540807,73.17447352193373,1186.0,1435.0,1200.0,1528.0,1206.0,1021.7000000000002,93.0,292.65,1637154191.4441335,1637154192.5554335,5cf3d418-b635-465a-9801-9609f877bc1d
-0.5972094307758585,-0.9595219197670528,0.0174396160960751,0.5937863858466337,0.1085206347100567,0.4864667371198798,-0.0847652029007102,-0.1081041406580733,-14.280986928860251,26.816600772527835,12.719433869143854,-0.0728031664100634,-3.681992733074267,-0.1648428611665202,4139.476236979167,12.007444444444443,0.4600000000000001,179.72036643959734,3.8090653509976726,73.09524105083186,1186.0,1435.0,1200.0,1528.0,1206.0,1021.7000000000002,93.0,292.65,1637154192.6647236,1637154193.788718,5cf3d418-b635-465a-9801-9609f877bc1d
-0.0164051287664105,0.1034452380420199,0.0198326788490888,0.0603832582161493,-0.1175843505709824,-0.07632373951401,-0.3070833806994744,-0.3361814505877115,-14.219611926311746,22.45893374327669,10.156874828375123,-0.1633876757797684,0.3928090324647106,0.5785513421213947,4187.31103515625,12.009,0.4600000000000001,179.43411017584245,3.798094027620255,73.01199698195745,1525.0,1435.0,1200.0,1528.0,1475.0,1021.7000000000002,93.0,292.65,1637154194.3705463,1637154195.424638,6164c310-e61a-4d67-9323-e2fee786c2a6
-0.0409668939541945,0.1006445657937156,0.0142444828686253,0.0644725027067298,-0.1226334502656266,-0.0767970926276275,-0.3133421610819373,-0.3384035803498726,-14.215931095919071,22.528787234548844,10.188288522541631,-0.1734840243868897,0.38114378726733,0.6016720787920796,4203.742350260417,12.040333333333333,0.3266666666666667,179.44459679294812,3.801480947674935,73.17755621397913,1525.0,1435.0,1200.0,1528.0,1475.0,1021.7000000000002,93.0,292.65,1637154195.5600407,1637154196.6534593,6164c310-e61a-4d67-9323-e2fee786c2a6
-0.0244652797988862,0.1051414198305105,0.0193461770753544,0.0591604294634853,-0.1188992202904588,-0.0778752857482647,-0.3063470536046772,-0.3234009161022821,-14.02432460495936,22.38359008907608,10.013409582986675,-0.1645640585157506,0.3991785156341422,0.5801166875598719,4216.146484375,12.041,0.33,179.46766006504555,3.814571858992912,73.37058874357231,1525.0,1435.0,1200.0,1528.0,1475.0,1021.7000000000002,93.0,292.65,1637154196.7620535,1637154197.8802884,6164c310-e61a-4d67-9323-e2fee786c2a6
-0.0293171488234129,0.0932287012036785,-0.0017574807156713,-0.2027747605202224,-0.1629736532977369,0.1887802743126552,-0.2524768377599392,-0.2739223645383262,-14.166332586154622,21.80657849767156,12.105313076689832,1.0208942809860688,0.3678653708319273,0.5915643978778289,4184.596516927083,12.04,0.3299999999999999,179.45246061741253,3.9008923589059634,73.76574706127367,1525.0,1535.0,1200.0,1528.0,1475.0,1021.7000000000002,93.0,292.65,1637154199.9064343,1637154201.1562338,6b2001a5-f789-4701-b2ba-18e330ad0de7
-0.0046764914623387,0.1037213606561329,0.0045407448956123,-0.2062986114390826,-0.1601992781789277,0.1816010864626662,-0.2486900127740575,-0.2792212895729276,-14.0444079575039,21.839717127877485,12.122736095710488,1.013308072283978,0.4070355483365952,0.5751437451329342,4160.88623046875,12.04,0.33,179.45002451660858,3.890140645083109,73.82997360676903,1525.0,1535.0,1200.0,1528.0,1475.0,1021.7000000000002,93.0,292.65,1637154201.2640858,1637154202.3853846,6b2001a5-f789-4701-b2ba-18e330ad0de7
-0.0032564322264565,0.1012625545010538,0.0029103065352925,-0.2075740351481561,-0.1620532444973065,0.1856114386390739,-0.2499654364765504,-0.2700303498167263,-14.069632305006888,21.919925629897143,12.17134546478233,1.0256424907284067,0.3976162695758679,0.5814166141801972,4148.802734375,12.038555555555556,0.3299999999999999,179.4380959706781,3.893626934903839,73.8754125785874,1525.0,1535.0,1200.0,1528.0,1475.0,1021.7000000000002,93.0,292.65,1637154202.4938138,1637154203.4474423,6b2001a5-f789-4701-b2ba-18e330ad0de7
-0.0036245957080014,0.1007366066606571,-0.0120397613832525,-0.4881935589647072,-0.2083235108237387,0.4594856148000964,-0.1904281334440604,-0.214674332016783,-13.960324918318218,21.61709723338173,14.47037076854267,2.2717528272797702,0.40809117071717,0.5809677063595877,4136.790852864583,12.037,0.3366666666666666,179.4315192574173,3.9644612141024873,74.00128385807186,1525.0,1636.0,1200.0,1528.0,1475.0,1021.7000000000002,93.0,292.65,1637154205.4359856,1637154206.579835,203eb802-6d67-48ed-8e28-e6fe3bee2abf
-0.0094741220463572,0.0992902500918278,-0.0081318592062785,-0.4886482848477511,-0.2038146032745412,0.4612354869713628,-0.186351489379382,-0.2137309133606547,-14.060233206805192,21.62176080270889,14.48934756034299,2.2768890104043336,0.4035091954250987,0.5634712243489605,4144.7900390625,12.034777777777776,0.3400000000000001,179.4343621339318,3.9624949733951698,73.98519724475665,1525.0,1636.0,1200.0,1528.0,1475.0,1021.7000000000002,93.0,292.65,1637154206.6891315,1637154207.8028011,203eb802-6d67-48ed-8e28-e6fe3bee2abf
-0.0340173020096933,0.0985696004101507,-0.0141425413980923,-0.5008466536911181,-0.2121189329570513,0.4743567889515269,-0.1887420658623253,-0.2009551832143569,-13.921355398775368,21.66522265029362,14.623748853247063,2.333971013321083,0.39975375489699,0.586453603686788,4159.562174479167,12.035666666666668,0.34,179.4278446156438,3.958581701887576,73.99659607157149,1525.0,1636.0,1200.0,1528.0,1475.0,1021.7000000000002,93.0,292.65,1637154207.9119804,1637154209.0322545,203eb802-6d67-48ed-8e28-e6fe3bee2abf
-0.0011657894807398,0.0888107393257027,-0.0304084905136313,-0.7519170486873908,-0.2564740419375891,0.7264435693914628,-0.1389641321037987,-0.1662608279397286,-13.962766087918656,21.6858826317766,16.362202307815902,3.466380262953603,0.3779186335287092,0.597198238125253,4207.86767578125,12.033,0.3400000000000001,179.40077885269278,4.017048974956532,73.98846131627,1525.0,1737.0,1200.0,1528.0,1475.0,1021.7000000000002,93.0,292.65,1637154210.8706102,1637154211.8993657,501c3411-c279-4306-9123-6a8cc8ae95c4
0.0102735764093786,0.0966999569706988,-0.0246625100955624,-0.7494976874712904,-0.2522270125347149,0.7167135351052271,-0.1363869874479862,-0.148010436577215,-13.938111200698632,21.6882328070902,16.42644198231766,3.439382432457559,0.4068305696831643,0.5809946127960521,4209.9345703125,12.029,0.37,179.41699068614275,4.010177614924022,73.8685725235886,1525.0,1737.0,1200.0,1528.0,1475.0,1021.7000000000002,93.0,292.65,1637154212.007269,1637154213.1383965,501c3411-c279-4306-9123-6a8cc8ae95c4
0.0007013254056562,0.0912563967927329,-0.0235974656694342,-0.7382555474428644,-0.2494000424772439,0.7107440275897651,-0.1350195229499214,-0.1580165946391985,-13.77329743856148,21.65821939006112,16.3001685697026,3.400525542316544,0.3850494172025145,0.5731348060801132,4205.802734375,12.026888888888887,0.37,179.40241354463413,4.0019276476121615,73.78370742315117,1525.0,1737.0,1200.0,1528.0,1475.0,1021.7000000000002,93.0,292.65,1637154213.2462828,1637154214.3628416,501c3411-c279-4306-9123-6a8cc8ae95c4
0.0057058335868684,0.0941594001988916,-0.0214347909574886,-0.7081398758068976,-0.2507509283394276,0.6798480245122297,-0.1486198493847494,-0.1738167560175698,-13.806497583077713,22.412962190067283,16.201818677127097,3.2682430995926937,0.393486118280021,0.5915343935207761,4141.677354600694,12.026555555555555,0.3766666666666666,179.37684435202124,4.004894795624101,73.60640330139672,1525.0,1837.0,1200.0,1528.0,1475.0,1021.7000000000002,93.0,292.65,1637154216.392904,1637154217.4386606,fae46435-5315-4493-880d-137cd9df3fab
-0.0026943254398068,0.0948662617384433,-0.0168017810142904,-0.7061770985051131,-0.245534325347518,0.676819298848323,-0.1439469405128174,-0.1703539079821995,-13.798228332702388,22.340205132669936,16.16334056478906,3.256756010450605,0.3964705959555477,0.5715447764388474,4131.692816840277,12.014111111111111,0.42,179.37867939617823,3.985782029051636,73.49850604416812,1525.0,1837.0,1200.0,1528.0,1475.0,1021.7000000000002,93.0,292.65,1637154217.5473864,1637154218.6674373,fae46435-5315-4493-880d-137cd9df3fab
0.0111391989595503,0.0955236965381588,-0.0192397684792991,-0.7037254139786705,-0.2465067810929703,0.6751346223111939,-0.1484531086285682,-0.1706141429916008,-14.041916748550411,22.348226868072288,16.31074175845805,3.2472725293192166,0.3988984556097981,0.5827435980821205,4124.84423828125,12.016,0.4099999999999999,179.3687725862421,3.982215437076289,73.37734380066144,1525.0,1837.0,1200.0,1528.0,1475.0,1021.7000000000002,93.0,292.65,1637154218.775554,1637154219.8961403,fae46435-5315-4493-880d-137cd9df3fab
-0.0436607333245927,0.1085765166843688,0.0486540733295571,0.4174475928625311,-0.0593295967467074,-0.4306296489914071,-0.3825273254132826,-0.4065647919670135,-14.172377795523388,23.77504543695649,7.051928605896023,-1.75532141324696,0.3971263765633801,0.5662009115066594,4171.742133246527,12.027666666666669,0.36,179.35199612382073,3.6788347981392095,73.26334718450403,1525.0,1334.0,1200.0,1528.0,1475.0,1021.7000000000002,93.0,292.65,1637154222.035731,1637154223.1727805,2a30a61f-23c8-446d-8cf5-14173b60e81b
-0.0444277405861894,0.0978795045642661,0.0425591047320859,0.4280213352193854,-0.0617401911676434,-0.427137025810655,-0.3859103760466627,-0.4101395940074835,-14.101422333623413,23.71486281323112,7.406239815569087,-1.7719350449932685,0.3516743575850745,0.581981502269778,4219.396918402777,12.039555555555555,0.32,179.3634966445632,3.66529636713499,73.45674778540248,1525.0,1334.0,1200.0,1528.0,1475.0,1021.7000000000002,93.0,292.65,1637154223.2804365,1637154224.3017871,2a30a61f-23c8-446d-8cf5-14173b60e81b
-0.0377575163538202,0.106686391611253,0.0483938387173204,0.4257340101178414,-0.0575627406322177,-0.435217997132807,-0.3821164285728937,-0.404756845945172,-14.074654671219866,23.64662082044843,7.222615640528377,-1.7851120717244442,0.3867938924102606,0.5637698262181882,4251.933702256944,12.038777777777776,0.3111111111111111,179.37031165553506,3.666068510534286,73.66113436612594,1525.0,1334.0,1200.0,1528.0,1475.0,1021.7000000000002,93.0,292.65,1637154224.4096763,1637154225.422511,2a30a61f-23c8-446d-8cf5-14173b60e81b
-0.0601787835549322,0.1082204061583715,0.0707740154108531,0.7366732540857696,-0.0095699978891829,-0.7395282321307226,-0.4531194032094941,-0.4894974723199992,-14.319228955161316,25.035574680951584,4.678534619195941,-3.1605472831306227,0.3799856055471664,0.5675711074791392,4261.568033854167,12.035333333333332,0.3266666666666666,179.39779178329576,3.5729529210344566,74.06027847866297,1525.0,1234.0,1200.0,1528.0,1475.0,1021.7000000000002,93.0,292.65,1637154227.4527209,1637154228.589779,d0647f66-df5b-4a79-88d1-50747ac514e3
-0.0513308063555362,0.1075081851285149,0.0727463198226816,0.734755736064488,-0.006597844627396,-0.7357342837718441,-0.4495309040474804,-0.4687060915689747,-14.378208371460596,24.944049064338248,4.890355301027735,-3.148200773803502,0.3762139929883036,0.5559172817653805,4248.187825520833,12.030666666666669,0.35,179.38857558137568,3.577136767640108,74.17426067553214,1525.0,1234.0,1200.0,1528.0,1475.0,1021.7000000000002,93.0,292.65,1637154228.703221,1637154229.7335007,d0647f66-df5b-4a79-88d1-50747ac514e3
-0.0436059470508065,0.1156439407780395,0.0749788588637369,0.7323040523155369,-0.0059404098015243,-0.7396651978183538,-0.4489282553226854,-0.474458648109745,-14.374965125572135,24.908774960172057,5.155000060804952,-3.1515825169451155,0.4048023160360069,0.552473525933696,4245.38232421875,12.032111111111112,0.3499999999999999,179.39798909987178,3.572423083339154,74.31876471107236,1525.0,1234.0,1200.0,1528.0,1475.0,1021.7000000000002,93.0,292.65,1637154229.846238,1637154230.955218,d0647f66-df5b-4a79-88d1-50747ac514e3
-0.0607677355643667,0.1117541182139994,0.0820462830129129,0.8847741286761884,0.0104406745076459,-0.8822875304587483,-0.490511017248769,-0.5116585096633139,-14.524807512361113,26.08428819041705,4.15172514188136,-3.808099903420036,0.3818613073771879,0.5785971439549531,4209.475477430556,12.032444444444444,0.3422222222222222,179.37289498486115,3.514116865182189,74.53885617342742,1525.0,1133.0,1200.0,1528.0,1475.0,1021.7000000000002,93.0,292.65,1637154232.889845,1637154233.9144597,65c52b6d-213e-4ff8-a14f-0af3d17fe939
-0.0655752278668339,0.115904175375201,0.0843473048379776,0.8797064024199216,0.010974840310008,-0.8815342193909491,-0.4870731802076919,-0.503372089893443,-14.37413765286575,26.02970086833833,4.195407294284196,-3.795140047903893,0.3967418792244371,0.5704854009256668,4197.564453125,12.028,0.37,179.37161394493685,3.53155976908226,74.62017868241531,1525.0,1133.0,1200.0,1528.0,1475.0,1021.7000000000002,93.0,292.65,1637154234.02302,1637154235.0521672,65c52b6d-213e-4ff8-a14f-0af3d17fe939
-0.067177725289993,0.1124526426853617,0.086223733339781,0.8825415898098837,0.0142757109732395,-0.8817807575909532,-0.4856624342699606,-0.4997835904455239,-14.503688140560968,26.05132832525493,4.063902513817195,-3.8019389106861294,0.3856492332760355,0.5607453889275219,4191.634114583333,12.02588888888889,0.3711111111111111,179.36582194452066,3.5099787191825462,74.68242067850183,1525.0,1133.0,1200.0,1528.0,1475.0,1021.7000000000002,93.0,292.65,1637154235.1600237,1637154236.2802436,65c52b6d-213e-4ff8-a14f-0af3d17fe939
-0.0551521463821199,0.1131785602766811,0.0910038321978509,0.8571892620149267,0.0114405232816087,-0.8593594792829741,-0.4779101803439918,-0.5133979734457094,-14.366899692948932,26.44802187746904,4.076375583289663,-3.691428073844069,0.3907243367250501,0.5468696440873315,4180.277994791667,12.027444444444445,0.3588888888888888,179.38533655388926,3.503234429127721,74.81649729190919,1525.0,1033.0,1200.0,1528.0,1475.0,1021.7000000000002,93.0,292.65,1637154237.8699768,1637154238.94334,21d7c40b-62ba-4629-a0c1-595ffbe65800
-0.0557684915205806,0.1168218447982966,0.0908942597936074,0.847861906416311,0.0107283022857218,-0.8536891009904083,-0.4758009096338589,-0.5107545369163763,-14.37785523655696,26.31880906460745,4.178193503485825,-3.658497055382444,0.4047032592118356,0.5455339517551663,4163.806315104167,12.023,0.38,179.3695132823121,3.511958833711615,74.85383262373229,1525.0,1033.0,1200.0,1528.0,1475.0,1021.7000000000002,93.0,292.65,1637154239.0515702,1637154240.171321,21d7c40b-62ba-4629-a0c1-595ffbe65800
-0.0538509732515011,0.1163424652482094,0.0889630450506481,0.8574905862838911,0.0101804399266523,-0.8601401835791528,-0.4806220994606483,-0.5073030039031934,-14.47772318955486,26.37319109549405,4.42851873590472,-3.69445946630542,0.4000865060235229,0.5560642878222013,4146.79541015625,12.022,0.39,179.36217462350385,3.4968613408815363,74.87616734231823,1525.0,1033.0,1200.0,1528.0,1475.0,1021.7000000000002,93.0,292.65,1637154240.2793686,1637154241.407174,21d7c40b-62ba-4629-a0c1-595ffbe65800
-0.0293478291190243,0.1014132166434845,0.0211924731874282,0.0748281967021697,-0.1158552969273668,-0.0882019435550252,-0.3093739935209496,-0.3324116101168548,-14.12641228132612,22.59790022170869,10.070463632116018,-0.2216417543198479,0.3836040122220107,0.5773711505053614,4139.23046875,12.025555555555554,0.3744444444444444,179.3737009471832,3.728879689051632,74.84630575526694,1525.0,1435.0,1200.0,1528.0,1475.0,1021.7000000000002,93.0,292.65,1637154242.404868,1637154243.5399466,41182557-b108-4d1f-8d7d-1d0e01fdf938
-0.0210340177796459,0.099290250091354,0.0233565294715878,0.0781290672705495,-0.1123352811487378,-0.0889141646824195,-0.3070318816488125,-0.3261796739474629,-14.177913461599706,22.560763388947866,10.123646711200722,-0.2308440412630192,0.3752649012978777,0.5661185454150365,4155.508680555556,12.036666666666669,0.3177777777777778,179.36669924437405,3.710603336061277,74.86219049854665,1525.0,1435.0,1200.0,1528.0,1475.0,1021.7000000000002,93.0,292.65,1637154243.6478183,1637154244.8834708,41182557-b108-4d1f-8d7d-1d0e01fdf938
-0.0260469584010577,0.1032074657965162,0.0261232343378288,0.0758554386038535,-0.1103629765756436,-0.0919958904860551,-0.3058128877360419,-0.3191396419006342,-14.251045568939844,22.568115291023247,9.94930758915286,-0.2325184448187907,0.3924750675297678,0.5580792821636208,4157.7470703125,12.037777777777778,0.3155555555555555,179.37049379391294,3.706034176665885,74.86916412168925,1525.0,1435.0,1200.0,1528.0,1475.0,1021.7000000000002,93.0,292.65,1637154244.9916945,1637154246.110381,41182557-b108-4d1f-8d7d-1d0e01fdf938
-0.0015471016980279,0.1195260932680733,0.1274810543300568,0.060804016500357,-0.0201262097866447,-0.0996495278495741,-0.1995007347538624,-0.2132411245099719,-13.441996125564629,22.482505432479066,9.96025717020292,-0.2108764442993807,0.4561337889037248,0.1481047746045583,4162.009006076389,12.038333333333334,0.3155555555555555,179.37560581105174,3.7092833071404336,74.82627812280063,1525.0,1435.0,1200.0,1439.0,1475.0,1021.7000000000002,93.0,292.65,1637154247.0211766,1637154248.1586592,08ae18d4-b0f2-480d-8575-5995fcbc0020
0.0159603876253461,0.1221361094173585,0.1328331214487538,0.0620493075450467,-0.0149664421007503,-0.1019121995093367,-0.1952679498671337,-0.2241539956492808,-13.496357317899358,22.48462282850478,10.202185705637804,-0.218478306681817,0.4643494914341903,0.1283840088903199,4168.9814453125,12.037,0.31,179.3584316798387,3.714629542849523,74.83373137700494,1525.0,1435.0,1200.0,1439.0,1475.0,1021.7000000000002,93.0,292.65,1637154248.2675686,1637154249.3879287,08ae18d4-b0f2-480d-8575-5995fcbc0020
0.0061673481091861,0.1189037216494153,0.1274503740483376,0.065761074932959,-0.0202670104149233,-0.1018163235599601,-0.2005685185566377,-0.215758004133465,-13.397289107582523,22.552558137702203,10.208981422564673,-0.2264024202818965,0.450667577966616,0.1501801416825276,4167.855685763889,12.03788888888889,0.31,179.35125239211112,3.715061789473872,74.80128570171766,1525.0,1435.0,1200.0,1439.0,1475.0,1021.7000000000002,93.0,292.65,1637154249.4965458,1637154250.6167428,08ae18d4-b0f2-480d-8575-5995fcbc0020
0.0585029945905232,0.1464151764524831,0.2621105498502311,0.0507978586648616,0.0988037483444528,-0.1225282606884753,-0.0648975219648849,-0.089472436620218,-12.486521191007723,22.57085924164737,10.173672394559512,-0.2319122317531508,0.5580983515668578,-0.3849444696716446,4171.01025390625,12.038222222222222,0.31,179.35190050117234,3.7100247621203337,74.74157694690331,1525.0,1435.0,1200.0,1351.0,1475.0,1021.7000000000002,93.0,292.65,1637154251.4142768,1637154252.4602537,537f0252-f52d-400e-8749-f2de40081f32
0.0553242972186294,0.144803913342168,0.2623066845513214,0.0501743913161782,0.0997148433967256,-0.12011492689378,-0.0633563851474069,-0.0871062191000884,-12.48476643844531,22.515454772539,10.218018634676216,-0.2254323232707785,0.5517379323948023,-0.3887609347087946,4169.432291666667,12.040111111111113,0.3122222222222222,179.3448821023452,3.71668400683362,74.71826930581558,1525.0,1435.0,1200.0,1351.0,1475.0,1021.7000000000002,93.0,292.65,1637154252.5682414,1637154253.7804315,537f0252-f52d-400e-8749-f2de40081f32
0.0515867803300264,0.1403273302431347,0.2567590307586058,0.0575825859138822,0.0956086151813461,-0.1221600971806283,-0.0694206737040642,-0.0894461393862015,-12.46515604753253,22.55540717653316,10.228207469475944,-0.2467390572531177,0.5334558017003959,-0.3674368098906385,4162.009548611111,12.039333333333332,0.3177777777777778,179.33691051267388,3.7173047951381823,74.74301508117854,1525.0,1435.0,1200.0,1351.0,1475.0,1021.7000000000002,93.0,292.65,1637154253.8888638,1637154255.0100892,537f0252-f52d-400e-8749-f2de40081f32
0.090236824898425,0.1694577180341347,0.4046687047417148,0.0583649333201376,0.2275996068853082,-0.1584926868319826,0.075088431321903,0.045325809052406,-11.44482693812528,22.68887299943431,10.341948539516098,-0.3213666074611523,0.643765368606673,-0.9502298286348916,4189.35791015625,12.038,0.31,179.3217808847524,3.7074868725249823,74.68367212093975,1525.0,1435.0,1200.0,1262.0,1475.0,1021.7000000000002,93.0,292.65,1637154255.8693287,1637154256.807535,443ac712-28a1-443e-b436-5baef82c5b8d
0.0990163188428664,0.1676223792548638,0.4024224693127755,0.0595291408314667,0.2249150815245451,-0.1582461487373761,0.0716095054744198,0.0477911895344326,-11.482580661007916,22.82066473684218,10.25038012333242,-0.322710555332533,0.6376770093295181,-0.9389798020950298,4211.319010416667,12.035333333333334,0.32,179.33248151445207,3.723139816259751,74.68837129108871,1525.0,1435.0,1200.0,1262.0,1475.0,1021.7000000000002,93.0,292.65,1637154256.9156978,1637154257.9864817,443ac712-28a1-443e-b436-5baef82c5b8d
0.0969070488341742,0.1663622959147063,0.3995735853488424,0.0563789323627613,0.2208609003678518,-0.1551918159422004,0.0681853658340798,0.0353821075729259,-11.510321186399525,22.96205275569864,10.07108621321065,-0.307988084722688,0.6349460005863725,-0.9252096707728676,4223.76513671875,12.035666666666666,0.3266666666666667,179.3389793010825,3.712677958589799,74.67507063604499,1525.0,1435.0,1200.0,1262.0,1475.0,1021.7000000000002,93.0,292.65,1637154258.0955124,1637154259.2174742,443ac712-28a1-443e-b436-5baef82c5b8d
0.1135039904271939,0.1810882873355659,0.4955130393018718,0.0734530622265579,0.3092223256037878,-0.1899153342624411,0.1585119765833142,0.1365273568766702,-10.926387591373032,23.10141275630745,10.13344408068909,-0.4185266644595687,0.6894740295106044,-1.3025723431012062,4228.163519965277,12.03377777777778,0.3322222222222222,179.32783243235704,3.699020758185013,74.59811793030609,1525.0,1435.0,1200.0,1173.0,1475.0,1021.7000000000002,93.0,292.65,1637154260.8701031,1637154261.973469,c17840ea-d9e2-4746-b53b-9ac5c2044cd1
0.1296900351563081,0.1779063029599949,0.492528285540235,0.0725326534847878,0.3075918874095728,-0.1848793831321785,0.1572365531278262,0.1293218716534916,-10.983883717312246,23.04927204266064,10.270089938358126,-0.4056354210849553,0.676658728399499,-1.294686320807214,4203.760308159723,12.031111111111109,0.3400000000000001,179.33344836567463,3.707135117782727,74.56562899715406,1525.0,1435.0,1200.0,1173.0,1475.0,1021.7000000000002,93.0,292.65,1637154262.0826235,1637154263.113019,c17840ea-d9e2-4746-b53b-9ac5c2044cd1
0.1160679861829072,0.1804045551508985,0.4905691299756059,0.0701921855380655,0.3043704570322799,-0.1855894128557369,0.1549486800590184,0.1228921594013851,-10.915119141210054,23.06998254659707,10.193834605782198,-0.4018892320477912,0.6863821562836477,-1.284156823062788,4165.608235677083,12.032666666666666,0.3366666666666666,179.32421243209694,3.706008136569674,74.54943385972204,1525.0,1435.0,1200.0,1173.0,1475.0,1021.7000000000002,93.0,292.65,1637154263.2221668,1637154264.2255125,c17840ea-d9e2-4746-b53b-9ac5c2044cd1
-0.091116023618926,0.0719672595654258,-0.1229753163951635,0.1049047432972897,-0.2442851990311339,-0.0794531293865033,-0.4622511749041912,-0.4903630946047496,-15.217505084145662,22.94375403948375,10.007858602501353,-0.2752724156525559,0.2686044533258952,1.1621858980644175,4146.79541015625,12.034333333333333,0.3255555555555555,179.3656580199806,3.715285383305452,74.5786966668561,1525.0,1435.0,1200.0,1617.0,1475.0,1021.7000000000002,93.0,292.65,1637154266.4774563,1637154267.5031822,b00038ed-e1ea-40f8-ac03-aaf5b770df01
-0.0661641799300287,0.0702809392747866,-0.1243745568984841,0.103152679554689,-0.2455754149924886,-0.0769570684197377,-0.4624878514739043,-0.4977701963516369,-15.186987480239798,22.92823411746147,9.892247525318949,-0.2658868303987571,0.2632151378771838,1.165832759621652,4155.507486979167,12.037999999999998,0.3133333333333333,179.3664503219243,3.730401161121121,74.55696983510629,1525.0,1435.0,1200.0,1617.0,1475.0,1021.7000000000002,93.0,292.65,1637154267.6111767,1637154268.7312212,b00038ed-e1ea-40f8-ac03-aaf5b770df01
-0.0768885857395872,0.0827858971953987,-0.1128146607147713,0.100550333464735,-0.2387271348963081,-0.0862707286951892,-0.4536124794439509,-0.4851008765206815,-14.944170560614808,22.97897612571992,10.046070574256964,-0.2798868847243981,0.3080885055949336,1.1299673245958972,4158.86767578125,12.039111111111112,0.31,179.35391009460815,3.725899070388828,74.5279961726471,1525.0,1435.0,1200.0,1617.0,1475.0,1021.7000000000002,93.0,292.65,1637154268.8396137,1637154269.960087,b00038ed-e1ea-40f8-ac03-aaf5b770df01
-0.1195698039166959,0.0482996063782528,-0.2694518067803094,0.1341474431701553,-0.3766268468828964,-0.0767970926046312,-0.6195096267767444,-0.6467274378054555,-16.24896958906968,23.30426890714444,9.748688821340888,-0.3407324935891969,0.1765537149003752,1.7621639029260403,4160.88623046875,12.037444444444446,0.3188888888888889,179.35483748251545,3.707551996481444,74.5186213585563,1525.0,1435.0,1200.0,1706.0,1475.0,1021.7000000000002,93.0,292.65,1637154270.9832585,1637154272.1217968,7f6c7e4d-b3c9-4d10-a9a6-48c340dc1dc8
-0.1339347555607225,0.0532698135605811,-0.2632439777427941,0.1336686114881477,-0.37180291803677,-0.0798333458816554,-0.6143964257696216,-0.6411047252265137,-16.2120686744238,23.30981356272453,9.989857979015062,-0.3460723497779534,0.1932489536537547,1.7408123494237238,4164.705403645833,12.033222222222223,0.33,179.35924978471928,3.714606822984159,74.45462020930356,1525.0,1435.0,1200.0,1706.0,1475.0,1021.7000000000002,93.0,292.65,1637154272.2299774,1637154273.3505895,7f6c7e4d-b3c9-4d10-a9a6-48c340dc1dc8
-0.1355646461545468,0.046942003487055,-0.2741190467342819,0.1377501858427268,-0.3809933106050154,-0.0771214271582026,-0.6238470544526549,-0.63921459928185,-16.149831838582898,23.306617856883225,9.949749897954884,-0.3497230936308262,0.1682387937414843,1.780867982376991,4166.281304253473,12.033444444444443,0.3277777777777778,179.3514679225249,3.710825696664256,74.42750435829862,1525.0,1435.0,1200.0,1706.0,1475.0,1021.7000000000002,93.0,292.65,1637154273.45902,1637154274.4661217,7f6c7e4d-b3c9-4d10-a9a6-48c340dc1dc8
-0.1730521299826291,0.025452102929717,-0.4040857129643764,0.1894957825242409,-0.4957294074636167,-0.0973101555191903,-0.77066052336618,-0.7839872821234231,-17.132266854054294,23.728447328803146,9.79480826204823,-0.5160095953816951,0.0813622480677696,2.320107395717709,4181.18359375,12.033,0.31,179.35825409492028,3.691531977510655,74.40393489329273,1525.0,1435.0,1200.0,1795.0,1475.0,1021.7000000000002,93.0,292.65,1637154275.3759673,1637154276.4181502,b31334c9-701e-469a-b031-7ef2faaaecb2
-0.1817494454462195,0.0237537296595865,-0.4037706919559578,0.1921255216498346,-0.4958800695416525,-0.0988441702296482,-0.7724684697820653,-0.7865485392247763,-17.205282134493597,23.89321074008123,9.677145002325632,-0.5243363661720967,0.0762509341689009,2.3219902425766943,4181.410915798611,12.033,0.3355555555555556,179.37696577760647,3.690368141735207,74.38706887950224,1525.0,1435.0,1200.0,1795.0,1475.0,1021.7000000000002,93.0,292.65,1637154276.5265217,1637154277.652351,b31334c9-701e-469a-b031-7ef2faaaecb2
-0.1625057789151629,0.0325332237919287,-0.3968950181637354,0.1887287752721721,-0.4913602040625811,-0.1049528356484637,-0.7672363820693833,-0.8002724971081631,-17.13418449334608,23.861150982263524,9.633643636993948,-0.5302424363744096,0.1099152644555171,2.300046404154509,4177.1083984375,12.032777777777778,0.3377777777777778,179.3731530142298,3.6882400160581854,74.29939125894659,1525.0,1435.0,1200.0,1795.0,1475.0,1021.7000000000002,93.0,292.65,1637154277.7609558,1637154278.9715302,b31334c9-701e-469a-b031-7ef2faaaecb2
-0.2139226647116312,0.0118103304384945,-0.5042212759916646,0.240200440144781,-0.5888660324507295,-0.1287848491078158,-0.8948472812501421,-0.9111051065074164,-17.97230373029024,24.712676917878955,9.18709173744914,-0.7000959516695398,0.0289548603445078,2.757219515976628,4167.630533854167,12.028333333333332,0.3466666666666667,179.39001447456084,3.674560949561681,74.26913200310362,1525.0,1435.0,1200.0,1883.0,1475.0,1021.7000000000002,93.0,292.65,1637154280.905924,1637154281.9949808,927681a9-3070-40fe-91f2-b42d99340e10
-0.1974320064322096,0.0177546369358388,-0.4976332297440362,0.2376939700623913,-0.5838667871345781,-0.1330718722091002,-0.8892179928284735,-0.9236374646744206,-17.922466484628462,24.68027791579743,9.12473035370306,-0.7039470727181829,0.0521752930670753,2.73407270267647,4166.955078125,12.02588888888889,0.36,179.39377714988365,3.6766657387590382,74.2731109677501,1525.0,1435.0,1200.0,1883.0,1475.0,1021.7000000000002,93.0,292.65,1637154282.1032026,1637154283.073212,927681a9-3070-40fe-91f2-b42d99340e10
-0.2146622789149877,0.0103037089752398,-0.5000438246804718,0.2381185633463705,-0.5837983043034097,-0.1233610115228796,-0.8883277161328498,-0.920227020103261,-17.996300656878645,24.62235016468517,9.51794867653325,-0.6835617771260364,0.0210612013319046,2.735626668721137,4162.9072265625,12.026666666666664,0.3499999999999999,179.3926736948777,3.67868823366327,74.27736921124266,1525.0,1435.0,1200.0,1883.0,1475.0,1021.7000000000002,93.0,292.65,1637154283.2027493,1637154284.204281,927681a9-3070-40fe-91f2-b42d99340e10
-0.0409142992251654,0.0868647322914275,-0.0426499271020471,0.0745838500305757,-0.1441973135908782,-0.0794268320964909,-0.3387060001966112,-0.3626892267132946,-14.216124754632236,19.157325059165363,8.94330606419318,-0.2275834691317572,0.3355877490716569,0.7427578194746779,7202.87890625,11.811,8.21,178.7781661287111,3.3838938539909345,62.464641280705365,1525.0,1435.0,1350.0,1528.0,1475.0,1021.7000000000002,93.0,292.65,1637154287.372136,1637154288.3967602,79ad01e2-9f35-45e8-ac6e-95f37219c2ad
-0.0453717074455632,0.0848924278926207,-0.0437281202428883,0.0779499163090487,-0.1444208414488356,-0.0749562750557227,-0.3407308997783533,-0.363938353079163,-14.390367384500784,19.26509984613301,9.73195335453965,-0.2244317804753993,0.3219529351763393,0.748152091569435,7202.87890625,11.808666666666666,8.23,178.6440303203309,3.2529357199743214,57.27058066850444,1525.0,1435.0,1350.0,1528.0,1475.0,1021.7000000000002,93.0,292.65,1637154288.5047677,1637154289.5313685,79ad01e2-9f35-45e8-ac6e-95f37219c2ad
-0.0257012572249081,0.0896785532745551,-0.0372589614730357,0.070231631662232,-0.1402001096484603,-0.0792427502553252,-0.3333676286732357,-0.3483571449654735,-14.201634094133784,19.168223371641226,8.832852869289782,-0.2170219066377452,0.3478954656325908,0.7225164883198271,7208.9375,11.808222222222222,8.224444444444446,178.57631734271925,3.1905854132144102,52.7296466504022,1525.0,1435.0,1350.0,1528.0,1475.0,1021.7000000000002,93.0,292.65,1637154289.6393158,1637154290.7586317,79ad01e2-9f35-45e8-ac6e-95f37219c2ad
0.1002216159573002,0.3479512599406158,-0.046290472538723,-0.0529743933952521,-0.2083618612324279,-0.2100876278022521,-0.402948898397142,-0.4257399779708994,-14.30846272709469,18.72101403301525,9.781467642672416,-0.2364420841190098,1.323512866881957,0.95835261893512,7221.0830078125,11.80722222222222,8.253333333333334,178.552586229903,3.1633592119656817,46.434783422418,1610.0,1435.0,1350.0,1528.0,1542.0,1021.7000000000002,93.0,292.65,1637154291.965854,1637154293.0107014,ccbc0820-b587-494c-b705-a79806b741c3
0.0932637643198664,0.3452256449749538,-0.043838788421753,-0.0502213850234926,-0.2047185762149984,-0.207759212584725,-0.3994288820210752,-0.418028813314411,-14.325535267922705,18.68996166251164,10.116455955701689,-0.2374589038488649,1.3102579386971211,0.9452042800617776,7221.0830078125,11.800333333333334,8.316666666666666,178.61119532426093,3.1974606389442624,43.74408769658951,1610.0,1435.0,1350.0,1528.0,1542.0,1021.7000000000002,93.0,292.65,1637154293.120025,1637154294.2457802,ccbc0820-b587-494c-b705-a79806b741c3
0.0966605107753838,0.3594563683206824,-0.037415102246592,-0.0556863120891888,-0.1998152077645469,-0.2189219090219954,-0.3954294861372585,-0.4097423934752822,-14.3630706528347,18.482700932942308,9.839394226384025,-0.2513325959961367,1.3674296227315577,0.925417281153294,7233.2705078125,11.798,8.369999999999997,178.66287253552127,3.2331069693357355,41.58884768638381,1610.0,1435.0,1350.0,1528.0,1542.0,1021.7000000000002,93.0,292.65,1637154294.360009,1637154295.3565853,ccbc0820-b587-494c-b705-a79806b741c3
0.2529519354719516,0.6537269033167649,-0.037784909350744,-0.197637454794114,-0.2698868095475293,-0.3665571352016064,-0.4648573567354939,-0.5008245292767567,-14.372660563586628,18.11790137334913,10.993742623504197,-0.2651391938690222,2.4784075516885804,1.1563451631712631,7233.2705078125,11.798444444444446,8.353333333333333,178.80907652925495,3.3983175534025776,37.52637145528061,1695.0,1435.0,1350.0,1528.0,1609.0,1021.7000000000002,93.0,292.65,1637154297.407086,1637154298.4285595,c4f957e9-5d7f-4ebf-b0b4-59ac2d2a6b47
0.2688125494688433,0.6550691659276703,-0.0406748832977105,-0.2018559952330847,-0.2732287702753815,-0.366940638876107,-0.4667748753920763,-0.4914560805204577,-14.297421182414864,18.04129141924892,10.556235948352551,-0.2571686097056745,2.487121821777079,1.1671589447244963,7223.789388020833,11.793666666666669,8.363333333333335,178.87472678973728,3.469630111854669,36.42393338864608,1695.0,1435.0,1350.0,1528.0,1609.0,1021.7000000000002,93.0,292.65,1637154298.536214,1637154299.6600826,c4f957e9-5d7f-4ebf-b0b4-59ac2d2a6b47
0.2565678267485952,0.6531105582403632,-0.0385656132027269,-0.2058416941966747,-0.270475761624025,-0.3592705647032146,-0.4622276168317441,-0.4778964844003958,-14.34985257177829,17.98500834518723,10.87842763210194,-0.2311852816919446,2.4779148586513795,1.1542286701403055,7231.915364583333,11.79588888888889,8.358888888888888,178.94228343190795,3.505331795237541,35.390594069114854,1695.0,1435.0,1350.0,1528.0,1609.0,1021.7000000000002,93.0,292.65,1637154299.768463,1637154301.004238,c4f957e9-5d7f-4ebf-b0b4-59ac2d2a6b47
0.4108047624350306,0.9311780653455408,-0.0291560771886855,-0.3483954952875812,-0.3313980632214772,-0.5021530949946249,-0.5190683493929157,-0.5559258001305311,-14.166511734539869,17.864571654552744,10.455693258700345,-0.2309999103557313,3.5414320126460743,1.3372875924600258,7227.17236328125,11.789,8.4,178.98905049606498,3.599046093506805,34.11463656443597,1779.0,1435.0,1350.0,1528.0,1677.0,1021.7000000000002,93.0,292.65,1637154301.9083736,1637154303.0474346,6c209b87-a06d-45c4-b2bc-da321e4ed906
0.4201869043175383,0.9307671686155612,-0.030046353510493,-0.3484365852364572,-0.3329183814603063,-0.4996055347976058,-0.5196983912706669,-0.546461475200444,-14.120503780655612,17.92247550791677,10.748263956058922,-0.2247731950637182,3.536921822680957,1.341839886874734,7231.915364583333,11.783666666666669,8.461111111111112,179.0597733103709,3.647506712554869,33.53981505353182,1779.0,1435.0,1350.0,1528.0,1677.0,1021.7000000000002,93.0,292.65,1637154303.155491,1637154304.204851,6c209b87-a06d-45c4-b2bc-da321e4ed906
0.411106086698565,0.927151277434129,-0.0317584233861867,-0.3447385135369535,-0.331630904737819,-0.4974825673725141,-0.5224787934149856,-0.5553642407506,-14.461693359185588,17.92328656401477,11.01485329088205,-0.2285536708407739,3.522848279595582,1.346110704595846,7233.2705078125,11.784444444444444,8.422222222222222,179.10088649571492,3.671225255925776,33.099600254605605,1779.0,1435.0,1350.0,1528.0,1677.0,1021.7000000000002,93.0,292.65,1637154304.313914,1637154305.397559,6c209b87-a06d-45c4-b2bc-da321e4ed906
0.5061634822802799,1.1318967364921309,-0.030198111390391,-0.4520477844886269,-0.3858440846934579,-0.5958419659141851,-0.5708857325698367,-0.5999049148554295,-14.178495253373503,18.185438732543005,11.318761209778213,-0.2055104172650778,4.29938572995467,1.5110977201147802,7234.628255208333,11.781777777777778,8.465555555555556,179.12375700469576,3.729496255919832,32.44045322820848,1864.0,1435.0,1350.0,1528.0,1744.0,1021.7000000000002,93.0,292.65,1637154306.3675687,1637154307.4393065,c0f3b6fa-2445-4265-8fd8-ae240927a7f9
0.5133032237053452,1.140522280888407,-0.0250701197031796,-0.4613044686190921,-0.3845160661394664,-0.5984059624813411,-0.5666649998299501,-0.5867299165394367,-14.058273530637983,18.211010543897704,10.979225137078036,-0.1899599974868223,4.33536038253026,1.4968466909872091,7233.2705078125,11.773555555555554,8.495555555555557,179.1742821907161,3.773712529013033,32.13814526099417,1864.0,1435.0,1350.0,1528.0,1744.0,1021.7000000000002,93.0,292.65,1637154307.547901,1637154308.6645691,c0f3b6fa-2445-4265-8fd8-ae240927a7f9
0.521609911779086,1.1345445550883733,-0.0312516506929715,-0.4539959832206283,-0.3863760591323568,-0.5937420088569816,-0.5720192600874925,-0.6050416739882022,-14.30510403742611,18.126903219845488,11.723788485670758,-0.1968365404954914,4.306795102337837,1.5156823233231516,7239.38037109375,11.775222222222222,8.482222222222223,179.21327498177777,3.80801226863689,31.887037909618105,1864.0,1435.0,1350.0,1528.0,1744.0,1021.7000000000002,93.0,292.65,1637154308.7792416,1637154309.8118143,c0f3b6fa-2445-4265-8fd8-ae240927a7f9
-0.2204559238234815,-0.2426717442048592,-0.0372918332113081,0.2180941956536291,-0.0655889242854755,0.1087271788205606,-0.2525058744852052,-0.2697635413791877,-14.117801941239358,19.84237792675474,8.91970933286733,-0.1236466360859723,-0.918179064364096,0.4667947520408229,7245.5,11.772,8.58,179.62920769929468,3.832366209328087,31.383851802184,1440.0,1435.0,1350.0,1528.0,1408.0,1021.7000000000002,93.0,292.65,1637154311.3686686,1637154312.310007,12cc4800-7869-46b3-858e-155b1a3243a8
-0.2334506721731113,-0.2479273882983221,-0.0427156705827266,0.2217046083066828,-0.0679348709378298,0.1153185105186834,-0.2561584731694037,-0.274461461294094,-14.263965609555788,19.768915072785763,9.563611934144118,-0.1177072383552407,-0.9433529144401708,0.4828156513772234,7245.5,11.805666666666667,8.336666666666668,179.65606855657063,3.8559258085051846,31.25218169209422,1440.0,1435.0,1350.0,1528.0,1408.0,1021.7000000000002,93.0,292.65,1637154312.4187536,1637154313.4886682,12cc4800-7869-46b3-858e-155b1a3243a8
-0.2180316327243065,-0.2439044346351558,-0.0419075735930989,0.2202856449293904,-0.0693554780453931,0.1106720900965509,-0.2582310366714636,-0.2749682340678538,-14.26681611637271,19.9092935633408,9.271328215042216,-0.1240247344908545,-0.9254253993227728,0.4866024217084827,7247.543294270833,11.802,8.393333333333333,179.67857175315606,3.861120167368979,31.12426135585877,1440.0,1435.0,1350.0,1528.0,1408.0,1021.7000000000002,93.0,292.65,1637154313.5972743,1637154314.7199886,12cc4800-7869-46b3-858e-155b1a3243a8
-0.3603115034163877,-0.5205886677281156,-0.0429622086604577,0.345170858705396,-0.0094056392004019,0.2669224245106632,-0.1948296599675434,-0.2108546359417123,-14.306963903675395,20.69236277544679,9.522965652273928,-0.0494613656859669,-1.9805352168674424,0.2837377407697987,7245.5,11.799,8.414444444444444,179.7874009517515,3.8765643160153695,30.90587174897192,1355.0,1435.0,1350.0,1528.0,1341.0,1021.7000000000002,93.0,292.65,1637154316.3679264,1637154317.4743717,8cdf1b2f-8476-49da-a9d1-0f1fa8f60f05
-0.3639273955655768,-0.5181095899562697,-0.0380040542829806,0.3467048731820696,-0.0068854723644167,0.2584031655571703,-0.1924738516655916,-0.2277835839601568,-14.165295722197774,20.82749257863684,8.884168245552548,-0.0709534799566157,-1.9664504729737675,0.2696485669907005,7245.5,11.793666666666669,8.42888888888889,179.7945377405242,3.8846309117207634,30.88142764029731,1355.0,1435.0,1350.0,1528.0,1341.0,1021.7000000000002,93.0,292.65,1637154317.5828526,1637154318.6171424,8cdf1b2f-8476-49da-a9d1-0f1fa8f60f05
-0.3590996317519749,-0.52340577666556,-0.0378900989104067,0.3466040664927293,-0.004729086116208,0.2650690063023759,-0.1899679290567223,-0.2185006034133721,-14.25395473484486,20.76440850425601,9.092062610898926,-0.0561710574301825,-1.987510883247093,0.2626036405449701,7245.5,11.790666666666668,8.416666666666666,179.7803415717893,3.8763248799394656,30.845981235234667,1355.0,1435.0,1350.0,1528.0,1341.0,1021.7000000000002,93.0,292.65,1637154318.7301817,1637154319.8466213,8cdf1b2f-8476-49da-a9d1-0f1fa8f60f05
-0.5240265051127514,-0.8053950116954272,-0.0328541481102081,0.4960521358087757,0.0602687549874022,0.4048193668442383,-0.1288533318772267,-0.146645163340386,-14.251515209420624,22.070721337587543,9.482596398884134,-0.0702776232461812,-3.066679369575297,0.0474015439880646,7252.994249131944,11.789333333333332,8.44111111111111,179.85574534240644,3.860756602091284,30.76766780403111,1271.0,1435.0,1350.0,1528.0,1273.0,1021.7000000000002,93.0,292.65,1637154321.9795043,1637154323.0063677,e5e01d6f-a66a-41e1-b5e8-260d16d43c4c
-0.5188629011160232,-0.8009299315011615,-0.0343333764613559,0.488806656966869,0.0567761325643272,0.4087776719691534,-0.128100021077175,-0.1518635524952696,-14.051584916469118,21.99192297439465,9.715719046639348,-0.045496976644683,-3.052616859741877,0.0540801204328219,7255.722981770833,11.783333333333337,8.433333333333334,179.8582330490841,3.85993029149732,30.799488137554388,1271.0,1435.0,1350.0,1528.0,1273.0,1021.7000000000002,93.0,292.65,1637154323.1239808,1637154324.230038,e5e01d6f-a66a-41e1-b5e8-260d16d43c4c
-0.5163564301841586,-0.797423610875781,-0.0312242575778671,0.4887107810692637,0.0589127957024301,0.4034634076635683,-0.1272782275178056,-0.1484531093092743,-14.098366556451362,22.040010903004173,9.451064176574649,-0.0568147077271001,-3.036579565714744,0.0457594782346783,7256.405164930556,11.779555555555554,8.482222222222223,179.84385777761094,3.840238666392696,30.795656021975056,1271.0,1435.0,1350.0,1528.0,1273.0,1021.7000000000002,93.0,292.65,1637154324.3406618,1637154325.5744493,e5e01d6f-a66a-41e1-b5e8-260d16d43c4c
-0.6073974822409463,-0.9582075971745746,-0.0248553576664375,0.5637268255127621,0.0968522626832605,0.5059410502131475,-0.08685968077804,-0.1076236651715329,-14.2464429352214,23.04051032035888,11.61101914194508,0.0114677525364751,-3.666528206939178,-0.088409239558753,7251.6298828125,11.777555555555557,8.517777777777777,179.88031429176084,3.845847342634269,30.924062819461387,1186.0,1435.0,1350.0,1528.0,1206.0,1021.7000000000002,93.0,292.65,1637154327.5086553,1637154328.646552,297202c5-87ad-4f39-9569-148d46ad8f0b
-0.6001021449099845,-0.9666090712349972,-0.0305662748818626,0.5646488777441412,0.0903228393591703,0.503652081548632,-0.0927990567476127,-0.119596101883923,-14.09033068692018,23.23078919078214,10.18896353216496,0.0050731255032473,-3.687012462903451,-0.0662580138561887,7251.6298828125,11.766666666666667,8.583333333333334,179.86942393458423,3.851123948359319,30.97519020049352,1186.0,1435.0,1350.0,1528.0,1206.0,1021.7000000000002,93.0,292.65,1637154328.755208,1637154329.875007,297202c5-87ad-4f39-9569-148d46ad8f0b
-0.596433657482684,-0.9614810766197688,-0.0223483394980564,0.5714993478485844,0.099776751852363,0.5037572711190484,-0.0836738610785439,-0.1152175857834847,-14.055620111373962,23.05288621200272,11.882661417191567,-0.0106261660347184,-3.683361723178499,-0.1001622156756241,7251.6298828125,11.768333333333333,8.525555555555554,179.83885200785923,3.833575389970526,31.000839458101684,1186.0,1435.0,1350.0,1528.0,1206.0,1021.7000000000002,93.0,292.65,1637154329.9835804,1637154331.1079128,297202c5-87ad-4f39-9569-148d46ad8f0b
-0.0394695861938606,0.088141251557095,-0.0508377301017823,0.0727326232373975,-0.1475902253285395,-0.0757654677981758,-0.344615244434897,-0.3657216456960757,-14.526121971942864,18.78002880473433,9.350944850971343,-0.2181798856927118,0.3386591281446966,0.767604696067289,7251.6298828125,11.779555555555554,8.444444444444446,179.5450597687201,3.8077879158954033,31.148404936209904,1525.0,1435.0,1350.0,1528.0,1475.0,1021.7000000000002,93.0,292.65,1637154332.8667586,1637154333.939417,2d601db6-2cd6-4138-82e3-8b0b6e504a55
-0.0367165778709347,0.0911955840791523,-0.0437566090625959,0.0750610381883126,-0.1421526911646201,-0.0802579392209521,-0.3385339714036257,-0.3536275823471485,-14.381809251882563,18.82656779335137,9.491804007538084,-0.2327712002460877,0.3480079078818594,0.742558274099598,7253.676432291667,11.800666666666666,8.393333333333333,179.53135385578562,3.783408124835473,31.183824020515868,1525.0,1435.0,1350.0,1528.0,1475.0,1021.7000000000002,93.0,292.65,1637154334.0487597,1637154335.0878208,2d601db6-2cd6-4138-82e3-8b0b6e504a55
-0.0434141952095026,0.0881001618793135,-0.0463863484050813,0.071746471019378,-0.1452344170794152,-0.0753956606960384,-0.3391503166295357,-0.3650094247977451,-14.27990637874892,18.843230355678955,9.304831775905164,-0.2143671541866229,0.3375757446157932,0.7506149724921866,7251.6298828125,11.804222222222222,8.375555555555556,179.53034905906776,3.768893024211813,31.24163360328599,1525.0,1435.0,1350.0,1528.0,1475.0,1021.7000000000002,93.0,292.65,1637154335.1965053,1637154336.4066288,2d601db6-2cd6-4138-82e3-8b0b6e504a55
-0.0153910355372597,0.0861826436957025,-0.0630413642865077,-0.2800770505350991,-0.1969800198538597,0.2698397913349374,-0.2582584298099454,-0.2785978225475263,-14.210617281132462,18.05780499691781,12.31489801571819,1.349529382629857,0.3454631796688572,0.7299235634601242,7251.6298828125,11.805555555555554,8.307777777777776,179.53832064873902,3.845778756151353,31.45429951164837,1525.0,1535.0,1350.0,1528.0,1475.0,1021.7000000000002,93.0,292.65,1637154338.4557235,1637154339.5014727,dc171453-5d40-477c-abdb-a954f996bfcd
-0.0214175215340127,0.0868674716236333,-0.0663285384762448,-0.286829454907421,-0.2012122568680287,0.2744281381995225,-0.2606690244029668,-0.2816795494917682,-14.223761950110267,18.072513788533403,12.156687043013113,1.3749737711888024,0.3501501810082407,0.7433862633692941,7251.6298828125,11.804,8.376666666666669,179.52786135239,3.852607190342204,31.505752465030938,1525.0,1535.0,1350.0,1528.0,1475.0,1021.7000000000002,93.0,292.65,1637154339.6104052,1637154340.7302773,dc171453-5d40-477c-abdb-a954f996bfcd
-0.0289643254586778,0.0827585040751657,-0.0644658064352814,-0.2813234375664111,-0.1976374547347617,0.2749486073890134,-0.2580118917211262,-0.2705853348845978,-14.23011782914916,18.04441924478307,12.39673114952816,1.3636646833379995,0.3320962371880827,0.7320916925675295,7251.6298828125,11.80488888888889,8.380000000000003,179.52557855138744,3.8373470299165806,31.55064350389589,1525.0,1535.0,1350.0,1528.0,1475.0,1021.7000000000002,93.0,292.65,1637154340.838267,1637154341.8504975,dc171453-5d40-477c-abdb-a954f996bfcd
-0.0176372712342785,0.077129218550427,-0.0902701240080718,-0.6300926873152363,-0.260874472810126,0.620129248366983,-0.1902550089480789,-0.2246470717065941,-14.184795175516848,17.680610227400596,15.191199095244311,2.9228413033203524,0.3271938459805174,0.7573087330248413,7252.994249131944,11.805444444444444,8.316666666666666,179.50959287309,3.94196660268535,31.647236418593163,1525.0,1636.0,1350.0,1528.0,1475.0,1021.7000000000002,93.0,292.65,1637154343.8929584,1637154345.030635,cbe42246-5dda-4ec6-8756-d5e10eac1a36
-0.0115696956301859,0.0779236189392837,-0.0892154889642038,-0.6285860653075556,-0.2595048167936413,0.6175132059307629,-0.1902687055278263,-0.2268796110669619,-14.247145776948503,17.6818592407319,15.131545621910051,2.913584035372755,0.3310247218922726,0.7540062102455843,7257.76953125,11.799333333333331,8.374444444444444,179.495059748356,3.928732257394804,31.65251805209636,1525.0,1636.0,1350.0,1528.0,1475.0,1021.7000000000002,93.0,292.65,1637154345.1392791,1637154346.2659996,cbe42246-5dda-4ec6-8756-d5e10eac1a36
