raw_voltage_G-,raw_voltage_G0,raw_voltage_G1,raw_voltage_G2,raw_voltage_G3,raw_voltage_G4,raw_voltage_G5,raw_voltage_G6,load_x,load_y,load_z,load_l,load_m,load_n,rpm,voltage,current,roll,pitch,yaw,aileron1_pwm,elevator_pwm,throttle_pwm,rudder_pwm,aileron2_pwm,pbaro,pdiff,Tt,sample_start_time,sample_end_time,uid
0.0315481669546777,0.168728512952668,-0.061557753878729,-0.3666995843914911,-0.1943727436576305,0.4578420268267639,-0.19404402617267,-0.2204334619960217,-13.510655787041392,14.914496228994022,39.47006430438096,1.9513122556080449,0.4201365002833768,0.6822304904716683,3932.29833984375,12.038222222222222,0.37,179.60042224649263,-13.437365169389246,112.88280734363782,1525.0,1435.0,1200.0,1528.0,1475.0,1021.7000000000002,93.0,292.65,1637158690.8068016,1637158691.7641337,4018d011-3a03-43bf-b2a9-3e65ecf96784
0.079817030929963,0.2342353149352705,-0.049263722640276,-0.4255137185655808,-0.205720070001361,0.4421161872398276,-0.193846796866229,-0.2324908184190472,-13.283856285371511,15.187340765678538,38.7039605394007,2.051057395259352,0.6790368448029979,0.6870237748427968,3973.7737630208335,12.038666666666666,0.3633333333333333,179.6505452102618,-13.382380533887089,112.10366262098748,1525.0,1435.0,1200.0,1528.0,1475.0,1021.7000000000002,93.0,292.65,1637158691.87311,1637158692.998242,4018d011-3a03-43bf-b2a9-3e65ecf96784
0.0767796822383753,0.2398366594205749,-0.0641086010791816,-0.4331268220698978,-0.2229711611321336,0.4431417843734652,-0.2100854387907857,-0.22105145170555,-13.26114432724431,15.262384677132614,38.51279245502957,2.07027460388443,0.7015763830167364,0.7542024228161962,3974.386555989584,12.037,0.3666666666666666,179.69276488625135,-13.41341236001618,111.53835518414223,1525.0,1435.0,1200.0,1528.0,1475.0,1021.7000000000002,93.0,292.65,1637158693.1070251,1637158694.2272043,4018d011-3a03-43bf-b2a9-3e65ecf96784
0.1412565045738004,0.3373227310995253,-0.0126106351235261,-0.4751982802587537,-0.1922410120823958,0.3892052871166131,-0.1769693475322602,-0.202979115177714,-13.18489068422506,14.752600061624142,39.2478271959577,2.0433153789511738,1.0685900717660466,0.6077253857704404,3971.5218098958335,12.032222222222224,0.3977777777777778,179.5835334654049,-13.328566327190206,110.38370259803268,1610.0,1435.0,1200.0,1528.0,1542.0,1021.7000000000002,93.0,292.65,1637158695.8261185,1637158696.8914397,0ba23bce-169a-49b7-9a43-5d66ba63099d
0.1401470833482991,0.3462802797451711,-0.0464685288074579,-0.5003177627447485,-0.2304407173260517,0.4022444129726159,-0.2109094226658522,-0.2347003477036201,-13.28052194257906,14.857376546773674,38.79936864164827,2.1281684876336864,1.1077859696947427,0.7543514602474701,3958.8873697916665,12.032,0.39,179.54286044780736,-13.36736294004074,109.96140717984896,1610.0,1435.0,1200.0,1528.0,1542.0,1021.7000000000002,93.0,292.65,1637158697.0008738,1637158698.2095664,0ba23bce-169a-49b7-9a43-5d66ba63099d
0.1121376216524722,0.3143125142260586,-0.0432087476555463,-0.4605292525422759,-0.2141144176082972,0.4001899284685485,-0.2017601204388163,-0.2232774165234051,-13.223422705475675,14.579552510526204,39.3135297068298,2.032229944640857,0.9782294056388378,0.712004252686507,3943.7065158420137,12.03077777777778,0.3899999999999999,179.47735134456786,-13.388457504973632,109.68743842641094,1610.0,1435.0,1200.0,1528.0,1542.0,1021.7000000000002,93.0,292.65,1637158698.3175728,1637158699.5495968,0ba23bce-169a-49b7-9a43-5d66ba63099d
0.2793178092029127,0.5590562994130952,0.0365874044614241,-0.5586377270107356,-0.1974594004085569,0.2458434199547141,-0.1839682893178801,-0.2096904291905983,-12.6811764526603,14.548604065284962,38.99283135295912,1.910691399452065,1.9123092376021784,0.5839101914651129,3929.445583767361,12.02822222222222,0.4,179.3221421258685,-13.30613105304148,109.12249450741147,1695.0,1435.0,1200.0,1528.0,1609.0,1021.7000000000002,93.0,292.65,1637158700.3474858,1637158701.5993817,640feadc-790c-47c4-8125-64c35192176f
0.2439259037575031,0.5270337483529463,0.0311361733009005,-0.5575557044039933,-0.1965828221850263,0.2753594997850293,-0.179352549530225,-0.1967197869233522,-12.787200143121298,14.612465974202337,38.86665471767203,1.9746556244594728,1.7935961954570157,0.5794314976384807,3933.651611328125,12.03,0.4099999999999999,179.21219732970872,-13.293064426840555,108.86438393540642,1695.0,1435.0,1200.0,1528.0,1609.0,1021.7000000000002,93.0,292.65,1637158701.7079327,1637158702.8274796,640feadc-790c-47c4-8125-64c35192176f
0.2490758094698258,0.5306359430038127,0.0023597036708322,-0.5976318382184848,-0.2304544140898247,0.3072587854898319,-0.2022258039144173,-0.2362480589050053,-12.879578716157056,14.694699284178968,38.457875568633455,2.135740113575364,1.814494797384065,0.6967675416624198,3927.243408203125,12.029,0.4,179.17163511295772,-13.264327544272588,108.682750991538,1695.0,1435.0,1200.0,1528.0,1609.0,1021.7000000000002,93.0,292.65,1637158702.935454,1637158704.1485183,640feadc-790c-47c4-8125-64c35192176f
0.318640626439104,0.6546034829907926,0.0482157827998833,-0.6372286049177001,-0.216675674150635,0.2139578329444783,-0.19333673583437,-0.2069785098474351,-12.689317429549869,14.850989373040724,37.48689851026567,2.0186614056744125,2.294492457506315,0.6161897066707885,3922.4507921006943,12.020111111111111,0.4355555555555555,179.05084397639598,-13.274471703282396,108.41345332858236,1769.6666666666667,1435.0,1200.0,1528.0,1669.4444444444443,1021.7000000000002,93.0,292.65,1637158704.8045683,1637158705.788398,f1f92dc7-6c40-4be7-877d-043296ee2aa9
0.3289404377016389,0.6783259201617451,0.0603372368031713,-0.6349960719621763,-0.2096904292448167,0.1895642597987249,-0.1906248174836977,-0.2153334112387101,-12.690029494080044,14.919041801431982,37.6718889648542,1.95989356772534,2.382326211185095,0.5894139577784879,3927.643310546875,12.018333333333334,0.4366666666666667,179.03591014723068,-13.236825787579534,108.1594993061422,1779.0,1435.0,1200.0,1528.0,1677.0,1021.7000000000002,93.0,292.65,1637158705.8962486,1637158707.0163488,f1f92dc7-6c40-4be7-877d-043296ee2aa9
0.3349669231587289,0.6710256551302448,0.0566391662805931,-0.6570612339102371,-0.2162647773651006,0.2131086447481245,-0.1876115746893417,-0.212539313538412,-12.574609831747884,15.03121690434456,37.10935718779516,2.0631024553513893,2.36159872992622,0.5972835923878325,3931.84716796875,12.023444444444443,0.44,178.9898852969635,-13.299213684095813,107.94710546698178,1779.0,1435.0,1200.0,1528.0,1677.0,1021.7000000000002,93.0,292.65,1637158707.124231,1637158708.267251,f1f92dc7-6c40-4be7-877d-043296ee2aa9
0.402683251658137,0.8095959167364835,0.0916508568147561,-0.6912621005623714,-0.216252177080477,0.1052597534788481,-0.1985014349134418,-0.2350416662834362,-12.528484943382374,15.402101416718004,36.69058764573451,1.90205882285032,2.8911432473905894,0.5808030231963476,3927.043999565972,12.010444444444444,0.4744444444444444,178.88610892053416,-13.19743276640522,107.58564047245608,1854.555555555556,1435.0,1200.0,1528.0,1736.5555555555557,1021.7000000000002,93.0,292.65,1637158709.804807,1637158710.8165803,18b7df66-1f5b-4315-beb1-cbf3d778eac7
0.4237343126563913,0.8170446524686081,0.1051660727328582,-0.7108750288985425,-0.2108820296137192,0.1153152186564919,-0.1823657920937836,-0.209813697907564,-12.114636716601916,15.604261691889022,36.69967043400335,1.971119637780535,2.919345911042832,0.533040827859535,3924.249701605903,12.008888888888889,0.4855555555555554,178.8140595317094,-13.217049449156454,107.38921030320576,1864.0,1435.0,1200.0,1528.0,1744.0,1021.7000000000002,93.0,292.65,1637158710.9248674,1637158712.0465212,18b7df66-1f5b-4315-beb1-cbf3d778eac7
0.4144776312616191,0.7987482433327177,0.0885740620765201,-0.7028066809804616,-0.2210908977085171,0.1276256780831804,-0.1954772353524911,-0.2281254506217991,-12.362826970870117,15.585889501040477,36.8444762083534,1.979532855078867,2.84915092943739,0.5861254009801996,3928.2431640625,12.010777777777776,0.48,178.85660250331972,-13.33741588076108,107.16873331461755,1864.0,1435.0,1200.0,1528.0,1744.0,1021.7000000000002,93.0,292.65,1637158712.1548855,1637158713.2689369,18b7df66-1f5b-4315-beb1-cbf3d778eac7
-0.0756421990886705,-0.0149801393537805,-0.1316748240026772,-0.2785019475001225,-0.2187849445045442,0.5521121448288272,-0.225099058678917,-0.2402200614535321,-13.746484695601316,15.239519949967216,38.4364758602105,1.9625773269276248,-0.2733513854940993,0.8320622819655342,3942.6982421875,12.031,0.3899999999999999,179.02841059952203,-13.17621525806727,106.87385507540044,1440.0,1435.0,1200.0,1528.0,1408.0,1021.7000000000002,93.0,292.65,1637158714.8043945,1637158715.935437,3e4d38d9-7920-4f36-9385-a52c760bcae6
-0.0227871775441913,0.0615425345171758,-0.1115545785194373,-0.3187013605895317,-0.2231404510663908,0.5070367731098618,-0.2248525216321407,-0.2435757188908277,-13.36508635627783,15.509217273357535,37.49889759712576,1.954799215983356,0.0254949540654881,0.8179579537623244,3942.6998697916665,12.033,0.39,178.9194281011253,-13.2777901317179,106.81899727271662,1440.0,1435.0,1200.0,1528.0,1408.0,1021.7000000000002,93.0,292.65,1637158716.0444863,1637158717.164431,3e4d38d9-7920-4f36-9385-a52c760bcae6
-0.0320597478630073,0.0774716320469811,-0.1130338064474965,-0.3231938263156685,-0.225400382757304,0.4979011704004588,-0.2284273225073382,-0.2469861619745349,-13.42038441198251,15.23767635740865,37.814791646361314,1.9425529853985104,0.0832851180368923,0.8305485146323655,3953.610107421875,12.032,0.3911111111111112,178.86474408881037,-13.216253068071978,106.81340714233592,1440.0,1435.0,1200.0,1528.0,1408.0,1021.7000000000002,93.0,292.65,1637158717.2727892,1637158718.3923428,3e4d38d9-7920-4f36-9385-a52c760bcae6
-0.1229364184293079,-0.0970362248157586,-0.1377834898527452,-0.2416308076159204,-0.211854485207908,0.5889421872659101,-0.2190177866358481,-0.2412336080043068,-13.70884598078588,16.00552385280085,37.0604821530282,1.966740458473084,-0.574096488143741,0.8104568106313231,3950.9780002170137,12.019222222222222,0.4544444444444444,178.9084148005436,-13.181300997950514,106.80942969550924,1355.0,1435.0,1200.0,1528.0,1341.0,1021.7000000000002,93.0,292.65,1637158719.507399,1637158720.5336297,3045d0e7-ba00-4e2a-bafe-6f4b135e06e5
-0.114088441213463,-0.0637398895864219,-0.1460151217811354,-0.2586556347000724,-0.2268248251193835,0.5683836545017896,-0.2347140439527301,-0.2706264254377739,-13.697275938333618,15.8304283068811,36.45742224187621,1.9572856121129285,-0.4423806626334893,0.8675246767462665,3952.5977918836807,12.016666666666667,0.4499999999999999,178.90893237710074,-13.216848053439676,106.65895531572453,1355.0,1435.0,1200.0,1528.0,1341.0,1021.7000000000002,93.0,292.65,1637158720.64201,1637158721.7580285,3045d0e7-ba00-4e2a-bafe-6f4b135e06e5
-0.1199642650769002,-0.0869281638407034,-0.1463164460691849,-0.2542727356645389,-0.2247018581761704,0.5834498675885699,-0.2302626620552704,-0.2528208963510329,-13.642871083380951,16.07423163146972,35.9561082270838,1.98280332960718,-0.5258473164547913,0.8551696099308147,3955.63720703125,12.016111111111112,0.44,178.86229584544787,-13.206945512371757,106.56811683540298,1355.0,1435.0,1200.0,1528.0,1341.0,1021.7000000000002,93.0,292.65,1637158721.866946,1637158722.8987226,3045d0e7-ba00-4e2a-bafe-6f4b135e06e5
-0.1986646970875787,-0.2317281932386512,-0.1522059676736611,-0.1660805841469487,-0.1958842970220899,0.6322233082123848,-0.2169906959624281,-0.2349057968547982,-14.250239890364549,16.823368712160395,34.2888790865446,1.897565237808309,-1.0610790483659551,0.7852194357336865,3951.787353515625,11.972,0.62,178.92119028993116,-13.313059805635769,106.30262586454477,1271.0,1435.0,1200.0,1528.0,1273.0,1021.7000000000002,93.0,292.65,1637158724.8325465,1637158725.857947,9256f524-4d47-4ccd-bf8a-51e5dc44655d
-0.2131145677409898,-0.2400283083947333,-0.1596568950002674,-0.1612593944556489,-0.1986783939860354,0.6344969368210404,-0.2220584220568503,-0.2364809000190697,-14.38331716622215,16.64162085351808,34.041936174304844,1.890116775336634,-1.0901480126137106,0.8050680882930493,3957.8697102864585,11.977333333333334,0.6166666666666667,179.0385557071692,-13.24530006020101,105.87474866398932,1271.0,1435.0,1200.0,1528.0,1273.0,1021.7000000000002,93.0,292.65,1637158725.9669638,1637158726.9996643,9256f524-4d47-4ccd-bf8a-51e5dc44655d
-0.2075126748459983,-0.232413021180525,-0.1588077087842339,-0.1700662820489057,-0.1995960638627515,0.635798109908796,-0.2208257323639607,-0.2477394734694836,-14.375261974171975,16.551415213522677,34.1437742496731,1.9123714537856933,-1.061409036051992,0.8044358858918432,3956.246392144097,11.982,0.61,179.097166319347,-13.275909363238943,105.43409900968597,1271.0,1435.0,1200.0,1528.0,1273.0,1021.7000000000002,93.0,292.65,1637158727.1146152,1637158728.2237728,9256f524-4d47-4ccd-bf8a-51e5dc44655d
-0.2658885100132386,-0.3616899256690886,-0.1653798656231443,-0.0978350124834747,-0.1789098753812115,0.6821587647691729,-0.2097698681504854,-0.2375004716582612,-14.66919657348301,17.400841486482285,32.1925384005377,1.8584586904426683,-1.5361973259501167,0.7511625174056742,3954.421251085069,11.981666666666667,0.6077777777777779,179.1462161845066,-13.220969788012562,104.98282385776376,1186.0,1435.0,1200.0,1528.0,1206.0,1021.7000000000002,93.0,292.65,1637158728.8085957,1637158729.9544592,92d6cf30-ff08-47df-a47d-62cbbae6c7d8
-0.280570126995894,-0.3640232716884322,-0.1628208003688544,-0.0815043282746598,-0.175257276689181,0.6673960674803322,-0.2126762783310213,-0.2496980804878711,-14.733489280918851,17.57753911696305,31.90371076308718,1.789667286150981,-1.5437793011433116,0.7461733736423879,3961.935248480903,11.983111111111112,0.6044444444444443,179.12270667338342,-13.218385889504052,104.72999605762674,1186.0,1435.0,1200.0,1528.0,1206.0,1021.7000000000002,93.0,292.65,1637158730.0633266,1637158731.0913436,92d6cf30-ff08-47df-a47d-62cbbae6c7d8
-0.2871105085634465,-0.3603750560446479,-0.1558207638344982,-0.0899194938281548,-0.1682068367589789,0.675111064208605,-0.2023277068371753,-0.2290458596381089,-14.761537367570178,17.38222241771078,32.475982341500405,1.8251173474783504,-1.5334932459377009,0.7135297734450845,3960.917724609375,11.984,0.6011111111111112,179.13003926091235,-13.30103772405916,104.45622310294492,1186.0,1435.0,1200.0,1528.0,1206.0,1021.7000000000002,93.0,292.65,1637158731.200183,1637158732.319335,92d6cf30-ff08-47df-a47d-62cbbae6c7d8
0.0449423055767017,0.1657733433454924,-0.0566176806584686,-0.3722549102058519,-0.1861597403381442,0.4690288272309371,-0.180078467770009,-0.1943365854475734,-13.32190168247933,14.41554686505703,39.99897911163251,1.9860996569130336,0.4040177957446114,0.6451027205924134,3964.582275390625,12.036,0.37,178.94193281553058,-13.30003491947977,104.18279317554143,1525.0,1435.0,1200.0,1528.0,1475.0,1021.7000000000002,93.0,292.65,1637158733.434335,1637158734.4602711,86467d16-d494-46c5-b717-d749e92e9578
0.0735133267277764,0.2317085738013232,-0.0669174922031074,-0.4372861873438363,-0.2217981887270892,0.4561814558329127,-0.2040063568342816,-0.2315912294207475,-13.110426526318108,14.85440897310273,38.70642245454388,2.1062213447320715,0.6686353579374442,0.7473042728954308,3959.089925130209,12.036333333333332,0.3666666666666666,178.82586816987447,-13.218903940379851,104.6184560328408,1525.0,1435.0,1200.0,1528.0,1475.0,1021.7000000000002,93.0,292.65,1637158734.5684557,1637158735.6882536,86467d16-d494-46c5-b717-d749e92e9578
0.0848677737408423,0.2471035049533496,-0.0575627419514188,-0.4421210738317288,-0.2170043918888318,0.4449091889985997,-0.1998015135675556,-0.2150046947027994,-13.105312452310566,14.94059975299237,38.666595516019306,2.09283077427218,0.7278822798246801,0.7237690183294597,3955.434326171875,12.034666666666668,0.3622222222222222,178.6806780797776,-13.226868604998254,104.97680646110496,1525.0,1435.0,1200.0,1528.0,1475.0,1021.7000000000002,93.0,292.65,1637158735.7964294,1637158737.0275424,86467d16-d494-46c5-b717-d749e92e9578
0.0327797613822751,0.1656089847586492,-0.0832848796956637,-0.6202448657726155,-0.2382203631040927,0.708417256797853,-0.1411254505979411,-0.1710935228963636,-13.34778513553318,13.99255105742082,41.59554258991911,3.0795515372806546,0.4182693855500997,0.6971137318799783,3951.787353515625,12.034,0.3788888888888889,178.6186007671411,-13.175793778477235,105.49353303911369,1525.0,1535.0,1200.0,1528.0,1475.0,1021.7000000000002,93.0,292.65,1637158737.8279495,1637158738.8745334,859028f7-64d3-426b-be8e-2b7788092fba
0.0356423422660359,0.1561446630334381,-0.1010767111428239,-0.618108202424244,-0.2526154494168166,0.7163886531642941,-0.1593692688463238,-0.1736136909271088,-13.704116111689942,14.104909425143282,41.55198951776024,3.0923171524679365,0.3842913869450192,0.7654647124990959,3951.787353515625,12.033444444444443,0.38,178.56898171955064,-13.126119709918504,105.68485802141436,1525.0,1535.0,1200.0,1528.0,1475.0,1021.7000000000002,93.0,292.65,1637158738.9839582,1637158740.1034296,859028f7-64d3-426b-be8e-2b7788092fba
0.0516399225700158,0.1668005849611397,-0.0887908969648257,-0.6171083555609947,-0.2442742434381562,0.7031440819892989,-0.1498364625608421,-0.1823657916463612,-13.410845285610828,14.12213280378637,41.36665927065207,3.061143432766193,0.4244804960664106,0.7250188513139003,3958.480034722222,12.031777777777778,0.3722222222222222,178.56928680133356,-13.133614324712775,105.93380020282352,1525.0,1535.0,1200.0,1528.0,1475.0,1021.7000000000002,93.0,292.65,1637158740.2114646,1637158741.4175043,859028f7-64d3-426b-be8e-2b7788092fba
0.084265125142783,0.2030279812882089,-0.0898866213255295,-0.9038048411319752,-0.283843605595532,0.9469975901738876,-0.0890374350185729,-0.1231555643233093,-13.47918026616374,13.821098443209408,43.78093363472232,4.254132154222099,0.5746651691676586,0.6991931054193407,3959.495090060764,12.029444444444444,0.39,178.61184495114202,-13.029463710835149,106.1909886992906,1525.0,1636.0,1200.0,1528.0,1475.0,1021.7000000000002,93.0,292.65,1637158742.333428,1637158743.4738152,e972369f-f716-417d-ac77-a9affd22edaa
0.0905107557358775,0.226490184685761,-0.1113628269959788,-0.9176657672696876,-0.3136199291515122,0.9290003150160984,-0.1217859092524564,-0.1364823174350639,-13.562812352343109,14.1598265347914,42.46445939176907,4.245880873241208,0.6752733465283801,0.8163139344697332,3956.045979817709,12.032666666666666,0.39,178.65592395640564,-13.00068565740468,106.27899341001653,1525.0,1636.0,1200.0,1528.0,1475.0,1021.7000000000002,93.0,292.65,1637158743.5824606,1637158744.704684,e972369f-f716-417d-ac77-a9affd22edaa
0.0964687588320916,0.2511028998478715,-0.0950639206694804,-0.9238566161820684,-0.306333358094587,0.9027714057773926,-0.1128420548806935,-0.1364960130237321,-13.148939150507536,14.256509257772246,41.448131859461135,4.202404873334759,0.7754615147236724,0.773178184741434,3914.490234375,12.028444444444444,0.39,178.62444133779132,-13.22341414196178,106.36940234733024,1525.0,1636.0,1200.0,1528.0,1475.0,1021.7000000000002,93.0,292.65,1637158744.8127415,1637158745.929362,e972369f-f716-417d-ac77-a9affd22edaa
0.1192598318353188,0.2591016894823879,-0.1058705068091599,-1.1501102208908678,-0.3518196380858631,1.114602369686301,-0.0747930136777941,-0.0963787905929601,-13.031401015498448,14.866246145328944,43.15394418108621,5.192625038852283,0.8166932837455518,0.7969108708988246,3880.229248046875,12.02,0.4188888888888888,178.68852976168347,-13.023124726102944,106.62557542234076,1525.0,1737.0,1200.0,1528.0,1475.0,1021.7000000000002,93.0,292.65,1637158747.976792,1637158749.1143162,20e4d451-e4e2-4397-bb6a-f1a08c3e2602
0.0696919871987741,0.1639106115265654,-0.1131981657962504,-1.0694100399575597,-0.3222350661975794,1.1434062311409343,-0.06123341996043,-0.0730124604020024,-13.55281940759098,14.20381383562152,44.58740457983675,5.0705211457913455,0.440242925070923,0.7384165080770712,3876.3296169704863,12.024777777777778,0.4099999999999999,178.77659063174255,-13.020169151467096,106.58737872777232,1525.0,1737.0,1200.0,1528.0,1475.0,1021.7000000000002,93.0,292.65,1637158749.2226098,1637158750.2964623,20e4d451-e4e2-4397-bb6a-f1a08c3e2602
0.0926474189148646,0.2004530284494452,-0.1234431941713686,-1.1166221078531129,-0.3473271674903517,1.1494053228263013,-0.0774227554367082,-0.0875719044286637,-13.613330010916362,14.50746087190996,44.24502931032621,5.191918506751944,0.5859304342548659,0.8129659701352803,3888.445122612847,12.021444444444445,0.42,178.7652024296664,-13.10816314259054,106.66837642331969,1525.0,1737.0,1200.0,1528.0,1475.0,1021.7000000000002,93.0,292.65,1637158750.4055998,1637158751.3861158,20e4d451-e4e2-4397-bb6a-f1a08c3e2602
0.0741707615897128,0.181428509239449,-0.1275658580377543,-1.2314541550563518,-0.3674748086720154,1.2779749187064604,-0.0541112107092895,-0.0889004703290922,-13.799592391553013,15.269297371717334,44.90553323595964,5.744721073539675,0.5239310583326867,0.8100165838606789,3897.87451171875,12.009666666666668,0.4755555555555555,178.8528079537808,-13.0720110461774,106.63200642489927,1525.0,1837.0,1200.0,1528.0,1475.0,1021.7000000000002,93.0,292.65,1637158753.392539,1637158754.4399974,0b1cbded-8aab-4ca7-bb15-17eeb46d5d56
0.0913462460256631,0.2196419064121404,-0.096775990963943,-1.2535604104720772,-0.3477654552594525,1.2608679149005342,-0.0297313340806446,-0.0519197593213942,-13.641494327085658,15.213928779637277,45.11467118741175,5.757424653048697,0.6689546952369447,0.7113482563060742,3903.19970703125,12.009333333333334,0.4588888888888889,178.87021431142563,-12.975148528735389,106.54898471662786,1525.0,1837.0,1200.0,1528.0,1475.0,1021.7000000000002,93.0,292.65,1637158754.548475,1637158755.7586434,0b1cbded-8aab-4ca7-bb15-17eeb46d5d56
0.0849362565691033,0.1903038787468115,-0.1131296825026126,-1.2536699897478785,-0.3588185796723591,1.294698416086131,-0.0348264538335749,-0.0505501037518467,-13.579518872084366,15.262349423699613,45.73923657781288,5.833330928176892,0.5519226756846921,0.7533027553976401,3916.280354817709,12.010666666666667,0.4499999999999999,178.93211403914373,-13.052255862368002,106.4004296199999,1525.0,1837.0,1200.0,1528.0,1475.0,1021.7000000000002,93.0,292.65,1637158755.8669624,1637158756.9141457,0b1cbded-8aab-4ca7-bb15-17eeb46d5d56
0.044709464142663,0.2105884815191141,-0.0541112089711725,-0.1170195084676675,-0.1744902700920367,0.1645269548665705,-0.2722974056196738,-0.2984030497907882,-13.061803076142056,15.710537964202736,36.00549259774176,0.7342985588460174,0.5744109856327024,0.7587705099679124,3921.054931640625,12.035666666666666,0.36,178.92683657964506,-13.461140204116417,106.39181219799708,1525.0,1334.0,1200.0,1528.0,1475.0,1021.7000000000002,93.0,292.65,1637158757.9046333,1637158759.0365002,c5e57045-6fc3-4af8-8eeb-baca51f39212
0.0385323162702092,0.1972206408542609,-0.0649314902292076,-0.102103956090871,-0.1809002596358514,0.1663075071697147,-0.2845010406605398,-0.3139760395226686,-13.295108749605944,15.877187664981122,36.25956544584364,0.7051428895640207,0.5211533489073837,0.7982658237154624,3927.84326171875,12.034666666666668,0.35,178.87586970805842,-13.437782380111049,106.59939151270254,1525.0,1334.0,1200.0,1528.0,1475.0,1021.7000000000002,93.0,292.65,1637158759.1454945,1637158760.3852272,c5e57045-6fc3-4af8-8eeb-baca51f39212
0.0529821855426564,0.2366393347748709,-0.0609047023622293,-0.1410980611252245,-0.1894195205303389,0.1729777300448832,-0.2803372863465971,-0.3131268525096138,-12.968946180053663,15.72494183294837,37.62470550869487,0.8076659626227037,0.6596434209000249,0.8050958605682643,3965.2405598958335,12.037,0.36,178.85450184069498,-13.361254569056763,106.83594752550688,1525.0,1334.0,1200.0,1528.0,1475.0,1021.7000000000002,93.0,292.65,1637158760.5221508,1637158761.6072943,c5e57045-6fc3-4af8-8eeb-baca51f39212
0.0093449495814632,0.1824146613907938,-0.0421541130011692,0.1908654350261077,-0.1289355130245294,-0.0849832584659419,-0.3376436962212243,-0.3638178234472355,-13.506838392155098,16.984153894743933,36.695998511378825,-0.5119728173196765,0.428644334001925,0.7728941272748843,4085.5298665364585,12.037,0.35,178.83370922704165,-13.447160040114,107.12234874105413,1525.0,1234.0,1200.0,1528.0,1475.0,1021.7000000000002,93.0,292.65,1637158762.4048336,1637158763.5424883,40dcc94e-5acf-45c5-bebf-ef714586c325
-0.001447938842142,0.1441327815576212,-0.0212257703980247,0.2352422841320121,-0.095091313809104,-0.085900925072453,-0.3122913620612123,-0.3433551617836741,-13.59073700042958,16.950532339565374,37.22112682720055,-0.613277549452201,0.2768660593088688,0.6586259105346565,4122.202528211806,12.037,0.3411111111111111,178.79442197893573,-13.379965682560536,107.30222556739596,1525.0,1234.0,1200.0,1528.0,1475.0,1021.7000000000002,93.0,292.65,1637158763.650195,1637158764.8864715,40dcc94e-5acf-45c5-bebf-ef714586c325
0.0266847929202691,0.2050824649918753,-0.0361961089403802,0.155103720570881,-0.1343730460299377,-0.0844353950527336,-0.3338771417811532,-0.3571886886445783,-13.328486970179313,17.150163757463194,35.285241260968874,-0.4288099659747176,0.5296871114092235,0.7673121451714108,4136.125325520833,12.035999999999998,0.3499999999999999,178.82301922208066,-13.472085107942668,107.4436195901341,1525.0,1234.0,1200.0,1528.0,1475.0,1021.7000000000002,93.0,292.65,1637158764.9949293,1637158766.1149647,40dcc94e-5acf-45c5-bebf-ef714586c325
0.0415543248881468,0.2437681190441058,-0.0130785093878959,0.3387279963359675,-0.1072889221065993,-0.3088453110922642,-0.3825832092935601,-0.4088280113436726,-13.254433930517443,18.24549324716155,32.69887820400166,-1.3392632201104573,0.6760566060745329,0.7705032279618976,4090.094482421875,12.029444444444444,0.3777777777777778,178.75968819027648,-13.591272762733036,107.66393644873176,1525.0,1133.0,1200.0,1528.0,1475.0,1021.7000000000002,93.0,292.65,1637158766.8172405,1637158767.9581215,3542c1c3-4d16-4f48-b051-3fca57afc112
0.0289721183326905,0.2244630949133383,-0.0159799887555451,0.3470746778919516,-0.1065005482734728,-0.2981291221637174,-0.3839928604478876,-0.3985933938719403,-13.463305675747833,18.48706526331394,32.60755847945854,-1.33267334320953,0.6047312389396917,0.7727547744300821,4025.201117621528,12.031888888888888,0.3722222222222222,178.78544407472668,-13.616882746753475,107.76566983968937,1525.0,1133.0,1200.0,1528.0,1475.0,1021.7000000000002,93.0,292.65,1637158768.0669675,1637158769.1848097,3542c1c3-4d16-4f48-b051-3fca57afc112
0.0622240754009273,0.2967179159586026,0.0047642712018333,0.3275910513352557,-0.0983872547266022,-0.3465557789637744,-0.3762455368021405,-0.4041470748408362,-13.16609718486789,17.872260410409762,33.35225607341165,-1.4003185927865656,0.8707304440342198,0.7324794366099953,3996.003173828125,12.03,0.37,178.81379239542187,-13.612925600766838,107.80338234973664,1525.0,1133.0,1200.0,1528.0,1475.0,1021.7000000000002,93.0,292.65,1637158769.293422,1637158770.3033874,3542c1c3-4d16-4f48-b051-3fca57afc112
0.0521056058399302,0.2619505734262726,0.0032636772553712,0.3610588620506782,-0.0979538943722702,-0.3479024340261853,-0.3845955082346363,-0.3999082628819148,-13.28608051266403,18.91789020533706,32.649727426134,-1.472155384831203,0.7432094770448794,0.7404059280817675,3971.5218098958335,12.02777777777778,0.39,178.81234439531784,-13.563323628649345,107.9404445147212,1525.0,1033.0,1200.0,1528.0,1475.0,1021.7000000000002,93.0,292.65,1637158771.4152775,1637158772.4626553,1d748a8c-95f1-411c-b01b-644648f7dfc3
0.0527219509417168,0.2681277210661196,-0.0009137733533343,0.3678249624498282,-0.1030079247616444,-0.362475564582948,-0.3943063697871258,-0.427260296477619,-13.318789601472073,19.00415625721565,32.27006501405646,-1.5198789462010638,0.7688775647801229,0.7670232244330076,3967.6412760416665,12.028333333333332,0.39,178.8387407997302,-13.5697798649623,107.97165089012908,1525.0,1033.0,1200.0,1528.0,1475.0,1021.7000000000002,93.0,292.65,1637158772.5707695,1637158773.6836646,1d748a8c-95f1-411c-b01b-644648f7dfc3
0.0419838488699565,0.2443231034476453,-0.0056253897003053,0.3684687015413306,-0.1019122002211264,-0.3417115795581925,-0.3918272916761696,-0.4135637347137709,-13.510261593688917,18.99180613907775,31.98310278757599,-1.4751302200973686,0.6831161474261629,0.7650152967196965,3959.699191623264,12.028111111111109,0.3922222222222223,178.8968945481435,-13.654205651426842,108.00225165543056,1525.0,1033.0,1200.0,1528.0,1475.0,1021.7000000000002,93.0,292.65,1637158773.8159103,1637158774.9236555,1d748a8c-95f1-411c-b01b-644648f7dfc3
0.0722258502867075,0.2348450855846698,-0.0477286126063588,-0.3574352339989404,-0.1933367365050333,0.3801518644780486,-0.2042939851407288,-0.2293176013869177,-13.137431910553536,14.799798789178048,38.861450283321766,1.7558530932655294,0.6706004988524578,0.6840935518089877,3944.512451171875,12.037,0.36,178.91575953063114,-13.442342574883153,107.93846224204208,1525.0,1435.0,1200.0,1528.0,1475.0,1021.7000000000002,93.0,292.65,1637158777.2519667,1637158778.3913045,1a8f16f4-3d33-4a35-bd0a-0bc414abe0a2
0.0534615651048399,0.201302214952228,-0.0462356867120743,-0.3361233845695536,-0.1824342737890501,0.3976286713304978,-0.1927751769546044,-0.229372385480286,-13.00770626374917,14.677007942122373,39.514042535412806,1.7464811708709664,0.5355608814488756,0.6479983658312948,3948.349663628472,12.038333333333334,0.35,178.97053157649532,-13.416518293677504,107.9671460009165,1525.0,1435.0,1200.0,1528.0,1475.0,1021.7000000000002,93.0,292.65,1637158778.5000515,1637158779.6212072,1a8f16f4-3d33-4a35-bd0a-0bc414abe0a2
0.0883466997125648,0.2561843230026681,-0.0525498007630147,-0.3946487847477933,-0.207800303223224,0.3901503530744371,-0.2096082490717909,-0.2255647421068457,-13.100851000247449,14.90460991907942,38.34355749886988,1.862656286734284,0.7592446978311583,0.719439523630181,3955.231635199653,12.036888888888887,0.35,178.99476964113,-13.426245811147943,107.98126172520118,1525.0,1435.0,1200.0,1528.0,1475.0,1021.7000000000002,93.0,292.65,1637158779.730374,1637158780.7752962,1a8f16f4-3d33-4a35-bd0a-0bc414abe0a2
0.0828406828394839,0.2140537104136184,0.0197543327543538,-0.3683240001612192,-0.1271412637719007,0.4074901944147037,-0.12333362140549,-0.1513704777336178,-12.78919557363174,14.832486125916285,38.9955788813319,1.845621922232479,0.594585944770753,0.384483993440082,3950.57381184896,12.036,0.3566666666666666,178.96196651927616,-13.42055873002652,108.04689225402592,1525.0,1435.0,1200.0,1439.0,1475.0,1021.7000000000002,93.0,292.65,1637158782.89589,1637158784.0314305,f94ba1bc-93f5-4766-a397-62c0cb5abb29
0.0538176756510862,0.1762923002342573,0.0169328421697467,-0.3484228965692027,-0.1188685416341212,0.4258298846790637,-0.1152663468312675,-0.1281411122875997,-12.755412855686822,14.652429643153232,38.97027399650529,1.8406205051480973,0.4503106957234677,0.3612433624796559,3944.512451171875,12.035111111111112,0.36,178.97080781970175,-13.414736657805255,108.02577938039153,1525.0,1435.0,1200.0,1439.0,1475.0,1021.7000000000002,93.0,292.65,1637158784.140377,1637158785.2622807,f94ba1bc-93f5-4766-a397-62c0cb5abb29
0.0741570650899332,0.1882356987913057,0.0160288691000916,-0.3624207788552819,-0.1246347930351579,0.4289526994975522,-0.1180741415188929,-0.152479899049733,-12.777461364815958,14.770958648128785,39.22965664483132,1.879984659654271,0.4946309959188992,0.3759513100328118,3944.916097005209,12.034222222222224,0.3499999999999999,178.99923658484718,-13.403661885521034,108.03863683204912,1525.0,1435.0,1200.0,1439.0,1475.0,1021.7000000000002,93.0,292.65,1637158785.3702602,1637158786.4961846,f94ba1bc-93f5-4766-a397-62c0cb5abb29
0.1028924446913909,0.2108624124097539,0.1156165471115873,-0.3859925636995773,-0.0410720841837439,0.4181461158745851,-0.0165141542978806,-0.0294026167528102,-11.865829493480769,14.92020319502005,38.52763106020541,1.9151681417762791,0.5884827077630473,-0.0160955866020956,3942.295464409722,12.033,0.3577777777777777,178.969151878283,-13.431368737616667,107.99478170520828,1525.0,1435.0,1200.0,1351.0,1475.0,1021.7000000000002,93.0,292.65,1637158788.311262,1637158789.3587973,33604c59-e193-4c96-8a1f-253f5af030d3
0.1481113579963591,0.2842792499391433,0.1722655119803618,-0.3717618313801143,0.0028182649039313,0.3364138263151887,0.0190306072767711,-0.0129207248489224,-11.308518321997171,14.495869123657553,39.35442709931901,1.6998238392389755,0.8544000397888643,-0.1929645305479807,3941.087782118056,12.034,0.3555555555555555,178.9515937386566,-13.438517574084209,107.96119159378009,1525.0,1435.0,1200.0,1351.0,1475.0,1021.7000000000002,93.0,292.65,1637158789.466642,1637158790.586362,33604c59-e193-4c96-8a1f-253f5af030d3
0.0856156059503803,0.1888065714016934,0.117645828152234,-0.3435447239384484,-0.0268451959126297,0.4028278865491277,-0.0172860933895838,-0.0458582105901697,-12.246589987661986,14.82447893496238,38.842327751377226,1.7843190847367532,0.5005664590352822,-0.0392198878249065,3951.9920518663193,12.035777777777778,0.3499999999999999,178.97280527057902,-13.383902337979665,107.96174939256228,1525.0,1435.0,1200.0,1351.0,1475.0,1021.7000000000002,93.0,292.65,1637158790.6952507,1637158791.7003353,33604c59-e193-4c96-8a1f-253f5af030d3
0.151611102483741,0.2505824305858825,0.2124512131495095,-0.3992371340956436,0.037327018463348,0.3840964741150292,0.070595959334392,0.0479966374305421,-11.208250980567849,15.279426647336845,38.18660685053948,1.876010258822246,0.743600819163257,-0.374379108096029,3955.434326171875,12.028888888888888,0.36,178.98943905793774,-13.4073887972144,107.90680886869852,1525.0,1435.0,1200.0,1262.0,1475.0,1021.7000000000002,93.0,292.65,1637158792.8197396,1637158793.955372,bd1bb2d5-1ca0-4141-88ce-1b0da1bf09c3
0.1272312286174291,0.1960427365406529,0.2309415659320075,-0.3436427942966799,0.0748829816044964,0.3918076346252467,0.1005640282765458,0.0791289148970418,-11.153229186355984,14.986619695974603,39.152760069428986,1.7670924066476676,0.5244137550877475,-0.4979947454136836,3953.610107421875,12.032875,0.35375,178.97573788819017,-13.375820172763197,107.8970370498622,1525.0,1435.0,1200.0,1262.0,1475.0,1021.7000000000002,93.0,292.65,1637158794.063811,1637158795.1798942,bd1bb2d5-1ca0-4141-88ce-1b0da1bf09c3
0.1462146585441331,0.2391458046543439,0.2418577229018148,-0.3605580487324142,0.0759924030870654,0.3650993483236413,0.1002627043990596,0.0794302392387675,-11.196110826635527,14.931043996823377,39.18724817582408,1.745391036717607,0.6888480189416346,-0.5088480954196047,3950.5775553385415,12.034666666666666,0.36,178.99500642102123,-13.41155312560586,107.87940007846916,1525.0,1435.0,1200.0,1262.0,1475.0,1021.7000000000002,93.0,292.65,1637158795.2878835,1637158796.5256054,bd1bb2d5-1ca0-4141-88ce-1b0da1bf09c3
0.1607467068655693,0.2455968836136223,0.319626777819937,-0.3883757611654388,0.1391746266415373,0.3738240561575423,0.1833734194291529,0.156309020753335,-10.386225814122392,15.327737234896649,38.29547818669135,1.8345141933604348,0.7235768820086692,-0.8195618282101407,3949.7641330295137,12.032888888888888,0.37,178.99502159921937,-13.491868940601089,107.84616589578768,1525.0,1435.0,1200.0,1173.0,1475.0,1021.7000000000002,93.0,292.65,1637158797.3340042,1637158798.3683946,ab10e729-a7e2-423f-a0c5-fba2e3fbca87
0.1924268456683492,0.3020951844285084,0.345348913252287,-0.4093588941319548,0.1490635418503602,0.3329809213626101,0.1941800040474627,0.1794014182063112,-10.11501817117569,15.370496094591797,37.75116238716576,1.7916810192858603,0.9425994210955642,-0.8774225424178489,3946.934814453125,12.031666666666666,0.3733333333333333,179.00476448461546,-13.411763153922838,107.79400222327652,1525.0,1435.0,1200.0,1173.0,1475.0,1021.7000000000002,93.0,292.65,1637158798.476338,1637158799.6969144,ab10e729-a7e2-423f-a0c5-fba2e3fbca87
0.1559940009009622,0.2052605203525488,0.3221332476119114,-0.3400132023553464,0.1581854490435534,0.3704957930012405,0.1872084553116861,0.1550900258836577,-10.881817276455337,15.284585878431145,38.56219926115796,1.71757285653755,0.567638426722771,-0.8587414627994933,3948.146728515625,12.03422222222222,0.3722222222222222,179.00054190988854,-13.335525625908282,107.7138689261141,1525.0,1435.0,1200.0,1173.0,1475.0,1021.7000000000002,93.0,292.65,1637158799.810243,1637158800.8267777,ab10e729-a7e2-423f-a0c5-fba2e3fbca87
0.0099612945620183,0.175826616986111,-0.1728603799521804,-0.3436975833829362,-0.2981976021444948,0.4359105509732185,-0.3205777826891622,-0.3443824051658395,-14.231401135294632,14.996345968878243,39.43928263926676,1.844775174768136,0.4422461380073936,1.155998053623564,3971.3173828125,12.038000000000002,0.3433333333333333,178.99425510021248,-13.40011312792852,107.72443674657993,1525.0,1435.0,1200.0,1617.0,1475.0,1021.7000000000002,93.0,292.65,1637158802.8529098,1637158803.90882,bd95cf3e-0f02-4439-99ac-7d1850bd2f44
-0.0164319742873406,0.1405990692232857,-0.1941722274078011,-0.3252483128143387,-0.3089083128689163,0.4521546681085944,-0.3337812665881085,-0.3528194863130611,-14.29652334109925,14.9076859690502,39.12548251451295,1.83792911263022,0.3097394760830361,1.2138832574118263,3973.1599392361113,12.033888888888889,0.3555555555555555,178.99108741025742,-13.412734368877318,107.74429134758724,1525.0,1435.0,1200.0,1617.0,1475.0,1021.7000000000002,93.0,292.65,1637158804.0176709,1637158805.1289318,bd95cf3e-0f02-4439-99ac-7d1850bd2f44
0.0559269456517175,0.2410085366394824,-0.1586433505959696,-0.3607497977098017,-0.3048541304666612,0.3826583356784201,-0.3255496329581167,-0.3433825547284684,-13.528200525601823,15.25064219335419,38.74522764816589,1.766212964793694,0.690897366927223,1.159909962706151,3977.4599609375,12.03677777777778,0.3522222222222222,178.97782014724964,-13.340642291370266,107.73541665512566,1525.0,1435.0,1200.0,1617.0,1475.0,1021.7000000000002,93.0,292.65,1637158805.2371776,1637158806.2459462,bd95cf3e-0f02-4439-99ac-7d1850bd2f44
-0.0244170679797948,0.171621773856642,-0.266846174880009,-0.3256592125385241,-0.3895399665221561,0.4264873187564992,-0.4250825439492025,-0.4502979130600339,-14.438256940426056,15.43395935061479,39.10713879964797,1.780973823840909,0.4227115906166056,1.5561718052394138,3978.896484375,12.032444444444444,0.3588888888888888,178.97820112002333,-13.420953078587353,107.72245067935124,1525.0,1435.0,1200.0,1696.111111111111,1475.0,1021.7000000000002,93.0,292.65,1637158806.8052824,1637158807.7997618,e4c6f80b-a471-472b-be90-7bbeca3f7c92
-0.0491256605994785,0.1255739448666731,-0.3050184895993365,-0.2801866309701759,-0.407811180380532,0.4333903832032049,-0.4596389703537595,-0.4919354626529612,-15.052911353276787,15.28354340001283,39.35197275840625,1.6907427028295945,0.2441635304478906,1.6770960374299015,3989.390353732639,12.031666666666666,0.3655555555555556,178.97002310685713,-13.417378233466756,107.70601117292895,1525.0,1435.0,1200.0,1706.0,1475.0,1021.7000000000002,93.0,292.65,1637158807.9158542,1637158808.9508543,e4c6f80b-a471-472b-be90-7bbeca3f7c92
0.0148920556652565,0.2328864779296592,-0.2815425852539139,-0.3494364385220251,-0.4167961245351496,0.3845484605601771,-0.4567216038073354,-0.4831970564441487,-14.487500299618167,15.277877478611977,38.39038085536606,1.7384616941510629,0.6611857838337796,1.6645990351976043,3991.0415852864585,12.031666666666666,0.36,178.96825940023143,-13.486257181288014,107.68722132252223,1525.0,1435.0,1200.0,1706.0,1475.0,1021.7000000000002,93.0,292.65,1637158809.0585184,1637158810.1362371,e4c6f80b-a471-472b-be90-7bbeca3f7c92
-0.0204724591448442,0.2225044868013306,-0.3692690570837946,-0.3012930278060603,-0.4941816990095531,0.3471568570656755,-0.5635410914692343,-0.5870443918658029,-15.218986806745924,15.675193549374251,37.18179303863996,1.5435428251778012,0.6266538332846051,2.0384566984180683,3963.784884982639,12.031222222222222,0.3677777777777778,178.93369712521138,-13.397241128246268,107.67035834437138,1525.0,1435.0,1200.0,1795.0,1475.0,1021.7000000000002,93.0,292.65,1637158810.840577,1637158811.957507,9ee99215-36ed-4ee0-a556-8294bd334fa8
-0.025060806418475,0.2032060365867176,-0.3359316288861336,-0.2926778926800623,-0.4579132043912334,0.3600864073150511,-0.5232047159456331,-0.5601306472815301,-15.083641331989574,15.702455127233014,37.74177688098667,1.5551617126213677,0.5494050169427801,1.8847984025050009,3922.0648328993057,12.034,0.36,178.93316892391556,-13.36233535162918,107.63082520945537,1525.0,1435.0,1200.0,1795.0,1475.0,1021.7000000000002,93.0,292.65,1637158812.0665886,1637158813.0416622,9ee99215-36ed-4ee0-a556-8294bd334fa8
-0.0282652534670013,0.1901082922841057,-0.3346299061298118,-0.2950391822370855,-0.453244318694781,0.3714945436936617,-0.5172258903102497,-0.5433392079849836,-15.21058133704431,15.636441941373796,37.25983944140977,1.5856102947623754,0.5058224899905728,1.8658053043696108,3891.3910861545137,12.033333333333337,0.3522222222222222,178.94038919277816,-13.444680112262851,107.63519425379444,1525.0,1435.0,1200.0,1795.0,1475.0,1021.7000000000002,93.0,292.65,1637158813.1521635,1637158814.2269428,9ee99215-36ed-4ee0-a556-8294bd334fa8
-0.086654232786864,0.1521452680168357,-0.4671994753567579,-0.2702429238806637,-0.5742928964219972,0.3947113066673093,-0.6546095428193528,-0.6697716359782836,-15.93329561621249,16.315320960884225,37.47457480433172,1.5794169030434688,0.3552044269828593,2.402132522718309,3880.2400987413193,12.028222222222222,0.3877777777777778,178.92870349801817,-13.405617406625904,107.6133376484504,1525.0,1435.0,1200.0,1883.0,1475.0,1021.7000000000002,93.0,292.65,1637158815.8249896,1637158816.8938768,43131156-a30c-43a9-9368-b652ea66bdda
-0.0407296699164148,0.2088490187355056,-0.4477640489260642,-0.2894728933391011,-0.5695127904130683,0.3534709715709687,-0.6517606529106722,-0.6760720547215581,-15.855056583144298,16.37998603531639,37.07774364397629,1.5314950167383874,0.5744421356036205,2.3712340365520053,3908.5455729166665,12.031,0.3733333333333333,178.9824115521917,-13.338815310631023,107.53773807907704,1525.0,1435.0,1200.0,1883.0,1475.0,1021.7000000000002,93.0,292.65,1637158817.0026476,1637158818.0305803,43131156-a30c-43a9-9368-b652ea66bdda
-0.0686432573534539,0.1591716024038166,-0.4555300000910902,-0.2493693741462533,-0.5604319703422974,0.371961321782466,-0.6491583069137309,-0.6788524560359309,-16.015741740371478,16.22596996270532,38.01873368047158,1.481243019417443,0.375486406341288,2.361364973853912,3931.047797309028,12.024777777777777,0.3888888888888889,178.99368136432224,-13.356656997971696,107.4745937391102,1525.0,1435.0,1200.0,1883.0,1475.0,1021.7000000000002,93.0,292.65,1637158818.138652,1637158819.3516157,43131156-a30c-43a9-9368-b652ea66bdda
0.0766224456167741,0.2236823910423405,-0.0704649014771241,-0.2912945409867604,-0.1650807345356963,0.3805490650511673,-0.1804482757762662,-0.2180727244261304,-12.50354116779496,10.012734751142732,46.07534418054551,1.5761513366985966,0.5506446450734515,0.6544605076800319,7194.81884765625,11.806666666666665,8.256666666666668,-177.8940118010313,-13.253528730603584,92.34876340280272,1525.0,1435.0,1350.0,1528.0,1475.0,1021.7000000000002,93.0,292.65,1637158823.4003458,1637158824.4716752,1da4e03c-6539-4b90-b606-e0a0be785f2f
0.0589264920833583,0.2195734232625639,-0.0961185566837322,-0.267147503868189,-0.1860501668170303,0.3396922330377731,-0.2141965982587561,-0.2426443526186338,-12.414137978635509,9.886268592986974,42.63026551028983,1.4272508778149782,0.5605329223682914,0.7610107928881377,7196.83154296875,11.80725,8.27,-177.13673848246822,-13.017535876382713,86.0988938562485,1525.0,1435.0,1350.0,1528.0,1475.0,1021.7000000000002,93.0,292.65,1637158824.579986,1637158825.6046832,1da4e03c-6539-4b90-b606-e0a0be785f2f
0.0825651083807312,0.2443729591785029,-0.0923783015874445,-0.3205476539192521,-0.1970945262311219,0.3453812355466622,-0.2093622629959575,-0.2410506217598771,-12.009917614360404,10.00340889663495,39.9340653428356,1.5612289427619843,0.6813954420325941,0.7630365476681007,7201.535047743056,11.80811111111111,8.258888888888889,-176.8621478023608,-12.803653577733767,81.99031024342564,1525.0,1435.0,1350.0,1528.0,1475.0,1021.7000000000002,93.0,292.65,1637158825.71291,1637158826.7200463,1da4e03c-6539-4b90-b606-e0a0be785f2f
0.1850170079011693,0.4213922013114539,-0.0435785544834402,-0.4064689187670942,-0.1915150932284159,0.2766058893647551,-0.1992810434877578,-0.2305639863867946,-12.24875209757002,9.951563682114667,43.79287425079232,1.6030799861993028,1.326486623840602,0.7005269688145223,7204.8984375,11.806666666666668,8.33,-177.15125149608966,-12.677243187623588,73.91062448048854,1610.0,1435.0,1350.0,1528.0,1542.0,1021.7000000000002,93.0,292.65,1637158828.302749,1637158829.4967058,dc8a5b17-af52-4ce0-a47f-30923035af00
0.1709506424922535,0.4038606074848064,-0.0557958870057833,-0.3658449223428743,-0.1943776763364989,0.2674428887766913,-0.2114846792545816,-0.2361658802614285,-12.165837968286263,9.836908828431794,45.27220251447033,1.4897608652856913,1.241256251288621,0.7388812293737456,7208.9375,11.80277777777778,8.292222222222222,-177.2849486545431,-12.585407689410708,70.38239691879978,1610.0,1435.0,1350.0,1528.0,1542.0,1021.7000000000002,93.0,292.65,1637158829.6041424,1637158830.8251393,dc8a5b17-af52-4ce0-a47f-30923035af00
0.2120540133762537,0.472877560493372,-0.0717934674997452,-0.4248634064447485,-0.2335087474432454,0.2416385747543752,-0.2423841191886502,-0.2609566540093639,-11.92735355610543,10.038159101333278,43.30841239466997,1.5652509139006865,1.5220845656660476,0.8631278517293864,7208.9375,11.801333333333332,8.38,-177.37620605313373,-12.651422511240002,65.89721204306808,1610.0,1435.0,1350.0,1528.0,1542.0,1021.7000000000002,93.0,292.65,1637158830.9426496,1637158832.1617663,dc8a5b17-af52-4ce0-a47f-30923035af00
0.2840157284494207,0.5898735533000056,-0.0146240306836607,-0.5111928370897936,-0.2103752595669079,0.1950702784413234,-0.2064991321463019,-0.2328376169905557,-11.820917430883346,9.936101786363643,42.0434860484901,1.6573658255551047,1.9855998605473824,0.7143302292703687,7215.00537109375,11.796444444444443,8.378888888888888,-177.71520959111888,-12.572415246653264,61.11240801792532,1695.0,1435.0,1350.0,1528.0,1609.0,1021.7000000000002,93.0,292.65,1637158832.8070786,1637158833.9373837,6159c69d-8d4e-40f0-aef8-e370c3c0e25c
0.3042044546813976,0.6409480153913757,-0.0099672014826433,-0.5021120157500121,-0.2124571371013068,0.1515700088256318,-0.2171413601146408,-0.2409322834015921,-11.748818601317089,9.698796704595836,44.1406223993634,1.538160146670976,2.15723613217222,0.7353355934263726,7224.465983072917,11.797333333333333,8.404444444444444,-177.9365608439208,-12.688818081537038,58.56724047655762,1695.0,1435.0,1350.0,1528.0,1609.0,1021.7000000000002,93.0,292.65,1637158834.0539694,1637158835.030698,6159c69d-8d4e-40f0-aef8-e370c3c0e25c
0.3044783857674435,0.6327437775792946,-0.0164456710299317,-0.4687060980277793,-0.2072113509029954,0.1359970240162374,-0.2224967122064499,-0.2558752292132107,-11.861101800428663,9.113684979423164,45.118515614110855,1.423708005059842,2.1140593152067155,0.7454874335166846,7227.17236328125,11.79977777777778,8.362222222222222,-178.1891807027431,-12.642095982792087,56.41182667598303,1695.0,1435.0,1350.0,1528.0,1609.0,1021.7000000000002,93.0,292.65,1637158835.1387424,1637158836.1832745,6159c69d-8d4e-40f0-aef8-e370c3c0e25c
0.3874384352518001,0.7716679580290089,0.0232743485976138,-0.576703488119931,-0.2187575526647103,0.0777592593777058,-0.2195382561134195,-0.2314268696899422,-11.625718948310132,10.135156052983977,42.20544967442168,1.5448589975560816,2.675094056267414,0.7143584721144133,7227.17236328125,11.788333333333334,8.438888888888888,-178.98794096977977,-12.753666743429294,51.7796003494344,1779.0,1435.0,1350.0,1528.0,1677.0,1021.7000000000002,93.0,292.65,1637158838.302232,1637158839.4216468,33df5fa6-06d4-4577-b336-49890c820862
0.3884043403331759,0.7766910215353499,0.011994338952621,-0.5470682948207795,-0.2221239284339019,0.0429652365899206,-0.2365589129525988,-0.2489358387714086,-11.727432360081556,9.634389935781588,41.7361470023669,1.3958151293925398,2.694440606946196,0.7588933994978745,7210.960123697917,11.788,8.466666666666665,-179.33372005542162,-12.829545591648689,50.20706085279542,1779.0,1435.0,1350.0,1528.0,1677.0,1021.7000000000002,93.0,292.65,1637158839.5300047,1637158840.6525214,33df5fa6-06d4-4577-b336-49890c820862
0.3578330522831574,0.7787753755242599,0.0040805396312478,-0.5204736224179005,-0.225903320548081,0.0179392641923671,-0.2506360218579891,-0.2796289002455334,-11.737233030860594,9.5210634072681,41.86687610374932,1.2784579586289382,2.6973909316669045,0.7955806823729822,7202.87890625,11.787,8.53111111111111,-179.60040555047465,-12.989144914437084,49.01486802918767,1779.0,1435.0,1350.0,1528.0,1677.0,1021.7000000000002,93.0,292.65,1637158840.760338,1637158841.8796024,33df5fa6-06d4-4577-b336-49890c820862
0.4832869443087857,0.9054285373999246,0.0632409065030435,-0.6613893437953697,-0.2235650454730764,0.0050305288390201,-0.2173057170283463,-0.242890890650664,-11.429891064726313,10.88344405825496,39.56621987592684,1.5790867970187203,3.2117559587328715,0.674798918682553,7196.83154296875,11.778333333333332,8.506666666666668,179.8465336939458,-13.138558812489435,46.38294987571668,1864.0,1435.0,1350.0,1528.0,1744.0,1021.7000000000002,93.0,292.65,1637158843.9264617,1637158844.954312,85f2c5ac-84bb-44f4-82c9-ba9cd53adf5d
0.4703990316496339,0.8967980626194634,0.0493120547378971,-0.6926164137771444,-0.2438512938017463,0.0253814244734901,-0.2255746036896251,-0.243719806109591,-11.12933348315774,11.186334103819918,37.08013536927439,1.696327923675676,3.2022601051901085,0.7284505954462438,7210.963216145833,11.775666666666666,8.563333333333334,179.65703388997332,-13.145088947654658,45.53746200783822,1864.0,1435.0,1350.0,1528.0,1744.0,1021.7000000000002,93.0,292.65,1637158845.0623558,1637158846.1774654,85f2c5ac-84bb-44f4-82c9-ba9cd53adf5d
0.4992982198260668,0.9701447718900712,0.0407785512765278,-0.6053977869338535,-0.2395626264426684,-0.0750532478733153,-0.2611757985978388,-0.2729274474724345,-11.584557477372131,9.764696222646124,44.28161903727604,1.264963640381283,3.405446686395534,0.8049917716209191,7220.40771484375,11.778666666666668,8.49888888888889,179.438845773667,-13.286842219370412,44.92891378172246,1864.0,1435.0,1350.0,1528.0,1744.0,1021.7000000000002,93.0,292.65,1637158846.2857926,1637158847.3171787,85f2c5ac-84bb-44f4-82c9-ba9cd53adf5d
-0.0423184708908174,0.0576390144167427,-0.1596021097246433,-0.2275644480067381,-0.2162236882692861,0.4538393435349299,-0.2391791256386718,-0.2533413675207365,-12.791259743998896,10.530847384323083,41.13750665153351,1.5951491458433178,-0.0398072153717644,0.9023323922413496,7238.701497395833,11.791111111111112,8.467777777777778,179.2283666642039,-13.249180556286962,43.48846634908197,1440.0,1435.0,1350.0,1528.0,1408.0,1021.7000000000002,93.0,292.65,1637158849.343859,1637158850.3867178,dca770d7-a423-4722-8f7b-19f7da4a37ad
-0.0573983823091507,0.0150153248942112,-0.1429744869177868,-0.2282766639386163,-0.1940078683354437,0.4970930734523098,-0.2077318234117569,-0.2405350835821113,-12.76520755683198,10.739987017265392,41.438338535474735,1.696228061798038,-0.2013772839231048,0.7998270697410836,7233.2705078125,11.790555555555557,8.485555555555555,178.9381610332889,-13.389821550669126,43.10206774899114,1440.0,1435.0,1350.0,1528.0,1408.0,1021.7000000000002,93.0,292.65,1637158850.4959486,1637158851.6249485,dca770d7-a423-4722-8f7b-19f7da4a37ad
-0.0568505201193935,0.0160151730093991,-0.1425498946998953,-0.2316734113609908,-0.1900221706715572,0.509365188732672,-0.2017875165867431,-0.2138952738169063,-12.882125144431434,10.359338217613171,42.9063759500966,1.7291403087018355,-0.2093722365731398,0.787592411271773,7239.38037109375,11.797333333333334,8.440000000000001,178.81576404336226,-13.431738326741756,42.66207986412735,1440.0,1435.0,1350.0,1528.0,1408.0,1021.7000000000002,93.0,292.65,1637158851.7382803,1637158852.939392,dca770d7-a423-4722-8f7b-19f7da4a37ad
-0.1503377559623627,-0.1231856966150523,-0.1946094224476327,-0.1096293931135933,-0.2045629864288431,0.5382331488272954,-0.2437724042348379,-0.2771832444370758,-13.388564778940308,11.239494874178773,43.2268828824154,1.52174767507689,-0.7490279211548401,0.9221013515269678,7245.5,11.771,8.545555555555556,178.62560702340969,-13.451695380586626,41.91698667012919,1355.0,1435.0,1350.0,1528.0,1341.0,1021.7000000000002,93.0,292.65,1637158854.873212,1637158855.9216087,16ca87b7-0925-4931-83df-1ecb61265a52
-0.130469526439521,-0.08759929574106,-0.2003493770192067,-0.1734767289714958,-0.2281807867500498,0.5281979550908465,-0.255176708170074,-0.2953898078098121,-13.185999007641655,11.451065233815273,38.3325252740027,1.6436596934447003,-0.5661117450475756,0.9752290437562732,7250.267686631944,11.776000000000002,8.52111111111111,178.45810953548357,-13.515667691262871,41.6083725410362,1355.0,1435.0,1350.0,1528.0,1341.0,1021.7000000000002,93.0,292.65,1637158856.0296175,1637158857.2356143,16ca87b7-0925-4931-83df-1ecb61265a52
-0.1154991869048309,-0.081367361181704,-0.1940078694470529,-0.1685048800535849,-0.2212777202207825,0.533567005270097,-0.2474655448468246,-0.2655313061912726,-13.158850625583412,11.31759164233038,40.66881916803657,1.6443264297719271,-0.5638492517572263,0.9503701516479358,7245.5,11.772,8.58888888888889,178.39080485140224,-13.527990965209131,41.36577484645605,1355.0,1435.0,1350.0,1528.0,1341.0,1021.7000000000002,93.0,292.65,1637158857.3450804,1637158858.4719107,16ca87b7-0925-4931-83df-1ecb61265a52
-0.2720782594433373,-0.3498884209343253,-0.1933093433604344,-0.0573162048576715,-0.1587803159085355,0.6703819169870967,-0.1893784318839909,-0.2110737822390549,-13.858219316656829,11.991985905567727,37.49484749582742,1.7046008235229395,-1.5515196804253382,0.7448319479127918,7244.820041232639,11.73988888888889,8.681111111111111,178.385572926498,-13.502723059829622,41.08362694148694,1271.0,1435.0,1350.0,1528.0,1273.0,1021.7000000000002,93.0,292.65,1637158859.379689,1637158860.340772,195aff66-dadc-478f-9072-cfe08afca332
-0.2821041420782157,-0.3607224014149789,-0.2103478650724467,-0.0131311088306333,-0.1659847071920794,0.6614791548112047,-0.2094575904375043,-0.2414253607540069,-14.0209781987122,11.906182949649194,40.36148976950431,1.5838822048603134,-1.6229304426632063,0.8094994597761861,7245.5,11.741,8.656666666666668,178.3081079565714,-13.513825816916691,40.9059961090172,1271.0,1435.0,1350.0,1528.0,1273.0,1021.7000000000002,93.0,292.65,1637158860.4487123,1637158861.650514,195aff66-dadc-478f-9072-cfe08afca332
-0.2594637277533104,-0.3296859948597259,-0.1888031765382077,-0.0724509068673237,-0.1638343474291331,0.6689300820193059,-0.1909398422764773,-0.2182233896738986,-13.787442430834687,12.379386616267958,38.12716372862239,1.7384074614950944,-1.479697801119914,0.7508905548452697,7251.6298828125,11.743,8.686666666666666,178.1957558981841,-13.559253689677664,40.79393774876424,1271.0,1435.0,1350.0,1528.0,1273.0,1021.7000000000002,93.0,292.65,1637158861.7583485,1637158862.975499,195aff66-dadc-478f-9072-cfe08afca332
-0.3318949751430889,-0.4506408748150906,-0.2017491678070138,-0.026542777448411,-0.1571750828200315,0.7000541387512171,-0.1899679368916313,-0.213030749216155,-13.87723357584144,13.392580810071916,31.65957392002849,1.7097856733087358,-1.8818503330063283,0.7342498025059939,7235.31103515625,11.74,8.736666666666666,178.25566576412402,-13.524616377440449,40.633028737202494,1186.0,1435.0,1350.0,1528.0,1206.0,1021.7000000000002,93.0,292.65,1637158863.8845289,1637158865.0187004,4af88157-2507-4e54-be7b-823770ea871a
-0.3510389320447063,-0.5155483338719975,-0.1905700334839341,0.0528315203482858,-0.1184302533856477,0.7231547522315406,-0.1687377184989326,-0.1883237969255253,-14.54634531343479,13.188148212675909,36.4209668693896,1.582270484856083,-2.171824509585249,0.6351859000651748,7221.0830078125,11.740111111111112,8.69,178.2826207262285,-13.431095624913606,40.50041150754781,1186.0,1435.0,1350.0,1528.0,1206.0,1021.7000000000002,93.0,292.65,1637158865.1281164,1637158866.256571,4af88157-2507-4e54-be7b-823770ea871a
-0.3509430560337438,-0.5033857866760102,-0.2032393518883748,0.0239180839075092,-0.1368658227968432,0.7217029173194143,-0.1823247068400892,-0.2009794184427719,-14.522968183653754,13.175126544067911,34.024178914911666,1.6431421826395012,-2.102373874421989,0.6947698522206576,7213.657986111111,11.740555555555554,8.7,178.25680716462531,-13.548798567333144,40.45950816079328,1186.0,1435.0,1350.0,1528.0,1206.0,1021.7000000000002,93.0,292.65,1637158866.3643105,1637158867.3882987,4af88157-2507-4e54-be7b-823770ea871a
0.0661719715098368,0.2109993784058494,-0.0949680454389939,-0.2974716879261934,-0.1903097970395031,0.3636612096423597,-0.2099643605779834,-0.2452740922833548,-12.565398986741677,10.324644056755703,40.8910915664863,1.552126254773304,0.5486738111496346,0.755176490107282,7209.611707899306,11.79977777777778,8.492222222222223,178.09056491368665,-13.49976966705976,40.329210918726666,1525.0,1435.0,1350.0,1528.0,1475.0,1021.7000000000002,93.0,292.65,1637158868.3908565,1637158869.4177132,9a795eb0-22ea-4c75-ba8a-5c5c38daf463
0.044846429754905,0.2020829186284038,-0.1172112589897814,-0.2605457594358706,-0.1976922437189982,0.3463624573614348,-0.2323308461209112,-0.2541357684511898,-12.914239896689375,9.637740763698076,41.86153600863573,1.4242757692322143,0.5031315287020127,0.8280482764003879,7215.00537109375,11.803,8.46,178.07224786415247,-13.522832844293433,40.43843209428938,1525.0,1435.0,1350.0,1528.0,1475.0,1021.7000000000002,93.0,292.65,1637158869.525513,1637158870.5724008,9a795eb0-22ea-4c75-ba8a-5c5c38daf463
0.0549681865997985,0.2182311608888819,-0.0942832172531457,-0.3018135010411256,-0.1874335189835593,0.3663183406601052,-0.2044446488168473,-0.2273042056921406,-12.47630831154214,9.822190389924414,41.73672374369245,1.5647741680367748,0.568241477095118,0.7447646919575116,7215.00537109375,11.799444444444443,8.474444444444444,178.07756478696638,-13.517138553527888,40.49538334995381,1525.0,1435.0,1350.0,1528.0,1475.0,1021.7000000000002,93.0,292.65,1637158870.6812215,1637158871.6895192,9a795eb0-22ea-4c75-ba8a-5c5c38daf463
0.0772530352086812,0.2136181601987034,-0.1349932277325981,-0.6118439452433369,-0.2567370180900404,0.683421039628112,-0.1605937428351873,-0.2085996385448216,-12.840374381105546,9.274567230425014,45.60666314692803,2.9714752794066253,0.554798813320162,0.834368255385238,7225.819173177083,11.797111111111112,8.46111111111111,178.12513781344543,-13.47314122594308,40.70475976332093,1525.0,1535.0,1350.0,1528.0,1475.0,1021.7000000000002,93.0,292.65,1637158873.3207428,1637158874.444827,70bdbe95-1773-4cf2-8535-c4bc990c6518
0.0732032366690288,0.2010217096998666,-0.1433820960814189,-0.6060585169846936,-0.2626539319645478,0.6846307196230661,-0.1680490524029991,-0.2002239146899245,-12.847300578763964,9.362543559003068,44.71992112330394,2.9611637409568976,0.514220031929457,0.8617119624138909,7221.0830078125,11.798,8.42,178.18115295373863,-13.414220883659182,40.85253621838351,1525.0,1535.0,1350.0,1528.0,1475.0,1021.7000000000002,93.0,292.65,1637158874.5536852,1637158875.6683598,70bdbe95-1773-4cf2-8535-c4bc990c6518
0.0516393748418795,0.1743561545584135,-0.1488388051122342,-0.5787749599402082,-0.2554484451501118,0.7043669107826563,-0.1640649973424715,-0.1863388901145342,-12.985944413308744,9.014504134363712,47.38053469226352,2.9417440018662884,0.3878973050460033,0.8544746140194911,7233.949381510417,11.8,8.39,178.16044533799493,-13.441304765584269,40.97407450174948,1525.0,1535.0,1350.0,1528.0,1475.0,1021.7000000000002,93.0,292.65,1637158875.7771883,1637158876.8973863,70bdbe95-1773-4cf2-8535-c4bc990c6518
0.071308180986166,0.2070273765097425,-0.1631084317443439,-0.9531261794508572,-0.326070105518129,1.0160693309309516,-0.101871115591584,-0.1234294984894948,-12.676447221978398,9.382129218947652,47.416325175001305,4.488513590952075,0.5531187602798803,0.8823510173217102,7251.6298828125,11.792222222222222,8.455555555555556,178.2307674478696,-13.26583407530327,41.12258671996765,1525.0,1636.0,1350.0,1528.0,1475.0,1021.7000000000002,93.0,292.65,1637158877.9244528,1637158879.0579095,9a61b11e-f4ce-49fb-ba83-bb93441b7fab
0.0850732222026931,0.2227647214527333,-0.1536578046790702,-0.9290476198645496,-0.3122913643291631,0.9908539694988936,-0.1013232519159413,-0.1233473178670663,-13.10837135552525,9.14016612477465,49.21844124095656,4.376472399519812,0.5968587454184217,0.8543759080363124,7257.76953125,11.797333333333334,8.402222222222223,178.24218904198167,-13.202501146224328,41.19156024693617,1525.0,1636.0,1350.0,1528.0,1475.0,1021.7000000000002,93.0,292.65,1637158879.1660416,1637158880.2923758,9a61b11e-f4ce-49fb-ba83-bb93441b7fab
