raw_voltage_G-,raw_voltage_G0,raw_voltage_G1,raw_voltage_G2,raw_voltage_G3,raw_voltage_G4,raw_voltage_G5,raw_voltage_G6,load_x,load_y,load_z,load_l,load_m,load_n,rpm,voltage,current,roll,pitch,yaw,aileron1_pwm,elevator_pwm,throttle_pwm,rudder_pwm,aileron2_pwm,pbaro,pdiff,Tt,sample_start_time,sample_end_time,uid
0.0270135105301732,0.1608151898734226,0.0035376089331926,-0.0544399251475379,-0.1158689934614299,0.1347095499329708,-0.2380286103009631,-0.2792004714084414,-13.874975750958214,17.788055119859926,33.36058746583655,0.5419423556869883,0.4129130186216438,0.5409274665216545,4161.347222222223,12.039555555555555,0.3588888888888888,179.40084260112502,-6.20899342569263,101.61581076887462,1525.0,1435.0,1200.0,1528.0,1475.0,1021.7000000000002,93.0,292.65,1637154938.8921287,1637154939.8728411,36359ab0-96d1-48c4-9e8c-35ac93c0fdaa
0.0193297410147482,0.1595003202874431,0.0034965192562303,-0.0589871827752352,-0.1166770904663223,0.1373118959905659,-0.2371383338972263,-0.2604909703549088,-13.841395645082391,17.815154524713105,32.95513429792829,0.5581775449007905,0.4118950271684864,0.5400581049003493,4187.085232204861,12.040555555555557,0.35,179.42705990279916,-6.216294376164813,100.8417173505705,1525.0,1435.0,1200.0,1528.0,1475.0,1021.7000000000002,93.0,292.65,1637154939.9818227,1637154941.1003208,36359ab0-96d1-48c4-9e8c-35ac93c0fdaa
0.0258903927285354,0.1558570358179422,0.0009900489941132,-0.0580969064556879,-0.1190602918096939,0.1412017185183015,-0.2375492307006148,-0.25025963914014,-13.69439241161974,17.813662758650263,33.10508212249664,0.5648734558914836,0.3955925245557686,0.5471876072125257,4189.585503472223,12.04,0.35,179.44025886391526,-6.229896460737546,100.10377384681352,1525.0,1435.0,1200.0,1528.0,1475.0,1021.7000000000002,93.0,292.65,1637154941.2089188,1637154942.3484228,36359ab0-96d1-48c4-9e8c-35ac93c0fdaa
0.1711013049198724,0.4218304912604842,0.0321497201614971,-0.1763256076278691,-0.1503980200467346,-0.0040913743716506,-0.2662846141467097,-0.2902672925780866,-13.308751868132669,17.237582758038815,34.034895853261354,0.5031504389489091,1.3987063791052776,0.621273444668008,4195.053602430556,12.039888888888887,0.3544444444444444,179.34860379653296,-6.2204795271468685,99.25895457856382,1610.0,1435.0,1200.0,1528.0,1542.0,1021.7000000000002,93.0,292.65,1637154943.3571208,1637154944.6974623,14d301b0-2228-4208-8676-3bc052f174ca
0.1661157577865379,0.4174612894287452,0.0281503250257466,-0.1773528495928341,-0.15257577303191,-0.0007905036714186,-0.2692293746242659,-0.2878566975963259,-13.436307804120544,17.195786177007694,33.73571279650751,0.5122970246680277,1.385745903530221,0.63285224925463,4192.090494791667,12.034222222222224,0.37,179.3162074503897,-6.22601383021748,98.76118708787124,1610.0,1435.0,1200.0,1528.0,1542.0,1021.7000000000002,93.0,292.65,1637154944.805579,1637154945.9229555,14d301b0-2228-4208-8676-3bc052f174ca
0.1594181408497035,0.414379563998729,0.0273696211800712,-0.1768323803113064,-0.1534660494087174,-0.0036530844582736,-0.2720234729471847,-0.2964581374653127,-13.54203283832276,17.335589781041396,32.95324349119216,0.5054003239598922,1.3817596586155618,0.637503980219749,4196.422960069444,12.036777777777775,0.37,179.299655625301,-6.217062582718962,98.3886442854217,1610.0,1435.0,1200.0,1528.0,1542.0,1021.7000000000002,93.0,292.65,1637154946.031314,1637154947.1510258,14d301b0-2228-4208-8676-3bc052f174ca
0.3284473618038563,0.7134301963967666,0.0626382596380161,-0.3234403613828363,-0.1942270113033465,-0.1642863315647983,-0.3064429295461804,-0.3241114935993512,-13.061289584783298,17.10028745437439,32.5847780006438,0.4755272093106126,2.523526902650314,0.7287655843102753,4195.509765625,12.035111111111112,0.3788888888888889,179.1843605142914,-6.203215654837231,97.90881363039952,1695.0,1435.0,1200.0,1528.0,1609.0,1021.7000000000002,93.0,292.65,1637154948.062333,1637154949.088313,3e6506a4-a9fd-4d36-acab-067d2103600d
0.3420480435491864,0.7085542220117785,0.0637750739966715,-0.3252209142660014,-0.192227313560226,-0.1575476242069351,-0.3008410362450623,-0.3271658270256138,-12.885880913842463,16.977145082855767,32.656928058746566,0.494026553077502,2.5036472742673617,0.7161857813894942,4191.634114583333,12.033666666666669,0.39,179.1244339523335,-6.20250284870635,97.65597900007334,1695.0,1435.0,1200.0,1528.0,1609.0,1021.7000000000002,93.0,292.65,1637154949.196988,1637154950.2781005,3e6506a4-a9fd-4d36-acab-067d2103600d
0.3388978352851681,0.7126631891899295,0.059036064741006,-0.3243443344056617,-0.1962814952897588,-0.1606156535836233,-0.3072921163125868,-0.3403556147193554,-13.019308925670286,16.920412094689386,32.866055749220386,0.4845090430617409,2.517739960825151,0.738082280613617,4181.18359375,12.032333333333334,0.3866666666666666,179.09173556004694,-6.1849515867010085,97.42826580551446,1695.0,1435.0,1200.0,1528.0,1609.0,1021.7000000000002,93.0,292.65,1637154950.3854206,1637154951.4282286,3e6506a4-a9fd-4d36-acab-067d2103600d
0.4558664364208271,0.910222332370928,0.0894698177164199,-0.4438468309599097,-0.2224145317657378,-0.2580940710836476,-0.3210023735772809,-0.3462725291480411,-12.51525475704804,17.013947570961335,30.94501363974504,0.5371133358560746,3.288809678069813,0.7721738663778002,4172.138454861111,12.028555555555554,0.4022222222222222,179.00563267754993,-6.165031814305359,97.10376958932642,1779.0,1435.0,1200.0,1528.0,1677.0,1021.7000000000002,93.0,292.65,1637154952.5681794,1637154953.600558,8760e51a-ae01-4517-a245-95862a06ce2c
0.4418959478587096,0.9101538495815944,0.0935103024580979,-0.4436961687963054,-0.2181549015824518,-0.2569435600235732,-0.3164551154134247,-0.333384065231624,-12.528963780632887,16.991504205744942,31.15203353714984,0.5394373396788049,3.2870522577692967,0.7546747859156558,4168.9814453125,12.023333333333332,0.42,178.9810470321775,-6.167014845894386,96.85474089218776,1779.0,1435.0,1200.0,1528.0,1677.0,1021.7000000000002,93.0,292.65,1637154953.7152698,1637154954.8210614,8760e51a-ae01-4517-a245-95862a06ce2c
0.4428136172056931,0.9037301641260208,0.0894150314819749,-0.4431072166534361,-0.2227569457776985,-0.2532317921739629,-0.3207969251525559,-0.3398077524079803,-12.523649121251594,17.197889094127245,30.827232442837527,0.5475647791984465,3.265471988989843,0.7713958601188349,4164.93017578125,12.022666666666668,0.4266666666666666,178.96012236820025,-6.163348267538689,96.66071646734514,1779.0,1435.0,1200.0,1528.0,1677.0,1021.7000000000002,93.0,292.65,1637154954.9297068,1637154956.0500033,8760e51a-ae01-4517-a245-95862a06ce2c
0.5066532711732222,1.0312177222809045,0.1131374706034213,-0.5006601697517596,-0.2367959198988928,-0.3374245500316761,-0.3384517920461822,-0.3660640595560916,-12.550724743492449,17.855530293968528,29.098979247573364,0.4934494516581718,3.767737972616778,0.7955129097491872,4160.88623046875,12.021666666666668,0.4355555555555555,178.8945692481861,-6.155237749922384,96.27163550018524,1864.0,1435.0,1200.0,1528.0,1744.0,1021.7000000000002,93.0,292.65,1637154957.8928175,1637154958.9182742,b8f978ab-d391-44bc-92b9-38e019e19c2a
0.505729575340205,1.028403353583363,0.1086652703569558,-0.5011713254136364,-0.2402354001305097,-0.3346430524110337,-0.3406125615226796,-0.3543398032810709,-12.469347443289507,17.757017798275744,29.010731732859675,0.5000040492879144,3.7571662956967535,0.8089980370763947,4156.8505859375,12.012555555555556,0.47,178.87798403106146,-6.157610766340271,96.04542874179332,1864.0,1435.0,1200.0,1528.0,1744.0,1021.7000000000002,93.0,292.65,1637154959.026162,1637154960.1543567,b8f978ab-d391-44bc-92b9-38e019e19c2a
0.5145129036197122,1.023669823238182,0.1089808390718879,-0.500737418460563,-0.2393018425701677,-0.3314479186806593,-0.3380091192139692,-0.3610193420036754,-12.363102604138998,17.729104560781582,28.873502443623185,0.5060674324180626,3.739843072565152,0.8029128486549684,4150.588758680556,12.01311111111111,0.47,178.85751015956942,-6.141004963784416,95.8702837187265,1864.0,1435.0,1200.0,1528.0,1744.0,1021.7000000000002,93.0,292.65,1637154960.2675562,1637154961.3751843,b8f978ab-d391-44bc-92b9-38e019e19c2a
-0.1617661647208407,-0.1635741104717803,-0.0212668591904505,0.1042210111036907,-0.0665750765391287,0.2891656343703948,-0.1963362815317206,-0.2320295176385312,-14.15667328875444,18.75994390422966,30.95932070618498,0.5358086967859587,-0.8015584777261934,0.4063949584341328,4115.642903645833,12.021999999999998,0.4333333333333333,179.17857458515448,-6.149507742959305,95.61149240453416,1440.0,1435.0,1200.0,1528.0,1408.0,1021.7000000000002,93.0,292.65,1637154962.3988025,1637154963.5367055,9df9f52c-386c-48db-8b9e-52355eb31d46
-0.1621907581082239,-0.1659299187379313,-0.0238555088362113,0.1075355782040403,-0.068561077619002,0.2918227665740232,-0.197158075128791,-0.2233322025481911,-14.022003290772531,18.72196117301961,31.42912925150529,0.5340647663904572,-0.8160840983686287,0.4143150368046277,4084.881537543403,12.039444444444444,0.36,179.1590781896236,-6.145417171124506,95.68181299658896,1440.0,1435.0,1200.0,1528.0,1408.0,1021.7000000000002,93.0,292.65,1637154963.6449168,1637154964.7657025,9df9f52c-386c-48db-8b9e-52355eb31d46
-0.1598760395042368,-0.1622044545036617,-0.022472156388571,0.1013584304168606,-0.0676981943981438,0.2908503109841266,-0.197295040743147,-0.2179220608269102,-14.21831777355096,18.723062536686847,31.007276903305307,0.5457237782084796,-0.7961347551037224,0.4111130016013921,4069.57373046875,12.039222222222222,0.36,179.12434440096436,-6.138173186327277,95.7507478191522,1440.0,1435.0,1200.0,1528.0,1408.0,1021.7000000000002,93.0,292.65,1637154964.8735516,1637154965.9943688,9df9f52c-386c-48db-8b9e-52355eb31d46
-0.3046897699821753,-0.4286436475635821,-0.0463863483973382,0.2204910933003935,-0.0321693201292584,0.4377869806816152,-0.1636015035777942,-0.2001987121122782,-14.56606165026346,19.62358662709913,30.407250266962706,0.6116842172893519,-1.8038329968057527,0.3146929831520126,4097.9033203125,12.035666666666666,0.37,179.18070105071607,-6.133641640404188,95.90565499170826,1355.0,1435.0,1200.0,1528.0,1341.0,1021.7000000000002,93.0,292.65,1637154967.9282262,1637154969.0651152,495dde8a-76db-42d1-8ab3-63bcbd0bf9d7
-0.3045117146958948,-0.4327115263298202,-0.0503446539898629,0.2304895805993708,-0.0340457487301567,0.4346093793524078,-0.1687651066066768,-0.1933778253660319,-14.613534367613104,19.6562937887426,30.662349741531614,0.5820260754280427,-1.822496363981663,0.3299048502686664,4130.154947916667,12.027333333333331,0.4099999999999999,179.17139833306652,-6.138022210687498,95.8347826721505,1355.0,1435.0,1200.0,1528.0,1341.0,1021.7000000000002,93.0,292.65,1637154969.173873,1637154970.182305,495dde8a-76db-42d1-8ab3-63bcbd0bf9d7
-0.3031420586271044,-0.423192416062811,-0.046920514212454,0.2231756186534938,-0.0330595964748998,0.4356229245994519,-0.1659710084182055,-0.1921314386463838,-14.616900837720822,19.6255927934977,31.198921800982088,0.6008529699355488,-1.7904086536895865,0.3217707127462962,4144.7900390625,12.02888888888889,0.4011111111111111,179.1564235227662,-6.127041163776887,95.77052425243902,1355.0,1435.0,1200.0,1528.0,1341.0,1021.7000000000002,93.0,292.65,1637154970.290342,1637154971.4105213,495dde8a-76db-42d1-8ab3-63bcbd0bf9d7
-0.4657476333503337,-0.7230512652677464,-0.0708073133243973,0.3659896262633006,0.0093312533029599,0.5927635269519201,-0.1292916217517392,-0.1536714984978744,-15.052927681158762,20.844963386887347,30.502736970777026,0.6383789648086194,-2.924882368553028,0.2075515193905426,4150.588758680556,12.025444444444446,0.4133333333333333,179.23763750763726,-6.109247098032927,95.67091429140336,1271.0,1435.0,1200.0,1528.0,1273.0,1021.7000000000002,93.0,292.65,1637154973.458005,1637154974.4700134,1904482b-4f09-4b2a-a5f1-892cae8d8a9f
-0.4758146063492587,-0.7195723379796805,-0.0684104154706268,0.3612232242239592,0.0111118059374968,0.5944892931656814,-0.1264838270554216,-0.1512198144225721,-15.0898907549947,20.791186514123947,30.629509907879623,0.6527732853379472,-2.9119583612126,0.1984155875466586,4145.45849609375,12.016333333333332,0.44,179.2559788422885,-6.112874023345942,95.53420881407548,1271.0,1435.0,1200.0,1528.0,1273.0,1021.7000000000002,93.0,292.65,1637154974.5793636,1637154975.6298237,1904482b-4f09-4b2a-a5f1-892cae8d8a9f
-0.4655284884398193,-0.7226403683690837,-0.0691226365459644,0.3626613627793112,0.0109885369137062,0.5956945902082538,-0.1265660064120691,-0.1606841368394878,-15.07587129653973,20.803051943095337,30.558532424921868,0.6522765968162882,-2.9231575105860403,0.1992175306416888,4145.012858072917,12.01911111111111,0.4388888888888889,179.25267910200944,-6.110737027909374,95.43888214055931,1271.0,1435.0,1200.0,1528.0,1273.0,1021.7000000000002,93.0,292.65,1637154975.7407663,1637154976.849087,1904482b-4f09-4b2a-a5f1-892cae8d8a9f
-0.5628650255204759,-0.893475981051273,-0.0894855851050072,0.4279155977729813,0.0239745181772169,0.6919676911734196,-0.1155594512389681,-0.1404236376784602,-15.553984706209818,21.91224480133858,28.945075196025712,0.7272587125650193,-3.555517209633913,0.1704519054792116,4152.82275390625,12.018333333333334,0.441111111111111,179.3223728344805,-6.09319899939555,95.24586478916429,1186.0,1435.0,1200.0,1528.0,1206.0,1021.7000000000002,93.0,292.65,1637154978.9883368,1637154980.1292431,9ff170ea-440b-4a8a-85e2-d08989338b29
-0.5688476842402436,-0.8976704174379365,-0.0927201645428888,0.4298353072769221,0.0209897641162141,0.6968327083123829,-0.1191621942333363,-0.1441710165826023,-15.635714089548715,22.061506808564456,29.275848139005724,0.7347006634030262,-3.5740409490762746,0.1839132904234136,4150.81201171875,12.009555555555556,0.4822222222222222,179.32989059602693,-6.0882703538632175,95.01079851650896,1186.0,1435.0,1200.0,1528.0,1206.0,1021.7000000000002,93.0,292.65,1637154980.237435,1637154981.4470203,9ff170ea-440b-4a8a-85e2-d08989338b29
-0.5670884978034353,-0.890341110983519,-0.0872294878494537,0.4328973096517655,0.0258219100401771,0.6876532756387506,-0.1159785659351005,-0.1496584062224552,-15.60959624071706,21.991379287583538,29.42665930241729,0.7070118278289361,-3.5481031926650552,0.1664879749917934,4151.705674913194,12.009444444444444,0.48,179.3580051724705,-6.078209674943265,94.87408317335228,1186.0,1435.0,1200.0,1528.0,1206.0,1021.7000000000002,93.0,292.65,1637154981.555722,1637154982.5370102,9ff170ea-440b-4a8a-85e2-d08989338b29
0.0067426035596476,0.1379008480060707,0.000428490084066,-0.0470574798106262,-0.1122531017696669,0.1462009622866813,-0.2335498351312376,-0.2620523782573624,-13.849095432471566,17.60948523902771,32.776478959396115,0.5496934481766327,0.3308550022205243,0.5304233868305069,4146.79541015625,12.026777777777776,0.4022222222222222,179.09078236920277,-6.05609062906674,94.68366508839138,1525.0,1435.0,1200.0,1528.0,1475.0,1021.7000000000002,93.0,292.65,1637154984.517624,1637154985.6558635,d27ee52f-8d5d-4943-bad0-3ec69164174a
0.0140428693864128,0.1354080744068876,5.8682998278110354e-05,-0.0442496851977713,-0.1128283572624578,0.14592703112834,-0.234604470260504,-0.2499720122517379,-13.830137021518588,17.713418718080977,32.75105185455572,0.5434202551745052,0.3212293816781018,0.5328703013800946,4160.88623046875,12.04,0.3400000000000001,179.034475807505,-6.043545611131805,95.00399033572629,1525.0,1435.0,1200.0,1528.0,1475.0,1021.7000000000002,93.0,292.65,1637154985.7649384,1637154986.8804617,d27ee52f-8d5d-4943-bad0-3ec69164174a
0.0258356064745703,0.1461735691645538,-0.000448089683008,-0.0505090127019659,-0.1153074345225238,0.1442423544680542,-0.2369876717268516,-0.2656682694258951,-13.90705825198112,17.67221020059464,33.181231613044865,0.5534855138981651,0.3590761212338984,0.5421484463735976,4166.505099826389,12.038666666666666,0.3400000000000001,179.01636518146574,-6.036990242212146,95.27798261537144,1525.0,1435.0,1200.0,1528.0,1475.0,1021.7000000000002,93.0,292.65,1637154986.989148,1637154987.9998884,d27ee52f-8d5d-4943-bad0-3ec69164174a
0.0169739329529699,0.1373940753518713,-0.0168154775427972,-0.304402142042365,-0.1563149338209255,0.398464164192611,-0.1800373752993106,-0.2106080976684064,-13.710554344708186,17.10867938605939,35.02302490248654,1.693318367288127,0.3386456240555155,0.5389055187844561,4177.561197916667,12.03977777777778,0.3411111111111111,178.96278462415674,-5.942981842637683,95.79461129400202,1525.0,1535.0,1200.0,1528.0,1475.0,1021.7000000000002,93.0,292.65,1637154989.9340656,1637154990.8671544,2717db33-8a8e-410a-a2e7-9bfe3627463b
0.0171245951129994,0.1373255925540764,-0.0172811605529976,-0.3024572304507197,-0.1563012372675463,0.3968479703991407,-0.1806537205082235,-0.2162373838082238,-13.705104618256854,17.081314731809346,35.03445682681658,1.685099294055993,0.3379794330935521,0.5404391175872351,4183.2236328125,12.039333333333332,0.35,178.96993507330782,-5.948876343323274,95.91611884151672,1525.0,1535.0,1200.0,1528.0,1475.0,1021.7000000000002,93.0,292.65,1637154990.97522,1637154992.2081783,2717db33-8a8e-410a-a2e7-9bfe3627463b
0.0216718526135002,0.1362572610165125,-0.0199382929682151,-0.3021696026459639,-0.1570956377124078,0.3948893626781379,-0.1850229230719556,-0.2211133592123662,-13.98624609479986,17.0677554148058,34.6197317293615,1.6796194002882772,0.3394339974982952,0.5504611737127253,4173.041015625,12.037444444444445,0.3400000000000001,178.96872688873464,-5.946261566667889,96.04995032702384,1525.0,1535.0,1200.0,1528.0,1475.0,1021.7000000000002,93.0,292.65,1637154992.316005,1637154993.433284,2717db33-8a8e-410a-a2e7-9bfe3627463b
0.0310539953387766,0.1385308896814826,-0.0352510458994539,-0.5835928556352752,-0.2055403698038785,0.6678754469599381,-0.1251689573357703,-0.1396736145239505,-13.641610877343624,16.761747562005784,37.07575836225018,2.92565144057003,0.3574278313552342,0.5537364999742503,4174.396158854167,12.038666666666666,0.3533333333333333,178.99855356593017,-5.869461022365496,96.17185706115008,1525.0,1636.0,1200.0,1528.0,1475.0,1021.7000000000002,93.0,292.65,1637154994.4398303,1637154995.690087,99db1a99-4a75-4b30-bc7a-ccfd004aef06
0.03408093478683,0.1427083399482319,-0.0334704932295578,-0.595289720344753,-0.2053075282823883,0.6719022347922312,-0.1225529144780338,-0.1454946526856491,-13.713042892726202,16.7189690136166,36.71693969391314,2.9607973521731403,0.3783338752268583,0.5471320180970571,4173.041015625,12.035333333333334,0.3666666666666666,179.02245467456575,-5.884625038392179,96.1575865192442,1525.0,1636.0,1200.0,1528.0,1475.0,1021.7000000000002,93.0,292.65,1637154995.7991493,1637154997.010739,99db1a99-4a75-4b30-bc7a-ccfd004aef06
0.0330262997911988,0.1395307384362551,-0.0336896381732959,-0.5924134421806018,-0.2040611413299049,0.6762440434420269,-0.1216763346703782,-0.1434264719546162,-13.770881430756274,16.70321821653806,37.27076819253504,2.96400964021715,0.3615484453850284,0.5448729219905145,4179.372395833333,12.037,0.3544444444444444,179.03970014331014,-5.885167564112503,96.2012906230134,1525.0,1636.0,1200.0,1528.0,1475.0,1021.7000000000002,93.0,292.65,1637154997.1191292,1637154998.1476538,99db1a99-4a75-4b30-bc7a-ccfd004aef06
0.0450255809420428,0.1417473894181062,-0.043373105403165,-0.7910212886965988,-0.239670006077434,0.8646626515715858,-0.0822406530968724,-0.0989132011608458,-13.573304142212466,16.77610562163038,38.47789428428413,3.835714938940412,0.3816053355417017,0.550762710923751,4173.041015625,12.035,0.36,179.03342395837282,-5.818472094959667,96.26131204870973,1525.0,1737.0,1200.0,1528.0,1475.0,1021.7000000000002,93.0,292.65,1637154999.8552482,1637155000.904395,afe42856-0222-4f63-8fc7-aaa3bf856030
0.0486677697776067,0.1351861901602556,-0.041953046178467,-0.7864718376710605,-0.2375267683572873,0.8659512236953553,-0.080386686857314,-0.1126667380646757,-13.541540215139989,16.87218157226177,38.35406488625506,3.82905194424673,0.3574010474825352,0.5423223094360973,4173.041015625,12.027555555555557,0.3988888888888889,179.06600396071377,-5.841672824614124,96.14078197715622,1525.0,1737.0,1200.0,1528.0,1475.0,1021.7000000000002,93.0,292.65,1637155001.0172384,1637155002.1319847,afe42856-0222-4f63-8fc7-aaa3bf856030
0.051678821203919,0.141458118101538,-0.0413087600316727,-0.7924544972480183,-0.2386707050592395,0.8674764723263554,-0.0790981145505908,-0.1023318622400991,-13.45711551761302,16.809725158102736,38.66890153545392,3.845685529879083,0.3783130425618007,0.5424026774716019,4171.461534288194,12.028777777777776,0.3922222222222222,179.0894907045397,-5.840766022138066,96.07264780454572,1525.0,1737.0,1200.0,1528.0,1475.0,1021.7000000000002,93.0,292.65,1637155002.2407026,1637155003.2782452,afe42856-0222-4f63-8fc7-aaa3bf856030
0.0479007624714454,0.1395855246687648,-0.039729820731382,-0.7958622029582013,-0.2421512749627021,0.8716528266684863,-0.0828191958010311,-0.1161977114946048,-13.5876383291726,17.44023533931063,38.54062351170282,3.8669295035987368,0.3738807628067642,0.5495016595328922,4160.88623046875,12.024777777777778,0.4088888888888889,179.09397130863525,-5.839386229061983,95.8765371363666,1525.0,1837.0,1200.0,1528.0,1475.0,1021.7000000000002,93.0,292.65,1637155004.8555815,1637155006.0249643,10d88e29-bd89-42ac-8f60-6c56600e0123
0.0440520295098948,0.1354765571834862,-0.04049682802182,-0.8130513923407655,-0.2433839653822918,0.8895131375732556,-0.0799155252372006,-0.1038571120697154,-13.815977970861889,17.478511175272548,38.266273689224654,3.9458954768118937,0.3645857060022162,0.5468816949671715,4148.360134548611,12.020444444444443,0.4244444444444444,179.11277861396985,-5.859170773198442,95.78913575901738,1525.0,1837.0,1200.0,1528.0,1475.0,1021.7000000000002,93.0,292.65,1637155006.133608,1637155007.1600163,10d88e29-bd89-42ac-8f60-6c56600e0123
0.0430384841597513,0.1311621413252841,-0.037141171090515,-0.814585408126966,-0.2402885428094074,0.8955670160676646,-0.0732589974775432,-0.1094727013644272,-13.634261888400678,17.46254738280976,38.36282719973375,3.963127839732104,0.3466634605007184,0.5283483258570015,4128.155924479167,12.019666666666666,0.4211111111111111,179.1335454246863,-5.870537346342204,95.67882440937215,1525.0,1837.0,1200.0,1528.0,1475.0,1021.7000000000002,93.0,292.65,1637155007.268603,1637155008.3880384,10d88e29-bd89-42ac-8f60-6c56600e0123
-0.0025299667591254,0.1462146588514064,0.0292323531644687,0.2811805412042097,-0.0567546436265762,-0.1792292782707994,-0.2994439870597206,-0.3223309408342055,-13.688253303396143,18.714398764277245,30.484375185752896,-0.913541876581843,0.3426449284692477,0.5096990636535877,4118.89794921875,12.029333333333334,0.39,179.11621495803223,-6.176544904493194,95.5797707292989,1525.0,1334.0,1200.0,1528.0,1475.0,1021.7000000000002,93.0,292.65,1637155010.5273335,1637155011.5540397,2089c655-a690-4bd6-85bd-390eb2eb3dd3
-0.0027902013541475,0.1504879850092849,0.0302322019474686,0.2910283662264902,-0.0556315257820332,-0.1885429389595692,-0.3018134920501742,-0.3183315448795756,-13.679571412321886,18.74294954128701,31.038725627046848,-0.9563534069960186,0.3525492486971663,0.5115597384877825,4153.961208767361,12.040777777777778,0.33,179.0837594169162,-6.191827974511658,95.8599245984853,1525.0,1334.0,1200.0,1528.0,1475.0,1021.7000000000002,93.0,292.65,1637155011.6618636,1637155012.783275,2089c655-a690-4bd6-85bd-390eb2eb3dd3
0.0055510029556445,0.1552132975853392,0.0320538442507919,0.2918912493706173,-0.0564533193281058,-0.1935421833125594,-0.3024983200870946,-0.3207695328042486,-13.567207390138869,18.8794854125937,31.10128347612424,-0.968471477850851,0.3689338688419029,0.5118611047191842,4207.875651041667,12.04288888888889,0.32,179.07831651505757,-6.18759700434392,96.08151035444877,1525.0,1334.0,1200.0,1528.0,1475.0,1021.7000000000002,93.0,292.65,1637155012.890689,1637155013.8321006,2089c655-a690-4bd6-85bd-390eb2eb3dd3
-0.0108437780132245,0.1521041788751698,0.0543518417044277,0.6176090818316163,-0.0055842992582426,-0.507563237047741,-0.3756516517075234,-0.3957445085910305,-13.84465553371247,20.255881300677668,28.456370733647123,-2.3991850317521024,0.3440123680958858,0.514326172525829,4247.719835069444,12.039666666666667,0.3233333333333333,179.0530129409124,-6.293895665283651,96.3630507520367,1525.0,1234.0,1200.0,1528.0,1475.0,1021.7000000000002,93.0,292.65,1637155014.8817835,1637155015.8325307,db268891-f3be-4083-b256-cf332ea94db3
-0.005817140904174,0.1579663057780524,0.0536259240837176,0.6049123732488807,-0.0081181626612395,-0.4996055344144653,-0.3750353064810292,-0.4032776167955641,-13.91843676233746,20.20963526284552,28.74245282444363,-2.3529966004288903,0.3655020081481941,0.5188582162738974,4250.762586805556,12.036444444444443,0.35,179.045247774736,-6.292016462056383,96.482586651611,1525.0,1234.0,1200.0,1528.0,1475.0,1021.7000000000002,93.0,292.65,1637155015.9406738,1637155017.0934477,db268891-f3be-4083-b256-cf332ea94db3
-0.0137063588529241,0.1512139025948842,0.0505441984184469,0.5933387823575432,-0.0110903159241067,-0.4867170695266362,-0.3742819955977738,-0.3996206355170507,-13.984797755140326,20.22337364671929,28.1106753115132,-2.298123802804653,0.3474753305146092,0.5241729409732762,4226.779839409723,12.036111111111111,0.3400000000000001,179.0385450824305,-6.294853504451008,96.62218509350734,1525.0,1234.0,1200.0,1528.0,1475.0,1021.7000000000002,93.0,292.65,1637155017.2057085,1637155018.5158105,db268891-f3be-4083-b256-cf332ea94db3
-0.0142618912391324,0.1641659158563891,0.0668392680694926,0.7705705897909104,0.0141129958930067,-0.6711840214208747,-0.4172300289228244,-0.4408056467144416,-13.968664862812252,21.2949278340054,26.77701943893295,-3.1047268333918243,0.3869893931333187,0.5295936662585583,4183.452202690973,12.034333333333333,0.3577777777777777,179.02184451099993,-6.347804830582746,96.8703630526394,1525.0,1133.0,1200.0,1528.0,1475.0,1021.7000000000002,93.0,292.65,1637155020.453543,1637155021.7021065,7600acf0-8f56-436e-950e-d8ef75856a36
-0.0209940238604137,0.1597348053595468,0.0667735245760816,0.7753172687168514,0.0149545124543779,-0.6711577244002563,-0.418018950933915,-0.442252003669256,-14.029494274554343,21.38836795305712,26.78081892446882,-3.1147889472543384,0.370179894678539,0.5290902870517997,4181.18359375,12.032111111111112,0.3611111111111111,179.0401843278313,-6.36918868248611,96.90339536528538,1525.0,1133.0,1200.0,1528.0,1475.0,1021.7000000000002,93.0,292.65,1637155021.8102808,1637155022.8572962,7600acf0-8f56-436e-950e-d8ef75856a36
-0.0147746903880615,0.1569735792346608,0.0692586281044528,0.7878216776528233,0.0187676343508778,-0.6788891603818711,-0.4178217205596858,-0.4386624090759166,-14.01609482828181,21.45570926421618,26.94335713816293,-3.159766589461773,0.3569073318178246,0.5202149029208595,4174.170301649306,12.033,0.3555555555555555,179.06711500481873,-6.343854040466586,96.94840707082568,1525.0,1133.0,1200.0,1528.0,1475.0,1021.7000000000002,93.0,292.65,1637155022.9658663,1637155024.0094178,7600acf0-8f56-436e-950e-d8ef75856a36
-0.0244581575618962,0.1543367178515897,0.0756636867346654,0.8538883919702481,0.0265889172761932,-0.743445451701079,-0.4377107717586124,-0.4741025369948797,-14.270825083770376,22.374034026644114,25.986300315663897,-3.447737686970981,0.3495901811606571,0.5275043417985193,4175.07373046875,12.032888888888888,0.3633333333333333,179.07454169717627,-6.385077078019767,96.99473320832624,1525.0,1033.0,1200.0,1528.0,1475.0,1021.7000000000002,93.0,292.65,1637155024.9553864,1637155026.0952394,87876582-65e6-49ce-a4c2-504b892458de
-0.0160073807083443,0.1605686518242912,0.0727737128526423,0.8471907751680368,0.0220142666201791,-0.7410211581332872,-0.4410938222413278,-0.4800742379883114,-14.308654899999604,22.37359958241484,26.298095867768723,-3.4272979149871303,0.3711094402524438,0.5436000994047361,4171.01025390625,12.023333333333332,0.4,179.0987251202976,-6.3693880386325095,96.95384314249512,1525.0,1033.0,1200.0,1528.0,1475.0,1021.7000000000002,93.0,292.65,1637155026.2035186,1637155027.229848,87876582-65e6-49ce-a4c2-504b892458de
-0.0195547894824742,0.1552680838099454,0.0734996304366763,0.85068339729419,0.0247809714591194,-0.73629584339618,-0.4379847027747101,-0.4562696137299935,-14.302841194741507,22.304810168690366,26.704039033090307,-3.424910232984209,0.3472049116121693,0.5344096176889619,4162.9072265625,12.023222222222223,0.3922222222222222,179.11087375010132,-6.380571619624758,96.9347413801163,1525.0,1033.0,1200.0,1528.0,1475.0,1021.7000000000002,93.0,292.65,1637155027.338351,1637155028.4672878,87876582-65e6-49ce-a4c2-504b892458de
0.0145222489364473,0.1387089449424979,0.0032088915204708,-0.0071183138707978,-0.1078975958811173,0.1079464749842113,-0.2435209309456232,-0.2742971028947817,-13.797797251242594,17.920943623722884,32.647458785886855,0.3758459305036867,0.3299304622493237,0.5350717973293939,4165.380316840277,12.026777777777776,0.3833333333333333,179.11866016575513,-6.166875443630701,96.87982362354978,1525.0,1435.0,1200.0,1528.0,1475.0,1021.7000000000002,93.0,292.65,1637155030.393299,1637155031.4181588,77d6ad2a-9e85-4b0d-9523-4af0f368b896
0.00856424591033,0.1397635799159448,0.004674423314046,-0.0134872137694118,-0.1061170431661562,0.1124663392482822,-0.2422060611609602,-0.2787210915959928,-14.043967060152246,17.91657291074963,32.61526531869786,0.4002842990670404,0.3367906245652625,0.5286328477372727,4170.333984375,12.042666666666667,0.32,179.11951166267167,-6.170224275894385,96.94739772064834,1525.0,1435.0,1200.0,1528.0,1475.0,1021.7000000000002,93.0,292.65,1637155031.5271063,1637155032.554432,77d6ad2a-9e85-4b0d-9523-4af0f368b896
0.0052376256696319,0.1462968382018915,0.0077358781424611,-0.0118162335498314,-0.1048564118306005,0.1051677172397301,-0.2398540878449787,-0.2620622392939008,-13.805538454806092,17.853986354372058,32.7267201431398,0.3799893305012889,0.35860624002622,0.520548812479346,4162.23486328125,12.041777777777778,0.32,179.11626656390595,-6.164079998985396,97.00150420252344,1525.0,1435.0,1200.0,1528.0,1475.0,1021.7000000000002,93.0,292.65,1637155032.662263,1637155033.7829602,77d6ad2a-9e85-4b0d-9523-4af0f368b896
0.0423947459133949,0.1549667595368742,0.1052071633259347,-0.0215407903717058,-0.0164593670114175,0.0996874503008767,-0.1377423989939144,-0.1726412336210509,-13.13112532992192,17.86420955982557,32.64704006445118,0.3948586276604326,0.3944332227173384,0.1232183144240424,4144.7900390625,12.041,0.3233333333333333,179.102959837583,-6.192563263348557,97.071522748435,1525.0,1435.0,1200.0,1439.0,1475.0,1021.7000000000002,93.0,292.65,1637155035.9225528,1637155037.2753353,aa366893-368c-436b-8e0b-99e1c1562839
0.0397923997942027,0.1592400856870418,0.1027417828254076,-0.0209655349114193,-0.0186234233130998,0.0931815850501837,-0.1414130769474614,-0.1548220093381745,-13.141355386443436,17.757449857423605,32.370596708481806,0.3780617457100733,0.412754381443579,0.1349215654842553,4147.465928819444,12.041,0.3222222222222222,179.1205301197679,-6.193765518938088,97.11575277677024,1525.0,1435.0,1200.0,1439.0,1475.0,1021.7000000000002,93.0,292.65,1637155037.3887713,1637155038.494387,aa366893-368c-436b-8e0b-99e1c1562839
0.0464489272814359,0.1514056544038862,0.1077273300716575,-0.0189384441860163,-0.0135009102856972,0.1008927474376081,-0.1337567001586783,-0.146727342693907,-13.022346706495844,17.85523230652956,32.68756700351994,0.3918240286429099,0.3797870241097176,0.1098075779675488,4139.6748046875,12.040888888888889,0.3255555555555555,179.1241212814515,-6.192454407208661,97.1531799366922,1525.0,1435.0,1200.0,1439.0,1475.0,1021.7000000000002,93.0,292.65,1637155038.6027462,1637155039.6104686,aa366893-368c-436b-8e0b-99e1c1562839
0.098172610856825,0.1850197473756234,0.2341301257093752,-0.0369696901643627,0.0967131056796689,0.076950615415673,-0.0068328775657671,-0.0288437959211657,-12.06288416890699,17.76408786679979,32.577109696798146,0.3848521037241139,0.5102802000861703,-0.3888594985661724,4151.258843315973,12.041111111111112,0.33,179.11891060602468,-6.211501480642233,97.171648009298,1525.0,1435.0,1200.0,1351.0,1475.0,1021.7000000000002,93.0,292.65,1637155041.544588,1637155042.7912967,ea0bee83-254d-45e7-afe1-1e3e0ca76dfd
0.0764033008309283,0.1734160233529923,0.2323523124878769,-0.0312790438142203,0.0977973252378491,0.084045980572759,-0.0074744243895978,-0.0232528607777197,-12.227565519072789,17.87175752819496,32.70461437425389,0.3885222932212736,0.4659831651302756,-0.3883331405366008,4146.79541015625,12.037222222222224,0.33,179.13826432649287,-6.207105447569552,97.18381637075936,1525.0,1435.0,1200.0,1351.0,1475.0,1021.7000000000002,93.0,292.65,1637155042.9003897,1637155043.91002,ea0bee83-254d-45e7-afe1-1e3e0ca76dfd
0.0867031128328403,0.1822366067717352,0.2334754302392306,-0.0354291011950372,0.0957839311559208,0.0777866533468158,-0.0085838456507045,-0.0296491535589949,-12.114548947318236,17.90643465813577,32.499313593397865,0.3841282280488864,0.5006681366185753,-0.3847360308157841,4147.910590277777,12.039444444444444,0.3299999999999999,179.1298267661382,-6.225122585394532,97.20649715226324,1525.0,1435.0,1200.0,1351.0,1475.0,1021.7000000000002,93.0,292.65,1637155044.0188396,1637155045.140641,ea0bee83-254d-45e7-afe1-1e3e0ca76dfd
0.1181093211883282,0.1944402400036087,0.3611821345748893,-0.0378259989999162,0.211382882268897,0.0608029207917165,0.1186023973855706,0.0863470020782251,-11.454888724535904,18.2001303174328,32.445362414389685,0.3599996688050016,0.5506444504171264,-0.8956300775596459,4147.241482204861,12.038777777777778,0.3377777777777778,179.13481887551154,-6.237002750818384,97.17391259646284,1525.0,1435.0,1200.0,1262.0,1475.0,1021.7000000000002,93.0,292.65,1637155046.8545551,1637155047.9147625,c61c3c21-809c-49f0-847a-cb8b039e1c06
0.1355998261221183,0.1985218142998819,0.3630311698435664,-0.0376205506346946,0.2130949520113867,0.0583375402471342,0.1216156402060177,0.0953045512755839,-11.306054076050875,18.04160236738691,32.70997937230033,0.3531544580836922,0.5626433624837625,-0.9037345951349768,4146.79541015625,12.041,0.3233333333333333,179.1332995378762,-6.238021018187147,97.19785392732354,1525.0,1435.0,1200.0,1262.0,1475.0,1021.7000000000002,93.0,292.65,1637155048.0237434,1637155049.0375526,c61c3c21-809c-49f0-847a-cb8b039e1c06
0.1315867345500009,0.2006036911233029,0.3617163003196172,-0.0398530897487973,0.2123279447684486,0.0600770031823786,0.1216841230050878,0.0967015998968141,-11.299398094307236,17.908516591241742,32.95161394139252,0.3611934798082445,0.5684522164361333,-0.9003626845442391,4146.79541015625,12.039222222222223,0.3255555555555556,179.12617640948176,-6.246106966095187,97.21193550066238,1525.0,1435.0,1200.0,1262.0,1475.0,1021.7000000000002,93.0,292.65,1637155049.1577618,1637155050.1670964,c61c3c21-809c-49f0-847a-cb8b039e1c06
0.1588565819243942,0.2128073242920115,0.4707819874712232,-0.0215270938252586,0.3107103196690191,0.0233839225794729,0.2234495498097105,0.2114787576453471,-10.579794567063056,18.34259927461904,32.63705318984784,0.2460206883526787,0.6165832501040107,-1.326405112109345,4150.588758680556,12.040333333333333,0.3322222222222222,179.12667425438127,-6.244206703117978,97.21707711528758,1525.0,1435.0,1200.0,1173.0,1475.0,1021.7000000000002,93.0,292.65,1637155051.8979456,1637155052.9221487,8f2ba567-2923-4482-a15e-7d6589ba7864
0.1583498092835128,0.2152316150582702,0.4663169097697286,-0.0244307643170407,0.3066013523707068,0.0224799497092121,0.2178613541826485,0.1820037649514746,-10.732861280911992,18.312473921366024,32.42872067898543,0.2500070148808162,0.6286795597582113,-1.3068863919058478,4146.79541015625,12.034777777777778,0.3544444444444444,179.12171705486364,-6.239827603222615,97.16501437779412,1525.0,1435.0,1200.0,1173.0,1475.0,1021.7000000000002,93.0,292.65,1637155053.0310783,1637155054.1000893,8f2ba567-2923-4482-a15e-7d6589ba7864
0.1464748933382724,0.2071780389644923,0.4577017751595081,-0.019130196018957,0.3004652945032704,0.0241920195541291,0.2089311983556049,0.1846608969083771,-10.875930769237709,18.38521697257573,32.17668156645577,0.2418385332477372,0.6005226465048988,-1.2754842369799877,4139.00830078125,12.032888888888888,0.3488888888888888,179.1202174488859,-6.248369561121493,97.13449557476268,1525.0,1435.0,1200.0,1173.0,1475.0,1021.7000000000002,93.0,292.65,1637155054.209829,1637155055.246894,8f2ba567-2923-4482-a15e-7d6589ba7864
-0.0471807489357405,0.1154795820907513,-0.1316611265380817,0.0195214930200051,-0.2287149493974103,0.1130552912664848,-0.387553963376916,-0.4065373979536748,-14.826866872360045,18.2118363807367,32.55362035966932,0.3219130162084549,0.2390963805821162,1.0849958630735823,4138.7861328125,12.035222222222222,0.3311111111111111,179.1495159247856,-6.243231788477697,97.21021656972124,1525.0,1435.0,1200.0,1617.0,1475.0,1021.7000000000002,93.0,292.65,1637155056.8539698,1637155058.1548746,2e25b189-46b7-4a68-aabc-f6c727ce1cb8
-0.0402365935069277,0.1148358438539445,-0.1345237074893583,0.0159740843058185,-0.2311255439913996,0.1145893057956268,-0.3900193444055572,-0.4256988874041987,-14.908878374700311,18.17893362939737,32.19818874503837,0.3329036425293828,0.2406673410543959,1.0950372202012837,4142.787109375,12.042222222222222,0.32,179.1534531493872,-6.239189929172603,97.20153464037628,1525.0,1435.0,1200.0,1617.0,1475.0,1021.7000000000002,93.0,292.65,1637155058.263794,1637155059.2714214,2e25b189-46b7-4a68-aabc-f6c727ce1cb8
-0.0364700398145683,0.1167396654527264,-0.1294970701481419,0.0109063575566109,-0.2297832811005517,0.1157809063666068,-0.3865952041022074,-0.4057429981877599,-14.84045696318544,18.42415054067305,31.99871800274241,0.3488913883821388,0.2500382301434161,1.081333702988344,4138.342230902777,12.041444444444444,0.32,179.14812408401474,-6.244077214114963,97.22647241994588,1525.0,1435.0,1200.0,1617.0,1475.0,1021.7000000000002,93.0,292.65,1637155059.3800414,1637155060.4999917,2e25b189-46b7-4a68-aabc-f6c727ce1cb8
-0.0859091396704659,0.0969497822125848,-0.2711479888223816,0.0452359601549921,-0.3556678212638455,0.1107953591384589,-0.5374091421006915,-0.5712144507843545,-15.691947529327708,18.470593847957776,31.90538081157609,0.2530601365088392,0.1694621877881865,1.6577659598642955,4138.7861328125,12.045,0.32,179.1464226080015,-6.247597512585935,97.25408004457108,1525.0,1435.0,1200.0,1706.0,1475.0,1021.7000000000002,93.0,292.65,1637155062.3542182,1637155063.3031032,ff358180-1180-4e5a-bb24-a336c43b30e5
-0.0904454401198451,0.0930051733892694,-0.2753555721847059,0.0482470115959716,-0.3595992821425426,0.112544135701665,-0.5419191461862521,-0.5679141267811993,-15.692673174021245,18.578307186420453,31.96380841221881,0.2507111602081255,0.153519163501066,1.6748642309166086,4141.675184461806,12.037333333333333,0.3400000000000001,179.16379102015094,-6.250802626285833,97.1971876044245,1525.0,1435.0,1200.0,1706.0,1475.0,1021.7000000000002,93.0,292.65,1637155063.4114296,1637155064.600063,ff358180-1180-4e5a-bb24-a336c43b30e5
-0.0895776261037336,0.0980279752829202,-0.2699383086002541,0.0411204182082128,-0.3543661000966688,0.1144769940132549,-0.5343586436836616,-0.5590519029592033,-15.679281299195791,18.372009948645253,32.0576208697287,0.2700542691936339,0.1726488457400889,1.6503591971650051,4140.78564453125,12.03622222222222,0.3388888888888889,179.16049279769177,-6.23830712722238,97.15910702307195,1525.0,1435.0,1200.0,1706.0,1475.0,1021.7000000000002,93.0,292.65,1637155064.7087088,1637155065.8250597,ff358180-1180-4e5a-bb24-a336c43b30e5
-0.1131844680183646,0.0863470023990751,-0.3878689843713865,0.0831557042718168,-0.4634603074596747,0.0935239990162346,-0.6729355379497042,-0.693452991767043,-16.630739771328425,19.115514090506863,31.96317015516246,0.1267114076064189,0.1237703888344202,2.15485734471629,4142.564724392361,12.036444444444443,0.3388888888888889,179.16360736395325,-6.232288781926213,97.0973363100382,1525.0,1435.0,1200.0,1795.0,1475.0,1021.7000000000002,93.0,292.65,1637155067.871864,1637155068.8963573,8dcfaed9-70d9-4a72-93fc-2a2d03e98f22
-0.1170879873888015,0.0795945990794828,-0.3888003505101979,0.0841829461385669,-0.4626659068547803,0.0966879039866395,-0.6724972478484692,-0.7004382393284821,-16.694053815209223,19.11542843889266,31.60552967192221,0.1313680943018404,0.1018771302167162,2.153064168432172,4142.565375434027,12.038666666666664,0.33,179.1579534851403,-6.232268575949918,97.08503969280244,1525.0,1435.0,1200.0,1795.0,1475.0,1021.7000000000002,93.0,292.65,1637155069.0044415,1637155070.1258495,8dcfaed9-70d9-4a72-93fc-2a2d03e98f22
-0.1211362139402384,0.0838691163213594,-0.391127574890349,0.0819968563233074,-0.4644029881382688,0.0969749362255641,-0.6738246235086808,-0.7064105382158555,-16.698299634832562,18.94227258998368,31.943393461770043,0.1357323460204067,0.1150634256021596,2.1615349724970785,4144.7900390625,12.037666666666668,0.3400000000000001,179.15097758526798,-6.239766795566254,97.05927470143334,1525.0,1435.0,1200.0,1795.0,1475.0,1021.7000000000002,93.0,292.65,1637155070.234723,1637155071.277167,8dcfaed9-70d9-4a72-93fc-2a2d03e98f22
-0.1609580676842787,0.0660897923894025,-0.4731711700115757,0.1327235489732197,-0.5388461856876189,0.0700480977895189,-0.7745777411493084,-0.8045732192969778,-17.280895186912833,19.744647481284225,31.56930701043154,-0.0383219242855196,0.0443860776875538,2.515243849529321,4140.78564453125,12.039,0.33,179.1589491749393,-6.245078026555847,97.02824666985376,1525.0,1435.0,1200.0,1883.0,1475.0,1021.7000000000002,93.0,292.65,1637155071.854163,1637155072.9001062,dec1986f-9e21-4e67-b8ae-6d6d38399a69
-0.1508500067000673,0.0776770808904969,-0.4727191832559234,0.1258204836062003,-0.5399830001575462,0.0673635723339854,-0.7751803896953623,-0.8089972096180341,-17.321465359923163,19.60871938327094,31.89910269470805,-0.0296292157346298,0.0860858928594749,2.518868267188075,4152.154513888889,12.029333333333334,0.37,179.17249571679315,-6.256391238846719,96.92797721610827,1525.0,1435.0,1200.0,1883.0,1475.0,1021.7000000000002,93.0,292.65,1637155073.0095682,1637155074.133702,dec1986f-9e21-4e67-b8ae-6d6d38399a69
-0.1530688493430952,0.0704316014451849,-0.4774171040351732,0.1308197273504316,-0.5432701751983048,0.0709520706375512,-0.7776320748056343,-0.7921915242033716,-17.188491848957774,19.610202708339653,32.02610712145539,-0.0329793611982777,0.0559308369944569,2.53267862020239,4162.9072265625,12.032,0.36,179.16698147740323,-6.265682999734484,96.85260152515772,1525.0,1435.0,1200.0,1883.0,1475.0,1021.7000000000002,93.0,292.65,1637155074.2424047,1637155075.3585365,dec1986f-9e21-4e67-b8ae-6d6d38399a69
-0.0088709256877643,0.1296637378657268,-0.08701363008374,0.0131531409753732,-0.1613169174544239,0.1050099328515496,-0.301574076200936,-0.3170237973545449,-13.517854050557183,14.37790578687855,33.09372839058572,0.2957520417553353,0.281793226514733,0.8148319765503025,7227.849934895833,11.81688888888889,8.188888888888888,-179.2826105087723,-6.334802474564635,81.71548619852155,1525.0,1435.0,1350.0,1528.0,1475.0,1021.7000000000002,93.0,292.65,1637155079.3869247,1637155080.3341053,60473618-537e-42b9-9286-7c4f6cfd3a44
-0.0060702532830489,0.1271260395517559,-0.0858696934541555,0.0239219233133063,-0.1540456878656871,0.1066666685662103,-0.3006142212421481,-0.3267669823725169,-13.961166716001037,14.166511936174338,34.39768019956967,0.2738235237131819,0.2625991477925576,0.8034055682419975,7233.2705078125,11.817,8.183333333333332,-178.89118754563702,-6.257870828575673,75.40858514158016,1525.0,1435.0,1350.0,1528.0,1475.0,1021.7000000000002,93.0,292.65,1637155080.4438784,1637155081.5028706,60473618-537e-42b9-9286-7c4f6cfd3a44
-0.0195345185191597,0.1248644638391366,-0.088867596353539,0.0025552916418199,-0.1645514969919217,0.107232062484075,-0.301337399634222,-0.3240189043943134,-13.40931604790975,14.40985048395486,31.347684557468018,0.3245473712480893,0.2796878003950434,0.8183542899908283,7233.2705078125,11.817333333333334,8.20111111111111,-178.73003758017956,-6.14847970462548,70.23592730659841,1525.0,1435.0,1350.0,1528.0,1475.0,1021.7000000000002,93.0,292.65,1637155081.612016,1637155082.7393544,60473618-537e-42b9-9286-7c4f6cfd3a44
0.1365859783071675,0.4048056703153959,-0.0679995186942151,-0.1102944939134545,-0.2042118035206676,-0.0417021252190552,-0.3464505836113756,-0.382486236472752,-13.569276143119154,13.767077663932652,34.309391052753654,0.2416034988894769,1.319726403671665,0.9453717411268664,7233.2705078125,11.817,8.2,-178.69180521684544,-6.034189959516179,63.3756177612558,1610.0,1435.0,1350.0,1528.0,1542.0,1021.7000000000002,93.0,292.65,1637155083.3536656,1637155084.369001,5d86ea37-4df3-4225-81cc-5c280b7b1144
0.146228355311574,0.4058329121269884,-0.0694513539925048,-0.1202655891748813,-0.2080605368859603,-0.0405927039825844,-0.3467793010815723,-0.3754599006340795,-13.42996290851412,13.78731621404515,33.29769207924367,0.2665595926740831,1.332695782536885,0.9517599655551016,7245.5,11.809888888888889,8.274444444444445,-178.84951276696123,-5.97926262171206,59.709947820718725,1610.0,1435.0,1350.0,1528.0,1542.0,1021.7000000000002,93.0,292.65,1637155084.477279,1637155085.4851468,5d86ea37-4df3-4225-81cc-5c280b7b1144
0.1430781468955008,0.4068327608230189,-0.0685062913897174,-0.1246758812921512,-0.2091836548175012,-0.0452495340364492,-0.3479572053268814,-0.3838421959229847,-13.43070978815721,13.92147215306742,32.19578516427747,0.2668039796840949,1.346822470950687,0.952151140083962,7251.6298828125,11.807,8.326666666666668,-178.9665973875334,-5.951170148519536,56.22746620990605,1610.0,1435.0,1350.0,1528.0,1542.0,1021.7000000000002,93.0,292.65,1637155085.5932877,1637155086.82822,5d86ea37-4df3-4225-81cc-5c280b7b1144
0.2944388090420793,0.6999390874955335,-0.0560835122460728,-0.2641479508768098,-0.2636959642655798,-0.1902276158694917,-0.399154950821607,-0.4324923821214558,-13.281946619281968,13.182162084971036,34.01293047636131,0.2517158329100866,2.446938177694288,1.1195733166396469,7245.5,11.803999999999998,8.374444444444444,-179.50809630275185,-5.951666855054177,49.167257138669726,1695.0,1435.0,1350.0,1528.0,1609.0,1021.7000000000002,93.0,292.65,1637155088.9670937,1637155089.992532,8e5c5109-5227-474d-a71c-a74f98e30515
0.2987943143946054,0.6942413196757644,-0.0537140075367221,-0.2613264594587965,-0.2605046657340966,-0.1847626884602029,-0.3959088658014615,-0.4231513274831315,-13.328070430997933,13.274461364070456,34.38604902440806,0.2583977694079586,2.422391990193638,1.1071664461021844,7239.38037109375,11.803625,8.348749999999999,-179.72435735707484,-5.965878035975708,47.29059099465431,1695.0,1435.0,1350.0,1528.0,1609.0,1021.7000000000002,93.0,292.65,1637155090.1014569,1637155091.215849,8e5c5109-5227-474d-a71c-a74f98e30515
0.3012805135971376,0.6942555640951881,-0.057442210915648,-0.2711479890374053,-0.2665196471744939,-0.1893104942388073,-0.399019080928898,-0.4315226653591208,-13.133072753580086,13.268232349878732,32.42972671344486,0.269892582281232,2.439376891743487,1.1221646139275592,7245.5,11.80177777777778,8.315555555555555,-179.89398529483958,-6.000899143182845,45.53101696544641,1695.0,1435.0,1350.0,1528.0,1609.0,1021.7000000000002,93.0,292.65,1637155091.325018,1637155092.4568765,8e5c5109-5227-474d-a71c-a74f98e30515
0.4226248915381008,0.9081952418672772,-0.0378533921349144,-0.3802536965051235,-0.3015121677594336,-0.2903768640522289,-0.4300406968895301,-0.4606662097739368,-13.120265261017565,13.292374275779244,33.53448998970089,0.2902166844666258,3.246574104266228,1.213779440506738,7245.5,11.799111111111111,8.39777777777778,179.76468981385128,-5.989622405999416,43.47510611961047,1779.0,1435.0,1350.0,1528.0,1677.0,1021.7000000000002,93.0,292.65,1637155093.359532,1637155094.4175074,abc36be5-96a4-4611-b3bc-7616679bb754
0.4154068057558064,0.904743709384632,-0.0311968644529015,-0.3861432177895203,-0.2951980533136775,-0.2913356232639434,-0.419973724168709,-0.4339579142317706,-12.900477134355553,13.15798890603922,32.212093439780574,0.3006879734524867,3.2449383552715823,1.1796470422281695,7242.100206163194,11.790333333333333,8.433333333333334,179.5718462528251,-6.009651603717393,42.46634561526249,1779.0,1435.0,1350.0,1528.0,1677.0,1021.7000000000002,93.0,292.65,1637155094.5261714,1637155095.573877,abc36be5-96a4-4611-b3bc-7616679bb754
0.4138180050819697,0.9008401905039642,-0.0334567966999103,-0.3870197976585567,-0.2984304416289939,-0.288021055625988,-0.4235348301418767,-0.4389982490253344,-12.979125912546278,13.3883481328649,32.00017973059742,0.3114547784706494,3.232701193557318,1.1912720221101658,7245.5,11.793666666666669,8.394444444444446,179.37888278403352,-6.044203918044934,41.53906964716771,1779.0,1435.0,1350.0,1528.0,1677.0,1021.7000000000002,93.0,292.65,1637155095.6828327,1637155096.8644764,abc36be5-96a4-4611-b3bc-7616679bb754
0.4748038445729025,1.040118841224856,-0.0078847733008055,-0.4375579179136219,-0.3085034401518713,-0.3691715348381014,-0.4388859363498389,-0.4639999522696395,-13.118870459053491,13.752242343895851,33.28337733513803,0.2469202536823505,3.752546569675125,1.209963401376624,7251.6298828125,11.78677777777778,8.480000000000002,179.1153513185572,-6.054350164056988,40.35814170277608,1864.0,1435.0,1350.0,1528.0,1744.0,1021.7000000000002,93.0,292.65,1637155097.982278,1637155099.002182,717260fc-251a-46fc-b80d-587c78bf46a8
0.4779989774511493,1.0388171203784566,-0.0186930018512609,-0.4639079112508828,-0.3278846214627255,-0.3832274937324759,-0.4526263270530773,-0.4734012725442185,-12.738840024477769,14.11783407668011,27.55706545847229,0.2759376310077279,3.7982919850709367,1.2623081780898846,7253.676432291667,11.779666666666666,8.523333333333333,178.96300926148945,-6.101005858185006,39.73118649630207,1864.0,1435.0,1350.0,1528.0,1744.0,1021.7000000000002,93.0,292.65,1637155099.1103468,1637155100.2327795,717260fc-251a-46fc-b80d-587c78bf46a8
0.4918839994548827,1.0424724577174591,-0.0092522377475425,-0.461028346413627,-0.317457703679586,-0.3774815126322053,-0.4419101372765119,-0.4608048184984549,-12.819156062345456,14.010209470295912,29.33825882646665,0.2823541589599901,3.797025640603589,1.2229477324180942,7246.862196180556,11.782111111111112,8.463333333333333,178.81821684018425,-6.117854891366304,39.186945260131886,1864.0,1435.0,1350.0,1528.0,1744.0,1021.7000000000002,93.0,292.65,1637155100.3411896,1637155101.4614198,717260fc-251a-46fc-b80d-587c78bf46a8
-0.185694054627584,-0.190268705494808,-0.0990085288920496,0.1634586255196923,-0.0994331222428394,0.2686344942291005,-0.2428634961215681,-0.2555876011265353,-13.779498082310704,15.127329912778594,31.639699417893173,0.3283932022251047,-0.9226626043080692,0.6233677240241916,7251.6298828125,11.788666666666668,8.446666666666667,178.84373139128377,-6.102789818218849,38.21334087780682,1440.0,1435.0,1350.0,1528.0,1408.0,1021.7000000000002,93.0,292.65,1637155103.5076673,1637155104.523906,b0451352-1d67-4977-a4e6-81bbb96279ef
-0.1893099464824963,-0.19884275199745,-0.0995016050029948,0.1643762948937998,-0.0966253275714713,0.2791534506333764,-0.2404665980667086,-0.2655997869255147,-13.98358661560218,15.079439865138276,32.06963774908414,0.3495844453779814,-0.9573315911058016,0.6162567578307336,7251.6298828125,11.809,8.324444444444445,178.73924467518071,-6.091655329211259,37.93409732105479,1440.0,1435.0,1350.0,1528.0,1408.0,1021.7000000000002,93.0,292.65,1637155104.6323292,1637155105.9654453,b0451352-1d67-4977-a4e6-81bbb96279ef
-0.1981031378997249,-0.1984592483333661,-0.1014876061108504,0.1623218111962765,-0.1012410680600752,0.2750444832872022,-0.2441509727471597,-0.2676953602704117,-13.841141783482763,15.249567255172565,31.245849263179508,0.3459547508624724,-0.94947025784906,0.6293927665765644,7257.092556423611,11.807333333333332,8.358888888888888,178.64953089934252,-6.037756693787134,37.64855595043306,1440.0,1435.0,1350.0,1528.0,1408.0,1021.7000000000002,93.0,292.65,1637155106.074109,1637155107.1065545,b0451352-1d67-4977-a4e6-81bbb96279ef
-0.3220980985418711,-0.457872110153701,-0.1156224553993593,0.2818105828226858,-0.0578503683928391,0.4102705967147071,-0.2034584927309427,-0.2252497203230554,-14.113335447818208,16.139573098521975,30.07105638665204,0.3851603405467301,-1.9256801373836223,0.4990691368395483,7263.9208984375,11.807,8.399999999999999,178.54223773440052,-5.9803804485743495,37.17653523727181,1355.0,1435.0,1350.0,1528.0,1341.0,1021.7000000000002,93.0,292.65,1637155108.8550537,1637155109.8573868,5bc325e4-e3c3-4376-9afd-227d0ec063fb
-0.3393146756054694,-0.4718426032325657,-0.1184028569973917,0.2970000653463304,-0.0576038303526497,0.4195294695936257,-0.2060745357164362,-0.2408227095255593,-14.236796166739085,16.40237515145218,31.405619136189387,0.3734568042032252,-1.9910743078764483,0.506378861255036,7268.027994791667,11.792666666666667,8.4,178.59714334840854,-5.988567284068257,37.00989114353698,1355.0,1435.0,1350.0,1528.0,1341.0,1021.7000000000002,93.0,292.65,1637155109.9653351,1637155111.1981175,5bc325e4-e3c3-4376-9afd-227d0ec063fb
-0.3388215994261898,-0.4729520247388931,-0.113362523119896,0.2989723696797325,-0.0522895654076826,0.4275693488204862,-0.1975963650914839,-0.2265235007376858,-14.077327587937958,16.329279366589244,32.703497280540546,0.3871280268589172,-2.007791595938835,0.4820541178828688,7282.435546875,11.79588888888889,8.440000000000001,178.61425980246858,-5.962414252576931,36.92834703285602,1355.0,1435.0,1350.0,1528.0,1341.0,1021.7000000000002,93.0,292.65,1637155111.306744,1637155112.4274237,5bc325e4-e3c3-4376-9afd-227d0ec063fb
-0.5152607053062308,-0.7824532654684258,-0.1344415281751427,0.4441010935935825,-0.0032421877565139,0.5948043139731539,-0.1550548503942402,-0.1680391894912039,-14.739242621156617,17.4841771346688,32.43732803111415,0.4417832217506993,-3.1807506630774243,0.3459232954399707,7290.695475260417,11.791,8.440000000000001,178.73193030148957,-5.981720730903357,36.75443296165961,1271.0,1435.0,1350.0,1528.0,1273.0,1021.7000000000002,93.0,292.65,1637155113.4328222,1637155114.5688007,fcf0ec41-b60c-4541-a617-f2b9f460cfb6
-0.5201229848314138,-0.7858226204004716,-0.1398516691851294,0.4421561824754151,-0.0098987153421392,0.58890109779967,-0.1625605650932189,-0.1925149422705752,-14.710629123051897,17.648131990873683,30.82334389356774,0.4334797623247843,-3.179386344575044,0.3703024750591502,7294.83056640625,11.786444444444443,8.47888888888889,178.70695305860474,-5.9843801883795615,36.71377701953501,1271.0,1435.0,1350.0,1528.0,1273.0,1021.7000000000002,93.0,292.65,1637155114.67735,1637155115.8051212,fcf0ec41-b60c-4541-a617-f2b9f460cfb6
-0.5144115183177472,-0.7785223513905044,-0.1344278315778779,0.4371432424510115,-0.0063923962444592,0.5918184644949065,-0.1591775148198422,-0.1849544410538452,-14.890337007956822,17.738999001080575,31.631992701468945,0.4522543215550201,-3.1569384193705887,0.3551336509118326,7294.83056640625,11.784333333333333,8.462222222222222,178.71630282866855,-5.9926729392374725,36.72435774146928,1271.0,1435.0,1350.0,1528.0,1273.0,1021.7000000000002,93.0,292.65,1637155115.914151,1637155116.933252,fcf0ec41-b60c-4541-a617-f2b9f460cfb6
-0.6131588045140117,-0.9695543811345566,-0.1483917480229176,0.5107129307735202,0.013521304530399,0.6949787423233543,-0.136728853615612,-0.1590158959198424,-14.934544209758894,19.048591890150743,29.33734916401822,0.52571215528539,-3.8626954532459696,0.288808097236178,7288.6279296875,11.786444444444443,8.46888888888889,178.802895966966,-5.925581508840252,36.67360867702617,1186.0,1435.0,1350.0,1528.0,1206.0,1021.7000000000002,93.0,292.65,1637155118.8676748,1637155119.8933556,b2d03124-dbb9-46cb-a4c3-293140324fb9
-0.6092141943565504,-0.9612706975261897,-0.1485889784994292,0.5057821701282172,0.013928914121073,0.6854853845560048,-0.1374914780468646,-0.1649985530530109,-14.983629885342904,18.75659577520396,28.49675501350955,0.5133976984477542,-3.823239395434273,0.2894666028814682,7285.875759548611,11.771444444444445,8.524444444444445,178.76292418212324,-5.924927992545916,36.67383824727328,1186.0,1435.0,1350.0,1528.0,1206.0,1021.7000000000002,93.0,292.65,1637155120.0021486,1637155121.1183245,b2d03124-dbb9-46cb-a4c3-293140324fb9
-0.6077809862101694,-0.964412142054854,-0.145878155401234,0.5135426395220463,0.0180285680847696,0.6928168777236411,-0.1350852664430663,-0.155342478503686,-15.138433074358346,18.8771436256802,30.135383977444008,0.5134842149930275,-3.849230774392652,0.2786029814876959,7282.435546875,11.772888888888888,8.543333333333333,178.77094434202866,-5.909322148657299,36.68241696487082,1186.0,1435.0,1350.0,1528.0,1206.0,1021.7000000000002,93.0,292.65,1637155121.2267828,1637155122.3502133,b2d03124-dbb9-46cb-a4c3-293140324fb9
-0.0208422660248705,0.1173286174612155,-0.0861200665663347,0.0246029162201144,-0.1550000641473757,0.1057824187381415,-0.2999644564051372,-0.3208791054025413,-13.769604507046472,14.333424652282062,32.995791551669925,0.2712673191608558,0.2368250452712574,0.8010303242447989,7270.08154296875,11.787666666666668,8.476666666666667,178.59436573814605,-5.9201625126437545,36.76918844699656,1525.0,1435.0,1350.0,1528.0,1475.0,1021.7000000000002,93.0,292.65,1637155124.397281,1637155125.5353177,d2df1d63-1f0b-46b8-b6af-25f556038336
-0.0182673129358297,0.1186982732954846,-0.0898455306714215,0.0314511955193938,-0.1548630985388755,0.1027691758950778,-0.3046212870089533,-0.340478883694588,-14.033158035547943,14.139401219553738,33.62577660037141,0.247544169004833,0.2371612780556306,0.8135619590458548,7270.08154296875,11.80922222222222,8.398888888888889,178.6180847084038,-5.913158722832337,36.877378263994615,1525.0,1435.0,1350.0,1528.0,1475.0,1021.7000000000002,93.0,292.65,1637155125.6438477,1637155126.688885,d2df1d63-1f0b-46b8-b6af-25f556038336
-0.0156030583142399,0.1179088036750052,-0.0837133071696332,0.0367287536024153,-0.1480367332012567,0.1061144233169058,-0.2970377753539475,-0.3134605005448165,-13.961056046320431,14.103430581433832,34.734408545959504,0.2434364153320876,0.2236025497389182,0.7866875637723487,7276.2529296875,11.812888888888889,8.30777777777778,178.64461468095993,-5.889210514350588,36.967055232702286,1525.0,1435.0,1350.0,1528.0,1475.0,1021.7000000000002,93.0,292.65,1637155126.7984488,1637155127.7531736,d2df1d63-1f0b-46b8-b6af-25f556038336
-0.0151581940163923,0.1123841599082658,-0.1177043324265299,-0.3371095292013097,-0.2172646252091398,0.4687548969765787,-0.22634544453607,-0.2539029242451898,-13.828027861774167,13.112180881609502,36.731195534248656,1.8937471775449843,0.2280985967084098,0.8260309655570878,7282.435546875,11.811,8.34,178.61238377717655,-5.760041107270677,37.115469930997314,1525.0,1535.0,1350.0,1528.0,1475.0,1021.7000000000002,93.0,292.65,1637155129.3534565,1637155130.3445385,6155f153-9d29-4b75-9af1-28876fefea2e
0.0017570561711562,0.111082986862011,-0.1174851874879269,-0.3414102493237204,-0.2198258819409194,0.4712339738564502,-0.2276055280573905,-0.2489995558101287,-13.813301047688356,13.378251379397662,36.33234283738856,1.9107379243277216,0.227197110999279,0.830158262383088,7282.435546875,11.805,8.387777777777778,178.63124268838487,-5.76329113895074,37.184460912893705,1525.0,1535.0,1350.0,1528.0,1475.0,1021.7000000000002,93.0,292.65,1637155130.4613411,1637155131.5662577,6155f153-9d29-4b75-9af1-28876fefea2e
-6.12989696481836e-05,0.1195523906744202,-0.108906210523965,-0.3406783050897711,-0.2129387036873355,0.4698073404431049,-0.2205123535336133,-0.2563162581946249,-13.804777529454952,13.381107743875452,37.46463006571679,1.9065118963127128,0.2493205559799658,0.80161741370603,7282.435546875,11.807666666666668,8.36,178.65317366689987,-5.800842096051395,37.24416549370356,1525.0,1535.0,1350.0,1528.0,1475.0,1021.7000000000002,93.0,292.65,1637155131.6747563,1637155132.699876,6155f153-9d29-4b75-9af1-28876fefea2e
0.0130978068251532,0.1142605883960112,-0.1404680143516496,-0.7159016589397984,-0.285144777886801,0.8237285723385033,-0.1544111120599571,-0.1677652589613285,-13.676937154148044,12.950043744712197,38.0588364627252,3.543962045837676,0.2674916864888528,0.8460469186666972,7282.435546875,11.804222222222222,8.383333333333333,178.73234770193883,-5.697739015005843,37.36844761584111,1525.0,1636.0,1350.0,1528.0,1475.0,1021.7000000000002,93.0,292.65,1637155134.3517826,1637155135.4551036,1aaea52c-7543-4950-84e8-9dd7ba33168f
0.0130216539509883,0.1123995000477326,-0.1354797273573978,-0.7112218169580556,-0.2776171482815549,0.8264262462754391,-0.1467218635073331,-0.1730061103992734,-13.662181937766563,12.755264111349732,38.84631519095894,3.538557624159731,0.2531643745019096,0.8190633497545373,7276.2529296875,11.803000000000004,8.405555555555557,178.73069934961916,-5.703215403764117,37.45012870976043,1525.0,1636.0,1350.0,1528.0,1475.0,1021.7000000000002,93.0,292.65,1637155135.5647476,1637155136.5950413,1aaea52c-7543-4950-84e8-9dd7ba33168f
