raw_voltage_G-,raw_voltage_G0,raw_voltage_G1,raw_voltage_G2,raw_voltage_G3,raw_voltage_G4,raw_voltage_G5,raw_voltage_G6,load_x,load_y,load_z,load_l,load_m,load_n,rpm,voltage,current,roll,pitch,yaw,aileron1_pwm,elevator_pwm,throttle_pwm,rudder_pwm,aileron2_pwm,pbaro,pdiff,Tt,sample_start_time,sample_end_time,uid
-0.0172334966509223,0.1083759990637392,0.0161773412445328,0.0606199347374948,-0.1090245487873335,-0.0123421814464064,-0.2807991331599019,-0.3093449572115013,-13.750249077650588,20.84641816211772,20.068191747837744,-0.0292018415768929,0.3198483814512673,0.5500198216098879,3747.890869140625,12.027,0.3400000000000001,179.25767272920268,-1.238772733466701,88.90928959591884,1525.0,1435.0,1200.0,1528.0,1475.0,1021.7000000000002,93.0,292.65,1637153386.8884308,1637153387.891669,c68c2f41-ab2d-4f87-b273-895484a85122
-0.0129075755186843,0.1142534661920053,0.0198721249345079,0.0591867268759466,-0.1049747501039767,-0.0160764112319109,-0.2780905013497435,-0.3132895674913499,-13.864824561048264,20.72022853310385,20.19510769341128,-0.0350501826906926,0.3419870889889178,0.5364602145128144,4129.787706163194,12.026555555555554,0.3400000000000001,179.25375978971817,-1.2494140140400058,88.61224315109516,1525.0,1435.0,1200.0,1528.0,1475.0,1021.7000000000002,93.0,292.65,1637153388.0053492,1637153389.1146376,c68c2f41-ab2d-4f87-b273-895484a85122
-0.0240576701532508,0.1124126487542828,0.0209766154342498,0.0598178642859801,-0.1039754491324121,-0.0160369651436693,-0.2761313453397203,-0.296340895049462,-13.76979995027782,20.718531832794262,20.038329759878778,-0.0363186431496817,0.3357921459332912,0.5304329902906297,4159.541015625,12.027666666666669,0.33,179.24322460237835,-1.247354119106881,88.4048323143892,1525.0,1435.0,1200.0,1528.0,1475.0,1021.7000000000002,93.0,292.65,1637153389.2316828,1637153390.3439147,c68c2f41-ab2d-4f87-b273-895484a85122
0.1431740228173397,0.3920678718377081,0.0398060964553128,-0.0683830223844381,-0.1509321858756155,-0.1579174313763004,-0.319865559030335,-0.3479435097705463,-13.499632604843034,20.200798618166463,21.947705014805035,-0.068007376798524,1.382803520111769,0.666799970452292,4162.9072265625,12.028,0.33,179.18580547875578,-1.2407074912708127,87.9277436008638,1610.0,1435.0,1200.0,1528.0,1542.0,1021.7000000000002,93.0,292.65,1637153391.886521,1637153392.9242866,53b284a3-fcec-413b-b573-79515523f6e3
0.140023814433955,0.3900133882094809,0.0385871027347511,-0.0641370890183162,-0.1510280617946497,-0.1601636671063253,-0.3218515603182553,-0.3365479707409204,-13.55292465106338,20.21090435123965,21.88588950408295,-0.082663139052673,1.3754231431123394,0.671079856907035,4161.784450954861,12.026333333333334,0.3299999999999999,179.17515038365056,-1.2392507162709616,87.78083382091592,1610.0,1435.0,1200.0,1528.0,1542.0,1021.7000000000002,93.0,292.65,1637153393.0327938,1637153394.1194584,53b284a3-fcec-413b-b573-79515523f6e3
0.1424522737555427,0.390633901821579,0.035847791009134,-0.0672980166639032,-0.1539793726402072,-0.1589958864982162,-0.324726647062113,-0.3573125529662419,-13.608201522518526,20.21678893291764,21.70326799564783,-0.073063027491203,1.3799758722478013,0.6826758670878144,4162.9072265625,12.028444444444444,0.3299999999999999,179.1645468944191,-1.2535967341387635,87.64317287601413,1610.0,1435.0,1200.0,1528.0,1542.0,1021.7000000000002,93.0,292.65,1637153394.2275631,1637153395.3483646,53b284a3-fcec-413b-b573-79515523f6e3
0.3024507474655896,0.7050243452743888,0.0534670440231537,-0.2175670452533171,-0.2117027260818516,-0.324334472863623,-0.3782704342063985,-0.3947063083564391,-13.239879337286906,19.65795135626986,22.185732016434383,-0.108195764126254,2.5718570455998866,0.8514062341175317,4173.041015625,12.025,0.33,179.0712085648613,-1.256580103849982,87.52387451524095,1695.0,1435.0,1200.0,1528.0,1609.0,1021.7000000000002,93.0,292.65,1637153395.88602,1637153396.8980467,cad80a57-bd8e-4515-9222-b79b5c839d03
0.3016705915026881,0.6856398817184347,0.0472844174699746,-0.2192643229757694,-0.2144157406913366,-0.3054978668780557,-0.3777061358908928,-0.4020860165474151,-13.253685530161816,19.681487951882804,21.919581531090188,-0.06223995486745,2.5014275483115664,0.8599705174536014,4170.108561197917,12.019333333333334,0.35,179.0690001370297,-1.2396180049503918,87.37499081062293,1695.0,1435.0,1200.0,1528.0,1609.0,1021.7000000000002,93.0,292.65,1637153397.0106232,1637153398.1236792,cad80a57-bd8e-4515-9222-b79b5c839d03
0.2965754720474737,0.6849687504130446,0.0535848344259273,-0.2172098389524594,-0.2082111990043704,-0.3073332059759996,-0.3714742005739603,-0.3841846102011456,-13.215263577813326,19.69264036475724,21.88206772287548,-0.0705976093763255,2.499117591693432,0.8339647867699119,4138.570149739583,12.021888888888888,0.35,179.0575375617826,-1.2340300327197409,87.26259094091148,1695.0,1435.0,1200.0,1528.0,1609.0,1021.7000000000002,93.0,292.65,1637153398.232218,1637153399.352595,cad80a57-bd8e-4515-9222-b79b5c839d03
0.4378006771953607,0.9388618341142853,0.0657747715474134,-0.3495186132699572,-0.2593267614901802,-0.4359987011331801,-0.4176863983427148,-0.4339579141688768,-13.035633398859057,19.43343380637072,21.507552693599774,-0.0623505903747794,3.4704773833718363,0.9820309037728884,4089.6400282118057,12.018333333333334,0.3588888888888888,178.96339630554235,-1.2422326867420377,87.12690771522936,1779.0,1435.0,1200.0,1528.0,1677.0,1021.7000000000002,93.0,292.65,1637153399.8870554,1637153400.9873917,918569f2-aca9-4d07-9398-c8b6acad6530
0.456825195449674,0.9558455654847618,0.0697056838125791,-0.3588870610364605,-0.2607512038004964,-0.4407377115267454,-0.4177411846964189,-0.4431757009984596,-13.01421839960994,19.525938272768347,21.986560404649094,-0.0509707637780449,3.531183922809028,0.9813162821091678,4073.87158203125,12.007222222222223,0.3944444444444444,178.9623065109148,-1.243621515589208,86.97146019881893,1779.0,1435.0,1200.0,1528.0,1677.0,1021.7000000000002,93.0,292.65,1637153401.1203654,1637153402.0568287,918569f2-aca9-4d07-9398-c8b6acad6530
0.4638789225154685,0.9917990291991544,0.069760470082132,-0.3623248977721242,-0.2678323254596119,-0.4713084373295748,-0.430465290232975,-0.4448192874782798,-13.07725708264585,19.553027725568164,22.14975086390617,-0.1117357604444315,3.665458294501768,1.0134979540229814,4094.001681857639,12.009555555555554,0.38,178.95830857352064,-1.2452367367482429,86.85547903325268,1779.0,1435.0,1200.0,1528.0,1677.0,1021.7000000000002,93.0,292.65,1637153402.1649978,1637153403.2433815,918569f2-aca9-4d07-9398-c8b6acad6530
0.5388774355309993,1.1166705469297795,0.0990404248457148,-0.4305759586895042,-0.278971464189593,-0.5370935733539517,-0.4346389065723079,-0.4687466330979289,-12.662066511417946,20.152184499771284,21.34455189679756,-0.1000956011397771,4.14826976932145,1.0081202230548507,4222.37744140625,12.011,0.38,178.8787474944287,-1.2497364677450404,86.6980158521272,1864.0,1435.0,1200.0,1528.0,1744.0,1021.7000000000002,93.0,292.65,1637153404.8858032,1637153405.9025834,457c7911-2e92-4683-b16c-289724538227
0.5580876789251648,1.118406174837277,0.0905989619119219,-0.4323247357575907,-0.2876496049980644,-0.5393945960011007,-0.4449343381279489,-0.4787133477399649,-12.756966139006847,20.19423824989329,20.958370012481808,-0.1015723724398952,4.158554707114576,1.0456716855909944,4242.113823784723,11.995555555555557,0.43,178.89218323543602,-1.2430870532866547,86.53661089294071,1864.0,1435.0,1200.0,1528.0,1744.0,1021.7000000000002,93.0,292.65,1637153406.0110245,1637153407.1356344,457c7911-2e92-4683-b16c-289724538227
0.5223632224278671,1.1008373259421262,0.0901957352941923,-0.4208366078545815,-0.2840901427418638,-0.5336825815938053,-0.4421210642366646,-0.4735820674622497,-12.70961227039742,20.252441758565247,20.83546440501518,-0.1142811103636967,4.091975982483827,1.035178485822488,4241.1806640625,11.99288888888889,0.43,178.89129986430336,-1.229469837947634,86.41322428449433,1864.0,1435.0,1200.0,1528.0,1744.0,1021.7000000000002,93.0,292.65,1637153407.244291,1637153408.3689587,457c7911-2e92-4683-b16c-289724538227
-0.1870089244143556,-0.2110463869250058,0.0031678018437217,0.2136154211999383,-0.0480710251692589,0.1621985422349222,-0.2235239531247637,-0.237960128671459,-14.189062931859867,21.743972572987136,20.577707281356822,0.0230566766673806,-0.899236312507332,0.3659194183081859,4190.732584635417,12.016111111111108,0.3633333333333333,179.23465802733935,-1.24354113042882,86.24742599585174,1440.0,1435.0,1200.0,1528.0,1408.0,1021.7000000000002,93.0,292.65,1637153409.479028,1637153410.8220298,4e7a1e16-3dea-4330-8db6-c508a2c0286d
-0.1969389303087292,-0.2140733266875919,0.002414491109988,0.2162177672273789,-0.0486188875303942,0.1619930938764031,-0.2232089322463943,-0.2519717092704872,-14.052932962132337,21.7414751495286,20.46522191428288,0.0167212796888648,-0.9109239192063032,0.3668380803401707,4185.494194878473,12.032,0.3088888888888889,179.22292072670564,-1.227296189534114,86.37914467617561,1440.0,1435.0,1200.0,1528.0,1408.0,1021.7000000000002,93.0,292.65,1637153410.9308603,1637153411.9452536,4e7a1e16-3dea-4330-8db6-c508a2c0286d
-0.1845983298741624,-0.2079783574831162,0.0031814984013684,0.2145193940060977,-0.0492078395784414,0.1595824996073176,-0.222715856096188,-0.2533276693014505,-13.94921185091325,21.680791190929853,20.754033398056265,0.0148696257171423,-0.8911012192932036,0.3671200876068116,4186.175509982639,12.034444444444444,0.3044444444444444,179.2294822617683,-1.196588631379056,86.50314751946712,1440.0,1435.0,1200.0,1528.0,1408.0,1021.7000000000002,93.0,292.65,1637153412.058736,1637153413.1666014,4e7a1e16-3dea-4330-8db6-c508a2c0286d
-0.3474641292950307,-0.4837997017939114,-0.0032695808056101,0.3567033602281499,0.0069069623940846,0.2942470572922511,-0.1767502009414776,-0.1915150930378528,-14.523216475681911,22.8278112225092,20.23279335336497,0.0036571607215239,-1.9348119582953056,0.2003028653931141,4188.903049045139,12.028666666666666,0.3211111111111111,179.2765437829695,-1.1954424046850614,86.69587572618727,1355.0,1435.0,1200.0,1528.0,1341.0,1021.7000000000002,93.0,292.65,1637153414.8967335,1637153416.033887,96bd5404-4d7d-4821-bd05-313fa257c67f
-0.3406021523071958,-0.482416349031581,-0.0015301178374474,0.3523889445971256,0.0088792668631038,0.2975068380422027,-0.1711346114381766,-0.1972676487727739,-14.339325921068374,22.60142267022438,20.35409378582525,0.0194123463348222,-1.9313625289925265,0.1877721863244866,4184.1318359375,12.014777777777775,0.36,179.27841070134264,-1.1840998202091646,86.6170523075257,1355.0,1435.0,1200.0,1528.0,1341.0,1021.7000000000002,93.0,292.65,1637153416.141906,1637153417.1088016,96bd5404-4d7d-4821-bd05-313fa257c67f
-0.3412458906123978,-0.4785813116793989,0.0005243659904556,0.353470972640116,0.0084135838607078,0.2922747529829146,-0.1717372600678965,-0.1952268613899282,-14.244670251489888,22.754229606460186,20.28942056785766,0.0063669756297039,-1.9170759456863624,0.1868498105906727,4181.410264756944,12.01511111111111,0.3688888888888889,179.29207411532232,-1.1871622232724977,86.56791137317717,1355.0,1435.0,1200.0,1528.0,1341.0,1021.7000000000002,93.0,292.65,1637153417.2172167,1637153418.285925,96bd5404-4d7d-4821-bd05-313fa257c67f
-0.5110421640671533,-0.7890413131357271,-0.009446728855841,0.4986407851527198,0.0648571021185635,0.4608793764750787,-0.1168414491873274,-0.1491653302890325,-14.515980307828722,24.08439732593357,20.175836964833987,0.0659432189623216,-3.0970458213569443,0.0082147716605096,4175.07373046875,12.014,0.37,179.35732518919315,-1.1783101913864558,86.48309028951441,1271.0,1435.0,1200.0,1528.0,1273.0,1021.7000000000002,93.0,292.65,1637153418.8946693,1637153419.9268332,a23813f4-87cc-4a89-887e-8ce094141186
-0.511891350951578,-0.7907944734380834,-0.0111040124804109,0.5030510766250075,0.0647338330959759,0.4606191418939417,-0.1182384982492346,-0.151589621378736,-14.544466835772994,24.035310175391498,20.460784595947448,0.0550330566732654,-3.106593998135177,0.0128594844687554,4171.01025390625,12.007222222222223,0.3844444444444444,179.35025214885266,-1.194390935007833,86.36116002918106,1271.0,1435.0,1200.0,1528.0,1273.0,1021.7000000000002,93.0,292.65,1637153420.035291,1637153421.2666242,a23813f4-87cc-4a89-887e-8ce094141186
-0.5034542686743761,-0.7706331301097077,-0.0122271303153955,0.4886559948381439,0.0579677331684872,0.4510589448071051,-0.1236760323583211,-0.1427142510651126,-14.512108230447614,24.02088398185328,20.00063382018129,0.0658131760704239,-3.0254265258583253,0.033040835421216,4166.955078125,12.006999999999998,0.39,179.3628986235559,-1.1825965619774617,86.25492099010097,1271.0,1435.0,1200.0,1528.0,1273.0,1021.7000000000002,93.0,292.65,1637153421.374112,1637153422.3835597,a23813f4-87cc-4a89-887e-8ce094141186
-0.5477440205466934,-0.8981306219960039,-0.0100148621396261,0.5509742349486342,0.0868647322897099,0.5290816577524898,-0.0919180940554873,-0.1264465724971432,-14.43632750741471,24.5615281360818,21.61371936999716,0.1045553810413786,-3.5259760263547606,-0.0673246021586591,4070.8643934461807,12.003777777777778,0.4033333333333333,179.38478862093586,-1.213868583092365,86.03778624074663,1186.0,1435.0,1200.0,1528.0,1206.0,1021.7000000000002,93.0,292.65,1637153424.4293964,1637153425.4558074,d06e15ac-dc68-4924-9fe5-c0744461374d
-0.567480219333353,-0.8985776778559407,-0.0126971962237029,0.550934788859403,0.0852605913632918,0.5307383933255346,-0.094600428213475,-0.1197933319336172,-14.554199558388358,24.529020030086503,21.76207993571076,0.1079825210499844,-3.528299144523753,-0.0575785943024674,4053.962565104168,11.995666666666668,0.43,179.39657145616405,-1.2374623332153123,85.8983646248588,1186.0,1435.0,1200.0,1528.0,1206.0,1021.7000000000002,93.0,292.65,1637153425.5635517,1637153426.79784,d06e15ac-dc68-4924-9fe5-c0744461374d
-0.5872295672151973,-0.9369324463659082,-0.0095020629589407,0.581544950820905,0.0958452917333601,0.5409549293600918,-0.087907741473118,-0.1135082547932935,-14.53153959554936,24.91341735790917,21.912255044178067,0.0646340736633826,-3.6772039183618257,-0.0901822636698378,4048.648464626736,11.996111111111112,0.43,179.42513834291265,-1.2489479247769564,85.8079997043197,1186.0,1435.0,1200.0,1528.0,1206.0,1021.7000000000002,93.0,292.65,1637153426.9071562,1637153428.1268227,d06e15ac-dc68-4924-9fe5-c0744461374d
-0.0148979594090685,0.1092750411636879,0.01913798938061,0.0761293697655404,-0.1036379659187059,-0.0171578915300607,-0.2818849964709465,-0.3010464854575214,-14.00447108037492,20.926543499101268,21.54580698942831,-0.0742227181456821,0.3102030949354186,0.5423115995867301,4199.421875,12.005,0.3855555555555555,179.15213416396742,-1.2579470428895,85.6665912622933,1525.0,1435.0,1200.0,1528.0,1475.0,1021.7000000000002,93.0,292.65,1637153429.885198,1637153430.9843085,f6b6bc43-f6c5-4bd1-9da5-68ae1229a571
-0.0230337154035016,0.1153837061820304,0.0191927756176427,0.0721984574683696,-0.1053500358438313,-0.021622969742595,-0.2840079633329438,-0.3054156883934203,-14.035838439458573,20.95545495713465,21.239402965603706,-0.0752594165783793,0.3365399072961958,0.5478301983947348,4230.019965277777,12.036111111111111,0.2944444444444444,179.15871694850753,-1.245769040900746,85.95138586556578,1525.0,1435.0,1200.0,1528.0,1475.0,1021.7000000000002,93.0,292.65,1637153431.093011,1637153432.328181,f6b6bc43-f6c5-4bd1-9da5-68ae1229a571
-0.0164593671486709,0.1123841599031397,0.0175354920076797,0.0738968307413373,-0.1052130702430637,-0.0200615620363381,-0.2835148871658527,-0.3114010855107236,-13.9966958700291,20.82361857047308,21.262769148572826,-0.0765148918976611,0.3244892447631,0.5489670543496482,4242.580403645833,12.035333333333334,0.2933333333333333,179.16461367849098,-1.23871457013705,86.27790457665805,1525.0,1435.0,1200.0,1528.0,1475.0,1021.7000000000002,93.0,292.65,1637153432.4366186,1637153433.554225,f6b6bc43-f6c5-4bd1-9da5-68ae1229a571
-0.0045844506197547,0.1059960850909087,-0.0031117964441328,-0.2367378464951109,-0.1560442897959413,0.2874875321217247,-0.2165282981162102,-0.2427862483189162,-13.883809971010974,20.123981793996148,23.61475833406407,1.3100703839440355,0.3158104650551532,0.5511576396886148,4191.40625,12.032000000000002,0.2899999999999999,179.1489497779944,-1.137754235642212,86.70058400325513,1525.0,1535.0,1200.0,1528.0,1475.0,1021.7000000000002,93.0,292.65,1637153435.3849928,1637153436.4225693,39529e48-33c1-4ac7-be70-a4065872e820
0.0154541628915889,0.1091912182266982,-0.0063200783971682,-0.2392229503958238,-0.1591868284612994,0.2881055208070293,-0.2190265506667562,-0.2490713251699998,-13.86849608616393,20.01764826382328,23.80146280994124,1.3162376941332692,0.3261317901335978,0.5640506143774715,4180.277560763889,12.033,0.3,179.15674833620676,-1.151807183847971,86.77999026472588,1525.0,1535.0,1200.0,1528.0,1475.0,1021.7000000000002,93.0,292.65,1637153436.5305984,1637153437.6505735,39529e48-33c1-4ac7-be70-a4065872e820
-0.0107068124039739,0.1074944885779882,-0.0008178967727006,-0.2338922491898868,-0.1537673737268264,0.2827008591102154,-0.2145527062961351,-0.2323582352640116,-13.792519548533994,20.071231832171524,23.532144981551824,1.292692439461091,0.3213106305111588,0.5422919678659796,4179.14501953125,12.032888888888888,0.31,179.1541877741779,-1.1355478710968867,86.91027384641414,1525.0,1535.0,1200.0,1528.0,1475.0,1021.7000000000002,93.0,292.65,1637153437.7586167,1637153438.8786194,39529e48-33c1-4ac7-be70-a4065872e820
-0.000694627863746,0.1040292593125151,-0.0227871772327512,-0.5243963121304951,-0.2064991290050454,0.5688630345046528,-0.159643197821462,-0.1809413490408623,-13.866649653021918,19.762495635231726,25.830869327015904,2.5882315903676907,0.3228343495900191,0.5662321903560046,4170.785698784723,12.030333333333331,0.3088888888888889,179.14500951775324,-1.0528607946629351,87.01154506123794,1525.0,1636.0,1200.0,1528.0,1475.0,1021.7000000000002,93.0,292.65,1637153439.994935,1637153441.132662,ed0fbe56-3b9e-4ce0-ac55-15ac49e9f2e1
0.0139743865980257,0.1064946398219969,-0.0171168018350165,-0.5284778876749682,-0.2020066573362487,0.5716982218622293,-0.1527812214362592,-0.1886662085742694,-13.801151878683047,19.73402401663228,26.09110555029716,2.6039777274657823,0.3301724992278286,0.543300996778289,4173.041015625,12.02777777777778,0.32,179.1555841684082,-1.0483486009424956,86.99831574372553,1525.0,1636.0,1200.0,1528.0,1475.0,1021.7000000000002,93.0,292.65,1637153441.2403717,1637153442.3767426,ed0fbe56-3b9e-4ce0-ac55-15ac49e9f2e1
0.0084820665691651,0.1053578254692593,-0.017253767426818,-0.528039597655647,-0.2024449472563755,0.5707942490823196,-0.1532058147846269,-0.175942104661173,-13.772551473681412,19.77859962966377,25.858914921994582,2.601223766365942,0.3277023374749822,0.5442297033280555,4175.751953125,12.026333333333334,0.32,179.17048308771774,-1.0498428708349783,86.98166450143896,1525.0,1636.0,1200.0,1528.0,1475.0,1021.7000000000002,93.0,292.65,1637153442.485604,1637153443.592146,ed0fbe56-3b9e-4ce0-ac55-15ac49e9f2e1
0.028205111131728,0.1073986126643972,-0.0284027664216081,-0.772536952674041,-0.2446440489043761,0.8071146482842297,-0.1039940764882925,-0.1386189793497429,-13.699907632201032,19.89078343114571,27.87570983882935,3.684339978207941,0.3463655456198926,0.5477891190433287,4180.730577256944,12.022777777777778,0.3366666666666666,179.13547912713133,-0.9658380659258412,86.94702254087854,1525.0,1737.0,1200.0,1528.0,1475.0,1021.7000000000002,93.0,292.65,1637153445.4115665,1637153446.4649322,6c9d0580-b705-4060-8ab5-1e516d0de511
0.0213579275286606,0.1028403980395323,-0.0316839140813311,-0.7686553463786814,-0.2456921096821122,0.8104111357142695,-0.1052114266607968,-0.124198145698689,-13.689688995769512,19.79834877946693,28.201080749456324,3.6822725428983687,0.3256259065236592,0.5554089082734074,4179.14501953125,12.013333333333334,0.36,179.14314867065934,-0.9702381188494392,86.83374764804343,1525.0,1737.0,1200.0,1528.0,1475.0,1021.7000000000002,93.0,292.65,1637153446.5753803,1637153447.569534,6c9d0580-b705-4060-8ab5-1e516d0de511
0.0215157118525116,0.1069690885974334,-0.0279759816317445,-0.7692733352089944,-0.2426153143810346,0.802416729117684,-0.1029892968656973,-0.1291683529908101,-13.665009329606548,19.739592429524265,27.58257998672423,3.665411033093725,0.3467282407124724,0.5426632287925439,4177.560980902777,12.016111111111108,0.3522222222222222,179.14634216355128,-0.981523417485266,86.72939070553461,1525.0,1737.0,1200.0,1528.0,1475.0,1021.7000000000002,93.0,292.65,1637153447.677616,1637153448.8062086,6c9d0580-b705-4060-8ab5-1e516d0de511
0.0227127910904564,0.1045360319590699,-0.0304846434310722,-0.8404993107132986,-0.2608744729204614,0.8774053810510064,-0.0932422774195201,-0.1056513607556811,-13.582908759086672,20.55472036321,28.59709713747331,4.000070611094765,0.3366543018233153,0.5573096082779162,4176.65625,12.018555555555556,0.3444444444444444,179.13999008762315,-0.9625951253102276,86.61689369535497,1525.0,1837.0,1200.0,1528.0,1475.0,1021.7000000000002,93.0,292.65,1637153449.3843358,1637153450.430713,9603538d-4154-4730-be55-c215f73c1820
0.0224388599150985,0.103782721253745,-0.0345936110960803,-0.8426907596598813,-0.2619017148732242,0.8800625129573835,-0.0952008854023425,-0.1278808768091959,-13.747490208689529,20.30448955062936,28.56357949432073,4.009033314727186,0.3352959456169896,0.566928329045627,4172.138454861111,12.009555555555556,0.38,179.1352985065733,-0.9658651495231751,86.51295035874588,1525.0,1837.0,1200.0,1528.0,1475.0,1021.7000000000002,93.0,292.65,1637153450.5389922,1637153451.669425,9603538d-4154-4730-be55-c215f73c1820
0.0236715501955713,0.0985095462625787,-0.031429706035526,-0.8334455785825464,-0.2575325121984448,0.8737894897928689,-0.0932696706083172,-0.1302503815050621,-13.710988277226717,20.371914748129782,28.16640769875399,3.9746417044516646,0.317843543765361,0.5527956140243638,4167.405381944444,12.010444444444444,0.37,179.14991814703674,-1.0036565269110191,86.44182532218883,1525.0,1837.0,1200.0,1528.0,1475.0,1021.7000000000002,93.0,292.65,1637153451.7785473,1637153452.8070395,9603538d-4154-4730-be55-c215f73c1820
-0.0236500605920579,0.1153289199480364,0.0415866490833762,0.3456776313656419,-0.0582475685759073,-0.2880895383814765,-0.3383833092097539,-0.3614209259336465,-14.00814867460064,21.8116752799325,19.01892585825209,-1.284496354252176,0.3235815100989991,0.529495957234738,4144.7900390625,12.014333333333331,0.3522222222222222,179.1299132818677,-1.3016726451534195,86.26018099467177,1525.0,1334.0,1200.0,1528.0,1475.0,1021.7000000000002,93.0,292.65,1637153454.384574,1637153455.4685757,6382b67d-21e9-40d7-bc2b-16e895800715
-0.0262661033499956,0.1125759117289408,0.040203296658184,0.349622239960995,-0.0588228240599165,-0.2901851121378312,-0.3406706348877413,-0.3660503640037608,-14.049635328379784,21.85987462869421,18.83954232104624,-1.29790229935163,0.3145670140774837,0.534821475262168,4148.802734375,12.034333333333334,0.2899999999999999,179.12908303442856,-1.3143921767932432,86.4724443013281,1525.0,1334.0,1200.0,1528.0,1475.0,1021.7000000000002,93.0,292.65,1637153455.577525,1637153456.5805924,6382b67d-21e9-40d7-bc2b-16e895800715
-0.0328541482098322,0.1204596506975878,0.0439605366251935,0.3460912674075894,-0.0568505195466081,-0.2933166937411202,-0.3361814500897087,-0.3600068922278653,-13.853027551097634,21.719745336861944,19.06251947816236,-1.297581709706548,0.341438596825715,0.522054418084807,4154.388563368056,12.034,0.29,179.13821423843896,-1.3021309081580452,86.68440935639063,1525.0,1334.0,1200.0,1528.0,1475.0,1021.7000000000002,93.0,292.65,1637153456.6885664,1637153457.9261582,6382b67d-21e9-40d7-bc2b-16e895800715
-0.0439483609962319,0.1175477624030186,0.0649529780345912,0.651918957759349,-0.0102822189473092,-0.5891947498193556,-0.4079070534886945,-0.4406418365839051,-14.256247778679858,23.23391639352545,16.42001738170953,-2.641872843823052,0.3204941219569954,0.5298324224609697,4166.955078125,12.032666666666668,0.2966666666666666,179.1191155116998,-1.3955591211080107,87.11225771836958,1525.0,1234.0,1200.0,1528.0,1475.0,1021.7000000000002,93.0,292.65,1637153459.952658,1637153461.0910454,07bb8d87-d26d-4490-8b89-a1c4f6a7b4b7
-0.0389217238580548,0.1200131429012833,0.0708424981999262,0.6603971266993401,-0.0045844504586795,-0.5952897204010051,-0.4043870372169912,-0.4307666156179721,-14.229926929329762,23.29333684699813,17.041801625489416,-2.673894199100531,0.3233741750404847,0.5102756784351183,4165.605143229167,12.029333333333334,0.3166666666666666,179.1309590597206,-1.3925897319402496,87.22622170140097,1525.0,1234.0,1200.0,1528.0,1475.0,1021.7000000000002,93.0,292.65,1637153461.2004063,1637153462.2345762,07bb8d87-d26d-4490-8b89-a1c4f6a7b4b7
-0.0437292161029943,0.1167944516930214,0.0637613774385847,0.6596986022792668,-0.0089810458546661,-0.5941255125055614,-0.4090301715191907,-0.4339168254821108,-14.25813574543831,23.08414985786395,16.625311225076274,-2.671522277500934,0.3148266753741039,0.5316102987256824,4162.9072265625,12.028666666666666,0.32,179.1350465484839,-1.3839898834449689,87.29497590340614,1525.0,1234.0,1200.0,1528.0,1475.0,1021.7000000000002,93.0,292.65,1637153462.3473856,1637153463.4556415,07bb8d87-d26d-4490-8b89-a1c4f6a7b4b7
-0.0426471879457984,0.1212321365825336,0.0821421588943668,0.8162639486201281,0.0163712844362122,-0.7495130278497811,-0.4420799745708136,-0.4615564861989201,-14.215346005852652,24.25310622560844,15.578880070355632,-3.3653527094929707,0.3223508524782937,0.5190643609993643,4155.510525173611,12.026444444444444,0.3111111111111111,179.1198000484366,-1.4489230570702358,87.43560646277706,1525.0,1133.0,1200.0,1528.0,1475.0,1021.7000000000002,93.0,292.65,1637153464.458101,1637153465.4986217,146821cd-363f-43ed-9fea-ac6ea9b3deab
-0.0449892995722491,0.1242316828421952,0.0816353862519629,0.8091691319059232,0.013686758962223,-0.7468285011156924,-0.4428195889113726,-0.4688156642693264,-14.202125382111284,24.32845841958866,15.443873301806468,-3.3428566322409066,0.3355466389548107,0.5245532636770304,4134.355794270833,12.021888888888888,0.33,179.12768360455863,-1.4581204166802524,87.47078269591253,1525.0,1133.0,1200.0,1528.0,1475.0,1021.7000000000002,93.0,292.65,1637153465.6104915,1637153466.5616882,146821cd-363f-43ed-9fea-ac6ea9b3deab
-0.0531557358863909,0.1252589247215711,0.082433621692125,0.8101613105273973,0.0161247464203904,-0.7499973383099515,-0.4407399029247225,-0.460305167679736,-14.17836654379735,24.118122108081188,15.279947219325226,-3.3535843136088563,0.3406090123560476,0.5171882577853251,4123.742513020833,12.020555555555555,0.3322222222222222,179.1319714455376,-1.447183149384946,87.49610220716578,1525.0,1133.0,1200.0,1528.0,1475.0,1021.7000000000002,93.0,292.65,1637153466.6748896,1637153467.757655,146821cd-363f-43ed-9fea-ac6ea9b3deab
-0.0502213851031528,0.1307101549204726,0.0874427270424599,0.8829661831000911,0.0217403355030668,-0.8214062967882292,-0.4654873986020293,-0.5040432213635082,-14.433215620493058,25.06392747919097,15.33235729026162,-3.671880385203094,0.3537634425836475,0.5387523022509363,4187.994303385417,12.014333333333331,0.3433333333333333,179.13883654456333,-1.5264374628626007,87.61373020723191,1525.0,1033.0,1200.0,1528.0,1475.0,1021.7000000000002,93.0,292.65,1637153470.1007452,1637153471.239147,8bbbcd13-8578-4701-9c9f-3b9787d432a8
-0.0496187364808273,0.1293131059618091,0.0867852922479418,0.8996896799827829,0.0223703772117232,-0.8362533748307243,-0.4717604240239559,-0.4911547566553242,-14.505128142502022,25.22024013776719,15.18822506820174,-3.7420235584721175,0.3482120316749988,0.5473816308011813,4195.966579861111,12.016333333333332,0.3422222222222222,179.16127447489674,-1.4934425265295617,87.6301181077805,1525.0,1033.0,1200.0,1528.0,1475.0,1021.7000000000002,93.0,292.65,1637153471.3480735,1637153472.4683068,8bbbcd13-8578-4701-9c9f-3b9787d432a8
-0.0465917969313208,0.1246699727139018,0.0866620232138859,0.8849384873408793,0.0202885002731737,-0.8194339911986411,-0.4666789994564472,-0.5029611931610636,-14.390683674420032,25.267786244487088,15.019498015972257,-3.670613317878959,0.3332920520891715,0.5422817717420068,4199.62109375,12.013444444444444,0.3544444444444444,179.16287425698232,-1.496449185288575,87.55126585054242,1525.0,1033.0,1200.0,1528.0,1475.0,1021.7000000000002,93.0,292.65,1637153472.57742,1637153473.6216197,8bbbcd13-8578-4701-9c9f-3b9787d432a8
-0.010980743572391,0.1106994832269122,0.0210555076067085,0.0472981140227797,-0.105788325742863,0.0080437767759594,-0.274023170762123,-0.2867609725558022,-14.037011166085271,20.972308825887456,21.58993284423476,0.0478345623302299,0.3190569243810134,0.5313733734390408,4205.802734375,12.017888888888889,0.3433333333333333,179.1701962197726,-1.2503257019985947,87.5345698325713,1525.0,1435.0,1200.0,1528.0,1475.0,1021.7000000000002,93.0,292.65,1637153474.4016263,1637153475.4277108,aa9d4b7b-3d1a-45ba-94eb-18a1b7549986
-0.0004952059859843,0.1093095564941047,0.0154278655551139,0.0433556965779653,-0.1109311098529868,0.0126534905950983,-0.2768282263308071,-0.3151040880759039,-13.945524473229687,20.855563260255217,21.50405749222617,0.0660645562196519,0.3140840983659059,0.5498309533668287,4216.146484375,12.034,0.2899999999999999,179.16859643768697,-1.2619902421448996,87.57664759240811,1525.0,1435.0,1200.0,1528.0,1475.0,1021.7000000000002,93.0,292.65,1637153475.5361106,1637153476.6565278,aa9d4b7b-3d1a-45ba-94eb-18a1b7549986
-0.0108026883241466,0.1133840086679942,0.0200419622544734,0.0403676553521918,-0.107842809651065,0.010290012416279,-0.273489004916994,-0.3032927216255027,-13.958607207842883,20.891403861771263,21.37478946895565,0.0679339454088419,0.3312650756631582,0.534841345185725,4206.952039930556,12.032111111111112,0.2888888888888888,179.17743318465318,-1.2500220787456466,87.61580051346034,1525.0,1435.0,1200.0,1528.0,1475.0,1021.7000000000002,93.0,292.65,1637153476.768853,1637153478.0031388,aa9d4b7b-3d1a-45ba-94eb-18a1b7549986
0.0236030674343574,0.1244919174526623,0.1191913493939485,0.029835001729321,-0.0181988299952821,0.0043457058777983,-0.1700388866625745,-0.1908987477234075,-13.292559396644023,20.889213091525296,21.474645676840208,0.0836090247918973,0.3749096418257007,0.1321597770599558,4161.561306423611,12.032222222222224,0.2822222222222222,179.163329602927,-1.2486431275852443,87.63209051463082,1525.0,1435.0,1200.0,1439.0,1475.0,1021.7000000000002,93.0,292.65,1637153478.9071567,1637153480.046871,568b8aa0-34ec-4616-8518-39ec463100ee
0.0218636044409393,0.1320661141887726,0.1237933929812489,0.0237674261978434,-0.0156375734848711,0.0013187663853136,-0.1637384692111903,-0.1859268966735482,-13.03578028115625,20.70739727534157,21.347946375303376,0.0896269829225156,0.4036587078811943,0.1143664808285039,4154.388563368056,12.03377777777778,0.2822222222222222,179.15712779116063,-1.252041383856672,87.62914670309854,1525.0,1435.0,1200.0,1439.0,1475.0,1021.7000000000002,93.0,292.65,1637153480.1551836,1637153481.274869,568b8aa0-34ec-4616-8518-39ec463100ee
0.0172752572894611,0.131107355111384,0.1222182887839632,0.0260410549702386,-0.0166237257173183,-0.000502875938554,-0.1682446373284875,-0.1937476330281784,-13.276430690925784,20.83785475684728,21.2294417427083,0.081051121045605,0.4024387733303515,0.1237874697970837,4150.81201171875,12.033,0.28,179.16586132637934,-1.2646945820273687,87.64301350493349,1525.0,1435.0,1200.0,1439.0,1475.0,1021.7000000000002,93.0,292.65,1637153481.3835022,1637153482.502901,568b8aa0-34ec-4616-8518-39ec463100ee
0.0566227310015626,0.1505833130499381,0.2475154978031761,0.0188859726911212,0.0964764291467892,-0.0181670540004767,-0.0397046190512693,-0.0666725963373915,-12.338831542717395,20.76910022338465,21.467489732867524,0.0637905591382892,0.4755624999376531,-0.3807530096917926,4152.599338107639,12.032888888888888,0.2899999999999999,179.15580577010127,-1.2586042944435387,87.65405792082139,1525.0,1435.0,1200.0,1351.0,1475.0,1021.7000000000002,93.0,292.65,1637153484.4368527,1637153485.470288,bfab255f-98a7-449c-9f30-7a1041b14819
0.0549791439684409,0.1464151764617252,0.2475812412823914,0.018491511758046,0.0969103361155984,-0.013722794567986,-0.0383108571930476,-0.0642532360827216,-12.331156442222609,20.80641370466041,21.47218635299412,0.07492245199227,0.4598868722079066,-0.383929168403414,4147.687554253473,12.031333333333333,0.3,179.15265932962362,-1.2593341641893785,87.61102089886114,1525.0,1435.0,1200.0,1351.0,1475.0,1021.7000000000002,93.0,292.65,1637153485.5874622,1637153486.8055117,bfab255f-98a7-449c-9f30-7a1041b14819
0.0644725026767621,0.1494656739070023,0.2468317656336756,0.0165192073356474,0.0951352621492577,-0.0137096458572558,-0.0393759016294135,-0.0534581561625567,-12.29688243055954,20.81355669375966,21.63342275704982,0.0794540219944084,0.4698519163747231,-0.3783731754231,4149.249240451389,12.028333333333332,0.2977777777777777,179.16447555688774,-1.2687617106607978,87.59992791273913,1525.0,1435.0,1200.0,1351.0,1475.0,1021.7000000000002,93.0,292.65,1637153486.9142177,1637153488.0352318,bfab255f-98a7-449c-9f30-7a1041b14819
0.1035087899730132,0.1701562425262251,0.3792752871026295,0.0191927755800734,0.2122320688549407,-0.0424280428422298,0.0879494997172327,0.0741981544993276,-11.486998914888668,21.25858954268765,21.77322190695193,0.0188639736886194,0.5485575227035646,-0.8965747012795827,4156.626736111111,12.032888888888888,0.2911111111111111,179.1472422307019,-1.2747463793298062,87.56567679078125,1525.0,1435.0,1200.0,1262.0,1475.0,1021.7000000000002,93.0,292.65,1637153488.9426556,1637153490.08101,cbfcc4b6-49f0-4807-bdcd-2e6f9a26460c
0.1018241132806972,0.1679510966712563,0.3736870916342988,0.0166452156871282,0.209177736436436,-0.0399215725358085,0.0866209335642226,0.0536533166380109,-11.401315229743416,20.94929468500657,21.46571412878852,0.0279085227593943,0.5423600225676087,-0.8834416811513393,4152.82275390625,12.029444444444444,0.2977777777777777,179.14625261218214,-1.278113259419734,87.55365110438258,1525.0,1435.0,1200.0,1262.0,1475.0,1021.7000000000002,93.0,292.65,1637153490.1892006,1637153491.3121731,cbfcc4b6-49f0-4807-bdcd-2e6f9a26460c
0.099988774471238,0.1685263521122869,0.3774125552782624,0.0189462375418034,0.2125607862476637,-0.0413597112390322,0.0887165069911591,0.057597925306428,-11.470641417813829,21.039010218587137,21.66419576391299,0.0202632719310926,0.5432035072210794,-0.89582696437995,4149.695746527777,12.031333333333333,0.2955555555555555,179.15094115759243,-1.2760976302785745,87.5794388630489,1525.0,1435.0,1200.0,1262.0,1475.0,1021.7000000000002,93.0,292.65,1637153491.4212475,1637153492.6377013,cbfcc4b6-49f0-4807-bdcd-2e6f9a26460c
0.127573642974991,0.1839486765321709,0.4779863766442945,0.0298897879424761,0.3026704402859123,-0.0735603217682953,0.1824694482119874,0.14418756773407,-10.897857370854217,21.39192568747207,21.4083909242722,-0.0691867956829262,0.6042942115582631,-1.287279986839442,4151.706217447917,12.028444444444444,0.3022222222222221,179.1453100460767,-1.2969774118495974,87.58931607549866,1525.0,1435.0,1200.0,1173.0,1475.0,1021.7000000000002,93.0,292.65,1637153493.5406637,1637153494.5862544,bf754bbf-c50e-463e-9645-31faba284fb2
0.1383802274260408,0.187893285247464,0.4877794151661601,0.033560465673627,0.3116279890249491,-0.079805952739536,0.1904956312470831,0.1657048603575857,-10.862925629333237,21.404572454197822,21.618619183718803,-0.0908791518145287,0.6171475084114476,-1.323431826547589,4157.298828125,12.026777777777776,0.3077777777777777,179.13652642280405,-1.3043216201865229,87.52733059096097,1525.0,1435.0,1200.0,1173.0,1475.0,1021.7000000000002,93.0,292.65,1637153494.6949637,1637153495.907674,bf754bbf-c50e-463e-9645-31faba284fb2
0.1308882100582652,0.1832501520717059,0.4820953438496215,0.0437644018709482,0.3078477390851393,-0.0830109476128271,0.1835788693982061,0.1585141675659613,-10.881351786563918,21.45940876887863,21.802818608321576,-0.1209982083681068,0.5966150641847496,-1.3009349246589708,4193.489583333333,12.026666666666666,0.3,179.14311224298376,-1.297597524250024,87.54005978684417,1525.0,1435.0,1200.0,1173.0,1475.0,1021.7000000000002,93.0,292.65,1637153496.0166948,1637153497.0437987,bf754bbf-c50e-463e-9645-31faba284fb2
-0.0748751915520093,0.0815121172579038,-0.1347428524578755,0.0795672059170712,-0.2458630427733688,0.0184531614107094,-0.4380531853684717,-0.4515716925536641,-15.008917412700669,21.31448522957213,21.997830047399404,-0.0074789269903771,0.1990062890299853,1.1645807610770955,4250.060438368056,12.028444444444444,0.2977777777777777,179.16371057570072,-1.2760449690457547,87.655912696636,1525.0,1435.0,1200.0,1617.0,1475.0,1021.7000000000002,93.0,292.65,1637153498.8821294,1637153499.842923,1d0656f0-4543-41f6-bd0e-bf21a45b1bc0
-0.0708210100493802,0.0849362568780363,-0.1323870441907668,0.075608900548456,-0.2452740906480137,0.0149605389596961,-0.4377518609868258,-0.4595430915699641,-15.054914820248973,21.39909321923741,21.469889457194466,-0.0058274794559059,0.2174917096316938,1.1597064483078687,4262.2705078125,12.033111111111111,0.28,179.1717610920024,-1.272863251115358,87.67184904578946,1525.0,1435.0,1200.0,1617.0,1475.0,1021.7000000000002,93.0,292.65,1637153499.9576025,1637153500.9346068,1d0656f0-4543-41f6-bd0e-bf21a45b1bc0
-0.059343293488463,0.0849636499842391,-0.1320446302157287,0.0740200997589329,-0.2439181311944677,0.016973933094915,-0.4361219701693655,-0.4748558482885269,-15.10107308628742,21.2906154086168,21.56103397831732,0.0015700628067331,0.2173288185949563,1.155202394181681,4258.271864149306,12.035222222222224,0.28,179.17451745278746,-1.2616461832234274,87.66754223206281,1525.0,1435.0,1200.0,1617.0,1475.0,1021.7000000000002,93.0,292.65,1637153501.043126,1637153502.1637948,1d0656f0-4543-41f6-bd0e-bf21a45b1bc0
-0.1168743210590742,0.0613825591449886,-0.2756185461510279,0.1066403711868226,-0.37449675770786,0.0150991481215372,-0.5918184634461103,-0.6081885961394108,-16.021480088772613,21.74677148189901,21.12751960929644,-0.0808836925782144,0.1261316939890626,1.7464312790374992,4243.2802734375,12.035,0.28,179.18322366724954,-1.2538921042464646,87.66247271387886,1525.0,1435.0,1200.0,1706.0,1475.0,1021.7000000000002,93.0,292.65,1637153503.8841755,1637153505.037979,4d220609-70b4-46f4-8d8e-72405a3c580c
-0.1217585142118792,0.0588032232442215,-0.2755023992948467,0.1059056877966381,-0.3740765471841276,0.0153714357161085,-0.5910711789456564,-0.6106846589944386,-16.008817451977468,21.744591119406124,20.71431052556996,-0.0786827246839065,0.1201280361558748,1.743745055745275,4247.48583984375,12.03,0.3,179.18588744102584,-1.2538548583711469,87.59953935086634,1525.0,1435.0,1200.0,1706.0,1475.0,1021.7000000000002,93.0,292.65,1637153505.1521094,1637153506.2608385,4d220609-70b4-46f4-8d8e-72405a3c580c
-0.1116279909692983,0.0635783914065322,-0.2733569700943403,0.102616870187083,-0.3725376015975124,0.0181890917824843,-0.5879921916398099,-0.6024163170000695,-15.99122140814466,21.65748348600109,21.37014697909758,-0.0652895259728322,0.1326400729530278,1.7358626927839371,4247.48583984375,12.029555555555554,0.29,179.21332051637222,-1.2469384262048957,87.52329926153087,1525.0,1435.0,1200.0,1706.0,1475.0,1021.7000000000002,93.0,292.65,1637153506.369979,1637153507.3768704,4d220609-70b4-46f4-8d8e-72405a3c580c
-0.1579722177346483,0.0393130203497332,-0.3945118165701398,0.1474884387607505,-0.4817726107043909,0.0027706016398492,-0.7269958758796881,-0.7533343709256285,-16.99462815444852,22.394547371604705,20.667537764975787,-0.2029199034549822,0.0417665306632968,2.243165890856245,4211.083658854167,12.031222222222222,0.2944444444444444,179.21552590856425,-1.2484014147796163,87.47230734591727,1525.0,1435.0,1200.0,1795.0,1475.0,1021.7000000000002,93.0,292.65,1637153509.4230964,1637153510.653019,52d5438c-66e9-4715-a220-db249f9cacff
-0.1498501578246373,0.0472159346723796,-0.3922107943760163,0.1519672132652056,-0.4781841115905283,-0.006255430687501,-0.72479072915455,-0.7573748565877617,-16.916327214629046,22.09578373305367,21.091776306681503,-0.2350645451840159,0.0666824267064839,2.233773270406857,4204.429904513889,12.029,0.2955555555555555,179.22657867246113,-1.247925412255897,87.44602250126133,1525.0,1435.0,1200.0,1795.0,1475.0,1021.7000000000002,93.0,292.65,1637153510.7616794,1637153511.785936,52d5438c-66e9-4715-a220-db249f9cacff
-0.1604239018783123,0.0418194905773596,-0.3927449601617439,0.1502277503849103,-0.4781019320922128,-0.0034476360741863,-0.7269136965036198,-0.7583747059424356,-17.1891507734543,22.272719332403984,20.5010056274502,-0.223916428815717,0.0537927466072452,2.235647257134985,4203.282335069444,12.031777777777778,0.2922222222222222,179.23461249274487,-1.243977764501074,87.40492525302537,1525.0,1435.0,1200.0,1795.0,1475.0,1021.7000000000002,93.0,292.65,1637153511.8942766,1637153513.018882,52d5438c-66e9-4715-a220-db249f9cacff
-0.1923609921142643,0.0299571750489054,-0.4780296143240204,0.1964459639591793,-0.5571321922661676,-0.0301323678866854,-0.8293366078119001,-0.8465877065455051,-17.575882149768077,22.93591160801165,20.376905959424853,-0.3882022281020612,0.0020531366432885,2.6036223377558274,4204.427734375,12.029,0.3033333333333333,179.22512004761836,-1.2623350006864429,87.32514333115026,1525.0,1435.0,1200.0,1883.0,1475.0,1021.7000000000002,93.0,292.65,1637153513.928627,1637153514.9753697,f8bcf87c-e569-4b1c-9007-6b552dbce280
-0.191706844426902,0.0315607681337941,-0.4753215301057293,0.2009050153467826,-0.5525975343763431,-0.031333830091161,-0.826254880698272,-0.8541410894629712,-17.63365608727899,22.792260037804123,21.03711464382128,-0.4017018815013282,0.0022453196976143,2.590549683126904,4204.656901041667,12.021666666666668,0.32,179.21829744754746,-1.263869243786724,87.2365952409304,1525.0,1435.0,1200.0,1883.0,1475.0,1021.7000000000002,93.0,292.65,1637153515.0833614,1637153516.181775,f8bcf87c-e569-4b1c-9007-6b552dbce280
-0.1825575424744452,0.0258629997086952,-0.4749106336771133,0.1964810271323682,-0.5532001835102599,-0.0272522555015827,-0.8245291139568357,-0.8591814252012595,-17.560820960916356,22.912625620455795,20.25144250988308,-0.3818208043343857,-0.0121041153253046,2.586518485150274,4199.62109375,12.017,0.33,179.22824827425825,-1.2544307286955436,87.16311758365921,1525.0,1435.0,1200.0,1883.0,1475.0,1021.7000000000002,93.0,292.65,1637153516.2904413,1637153517.5245297,f8bcf87c-e569-4b1c-9007-6b552dbce280
-0.0337992107677,0.0949758342090952,-0.0594528657884122,0.0474487761492336,-0.1513156895508565,0.030958119529104,-0.316140094508004,-0.329521635273285,-13.864861257538193,17.537761366740416,22.244863378342032,0.0724005392495047,0.2478800141502014,0.7636430595030381,7208.9375,11.797777777777778,8.124444444444444,179.63617904570754,-1.5296845063349034,72.7801568353201,1525.0,1435.0,1350.0,1528.0,1475.0,1021.7000000000002,93.0,292.65,1637153521.8847148,1637153522.9405787,3c4cfdc3-b7d5-479f-a979-154a419c14dc
-0.0298135121080297,0.0991806776381692,-0.0608088251367375,0.0412579316271406,-0.1525757730459155,0.0233017432149161,-0.319399875975881,-0.3505869459404638,-14.028492196285905,17.437161957511478,20.91684486632215,0.0681322030136141,0.2772536264350548,0.7703572032471308,7216.35595703125,11.79788888888889,8.135555555555555,179.75503344418465,-1.5826775369376682,67.54441081970465,1525.0,1435.0,1350.0,1528.0,1475.0,1021.7000000000002,93.0,292.65,1637153523.0493107,1637153523.9905374,3c4cfdc3-b7d5-479f-a979-154a419c14dc
-0.0347870066383291,0.0981594622426694,-0.0623335260983853,0.0488781489732391,-0.1524415467562658,0.0152569324644055,-0.3197192797664875,-0.3413488889629081,-13.794715366989756,17.24027361628489,20.622687860737628,0.0315547661709171,0.2733377301325042,0.7724801378491732,7221.0830078125,11.79788888888889,8.130000000000003,179.8258275960219,-1.5946922902904783,62.45547592574911,1525.0,1435.0,1350.0,1528.0,1475.0,1021.7000000000002,93.0,292.65,1637153524.1048648,1637153525.302764,3c4cfdc3-b7d5-479f-a979-154a419c14dc
0.1099324758728692,0.374864995577078,-0.0503720471030475,-0.0820795816250413,-0.205540369825492,-0.1227172732167591,-0.3724740495635498,-0.4053047074786378,-13.865261754239036,16.884079043233857,22.25449268983718,0.0153758116018859,1.314064333457906,0.9383409128549712,7233.2705078125,11.797,8.14,179.77411699272568,-1.5452415072561747,52.78686769853884,1610.0,1435.0,1350.0,1528.0,1542.0,1021.7000000000002,93.0,292.65,1637153526.8934138,1637153527.974887,22eacdb4-8e87-418d-b606-eb93b40fd8f5
0.1067822674681027,0.3618121762242545,-0.0569463954692653,-0.0811071259451517,-0.208019447177003,-0.1097192383269535,-0.3734191122673498,-0.3939502584137891,-13.89974816390928,16.757665183018407,22.38411538356927,0.0412284413817058,1.2636649158682125,0.9506643551512004,7239.38037109375,11.789333333333332,8.206666666666669,179.72544051124072,-1.5249270661345775,49.77140634350505,1610.0,1435.0,1350.0,1528.0,1542.0,1021.7000000000002,93.0,292.65,1637153528.088493,1637153529.1991203,22eacdb4-8e87-418d-b606-eb93b40fd8f5
0.1137949052556615,0.3671401371183558,-0.0514540752934359,-0.0874897225393085,-0.2061978047153406,-0.1182658913906893,-0.370775675991934,-0.396511515666768,-13.811985245045792,16.8844903797736,21.105859894879625,0.0373751816815845,1.2954921593133275,0.9357280625324108,7232.592936197917,11.789,8.20111111111111,179.65184749966355,-1.4857883746431122,46.82243991568097,1610.0,1435.0,1350.0,1528.0,1542.0,1021.7000000000002,93.0,292.65,1637153529.314818,1637153530.4262784,22eacdb4-8e87-418d-b606-eb93b40fd8f5
0.2846868599238945,0.6820376871605145,-0.0396613379215657,-0.2473833610248599,-0.269503305839087,-0.2748997506918332,-0.4284655922738228,-0.4414773272996068,-13.6069815056215,16.269871259109703,21.599637973639613,0.0427735799228288,2.491145621736058,1.1258085123712238,7221.0830078125,11.787,8.28,179.47654841788548,-1.408388066212195,43.44806502123144,1695.0,1435.0,1350.0,1528.0,1609.0,1021.7000000000002,93.0,292.65,1637153531.4288547,1637153532.5627594,27c75763-ca70-453b-a9ee-7e58ee43f23b
0.2974794448403448,0.6859549025352848,-0.0365933087005135,-0.2501363696034507,-0.2665859384927716,-0.2748038747389447,-0.4255071349869396,-0.4525304527833929,-13.676059135456056,16.20021828485007,21.822789481918708,0.0488909679647075,2.504880959038564,1.114185537804613,7227.17236328125,11.78122222222222,8.333333333333334,179.4231515167741,-1.3826260511928856,42.0379083391951,1695.0,1435.0,1350.0,1528.0,1609.0,1021.7000000000002,93.0,292.65,1637153532.6738355,1637153533.702687,27c75763-ca70-453b-a9ee-7e58ee43f23b
0.2822762657495731,0.676435795243204,-0.0450714787524951,-0.2402885427931543,-0.2703250994827615,-0.268599332898882,-0.4319171258138682,-0.4564887591084439,-13.813263687195644,16.122103319905474,22.61190127180242,0.0397358512694456,2.4614044675139866,1.1399451661140485,7231.23779296875,11.779333333333334,8.33,179.38161334188177,-1.3478421033319306,40.56558858770265,1695.0,1435.0,1350.0,1528.0,1609.0,1021.7000000000002,93.0,292.65,1637153533.8108528,1637153535.0236957,27c75763-ca70-453b-a9ee-7e58ee43f23b
0.4456351080334968,0.9694188540475632,-0.0222119217751962,-0.3955116656216498,-0.3248237140282489,-0.4148922998423978,-0.4762665927623867,-0.5018380754281365,-13.303889415643226,16.066822364947267,22.220790881197008,0.0621072063828815,3.5806897711860106,1.2800755968905708,7234.628255208333,11.776666666666667,8.32111111111111,179.18530156257702,-1.2567575346148272,38.24430705822889,1779.0,1435.0,1350.0,1528.0,1677.0,1021.7000000000002,93.0,292.65,1637153536.969103,1637153538.0046585,43cfdbd7-bf95-4e45-8638-220b94c8bca7
0.4457857701656207,0.971350068664905,-0.0213216454334711,-0.3889236195856375,-0.3229472851911172,-0.4198641516842418,-0.4784032564324024,-0.5147813260397577,-13.476796567219536,16.10966429251552,22.64076389547332,0.0363820168678298,3.584680620119707,1.280093717556402,7245.510091145833,11.769333333333334,8.35,179.14042114845077,-1.2393454377138262,37.56403463618387,1779.0,1435.0,1350.0,1528.0,1677.0,1021.7000000000002,93.0,292.65,1637153538.1130066,1637153539.1683033,43cfdbd7-bf95-4e45-8638-220b94c8bca7
0.4484429023195606,0.9726786347522623,-0.0245129436852164,-0.3930462845871285,-0.3268918947103996,-0.4233567748528634,-0.4823752594261738,-0.5025092064921995,-13.475421805879732,16.10736088551424,21.76260991223237,0.0375198827365636,3.597742115030444,1.294359751784582,7246.862196180556,11.768,8.357777777777777,179.10212655450425,-1.2194990424198846,37.049667888533406,1779.0,1435.0,1350.0,1528.0,1677.0,1021.7000000000002,93.0,292.65,1637153539.2763374,1637153540.2577302,43cfdbd7-bf95-4e45-8638-220b94c8bca7
0.5034417023950026,1.089387003495098,-0.0108169327710661,-0.452152974098589,-0.3500007324273185,-0.492309101994771,-0.5050633409593902,-0.5286784059246991,-13.35968874797558,16.81651447901641,20.436473635102764,0.0211349053405999,4.054561417579471,1.3509916060683065,7245.5,11.762999999999998,8.373333333333331,178.96492626791647,-1.1644361206175535,35.96382718158202,1864.0,1435.0,1350.0,1528.0,1744.0,1021.7000000000002,93.0,292.65,1637153542.0785751,1637153543.1266022,396b1464-1a5c-4b00-80f0-2a9e13154d4a
0.5182208356254298,1.1026145913883332,0.0010300428201717,-0.4678788190121562,-0.3450962677233646,-0.4911388679641819,-0.4952544108583886,-0.5090868434034082,-13.262012784694877,17.00574115576529,20.46727379175824,0.0611366148395732,4.105899039362312,1.3156937293243574,7245.5,11.751666666666663,8.43222222222222,178.9290890242513,-1.158439427969694,35.56856679049805,1864.0,1435.0,1350.0,1528.0,1744.0,1021.7000000000002,93.0,292.65,1637153543.2352805,1637153544.35471,396b1464-1a5c-4b00-80f0-2a9e13154d4a
0.5372102905718913,1.1051243485452558,-0.0052144922595555,-0.4538179281758689,-0.3470395358253973,-0.4953869935443526,-0.5028242267102424,-0.5302995310595368,-13.439099515349248,16.804568582597394,22.002844361726066,0.0183836890815995,4.100825329145549,1.3401818031987218,7251.6298828125,11.750666666666667,8.459999999999999,178.88331916771318,-1.130465285432947,35.26141166570277,1864.0,1435.0,1350.0,1528.0,1744.0,1021.7000000000002,93.0,292.65,1637153544.4632962,1637153545.5826404,396b1464-1a5c-4b00-80f0-2a9e13154d4a
-0.2072661365646053,-0.2273452933891711,-0.0609183976214816,0.2070821629872807,-0.077326875522895,0.1831816692500728,-0.2472600919071841,-0.2728041783950647,-14.002061533764357,18.17603020219991,20.13919677297148,0.0581268393519875,-0.9611230131112476,0.5258658828294464,7245.5,11.77,8.384444444444446,179.11225344831368,-1.1007276378559654,34.59236428010371,1440.0,1435.0,1350.0,1528.0,1408.0,1021.7000000000002,93.0,292.65,1637153547.516091,1637153548.6539252,3a55d233-8545-4dbf-848f-103641b2ad97
-0.2046637901469401,-0.2239896361726495,-0.0621510879440869,0.1978917725969863,-0.0809016774855237,0.1841404283278001,-0.2495748105848915,-0.2815836727495586,-14.055555666251768,18.26916420254774,19.525712280027644,0.0814438643102744,-0.9416663751585124,0.5350954043552013,7251.6298828125,11.788000000000002,8.337777777777777,179.0797523726031,-1.1018988255711455,34.404309440595654,1440.0,1435.0,1350.0,1528.0,1408.0,1021.7000000000002,93.0,292.65,1637153548.762764,1637153549.7705812,3a55d233-8545-4dbf-848f-103641b2ad97
-0.2077044264304155,-0.2243731398531666,-0.062342839770659,0.2030142852985752,-0.08006618736189,0.1840719455121906,-0.2486160513765876,-0.2817069418335928,-13.954319908027555,18.18067805829609,20.13622915367365,0.0692869867679561,-0.9498766122525792,0.5338204504845109,7252.994249131944,11.791333333333334,8.268888888888888,179.01750051068777,-1.116812531765901,34.23568952491592,1440.0,1435.0,1350.0,1528.0,1408.0,1021.7000000000002,93.0,292.65,1637153549.8796406,1637153550.9994571,3a55d233-8545-4dbf-848f-103641b2ad97
-0.3556957624062615,-0.4936749230272148,-0.0645479858228551,0.3320084668272053,-0.0229652325412752,0.3266394162431968,-0.1927066932353193,-0.2250305762249944,-14.102574637907956,19.1151379095125,19.974653751000265,0.1046603216381539,-1.973446575424812,0.3472801332060574,7270.08154296875,11.779333333333334,8.305555555555555,179.1409402428277,-1.0962904102048536,33.96803072790613,1355.0,1435.0,1350.0,1528.0,1341.0,1021.7000000000002,93.0,292.65,1637153553.0462945,1637153554.184283,7c096243-c8a2-471e-bff1-c1537122e8bf
-0.3625445907670635,-0.493939540625587,-0.0658573768545377,0.3408975327363483,-0.0224272316872167,0.3189129141222836,-0.1959111403601013,-0.2178957631439395,-14.152624310312488,19.06873563494181,19.98647275634764,0.0668501699269393,-1.975367794209534,0.3529412851116724,7263.9208984375,11.772,8.350000000000001,179.13090441820725,-1.096441302838861,33.92332638087849,1355.0,1435.0,1350.0,1528.0,1341.0,1021.7000000000002,93.0,292.65,1637153554.2927563,1637153555.4126194,7c096243-c8a2-471e-bff1-c1537122e8bf
-0.3530797192911969,-0.4890728781913562,-0.0623839294658504,0.3334739984955884,-0.0205957278379694,0.3224619661377489,-0.1918438099310083,-0.2126625817947718,-14.16087808256116,19.04533013464969,20.2263136163456,0.0916229120361741,-1.9580483394363657,0.3407868924203832,7262.553927951389,11.771333333333336,8.338888888888889,179.14938387446165,-1.091653826407342,33.93144709634668,1355.0,1435.0,1350.0,1528.0,1341.0,1021.7000000000002,93.0,292.65,1637153555.5223496,1637153556.5342157,7c096243-c8a2-471e-bff1-c1537122e8bf
-0.5194703139577248,-0.8079127976576196,-0.0720715652954864,0.4934223967958641,0.0404069585265309,0.4853616750454806,-0.1373719963832886,-0.1758891049881681,-14.53374800836179,20.334926763518133,20.06959586133344,0.1047297470221903,-3.170149168400916,0.1551597977564263,7259.136501736111,11.770444444444443,8.348888888888888,179.26134888879594,-1.10692661556815,33.882368013155656,1271.0,1435.0,1350.0,1528.0,1273.0,1021.7000000000002,93.0,292.65,1637153558.462823,1637153559.5095885,25b7c03a-6415-41ac-9ba2-8daa75164c77
-0.5252728922870311,-0.8166946779035648,-0.071163423889844,0.4949701077665038,0.0396554342753306,0.4946276938382006,-0.1344141350480859,-0.1709017706938803,-14.30913602374405,20.59733540366153,20.37655057929757,0.1240072239780425,-3.207525373739814,0.1501674137625503,7270.08154296875,11.761333333333331,8.440000000000001,179.2525227665685,-1.0905333315024075,33.884950963026775,1271.0,1435.0,1350.0,1528.0,1273.0,1021.7000000000002,93.0,292.65,1637153559.617942,1637153560.742942,25b7c03a-6415-41ac-9ba2-8daa75164c77
-0.5228349041921075,-0.8186395901695495,-0.0699581266621491,0.493299127773339,0.041531862836717,0.4951481630254582,-0.1338114864108469,-0.1475765295661,-14.47188596084514,20.62793927662383,19.96860106353384,0.1290620480496225,-3.209769765080695,0.1441589161211977,7270.08154296875,11.766333333333332,8.365555555555554,179.2476262798435,-1.0950413867922568,33.90693961869477,1271.0,1435.0,1350.0,1528.0,1273.0,1021.7000000000002,93.0,292.65,1637153560.861201,1637153561.8606546,25b7c03a-6415-41ac-9ba2-8daa75164c77
-0.6128563844331261,-0.9970746192413767,-0.0787430997460867,0.5534724870028283,0.0657084801781613,0.6101696597892048,-0.1008460592674854,-0.1364264345398975,-14.433495760231764,21.54709603919136,19.42474775140443,0.2573827528413139,-3.882411130529333,0.05408813017512,7276.2529296875,11.759333333333334,8.423333333333334,179.29818485789974,-1.1083531527513637,33.91162399010054,1186.0,1435.0,1350.0,1528.0,1206.0,1021.7000000000002,93.0,292.65,1637153563.081129,1637153564.1065304,812d2fec-64c6-4b1c-88d0-72917fbb1c84
-0.6169987730296033,-1.003419964914406,-0.0643836271000036,0.5899968223750648,0.0837172631543922,0.5995159296811317,-0.0900509790978206,-0.1214161009233924,-14.331933049454248,21.699776899981064,21.90057708230905,0.1532253780294767,-3.9324561076221713,-0.0023311566893039,7276.2529296875,11.746222222222222,8.49888888888889,179.2933414948683,-1.104911199870402,33.93162847581464,1186.0,1435.0,1350.0,1528.0,1206.0,1021.7000000000002,93.0,292.65,1637153564.2148006,1637153565.448629,812d2fec-64c6-4b1c-88d0-72917fbb1c84
-0.6239670365365677,-0.9872788344056502,-0.0715507625733157,0.5737083286039535,0.076516708444686,0.5938126832376495,-0.0968751528120021,-0.1208978224054629,-14.481150105152055,21.238236276100626,21.158802140389103,0.173542433668825,-3.862743323632062,0.0278111480708568,7282.435546875,11.745888888888889,8.433333333333334,179.30512584791626,-1.1161191015536025,34.00783896766374,1186.0,1435.0,1350.0,1528.0,1206.0,1021.7000000000002,93.0,292.65,1637153565.5568163,1637153566.6787312,812d2fec-64c6-4b1c-88d0-72917fbb1c84
-0.0348401492286018,0.1008790508708969,-0.0574257750493379,0.0656651990470748,-0.1463575349871107,-0.0004206965729021,-0.3211667323036997,-0.3543261068073612,-13.943363830737557,17.35726389324438,20.98279635195484,-0.0405399382603786,0.2796445699481647,0.7603967467457445,7282.435546875,11.758333333333333,8.406666666666666,179.03431643642438,-1.1272092773373588,34.12469629471853,1525.0,1435.0,1350.0,1528.0,1475.0,1021.7000000000002,93.0,292.65,1637153567.4740684,1637153568.7245772,3b55143c-1aa3-4263-bb82-563aaf4864dd
-0.0343881628021271,0.100879050879758,-0.0570559679474586,0.065021460815599,-0.1453439895716969,0.0032499811699783,-0.3187150479572854,-0.3442865281366123,-13.892637787053053,17.250955259507204,21.431944477729903,-0.031428507367344,0.2754056538356926,0.7557284417928166,7282.435546875,11.792,8.27111111111111,178.99559988856907,-1.1145660161432671,34.22424402514175,1525.0,1435.0,1350.0,1528.0,1475.0,1021.7000000000002,93.0,292.65,1637153568.8332632,1637153569.844801,3b55143c-1aa3-4263-bb82-563aaf4864dd
-0.0284712493270622,0.1022897963913641,-0.0572477197649968,0.06358332214758,-0.1448783065404778,-0.000256337877373,-0.3209201942158842,-0.3582570207638245,-14.106554685100884,17.248147428404213,20.933985144845497,-0.0362788052762635,0.2867891214416854,0.7578025199595558,7286.563802083333,11.791666666666666,8.32,178.99483338956225,-1.121744485671114,34.27593831187499,1525.0,1435.0,1350.0,1528.0,1475.0,1021.7000000000002,93.0,292.65,1637153569.9536912,1637153571.0785968,3b55143c-1aa3-4263-bb82-563aaf4864dd
-0.0105150606023824,0.1006599059412233,-0.0770666408900252,-0.3109217049380512,-0.2028558440678863,0.3726324566846744,-0.2353851742189613,-0.2638329306664541,-13.89776931769203,16.43033302774754,24.95087169561212,1.6407808636390435,0.2884360468386056,0.7446679570162754,7282.435546875,11.791,8.27,178.9813096150056,-1.0218604395790822,34.3927140561147,1525.0,1535.0,1350.0,1528.0,1475.0,1021.7000000000002,93.0,292.65,1637153572.910325,1637153573.9365797,bf840bff-6bf4-41a7-9e5d-8175d6557885
-0.0240198677043306,0.0986054221902355,-0.0848051968595992,-0.3140171277111611,-0.2101972002360791,0.3647021498512837,-0.2438359518481759,-0.2750641098979192,-13.87841800763043,16.375686012300296,23.07149868533669,1.6289054886463137,0.2971399582514199,0.7743572972047835,7278.313802083333,11.788333333333334,8.336666666666666,178.9759046586424,-1.028816097901192,34.40426162927147,1525.0,1535.0,1350.0,1528.0,1475.0,1021.7000000000002,93.0,292.65,1637153574.0445864,1637153575.1658268,bf840bff-6bf4-41a7-9e5d-8175d6557885
-0.0154732148927019,0.1023445826257595,-0.0785869589615599,-0.3144417210206222,-0.2048281487098685,0.3657293916709174,-0.2376861963383043,-0.2517662608693784,-13.86632366808793,16.367999989861843,23.73002425794581,1.6325413525829908,0.3056883362768119,0.7512014912228766,7276.2529296875,11.79,8.3,179.0155015419907,-1.0267377282550003,34.448745512970895,1525.0,1535.0,1350.0,1528.0,1475.0,1021.7000000000002,93.0,292.65,1637153575.2736638,1637153576.3944046,bf840bff-6bf4-41a7-9e5d-8175d6557885
0.0054414304704096,0.1009475336752947,-0.0951187060087108,-0.6726753032823526,-0.2619017148507018,0.7218672756756473,-0.1580543969345964,-0.1934463081009354,-13.698404784106392,16.045600711234034,27.51240390409583,3.238644988981132,0.3087896586595753,0.7403680203772401,7276.939887152777,11.787,8.353333333333333,179.08767690986014,-0.9346019863098516,34.51739422649888,1525.0,1636.0,1350.0,1528.0,1475.0,1021.7000000000002,93.0,292.65,1637153577.4172027,1637153578.384766,615b4991-f28c-46ab-afb6-2b10a1b72752
0.00382523653942,0.1012214648452193,-0.101227371488027,-0.6685526375485017,-0.2653532480577741,0.7130603893534841,-0.1663271189991622,-0.2022394994387106,-13.894575763548623,15.923269371799606,26.785856006830624,3.208225332265937,0.3167479728757801,0.7641320922166349,7282.435546875,11.784333333333333,8.292222222222223,179.11483829545955,-0.9482249290470826,34.56322669310443,1525.0,1636.0,1350.0,1528.0,1475.0,1021.7000000000002,93.0,292.65,1637153578.4940288,1637153579.57889,615b4991-f28c-46ab-afb6-2b10a1b72752
