raw_voltage_G-,raw_voltage_G0,raw_voltage_G1,raw_voltage_G2,raw_voltage_G3,raw_voltage_G4,raw_voltage_G5,raw_voltage_G6,load_x,load_y,load_z,load_l,load_m,load_n,rpm,voltage,current,roll,pitch,yaw,aileron1_pwm,elevator_pwm,throttle_pwm,rudder_pwm,aileron2_pwm,pbaro,pdiff,Tt,sample_start_time,sample_end_time,uid
-0.011364247411244,0.0945923302410395,-0.0169113541865237,-0.1114723995601331,-0.1071031963226238,0.291329689817225,-0.1894058230427937,-0.222743250278311,-13.92635380958358,15.307183610800957,39.070536372922696,1.0059601291638285,0.1199770291487703,0.488156439130516,4035.3265787760415,12.037222222222224,0.35,179.38501325826857,-11.149745942648677,109.14401415675648,1525.0,1435.0,1200.0,1528.0,1475.0,1021.7000000000002,93.0,292.65,1637157190.9288237,1637157191.9073346,9cbe9afd-bf0d-4ea1-abef-07f70ac682a0
0.0212658865371526,0.1298609680023738,-0.01544527428926,-0.0906689699556755,-0.1075650440953402,0.2437549701298016,-0.1998294527021495,-0.2323067363049239,-13.688767564800203,14.923526330467851,39.91160260593005,0.8499092976392473,0.2406450256795981,0.5075878666806776,4058.440673828125,12.036666666666669,0.35,179.491957324653,-11.114344787589284,108.53615919484146,1525.0,1435.0,1200.0,1528.0,1475.0,1021.7000000000002,93.0,292.65,1637157192.0159426,1637157193.0280292,9cbe9afd-bf0d-4ea1-abef-07f70ac682a0
0.004987800423231,0.1221821296206045,-0.0147220965213204,-0.0962571658800179,-0.1062238774428456,0.2564434610582057,-0.1956481676562487,-0.2188293212965279,-13.74520010270604,14.97259725720632,39.93284606172176,0.8913639179941133,0.2127905528239199,0.4978143390376784,4075.173014322917,12.037,0.3499999999999999,179.52357199359125,-11.111753584572911,107.98748326862516,1525.0,1435.0,1200.0,1528.0,1475.0,1021.7000000000002,93.0,292.65,1637157193.1566477,1637157194.2705002,9cbe9afd-bf0d-4ea1-abef-07f70ac682a0
0.1015501820471146,0.2843855355728653,0.0107283018980906,-0.2163195654102224,-0.127209745299279,0.2023431533134542,-0.2017601196798091,-0.2344675054421537,-13.749309868727105,15.00424978073943,39.19316577411124,1.041981771051528,0.8441330071787956,0.5179230644186603,4080.552110460069,12.032666666666668,0.3744444444444444,179.4658599307443,-11.072510827560343,106.73806636124112,1610.0,1435.0,1200.0,1528.0,1542.0,1021.7000000000002,93.0,292.65,1637157196.590268,1637157197.7307332,407623c6-a82b-44c3-8394-ea1e584bc890
0.1032348587668384,0.2800437267436332,0.012166440663,-0.2192780223723968,-0.1270590829466071,0.2068904100595595,-0.1985140352373147,-0.2271261496524167,-13.59378590682502,15.100347028903531,38.86379425938484,1.0596080512551125,0.8301240847767549,0.510189255539719,4073.013726128472,12.03188888888889,0.37,179.45450056724465,-11.02000488668073,106.32700660424206,1610.0,1435.0,1200.0,1528.0,1542.0,1021.7000000000002,93.0,292.65,1637157197.838562,1637157198.9669857,407623c6-a82b-44c3-8394-ea1e584bc890
0.1041799212186589,0.2984382035567497,0.0136182756271739,-0.2175248634709421,-0.1268399383926386,0.1890848836584504,-0.2015683684194597,-0.2273863843500903,-13.582490092664058,14.863571097112056,39.12072509319727,1.0141912767590016,0.8966296077256688,0.5149690419324736,4065.500786675347,12.033444444444443,0.37,179.47682314327207,-10.999268337496837,106.02698219694028,1610.0,1435.0,1200.0,1528.0,1542.0,1021.7000000000002,93.0,292.65,1637157199.1001894,1637157200.1706076,407623c6-a82b-44c3-8394-ea1e584bc890
0.2881246958694201,0.603789255532317,0.064774922067563,-0.3173590899771084,-0.1446454658102132,-0.010693116312705,-0.2232226301331471,-0.253560510596466,-12.64654235278404,14.044914402767114,40.301989520076575,0.7882447094612575,2.0403086845360394,0.539048473399184,4073.87158203125,12.025777777777778,0.4011111111111111,179.30243778902292,-10.954233580068092,105.56363734184475,1695.0,1435.0,1200.0,1528.0,1609.0,1021.7000000000002,93.0,292.65,1637157201.3651514,1637157202.450567,96f7d9b4-3d4d-4ffc-8a61-9b8e87715f8b
0.2466378221555508,0.544743397030388,0.0570911531610764,-0.3492309873829347,-0.1482887502362797,0.065432356358519,-0.2110737803402858,-0.2242224788081284,-12.987613441638905,14.61685099552863,38.740220245786425,1.0341921977100943,1.8385534570180848,0.5270872065977383,4073.87158203125,12.024333333333333,0.3955555555555555,179.24867509333603,-10.983630334800877,105.28457630292556,1695.0,1435.0,1200.0,1528.0,1609.0,1021.7000000000002,93.0,292.65,1637157202.5614932,1637157203.6745234,96f7d9b4-3d4d-4ffc-8a61-9b8e87715f8b
0.2462132288932855,0.5274446451353859,0.0558858557443139,-0.350874578172121,-0.1458644595896634,0.081320363428214,-0.2066087022662776,-0.2180316337815699,-13.093363811229752,14.617124372281966,38.38745461848007,1.073434540694818,1.777673604245349,0.5163916956500723,4066.7854817708335,12.025333333333334,0.3988888888888889,179.2473348584389,-10.95277002231094,105.07086651398504,1695.0,1435.0,1200.0,1528.0,1609.0,1021.7000000000002,93.0,292.65,1637157203.7822254,1637157204.8089154,96f7d9b4-3d4d-4ffc-8a61-9b8e87715f8b
0.396683611634208,0.7973626994879347,0.1013584302811308,-0.4009902904113594,-0.1606841365901816,-0.132934906909302,-0.2406446535775914,-0.2750915030146443,-12.3724823686045,14.39593298175928,39.00833147242324,0.7062828797018293,2.7884746636818107,0.5567437454460532,4064.001925998264,12.017222222222223,0.43,179.05616697048916,-10.917484126693791,104.575793912375,1779.0,1435.0,1200.0,1528.0,1677.0,1021.7000000000002,93.0,292.65,1637157206.938861,1637157207.9752567,d5a56b0b-46d7-4af8-9be7-89f22c1ba945
0.3945332521512812,0.7864054536193613,0.0937294473236059,-0.3983879436759276,-0.1638754349234238,-0.1249087229118905,-0.2443153315649737,-0.2808440583947838,-12.474839419904033,14.249344213548,38.922599860436215,0.7170317130400629,2.748056097413461,0.5752804708840221,4071.2919921875,12.017,0.43,179.0647608662848,-10.902745811693508,104.3870810979769,1779.0,1435.0,1200.0,1528.0,1677.0,1021.7000000000002,93.0,292.65,1637157208.0836422,1637157209.1979573,d5a56b0b-46d7-4af8-9be7-89f22c1ba945
0.3703177383103893,0.7288114302757392,0.1012762504202678,-0.4772664489333744,-0.1618209515216831,-0.0135009135447717,-0.2086220975505973,-0.2293312958645779,-12.679597061189916,15.080909857246631,36.57124227474932,1.1507209583728162,2.5645369024010995,0.499914145559532,4063.5727267795137,12.014888888888889,0.43,179.04611596767052,-10.882610319156573,104.22936368203231,1779.0,1435.0,1200.0,1528.0,1677.0,1021.7000000000002,93.0,292.65,1637157209.3054092,1637157210.4260845,d5a56b0b-46d7-4af8-9be7-89f22c1ba945
0.4777809282527412,0.9682546466796068,0.1244919173289131,-0.4867444631290477,-0.1867212967223547,-0.2285368944349799,-0.2637233576341826,-0.2879662698118379,-12.111669776433985,14.864818066298136,37.9894436618629,0.6891219114000869,3.44864044247846,0.6120119112406401,4055.667154947917,12.009555555555554,0.4499999999999999,178.91272540881977,-10.878098410027343,103.90174151593412,1864.0,1435.0,1200.0,1528.0,1744.0,1021.7000000000002,93.0,292.65,1637157211.543207,1637157212.885711,b88a6c25-78ef-4eb1-9840-e25108a2c7f7
0.4994050530231,0.9931122552375856,0.128848518588445,-0.4917831545107541,-0.1888897360713146,-0.2439827794815468,-0.2675452458280683,-0.2903056424602452,-12.110104053147566,14.992077970738931,38.59666777325426,0.6669371327220602,3.5373774083773046,0.6182373260706917,4062.2890625,12.009,0.4566666666666667,178.909037106668,-10.883319330737912,103.68162500955214,1864.0,1435.0,1200.0,1528.0,1744.0,1021.7000000000002,93.0,292.65,1637157213.0214326,1637157214.1242173,b88a6c25-78ef-4eb1-9840-e25108a2c7f7
0.5169804754033417,1.009494981751679,0.133531645849238,-0.5082754590620447,-0.1873102486553537,-0.2441235801839618,-0.2621345566318369,-0.2914314999558351,-12.08994534680144,14.742304261041925,38.74135316753147,0.702433952614531,3.599720777041041,0.6041571013631507,4087.2581922743057,12.009444444444444,0.4477777777777778,178.8829928364528,-10.862313273673015,103.5398538085898,1864.0,1435.0,1200.0,1528.0,1744.0,1021.7000000000002,93.0,292.65,1637157214.2317774,1637157215.2542646,b88a6c25-78ef-4eb1-9840-e25108a2c7f7
-0.1652998772222879,-0.1762160351976636,-0.0676297119195318,0.0324373472392534,-0.0873938468857236,0.4314591709686482,-0.1822836113917515,-0.2099780568228142,-14.596618672102387,15.696693318384812,39.93915535535252,0.9960823929451644,-0.919600607226058,0.4893962754329544,4133.464518229167,12.029555555555556,0.37,179.12668032566052,-10.893609579904968,103.29795810567435,1440.0,1435.0,1200.0,1528.0,1408.0,1021.7000000000002,93.0,292.65,1637157217.418683,1637157218.6346705,508fc8b3-3e10-4f94-af87-c379749f3806
-0.1617387716480478,-0.1648752838474947,-0.0585762866804955,0.0406689788399007,-0.0805592642053058,0.4143521706054096,-0.1771474019624063,-0.2025408244527908,-14.361859380632502,15.654656889911314,40.2181882824796,0.9394069217161004,-0.8816407889569611,0.4624530282189505,4144.344943576389,12.033444444444443,0.3677777777777777,179.1203768199665,-10.796403750593422,103.3149151886538,1440.0,1435.0,1200.0,1528.0,1408.0,1021.7000000000002,93.0,292.65,1637157218.7468011,1637157219.842214,508fc8b3-3e10-4f94-af87-c379749f3806
-0.1375232541827587,-0.1341128109219263,-0.0579736376174618,0.0353410178315817,-0.0853667560002619,0.3792615904372273,-0.1865706346025087,-0.2182644749077885,-14.296033912842598,15.475706189301668,38.78593875479359,0.8712208254763499,-0.7533435612198179,0.4833711669530158,4128.831217447917,12.032222222222222,0.3622222222222222,179.0539995237925,-10.804931810954615,103.34431763521088,1440.0,1435.0,1200.0,1528.0,1408.0,1021.7000000000002,93.0,292.65,1637157219.9497128,1637157220.9875038,508fc8b3-3e10-4f94-af87-c379749f3806
-0.2596691756519175,-0.3338771409249511,-0.0831068236580576,0.1304910096825582,-0.0654245657331295,0.4799860739522021,-0.1731480059811918,-0.2062936813018442,-14.721148190442449,16.283855905265607,37.68326646013053,0.8866432123483782,-1.5030940482177515,0.4458361040238874,4020.7932942708335,12.02211111111111,0.4099999999999999,179.04958570376888,-10.8402737710412,103.3713355868377,1355.0,1435.0,1200.0,1528.0,1341.0,1021.7000000000002,93.0,292.65,1637157223.0150623,1637157224.1523943,0d337b9f-d207-4951-bfff-c09f1f916930
-0.255354759308902,-0.343971506367398,-0.090092068984609,0.1199994460400245,-0.0719578245121361,0.5042700701191333,-0.174640931013362,-0.2114572843944141,-14.817814781953194,16.390267840179007,38.32219719068672,0.9652897800617568,-1.5450819871071826,0.4658583745891675,4009.0859375,12.020222222222223,0.4099999999999999,179.05289910442625,-10.8309973306472,103.27146987316314,1355.0,1435.0,1200.0,1528.0,1341.0,1021.7000000000002,93.0,292.65,1637157224.26017,1637157225.3786795,0d337b9f-d207-4951-bfff-c09f1f916930
-0.2669009595544715,-0.3628996057195611,-0.0960730826101148,0.1349232154841168,-0.0716165063579339,0.5175896981989792,-0.1740711544020869,-0.19963222266525,-14.730203478946082,16.26916175626849,39.51222407763432,0.9606895523569072,-1.629459791103099,0.4723649782803877,4045.9010416666665,12.018444444444444,0.4077777777777778,179.06002982191973,-10.833465305667296,103.20425170481133,1355.0,1435.0,1200.0,1528.0,1341.0,1021.7000000000002,93.0,292.65,1637157225.486824,1637157226.6069438,0d337b9f-d207-4951-bfff-c09f1f916930
-0.4295065311289949,-0.639693978267998,-0.1351537494436226,0.2720038469392509,-0.0459754518604254,0.6616709065186526,-0.1576161072137434,-0.1930628044572234,-15.304381866166231,17.226878382097237,39.28890401768904,0.97931718351148,-2.680902627636464,0.4338839182637605,4152.153917100694,12.012333333333332,0.4377777777777777,179.14613422223653,-10.832941278375976,103.1354223707253,1271.0,1435.0,1200.0,1528.0,1273.0,1021.7000000000002,93.0,292.65,1637157228.4493854,1637157229.4794855,7921ed66-5e7f-4337-b971-5c67b229cec2
-0.416768728948055,-0.6189847744729019,-0.1377697921645576,0.2784001399425568,-0.0473998938200865,0.6321685221952786,-0.1656012013662695,-0.1867349934346891,-15.30410178186545,16.74195030190486,38.78212096900521,0.8951673653436026,-2.599702487103901,0.4528054322030637,4160.88623046875,12.014333333333331,0.44,179.1471375011346,-10.819282892174458,103.03849970967308,1271.0,1435.0,1200.0,1528.0,1273.0,1021.7000000000002,93.0,292.65,1637157229.5987003,1637157230.7054863,7921ed66-5e7f-4337-b971-5c67b229cec2
-0.4211379320570605,-0.6301474734760374,-0.1419061531092847,0.2833719903988732,-0.0498652744152215,0.6390715870528142,-0.1698060451549685,-0.193377825503572,-15.460611914614544,16.96500300158545,38.825443891654224,0.9006650001170419,-2.641716206563581,0.4663414994162257,4173.492947048611,12.013444444444444,0.42,179.12992846006583,-10.816680400373206,102.9727287825154,1271.0,1435.0,1200.0,1528.0,1273.0,1021.7000000000002,93.0,292.65,1637157230.8133914,1637157231.942674,7921ed66-5e7f-4337-b971-5c67b229cec2
-0.5219988659780919,-0.7818829405191262,-0.1368077457682584,0.3561500192496154,-0.0133546310581209,0.703551691448283,-0.1410810723512263,-0.1674179140344525,-15.94175616282166,17.904947675314446,36.50644561116398,0.8872640178050374,-3.1954791988097737,0.3470498803868507,4179.372395833333,11.967222222222222,0.61,179.2243216743954,-10.848461650036231,102.73452289957156,1186.0,1435.0,1200.0,1528.0,1206.0,1021.7000000000002,93.0,292.65,1637157233.0429409,1637157234.1961715,99784d18-1119-4835-a9e6-07672ddc4fcb
-0.5063650620021316,-0.7737175965343539,-0.142146116853363,0.3399376779687283,-0.021519971650612,0.7062077278256187,-0.1437239605496137,-0.1600809399856052,-15.746857898169177,17.719939179614013,35.869940811186304,0.9283079414346034,-3.15893778606513,0.3693714167494951,4185.0400390625,11.971,0.6,179.32627059576683,-10.87899306994488,102.20045371235032,1186.0,1435.0,1200.0,1528.0,1206.0,1021.7000000000002,93.0,292.65,1637157234.3052733,1637157235.4180963,99784d18-1119-4835-a9e6-07672ddc4fcb
-0.5048266640539087,-0.750339204340082,-0.1358873369621852,0.3323640294556848,-0.0213490385616074,0.6863137523372863,-0.1460907259809109,-0.1682725786563402,-15.807388305547155,17.811679453332843,35.32133811039405,0.9014897006201512,-3.064633122789869,0.3658856068361198,4162.499294704861,11.972111111111111,0.5955555555555555,179.35486480327214,-10.88822957270498,101.7990951007024,1186.0,1435.0,1200.0,1528.0,1206.0,1021.7000000000002,93.0,292.65,1637157235.525995,1637157236.644184,99784d18-1119-4835-a9e6-07672ddc4fcb
0.0232469567075954,0.1348465152809315,-0.0085427561349665,-0.0835588104256008,-0.0998303226130599,0.2344204925010558,-0.1956651502519345,-0.2295367437581347,-13.773862576544008,14.855188936344469,40.25350239404196,0.8127970507674233,0.2564769026030096,0.4828312766945369,4076.4582248263887,12.036555555555555,0.3499999999999999,179.17678355777213,-10.89799437162464,101.15199918418584,1525.0,1435.0,1200.0,1528.0,1475.0,1021.7000000000002,93.0,292.65,1637157238.3657467,1637157239.4776351,9208f757-ef08-4431-9159-85d9fd2054e8
-0.0130626206202893,0.0967974760975115,-0.0228693572224092,-0.098063467281009,-0.1080345621125987,0.2781399046300049,-0.195404916075286,-0.2314953519117589,-13.91879514625525,14.895521415769249,39.21674167634368,0.9430751383120995,0.1248627408403302,0.5068526803110167,4061.863308376736,12.03588888888889,0.35,179.03859365266462,-10.877613561460011,101.60208436537262,1525.0,1435.0,1200.0,1528.0,1475.0,1021.7000000000002,93.0,292.65,1637157239.585477,1637157240.53217,9208f757-ef08-4431-9159-85d9fd2054e8
-0.0054473338922467,0.1021117408718547,-0.0195821826670626,-0.0815865062531072,-0.1045693322727492,0.2596495518766035,-0.1985962141410922,-0.2226610708523781,-13.934896410746694,14.990527127202077,39.48447854159724,0.8651849171269476,0.1407168144985459,0.5033107249565579,4054.3888075086807,12.037,0.3499999999999999,178.9491318349158,-10.845218353681595,101.91741598551432,1525.0,1435.0,1200.0,1528.0,1475.0,1021.7000000000002,93.0,292.65,1637157240.6414118,1637157241.7703688,9208f757-ef08-4431-9159-85d9fd2054e8
0.0131799860244616,0.1234509787550035,-0.0406748839917714,-0.3644752616647964,-0.1556575000022733,0.5181035927682185,-0.1470697567490767,-0.1607526200791235,-13.8995817546212,14.111858936329767,42.2924830067076,2.0776836957737803,0.2290923038273558,0.5327310493767775,4045.6703287760415,12.031999999999998,0.36,178.82074552799696,-10.825300858015671,102.74497157118188,1525.0,1535.0,1200.0,1528.0,1475.0,1021.7000000000002,93.0,292.65,1637157243.901558,1637157245.037646,1ca0c1f8-1b93-497f-b7e9-88c0ca792e63
0.019973479336864,0.1239714481469109,-0.0397161248719488,-0.3817603192855358,-0.1571230317439398,0.5362515314841768,-0.1397694905341655,-0.1647520162301935,-13.718506458688836,14.032046191203134,42.71369331922596,2.1571323358746444,0.2282171848916229,0.5236911255691394,4050.132622612847,12.032666666666668,0.36,178.80678765697309,-10.773753989532016,102.91701341163578,1525.0,1535.0,1200.0,1528.0,1475.0,1021.7000000000002,93.0,292.65,1637157245.1451244,1637157246.2642295,1ca0c1f8-1b93-497f-b7e9-88c0ca792e63
0.019110596083944,0.1142194985338524,-0.0369357231415281,-0.3836915345231935,-0.1543563264003267,0.5484551640332568,-0.1354139841539385,-0.1528770982812453,-13.818077426471511,14.26669437664797,42.86247426160597,2.1905794277621293,0.191445557855368,0.5087784522859353,4081.6443956163193,12.034333333333333,0.36,178.77856379750278,-10.780610550821324,103.11209348016015,1525.0,1535.0,1200.0,1528.0,1475.0,1021.7000000000002,93.0,292.65,1637157246.3721569,1637157247.5071003,1ca0c1f8-1b93-497f-b7e9-88c0ca792e63
0.0419290628325874,0.1221635023288271,-0.0580010308102095,-0.7021366138535624,-0.2100054488006496,0.8542581988223249,-0.071656500260543,-0.0966527218702791,-13.66474453507117,13.634800561712332,45.92464137001645,3.5914212567926618,0.230876500231303,0.525366385974713,4155.731879340277,12.030888888888889,0.37,178.82662707978227,-10.719991863027552,103.45926668330256,1525.0,1636.0,1200.0,1528.0,1475.0,1021.7000000000002,93.0,292.65,1637157249.4288025,1637157250.5625916,4d243fe7-9bf3-4000-8d97-9b2da1e80426
0.0489006111991315,0.1235879442284306,-0.0532346281850568,-0.6926585918237164,-0.2035680655388888,0.8451910779084421,-0.0699581269045991,-0.0878595304674175,-13.805824159531989,13.6178321622074,46.1005487897397,3.549748004095365,0.2347934166440297,0.5080950515022543,4174.847873263889,12.028111111111112,0.3699999999999999,178.82858203170468,-10.684928422877125,103.53447010170402,1525.0,1636.0,1200.0,1528.0,1475.0,1021.7000000000002,93.0,292.65,1637157250.6709816,1637157251.803134,4d243fe7-9bf3-4000-8d97-9b2da1e80426
0.0369435155416265,0.117397099929149,-0.0623291437977171,-0.7023420654082987,-0.2141007205982096,0.8539020886854711,-0.0769981586850038,-0.0877225647297074,-13.747102658085709,13.759008247219874,45.145396249342525,3.5915266816010667,0.2202419563575526,0.5426632067793778,4174.170735677083,12.030555555555557,0.3622222222222222,178.86686144745306,-10.724616849733035,103.57547552184116,1525.0,1636.0,1200.0,1528.0,1475.0,1021.7000000000002,93.0,292.65,1637157251.9109333,1637157253.024659,4d243fe7-9bf3-4000-8d97-9b2da1e80426
0.0313509366953818,0.1154368486522053,-0.067606154072272,-0.9286487652408678,-0.2483349986875355,1.079604374400044,-0.0243074958250295,-0.0420056413687787,-13.608577603137173,13.918136156316388,47.51155603803214,4.6104413510220645,0.218469524452211,0.5226117557897958,4160.437662760417,12.009999999999998,0.4311111111111111,178.9182472373088,-10.683321241419922,103.70578338864648,1525.0,1737.0,1200.0,1528.0,1475.0,1021.7000000000002,93.0,292.65,1637157254.8670318,1637157256.1057472,6ab399a1-497f-49cd-8539-d27714924cd4
0.042408990236618,0.0879692225203388,-0.0758503868915467,-0.9250723210789852,-0.2502547086846627,1.0951329842150943,-0.0262535026551408,-0.0495398444636269,-13.764852474961003,13.944394021880758,46.32328172135756,4.6367641051165664,0.1261244147855906,0.5341467194772885,4158.86767578125,12.018777777777778,0.4111111111111111,178.94043624519242,-10.678681740562457,103.64606780364296,1525.0,1737.0,1200.0,1528.0,1475.0,1021.7000000000002,93.0,292.65,1637157256.2180717,1637157257.3409874,6ab399a1-497f-49cd-8539-d27714924cd4
0.0207541830854985,0.0903327006149968,-0.0690952437012072,-0.9223773830677876,-0.2447536217549663,1.0902635841267971,-0.0224858531339927,-0.0439072716911812,-13.822713835429177,14.085686972582527,46.35215203703508,4.620991278288659,0.1352413779709623,0.512333582829282,4143.011935763889,12.01688888888889,0.4099999999999999,178.98458507016755,-10.70855186535021,103.60974485763684,1525.0,1737.0,1200.0,1528.0,1475.0,1021.7000000000002,93.0,292.65,1637157257.4497013,1637157258.5649335,6ab399a1-497f-49cd-8539-d27714924cd4
0.0430110909349042,0.1025363340087054,-0.0804086023044852,-1.0260740892260924,-0.2753654346525364,1.1783324520146918,-0.0196369694330904,-0.0321282312091406,-14.010588235183596,14.7241175843197,46.957652846316,5.056478999912019,0.1890365181690466,0.5664211435334795,4130.586534288194,12.006666666666668,0.4488888888888889,179.03476115763033,-10.652605880722376,103.5352092799542,1525.0,1837.0,1200.0,1528.0,1475.0,1021.7000000000002,93.0,292.65,1637157259.4668458,1637157260.6120918,8fcf2c5a-010c-4d06-8135-6d114875bb63
0.0434082912209279,0.1087134821119115,-0.0773542696309145,-1.0117611780100997,-0.2711468944628387,1.1624033550489332,-0.0183631894193362,-0.0405105259559038,-13.778654086233532,14.518090954816378,47.44485967589162,4.987378494407873,0.2046728131067015,0.5565052053688461,4123.742513020833,12.008222222222225,0.4422222222222223,179.02872023476436,-10.700990466484054,103.38354113488452,1525.0,1837.0,1200.0,1528.0,1475.0,1021.7000000000002,93.0,292.65,1637157260.7244723,1637157261.844754,8fcf2c5a-010c-4d06-8135-6d114875bb63
0.0224114666930389,0.0904559694837891,-0.0793950568319457,-1.0074878553347622,-0.2703935838662705,1.1746617760034272,-0.0183357962819688,-0.0483038674790612,-13.955153203298671,14.75850830428864,47.194249815840486,5.006648578336016,0.1390149713122515,0.5554747277623736,4120.437934027777,12.009777777777778,0.44,179.06768722288925,-10.680136855446882,103.3022262149957,1525.0,1837.0,1200.0,1528.0,1475.0,1021.7000000000002,93.0,292.65,1637157261.9526188,1637157262.975125,8fcf2c5a-010c-4d06-8135-6d114875bb63
-0.0178701127797426,0.0879358029549428,-0.001886228706691,0.1703616901077668,-0.0633700821642376,0.0297117320686156,-0.247301181946532,-0.2626276339333046,-13.817084154078904,15.953957458153337,37.67313533643349,-0.212811067575743,0.0728864239557669,0.4900458749349872,4105.310275607639,12.037555555555556,0.3400000000000001,179.09322909474542,-10.9955444614431,103.11903067562716,1525.0,1334.0,1200.0,1528.0,1475.0,1021.7000000000002,93.0,292.65,1637157264.832806,1637157265.927306,187ec505-8a1a-4540-8097-71de4a52584e
-0.0170483192235053,0.0926474190818694,0.0017433591745111,0.1753472375149717,-0.0601787840161366,0.0217814245454739,-0.245465843295682,-0.2573681542196299,-13.738211122540486,15.916166855076089,37.875644221161565,-0.241875506403555,0.0878204020236606,0.4791086609769773,4098.328830295139,12.03788888888889,0.3400000000000001,179.05477361189847,-10.983462710574994,103.34243933318912,1525.0,1334.0,1200.0,1528.0,1475.0,1021.7000000000002,93.0,292.65,1637157266.036519,1637157267.1665883,187ec505-8a1a-4540-8097-71de4a52584e
-0.0139118071253302,0.1007283885320789,-0.0067348106656941,0.1750733059613083,-0.0666435599349737,0.0153851310937602,-0.2532454893311747,-0.2812960450568212,-13.731186539827029,15.537854467767596,37.99794673875371,-0.2585379124192717,0.1164851084007762,0.511855228631922,4100.289822048611,12.039666666666667,0.3400000000000001,179.02773061624464,-11.000894586565469,103.55732087902726,1525.0,1334.0,1200.0,1528.0,1475.0,1021.7000000000002,93.0,292.65,1637157267.2742126,1637157268.3903782,187ec505-8a1a-4540-8097-71de4a52584e
-0.0329911138793258,0.0953319444557068,0.016069959859715,0.3889998424843741,-0.0301285332852793,-0.2012533481949918,-0.3003890500880146,-0.3319185333169912,-13.9467605987517,17.050836399513628,34.34484706439233,-1.2174449298793428,0.1052806970559014,0.4934560858592219,4043.125732421875,12.033,0.36,178.96443904775572,-11.007609706020713,104.05032317440887,1525.0,1234.0,1200.0,1528.0,1475.0,1021.7000000000002,93.0,292.65,1637157270.4347963,1637157271.4584365,c19869da-1d62-4ca1-96eb-836bb01b8015
-0.0083647009735003,0.1292583191953763,0.0202611070421088,0.4078326088698641,-0.0283205873512973,-0.2466300514175707,-0.3085111103813774,-0.3227692308136425,-13.78967985910652,16.75768899015255,35.07220806477006,-1.363434150181534,0.2229088764944019,0.5023709507797967,4017.024658203125,12.033333333333331,0.3555555555555555,178.93170574561336,-11.071074400832392,104.15627914009336,1525.0,1234.0,1200.0,1528.0,1475.0,1021.7000000000002,93.0,292.65,1637157271.5674756,1637157272.6965992,c19869da-1d62-4ca1-96eb-836bb01b8015
-0.0291012911239426,0.1055495769257723,0.0179874781630896,0.393369043650068,-0.0274440076645636,-0.2135391636153979,-0.3008136434653978,-0.3216187195107947,-13.96973502611761,16.818409124531705,34.601996877445906,-1.2563245273796817,0.1410662025705328,0.4895070640765606,4010.96240234375,12.03377777777778,0.3522222222222221,178.94360545296732,-11.147406602857949,104.2422484544466,1525.0,1234.0,1200.0,1528.0,1475.0,1021.7000000000002,93.0,292.65,1637157272.8335736,1637157273.8847563,c19869da-1d62-4ca1-96eb-836bb01b8015
-0.0178251880979719,0.0911380579682456,0.0398055481358505,0.6458552178695688,0.012548300552704,-0.4263026339199001,-0.3501190712630787,-0.3772316875874055,-14.067944678337977,18.53670500705887,35.273862320100406,-2.2914445551428897,0.0520804598758765,0.476139820175849,4106.047200520833,12.029999999999998,0.3644444444444444,178.93831129745064,-11.187908201680044,104.5347528234722,1525.0,1133.0,1200.0,1528.0,1475.0,1021.7000000000002,93.0,292.65,1637157276.0487168,1637157277.106281,35a3e09e-9d68-4f11-853a-f1c61b78be22
-0.0411953526787415,0.0975507867380468,0.0369024256586542,0.6577810842547521,0.0104954603907594,-0.4424497839298353,-0.3581611438237284,-0.3815548710487335,-14.1182204965769,18.50769552274208,35.39120534128841,-2.3549746558331424,0.0737950594358679,0.4953660928503913,4164.492296006944,12.031666666666666,0.3511111111111111,178.97496361035675,-11.23880629705629,104.58621526322862,1525.0,1133.0,1200.0,1528.0,1475.0,1021.7000000000002,93.0,292.65,1637157277.219682,1637157278.3337717,35a3e09e-9d68-4f11-853a-f1c61b78be22
-0.0338950867655826,0.1222593782788107,0.0435589531669541,0.6590548641069541,0.0124814614263284,-0.4632822547825613,-0.3589966342289981,-0.3844722378597499,-14.039551283279357,18.46507358862616,36.06020824356968,-2.4044661870168107,0.1602455791602809,0.4887940566972004,4185.0419921875,12.028444444444444,0.36,178.97873691041826,-11.255561889455192,104.65841339839528,1525.0,1133.0,1200.0,1528.0,1475.0,1021.7000000000002,93.0,292.65,1637157278.4414186,1637157279.4453614,35a3e09e-9d68-4f11-853a-f1c61b78be22
-0.0289369324145461,0.1218073918449956,0.0537491929761804,0.7013361364593228,0.0249864197382873,-0.5050156789323427,-0.3614346216490333,-0.38910167596595,-13.985350605589304,18.724863379667926,35.626028155228575,-2.591435298629491,0.1574595464417215,0.460977551750209,4203.059244791667,12.021888888888888,0.3822222222222222,178.97401345515223,-11.275738552854628,104.74736978214553,1525.0,1033.0,1200.0,1528.0,1475.0,1021.7000000000002,93.0,292.65,1637157280.463187,1637157281.4903934,877992a8-de17-46c4-9854-c8ae4dc274f9
-0.0127339031609161,0.1524055029420269,0.0486677695783287,0.668491792058678,0.0103447982747865,-0.5059744384099577,-0.3686801027271865,-0.3837600169539035,-13.8540938342173,18.632000254000022,35.40535079300718,-2.520338692905232,0.2769680530335305,0.5013955802943258,4155.562825520833,12.021999999999998,0.39,178.9837958038635,-11.292693548831798,104.71228006473956,1525.0,1033.0,1200.0,1528.0,1475.0,1021.7000000000002,93.0,292.65,1637157281.5981362,1637157282.72415,877992a8-de17-46c4-9854-c8ae4dc274f9
-0.0487558534174453,0.0851554014891162,0.0433945942319342,0.6777369682462626,0.0163164977588353,-0.45902262432019,-0.3609963323788864,-0.3963060673119639,-14.273212190816231,19.172537828756152,33.92880107495174,-2.432812174041372,0.0393289213527456,0.4788560803615958,4121.100911458333,12.022555555555556,0.39,179.02020678341896,-11.230001424306236,104.71664303779936,1525.0,1033.0,1200.0,1528.0,1475.0,1021.7000000000002,93.0,292.65,1637157282.8354485,1637157283.954418,877992a8-de17-46c4-9854-c8ae4dc274f9
-0.0247594818686945,0.0468598239351159,-0.0341553214562492,-0.1198272997089343,-0.1154033107173312,0.345759810429,-0.1887757808144947,-0.2188945166422163,-14.086180153050606,15.35074307495696,39.00225839414162,1.146457275670786,-0.0573763028447988,0.5159950318358052,4093.326904296875,12.03711111111111,0.3400000000000001,179.016116259016,-11.03696073643155,104.72151903395684,1525.0,1435.0,1200.0,1528.0,1475.0,1021.7000000000002,93.0,292.65,1637157286.0003254,1637157287.1423662,235d9006-8c9b-4855-af57-97775c623e88
0.0038526295302436,0.1187804523724026,-0.0150075321957048,-0.0905440563165434,-0.1043912771863027,0.2563075917949159,-0.1938982942148999,-0.2176207373955953,-13.652689439964137,14.83525806422693,40.1942244800546,0.8773348080107266,0.1963370065316354,0.4933441070297799,4102.687825520833,12.033666666666669,0.3322222222222222,179.0101451558616,-11.058084993714584,104.79357373515094,1525.0,1435.0,1200.0,1528.0,1475.0,1021.7000000000002,93.0,292.65,1637157287.2501533,1637157288.2601728,235d9006-8c9b-4855-af57-97775c623e88
0.0027295117642483,0.1197939976764439,-0.0157608428962695,-0.0810249470666304,-0.10189850332832,0.251554886421957,-0.1945831222867708,-0.2190588751182688,-13.70340586323294,14.621003657957976,40.90274830660183,0.8438116514236489,0.1929943516385295,0.4932086342642605,4114.065266927083,12.033888888888889,0.3400000000000001,178.98665992985545,-11.056269586351435,104.87045889790804,1525.0,1435.0,1200.0,1528.0,1475.0,1021.7000000000002,93.0,292.65,1637157288.371914,1637157289.6928337,235d9006-8c9b-4855-af57-97775c623e88
0.0164397669607297,0.10383750713549,0.079580902158546,-0.1128283582811848,-0.0166648158489706,0.2831117555113591,-0.0873527571344504,-0.122361163818631,-13.256858380424156,15.096677046805148,39.77550631090436,0.9944106241097465,0.1499458806931092,0.0908003736006155,4108.14990234375,12.035555555555554,0.3355555555555556,178.9837472336294,-11.124042422982102,104.93413447481036,1525.0,1435.0,1200.0,1439.0,1475.0,1021.7000000000002,93.0,292.65,1637157291.6213791,1637157292.6700308,eee33c14-f2af-4199-ac6a-5bce218622b5
0.0265615240548713,0.1179997484338731,0.0741844578666202,-0.1113491317269218,-0.0238007233207721,0.2704150453122886,-0.0957487483871954,-0.1288533328032159,-13.108670201604118,14.943292561210091,40.08463004129938,0.9613810073867496,0.1987474692657604,0.1221589655427017,4107.27490234375,12.038777777777776,0.3400000000000001,178.9999438888812,-11.09831272092371,104.97183256556936,1525.0,1435.0,1200.0,1439.0,1475.0,1021.7000000000002,93.0,292.65,1637157292.7776976,1637157293.771248,eee33c14-f2af-4199-ac6a-5bce218622b5
0.047941852054992,0.1504879846632679,0.0871550992045949,-0.0958309290100541,-0.0144596696254465,0.2298184485750297,-0.095420030461796,-0.1137186343786613,-13.047873266389391,14.806956645117614,40.92220946216994,0.8350559533393693,0.3116536911948558,0.0966346249852222,4099.19970703125,12.037,0.3400000000000001,179.00040682392495,-11.061030038475458,105.01931072830996,1525.0,1435.0,1200.0,1439.0,1475.0,1021.7000000000002,93.0,292.65,1637157293.8803253,1637157295.0130346,eee33c14-f2af-4199-ac6a-5bce218622b5
0.0638676624865794,0.1178825059182173,0.1834944983191725,-0.1243953770046708,0.0747021879034183,0.2609140180334352,0.0181233479542195,-0.0051366961118497,-12.318696735263368,15.159116260186265,37.86363839189566,0.9763773087111836,0.2209406994553415,-0.3259340008508946,4035.749186197917,12.036666666666669,0.34,179.02113568914606,-11.091555007649893,105.03848610494984,1525.0,1435.0,1200.0,1351.0,1475.0,1021.7000000000002,93.0,292.65,1637157296.9468577,1637157298.008618,bbbe1578-b79e-4b3d-86e2-7d69e5ff037b
0.0651036399668474,0.1309566924950268,0.1874686917218115,-0.1141706213414565,0.07873171557484,0.2405291570505535,0.013782634649977,-0.0117614482858309,-12.585633499343048,15.163247145915904,38.12514817893412,0.9076378499980252,0.2685415327624558,-0.328807280082713,3988.5821668836807,12.034333333333333,0.3400000000000001,179.0400234389309,-11.08923947865752,105.034583790204,1525.0,1435.0,1200.0,1351.0,1475.0,1021.7000000000002,93.0,292.65,1637157298.1165757,1637157299.1258018,bbbe1578-b79e-4b3d-86e2-7d69e5ff037b
0.0657884679099239,0.1414071666595146,0.1891122787746575,-0.1128694477640581,0.0766909284450646,0.2279694137095367,0.0134539173669894,-0.0011877043686117,-12.194952550933529,15.13452258797607,37.96907329091418,0.876542501601666,0.3062988139849176,-0.3264592318721854,3956.854682074653,12.035111111111112,0.3411111111111111,179.0392356904466,-11.0905682350423,105.0288957604452,1525.0,1435.0,1200.0,1351.0,1475.0,1021.7000000000002,93.0,292.65,1637157299.2575653,1637157300.3358471,bbbe1578-b79e-4b3d-86e2-7d69e5ff037b
0.0936746609829829,0.1446669475839753,0.3049303719128097,-0.1093494322417035,0.1846472003400543,0.2218333555363424,0.1323674378979234,0.1164657335939239,-11.617089908106635,15.319513940916194,38.90948993309785,0.8622477540003973,0.3130121132796904,-0.7986000409682518,3961.546956380209,12.035,0.3466666666666667,179.02596083833973,-11.132995188300436,104.95989718944976,1525.0,1435.0,1200.0,1262.0,1475.0,1021.7000000000002,93.0,292.65,1637157301.446841,1637157302.5936203,866f038d-970e-41fa-8a8a-a94e757d2beb
0.1087956614462187,0.1511454195390359,0.3114636300110986,-0.1135131871848312,0.1906462929647819,0.220778720166388,0.1397361864101713,0.1079053849569798,-11.591829366445486,15.153694372330854,39.17212249975528,0.8685509138771601,0.3357278371617794,-0.82496457135098,3996.210774739584,12.035,0.3444444444444444,179.0643131094392,-11.090049140665382,104.93799656733106,1525.0,1435.0,1200.0,1262.0,1475.0,1021.7000000000002,93.0,292.65,1637157302.710006,1637157303.729263,866f038d-970e-41fa-8a8a-a94e757d2beb
0.1163013754414528,0.1662801164358713,0.3118197405823844,-0.1087330874055017,0.188358967791423,0.2040004367560232,0.1336549146226376,0.109412006133671,-11.571177836853522,15.184120298292749,39.498090302544,0.8203469224850354,0.3888915004010962,-0.8113412185736051,4020.368896484375,12.035999999999998,0.3400000000000001,179.05271241258893,-11.15558575438904,104.93146538866468,1525.0,1435.0,1200.0,1262.0,1475.0,1021.7000000000002,93.0,292.65,1637157303.8484266,1637157304.8302028,866f038d-970e-41fa-8a8a-a94e757d2beb
0.1315182516220227,0.159089423232491,0.4161464196424966,-0.09691295586157,0.2843033560606085,0.1969877993181445,0.2398717224541944,0.2040004371927699,-10.809863824958224,15.681684528258366,39.84726114507137,0.7868573404411539,0.3586058255116677,-1.235405558127108,4034.456136067709,12.027,0.3644444444444444,179.0375843024873,-11.123391752599922,104.85451420074564,1525.0,1435.0,1200.0,1173.0,1475.0,1021.7000000000002,93.0,292.65,1637157307.090573,1637157308.1162176,db4e3ccf-f023-40d2-b8b1-f494734cb658
0.1201911980314593,0.1372981991113842,0.4183104758252376,-0.1091028964383826,0.2906996486503079,0.2318181454224609,0.2544311634415899,0.2359818998097983,-10.889159758739533,15.549512623386429,40.23381858523023,0.8918765741116915,0.2756464650623082,-1.2699965538675395,4064.258951822917,12.031666666666666,0.35,179.0328183482664,-11.11014962848282,104.8088270653874,1525.0,1435.0,1200.0,1173.0,1475.0,1021.7000000000002,93.0,292.65,1637157308.2241037,1637157309.2581418,db4e3ccf-f023-40d2-b8b1-f494734cb658
0.142615203288594,0.1617597043543952,0.4451798342903665,-0.1003858556760224,0.3122070791865073,0.2027310400584389,0.2718142867180532,0.2556282426116476,-10.758022512862269,15.5988969254564,40.81593208675618,0.8086745488900352,0.3619355250061764,-1.356737473276201,4134.577473958333,12.028888888888888,0.36,179.0406700301723,-11.12686945725232,104.77484459753686,1525.0,1435.0,1200.0,1173.0,1475.0,1021.7000000000002,93.0,292.65,1637157309.3656511,1637157310.3691032,db4e3ccf-f023-40d2-b8b1-f494734cb658
-0.0732600933896584,0.0614088560421328,-0.1632892227338629,-0.062215191355599,-0.2319911674324857,0.2991241261430353,-0.3409544283005801,-0.3711043945125377,-14.869395535973435,15.292408242838436,40.86153803833605,0.9047872792319186,-0.0290246030798575,1.0718497514937453,4190.042588975694,12.038666666666664,0.3255555555555555,179.02891148006114,-11.1167509114519,104.8242496325333,1525.0,1435.0,1200.0,1617.0,1475.0,1021.7000000000002,93.0,292.65,1637157311.4864693,1637157312.621003,1b0c5aba-b4b0-4b6c-b5cc-76b5af3dfa41
-0.0551521464482126,0.0829776487874216,-0.157807859944865,-0.068314541101735,-0.2297421926505839,0.280618981687066,-0.3416293951306022,-0.3675021986471261,-14.97196755667999,15.15182207475595,40.45775606776815,0.8761873627246787,0.0572722378232045,1.0642486903378046,4189.813368055556,12.035444444444444,0.33,179.0453342904655,-11.105149550555415,104.84360031736183,1525.0,1435.0,1200.0,1617.0,1475.0,1021.7000000000002,93.0,292.65,1637157312.7285695,1637157313.8480313,1b0c5aba-b4b0-4b6c-b5cc-76b5af3dfa41
-0.0184179751725347,0.1145071262413588,-0.1496584063804355,-0.0544125326894335,-0.2251675409249964,0.2375980938600838,-0.3439030238485407,-0.3767336811788575,-14.676318309752412,14.874810533919211,40.577880659129015,0.7468915748303669,0.1711700532967472,1.05457324446209,4155.746419270833,12.036444444444443,0.33,179.02975387005878,-11.105640375538274,104.86388825592653,1525.0,1435.0,1200.0,1617.0,1475.0,1021.7000000000002,93.0,292.65,1637157313.9598053,1637157315.0916388,1b0c5aba-b4b0-4b6c-b5cc-76b5af3dfa41
-0.1021872267044661,0.0507715607673299,-0.2907001058012334,-0.0587176360880575,-0.352512136481957,0.302214069935078,-0.4781216577347019,-0.4912046134736256,-15.70523848057706,15.647219477460348,39.25947971664928,0.8991729235142166,-0.0573078115448018,1.6007294798578997,4102.687825520833,12.033,0.3400000000000001,179.04430217299094,-11.088559305652671,104.86392392469216,1525.0,1435.0,1200.0,1706.0,1475.0,1021.7000000000002,93.0,292.65,1637157315.8546035,1637157316.918945,471c6063-4b27-402f-bc75-83413f8e84e0
-0.0813673607149358,0.0700344009364722,-0.2861309306115684,-0.0453317142202548,-0.3488200890263817,0.2749349105200108,-0.4817726112031448,-0.514808720013619,-15.710587023504113,15.515233656804382,39.821745760622605,0.8071171503777906,0.0086333861642753,1.5979622992349014,4086.388346354168,12.033888888888889,0.3400000000000001,179.03126106513562,-11.13771020069373,104.8255777248719,1525.0,1435.0,1200.0,1706.0,1475.0,1021.7000000000002,93.0,292.65,1637157317.0275695,1637157318.1660285,471c6063-4b27-402f-bc75-83413f8e84e0
-0.0789293732703634,0.0931678881467673,-0.2830355084243902,-0.0435100729551658,-0.3478613302667097,0.2520616586612021,-0.4831559643575503,-0.5040158283382434,-15.537647425423064,15.179304547822644,40.0404352489378,0.7496578534420699,0.0922020179594256,1.597789015365992,4084.874267578125,12.033888888888889,0.3400000000000001,179.04275247895922,-11.131711587055166,104.8103706881398,1525.0,1435.0,1200.0,1706.0,1475.0,1021.7000000000002,93.0,292.65,1637157318.2743485,1637157319.3840935,471c6063-4b27-402f-bc75-83413f8e84e0
-0.132387044426169,0.0323962580709047,-0.4163167433011628,-0.0324980407436837,-0.4687471816917047,0.3019445216196301,-0.6166563594909809,-0.644926067150477,-16.59656142607207,16.24245782096042,39.07463063263882,0.8366351309140257,-0.1294610148071835,2.124397163716852,4081.4164767795137,12.032,0.3455555555555556,179.0224091399713,-11.10658199300635,104.7771903880618,1525.0,1435.0,1200.0,1795.0,1475.0,1021.7000000000002,93.0,292.65,1637157321.5242538,1637157322.6579168,e357f92c-aa8a-4531-adab-4651516ba5cf
-0.1102260112264888,0.0692810902946772,-0.399319310587201,-0.0109944413873306,-0.4545986331790996,0.2473911323596412,-0.613971833378964,-0.6420087000629676,-16.445035364592098,15.93452924894592,39.35055352831194,0.664464850450589,0.0037863409337716,2.0834078885693303,4074.517930772569,12.033,0.3488888888888888,179.0105276464551,-11.066760756916576,104.76664912944275,1525.0,1435.0,1200.0,1795.0,1475.0,1021.7000000000002,93.0,292.65,1637157322.7668483,1637157323.8872757,e357f92c-aa8a-4531-adab-4651516ba5cf
-0.1333364898777301,0.0843138850403646,-0.4098930553636969,0.0117199326275961,-0.4618435657328929,0.2111988001363396,-0.6300022903307423,-0.6525128673302041,-16.197656671441557,15.43589089660011,39.175221324936885,0.5281623241276793,0.056496139176118,2.13266137087072,4066.1416015625,12.032666666666668,0.3400000000000001,179.03009993297675,-11.10043368438848,104.71263978803584,1525.0,1435.0,1200.0,1795.0,1475.0,1021.7000000000002,93.0,292.65,1637157323.9949734,1637157325.1274204,e357f92c-aa8a-4531-adab-4651516ba5cf
-0.1477474620768382,0.06398600058027,-0.4905997714954868,0.0424484355779569,-0.5363835442362783,0.2076749495420539,-0.7260798499274437,-0.7462236610455776,-17.103668013473676,16.371241465431304,39.17825498594775,0.4526541040341742,-0.0222439974438067,2.4777901798823607,4066.143473307292,12.021666666666668,0.3933333333333333,179.01974536619502,-11.13860021228808,104.66451655187365,1525.0,1435.0,1200.0,1883.0,1475.0,1021.7000000000002,93.0,292.65,1637157325.861864,1637157326.976024,9dc9efe8-1157-4888-9441-a74832c8623d
-0.1747368071004666,0.0206720033618545,-0.5117954762925214,0.0117144497566278,-0.5546246266542707,0.2743048666665518,-0.7290777558370444,-0.753265888991599,-17.2545555689646,16.685126029395793,38.49808468998479,0.6725497646046487,-0.1751559044060548,2.529091511437637,4057.160237630209,12.022,0.39,179.06051248862107,-11.123776709650643,104.54778406549867,1525.0,1435.0,1200.0,1883.0,1475.0,1021.7000000000002,93.0,292.65,1637157327.1089852,1637157328.191498,9dc9efe8-1157-4888-9441-a74832c8623d
-0.1500556063190315,0.0631861218163682,-0.4851419657855356,0.0423947454394822,-0.5327101263677537,0.2092462189044482,-0.7206132781364962,-0.7521290746547885,-16.98641158422294,16.50377996548068,39.32293153979803,0.4575385300850934,-0.0270013520079514,2.4576984298658053,4046.943603515625,12.022333333333332,0.3711111111111111,179.05449888651185,-11.077315201595276,104.49801551265642,1525.0,1435.0,1200.0,1883.0,1475.0,1021.7000000000002,93.0,292.65,1637157328.300103,1637157329.5235054,9dc9efe8-1157-4888-9441-a74832c8623d
0.0123247730550795,0.1335689005009505,-0.1117463292950759,-0.0722870902306879,-0.1639992519450502,0.2292125134197827,-0.2595508374376923,-0.2779458666975955,-13.127225196593924,10.591007539910422,40.21528737302479,0.7425805737058766,0.2394443647896263,0.8039617642892063,7245.5,11.806555555555557,8.19111111111111,-178.49262627590917,-11.156124580423564,90.08116716020524,1525.0,1435.0,1350.0,1528.0,1475.0,1021.7000000000002,93.0,292.65,1637157334.4860952,1637157335.5558088,d01c5ac4-7543-4fb6-a69e-97f7da59d6fe
0.0132210758744946,0.1339014529474806,-0.1034325176698372,-0.0655204420242168,-0.1547809193714962,0.2401730468950439,-0.250465087194401,-0.2862542005412876,-13.2520885699249,10.655392214819388,42.77086206309625,0.7531317618278545,0.2186204209336909,0.7707274868862813,7249.586588541667,11.806666666666668,8.176666666666668,-177.76267637021084,-10.92647388887013,83.18873068173663,1525.0,1435.0,1350.0,1528.0,1475.0,1021.7000000000002,93.0,292.65,1637157335.6644964,1637157336.798207,d01c5ac4-7543-4fb6-a69e-97f7da59d6fe
0.0066467276088851,0.1417221876946219,-0.0985017563141109,-0.0596309214816518,-0.1480969982101215,0.235488824121747,-0.2459863120483883,-0.27177693621804,-13.312955711347684,10.409633802137233,44.00404548374771,0.7281026667912046,0.237037350360014,0.7513212966623729,7251.6298828125,11.80422222222222,8.203333333333333,-177.30448299556932,-10.717568568828275,76.61562072516426,1525.0,1435.0,1350.0,1528.0,1475.0,1021.7000000000002,93.0,292.65,1637157336.9117978,1637157338.2140954,d01c5ac4-7543-4fb6-a69e-97f7da59d6fe
0.142598767349659,0.3772345000216244,-0.0790937318386006,-0.1563012380292625,-0.1802839136655273,0.105891990877466,-0.2809399341009546,-0.305566351140963,-13.24720636752287,9.78693896807092,45.6770056217566,0.6520840750331557,1.1181809405453746,0.8487827836102636,7253.676432291667,11.800333333333334,8.28,-177.22146128729793,-10.51060444546678,69.04033077205428,1610.0,1435.0,1350.0,1528.0,1542.0,1021.7000000000002,93.0,292.65,1637157338.832721,1637157340.0685198,e6c14bcc-65f0-4a6f-83d0-d027cc3bf7a3
0.1528437928987091,0.3810969292355489,-0.0699992164194486,-0.1726138405308791,-0.1784622710971169,0.0977151457179875,-0.2716536659689298,-0.3016902237236779,-12.740440236965416,9.937706568894706,42.985074037812886,0.6717851332972945,1.155526685276896,0.8175032554752056,7257.76953125,11.803444444444445,8.224444444444446,-177.38336105574427,-10.377533008232284,64.83831415566266,1610.0,1435.0,1350.0,1528.0,1542.0,1021.7000000000002,93.0,292.65,1637157340.177171,1637157341.317201,e6c14bcc-65f0-4a6f-83d0-d027cc3bf7a3
0.1331207490317734,0.3682495581241728,-0.0678762500859621,-0.1754216383039613,-0.1728329856940314,0.124642578335245,-0.2649012621861333,-0.2790498091055329,-13.160728901727127,10.042129059891074,44.69008779244715,0.7394865389611832,1.095686494118641,0.7978169886293368,7257.76953125,11.800666666666666,8.276666666666666,-177.53102367432066,-10.363065529205334,61.30187442986183,1610.0,1435.0,1350.0,1528.0,1542.0,1021.7000000000002,93.0,292.65,1637157341.424796,1637157342.5270674,e6c14bcc-65f0-4a6f-83d0-d027cc3bf7a3
0.2756608283257846,0.6244984501326767,-0.050454226576655,-0.2948419439258634,-0.2176755222659387,-0.0249375373128675,-0.3051143633214221,-0.3226733547514595,-12.454470381005462,9.455040091354311,43.40262266729941,0.6698688980987849,2.0789853863387986,0.9212789501385285,7261.186957465277,11.795555555555556,8.326666666666666,-178.07441075738967,-10.393615637270464,56.632858807168766,1695.0,1435.0,1350.0,1528.0,1609.0,1021.7000000000002,93.0,292.65,1637157343.430298,1637157344.5861232,72534cc8-4ae6-458a-8ef2-2f716c1bd3fc
0.2730371157082885,0.619715612334566,-0.0527481261918923,-0.3043221547605773,-0.2210777475814147,-0.0190480168282964,-0.3048481021110603,-0.3349454736053444,-12.368982886491874,9.494555373444966,42.32457014497668,0.704507385101935,2.071018995507686,0.9265218628450288,7263.9208984375,11.794666666666666,8.32,-178.35279864322067,-10.480568783455388,54.387879977097896,1695.0,1435.0,1350.0,1528.0,1609.0,1021.7000000000002,93.0,292.65,1637157344.7219903,1637157345.8164132,72534cc8-4ae6-458a-8ef2-2f716c1bd3fc
0.2803998373562461,0.610185547791784,-0.062781129736565,-0.3041282113334018,-0.2284136252309655,-0.0187466926508652,-0.3153730872921929,-0.3396570905679009,-12.608841403045869,9.552379947645129,40.98759250599019,0.7042969007667818,2.048163781094656,0.9619464194799472,7270.08154296875,11.795,8.34,-178.59395592679584,-10.491761376502792,52.87736770504151,1695.0,1435.0,1350.0,1528.0,1609.0,1021.7000000000002,93.0,292.65,1637157345.9242232,1637157346.942775,72534cc8-4ae6-458a-8ef2-2f716c1bd3fc
0.360360341038931,0.7781464295527267,-0.0395517654796833,-0.3881977021749702,-0.2539714065139146,-0.1265797030384943,-0.3380135021419931,-0.3529564509827526,-12.112897580750309,9.900998750393638,38.04564163393206,0.6548702874507861,2.712512758872782,1.0129685260909946,7233.2705078125,11.779555555555554,8.444444444444445,-179.31109695107068,-10.592589672531645,48.34858155783312,1779.0,1435.0,1350.0,1528.0,1677.0,1021.7000000000002,93.0,292.65,1637157348.9675324,1637157350.1199188,b72dc9ca-615e-4f36-8611-52c0605a62cc
0.3723174358254246,0.7774205120269707,-0.0362782879969227,-0.3743230859701051,-0.2459452223521655,-0.1146363033764992,-0.3333977613021971,-0.360831973614163,-12.416262347192784,9.785124157995895,41.489941783721456,0.6502021522573113,2.6799078163426664,0.9957297378211184,7227.17236328125,11.778444444444444,8.484444444444444,-179.5745661859346,-10.59025308378933,47.194709890018665,1779.0,1435.0,1350.0,1528.0,1677.0,1021.7000000000002,93.0,292.65,1637157350.2271426,1637157351.4525096,b72dc9ca-615e-4f36-8611-52c0605a62cc
0.3625380936973958,0.774708593671951,-0.0413186215855048,-0.3795277793174654,-0.2514101497783523,-0.118457643421187,-0.3372464947742524,-0.3727479814325646,-12.266544840736476,9.72586134021846,39.85432248569148,0.652526405441685,2.68349353636601,1.012971821612133,7230.560221354167,11.779999999999998,8.483333333333333,-179.88486167992826,-10.620127667172795,46.009359018684485,1779.0,1435.0,1350.0,1528.0,1677.0,1021.7000000000002,93.0,292.65,1637157351.582549,1637157352.5646963,b72dc9ca-615e-4f36-8611-52c0605a62cc
0.4510178551205755,0.9623706055418412,-0.0121712483927322,-0.4786870496517537,-0.2761444941559764,-0.2240625021297346,-0.3582975610752292,-0.3939173862939307,-12.042204097713991,10.176488786375746,38.02642107660412,0.6431573647858053,3.4160170528294214,1.0561335800074874,7233.2705078125,11.768666666666668,8.456666666666669,179.7100725856082,-10.694468584464076,44.66189778140456,1864.0,1435.0,1350.0,1528.0,1744.0,1021.7000000000002,93.0,292.65,1637157353.374181,1637157354.4341717,3fa81934-fb02-40ae-b670-e2982deeff55
0.4626051426774354,0.96098177458386,-0.0121586475828674,-0.4856761312947719,-0.2794333122854999,-0.222400835392157,-0.3599690894215187,-0.3970593784772376,-12.02968539071136,10.462021511107444,37.1449272515761,0.6644162524181452,3.419398292351867,1.0613947608857095,7233.2705078125,11.773111111111112,8.464444444444446,179.54498994900862,-10.709258789929308,44.00205787026163,1864.0,1435.0,1350.0,1528.0,1744.0,1021.7000000000002,93.0,292.65,1637157354.550131,1637157355.6388924,3fa81934-fb02-40ae-b670-e2982deeff55
0.4788218666272663,0.973582607578194,-0.0117340543040167,-0.4772116559079228,-0.2797209401883783,-0.2356864987922755,-0.3636123746813498,-0.3949911967640862,-11.969658544795884,10.36478543306668,38.10735156752738,0.6150279943507765,3.456687389429647,1.0694332347866848,7238.022623697917,11.76988888888889,8.495555555555557,179.34068077709574,-10.742943195913565,43.36401005712058,1864.0,1435.0,1350.0,1528.0,1744.0,1021.7000000000002,93.0,292.65,1637157355.7469704,1637157356.8661437,3fa81934-fb02-40ae-b670-e2982deeff55
-0.1501514821618773,-0.1420568153590975,-0.1443578374217041,0.0487773420434294,-0.1312228368793206,0.3769468722652636,-0.2303722334528466,-0.2604361837571899,-13.589187486408724,11.12873481754192,38.65663195826091,0.8029275305595386,-0.7941995686657317,0.7271967260783323,7239.38037109375,11.8,8.313333333333334,179.35529434627995,-10.81189661176952,42.36994584313674,1440.0,1435.0,1350.0,1528.0,1408.0,1021.7000000000002,93.0,292.65,1637157357.882798,1637157359.114486,7fd985e4-6ffb-4646-bd05-1719ad80ea83
-0.154205663856687,-0.1387833375710613,-0.1419883326778976,0.0534204753872485,-0.1269495103205788,0.3793300732719236,-0.2271261487319482,-0.2624084883806609,-13.666525571311078,10.9654627478206,40.0823322455804,0.7970331002702143,-0.7944348265438891,0.7159852246711133,7239.38037109375,11.798444444444444,8.366666666666667,179.1254888371053,-10.873067785976154,41.95859883873758,1440.0,1435.0,1350.0,1528.0,1408.0,1021.7000000000002,93.0,292.65,1637157359.2218983,1637157360.250026,7fd985e4-6ffb-4646-bd05-1719ad80ea83
-0.1507678273112184,-0.1377150060181962,-0.142467712252392,0.0574609601893504,-0.1269495103067043,0.387082324825255,-0.2285368943696724,-0.2495200254597085,-13.853644511766548,11.077805412690935,41.853404156930175,0.8062480922105711,-0.8053264724981162,0.7211329450416631,7245.5,11.79377777777778,8.397777777777778,178.98669787535084,-10.919884084413408,41.56733183158836,1440.0,1435.0,1350.0,1528.0,1408.0,1021.7000000000002,93.0,292.65,1637157360.3664186,1637157361.4541104,7fd985e4-6ffb-4646-bd05-1719ad80ea83
-0.2774336145349468,-0.35750370827776,-0.1902824021222103,0.1513097783286149,-0.1218954797105721,0.5050096842707048,-0.2281670871174946,-0.2550808292787419,-14.324156641338249,11.507389332826053,40.10434019491966,0.8594979308139993,-1.625414366589781,0.7501555009008692,7251.6298828125,11.780888888888889,8.396666666666668,178.72246062366028,-11.004731635059198,41.06348357525972,1355.0,1435.0,1350.0,1528.0,1341.0,1021.7000000000002,93.0,292.65,1637157362.3906658,1637157363.5350945,cadccb6b-019d-4c11-b655-3a5839838061
-0.2702144313708983,-0.3555100368932443,-0.1841299074096793,0.1499390268010038,-0.1189912612219148,0.4978272096180553,-0.2237600818758058,-0.2547647116926315,-14.107886758239648,11.65338073979373,39.21983211794066,0.8476920477452019,-1.6110669389238117,0.730611706394567,7251.6298828125,11.782777777777778,8.44111111111111,178.6569105392858,-11.02304052631185,40.8007922230513,1355.0,1435.0,1350.0,1528.0,1341.0,1021.7000000000002,93.0,292.65,1637157363.6439583,1637157364.84648,cadccb6b-019d-4c11-b655-3a5839838061
-0.2685582433556998,-0.3560381762798397,-0.1854475164880921,0.1486526459991417,-0.1207449687390783,0.4944085489107581,-0.2262221755427838,-0.2629837445128757,-14.127315024185682,11.702072975797,38.47729797379688,0.8430406552422106,-1.6062535354445586,0.7371458286001088,7251.6298828125,11.780555555555557,8.443333333333335,178.58051411450927,-11.063936568558514,40.47515043235747,1355.0,1435.0,1350.0,1528.0,1341.0,1021.7000000000002,93.0,292.65,1637157364.9552927,1637157366.08168,cadccb6b-019d-4c11-b655-3a5839838061
-0.4210146629095474,-0.6166289655958567,-0.2195930404187186,0.2659636653599264,-0.0994331222783186,0.6312234597427842,-0.2113340147551689,-0.2453288774327972,-14.681856770800255,13.04004040946693,36.89918032194117,0.8924957347623809,-2.582301156653806,0.6997992170604656,7251.6298828125,11.779777777777776,8.455555555555556,178.5336924088389,-11.097425175786563,40.172441760711855,1271.0,1435.0,1350.0,1528.0,1273.0,1021.7000000000002,93.0,292.65,1637157366.8344376,1637157367.9219425,0bbf5a69-ca1e-4963-b73b-d08841d89247
-0.429314779283976,-0.6285723687064763,-0.2205381030691409,0.2738254895933014,-0.0935299051899503,0.6511930402229836,-0.2049377212134039,-0.229975033969033,-14.851391007621098,12.764510204829849,39.12743326724998,0.9180319755317948,-2.646677751412867,0.6857011451313061,7253.676432291667,11.779,8.45,178.51339156880582,-11.103979690932576,40.04494148111037,1271.0,1435.0,1350.0,1528.0,1273.0,1021.7000000000002,93.0,292.65,1637157368.0299375,1637157369.0690308,0bbf5a69-ca1e-4963-b73b-d08841d89247
-0.4272739915827896,-0.6220665011745895,-0.212950208810093,0.2853305980765068,-0.0856543836151898,0.636140523798154,-0.2026093060255326,-0.23039962698907,-14.941293058303316,12.785237942403889,39.43809675797643,0.8587737556162237,-2.625329032245711,0.6625709720643921,7252.312065972223,11.77777777777778,8.45,178.51005540085123,-11.09585812169074,39.94299445701372,1271.0,1435.0,1350.0,1528.0,1273.0,1021.7000000000002,93.0,292.65,1637157369.2025385,1637157370.3006277,0bbf5a69-ca1e-4963-b73b-d08841d89247
-0.5678220855646607,-0.8511634542793215,-0.2273496763532874,0.4014998691060352,-0.0501446842642127,0.7558309026951758,-0.1737292877702694,-0.1990931254023176,-15.361439666145763,13.94546787370307,39.79305623842552,0.8725040030431327,-3.499950295148998,0.5657430132879354,7259.819986979167,11.759,8.55,178.52995250081338,-11.082126785274337,39.81295296758602,1186.0,1435.0,1350.0,1528.0,1206.0,1021.7000000000002,93.0,292.65,1637157371.4935806,1637157372.8349917,d16b0c1c-9ffd-4584-94de-c1e3feb9a62d
-0.5466132322621032,-0.8527807447510046,-0.2342395939766957,0.3912833328869587,-0.0614657122244021,0.7411306616928525,-0.1858392380950935,-0.2062854634146212,-15.304757795468229,14.277665911449636,36.06543152080974,0.8638100376515032,-3.472552730137596,0.60215690863359,7253.676432291667,11.761,8.536666666666667,178.51210749324184,-11.078765763020256,39.73991661642622,1186.0,1435.0,1350.0,1528.0,1206.0,1021.7000000000002,93.0,292.65,1637157372.9713638,1637157374.1831806,d16b0c1c-9ffd-4584-94de-c1e3feb9a62d
-0.5430630833340768,-0.8502561937782762,-0.2186189410741568,0.404721299498252,-0.043951648088874,0.7662315204287989,-0.1671680877685236,-0.1874170819975197,-15.478589213130707,14.323080040144848,41.87336078708624,0.8918194335729877,-3.513992788610959,0.5389003761358275,7255.722981770833,11.759,8.566666666666668,178.49178540373137,-11.116365100627531,39.65762080548159,1186.0,1435.0,1350.0,1528.0,1206.0,1021.7000000000002,93.0,292.65,1637157374.3155234,1637157375.4978096,d16b0c1c-9ffd-4584-94de-c1e3feb9a62d
-0.0027491116746016,0.1431466298053419,-0.1258537853912909,-0.0557274020495077,-0.1695732037493702,0.2174915470642295,-0.2738725086883762,-0.3042514806869711,-13.407511129336074,9.886461274916948,41.950356890112346,0.6736499097778935,0.2590274522748967,0.8550191258832806,7257.76953125,11.797333333333334,8.403333333333332,178.3421587263136,-11.105659348285968,39.61092280212621,1525.0,1435.0,1350.0,1528.0,1475.0,1021.7000000000002,93.0,292.65,1637157376.514367,1637157377.5878766,197ca305-5a9e-43be-9bf7-fb130bbdfc50
-0.0010781315511495,0.1442834441196364,-0.1277850002303937,-0.0500981160348481,-0.1691349137659814,0.2101364954448154,-0.2777075455879278,-0.3091822428717527,-13.573109295551191,9.77498132491749,41.78015328321333,0.6434781716587695,0.2651543655688758,0.8623916951264793,7261.870442708333,11.797,8.393333333333333,178.207590339286,-11.12813067065531,39.68096183860525,1525.0,1435.0,1350.0,1528.0,1475.0,1021.7000000000002,93.0,292.65,1637157377.6957023,1637157378.6474638,197ca305-5a9e-43be-9bf7-fb130bbdfc50
0.0073178590804403,0.1455572240491502,-0.1246210949813379,-0.0496598262728707,-0.1679570096574578,0.2080683152082551,-0.2765296413702069,-0.3114969611253029,-13.537082246870066,9.94509342152749,41.735447803359726,0.6391382639842931,0.2702225445628939,0.8548478061457425,7257.76953125,11.796888888888889,8.337777777777777,178.24882950367473,-11.104064973433465,39.73310198490931,1525.0,1435.0,1350.0,1528.0,1475.0,1021.7000000000002,93.0,292.65,1637157378.7595303,1637157379.8018887,197ca305-5a9e-43be-9bf7-fb130bbdfc50
0.0177111651147605,0.1414661216631014,-0.1560088455284056,-0.409592921770249,-0.2322141228700958,0.571471335402666,-0.206359781495624,-0.2321569568212427,-13.691578644305482,9.036084474173146,45.86783862375299,2.260666378938332,0.2616568710228528,0.887688800384028,7259.823893229167,11.794666666666668,8.396666666666667,178.27345613018218,-11.030299309852277,39.885644394192745,1525.0,1535.0,1350.0,1528.0,1475.0,1021.7000000000002,93.0,292.65,1637157380.9105897,1637157382.052411,341aeda5-4bda-4512-8c22-dea08b0a9438
0.0027432084263909,0.1362435644558533,-0.1653957529115467,-0.4243977139229005,-0.2446577455142601,0.5770672723114135,-0.2141555060738165,-0.2267289491010145,-13.558866615143495,9.213167203284298,43.93005164808401,2.307101587149804,0.259535070293424,0.9250576162980704,7263.9208984375,11.791,8.46,178.33114390791212,-10.977227317045203,39.97820370273017,1525.0,1535.0,1350.0,1528.0,1475.0,1021.7000000000002,93.0,292.65,1637157382.160509,1637157383.4830053,341aeda5-4bda-4512-8c22-dea08b0a9438
0.0217403354056472,0.1461324794984845,-0.1553835678271668,-0.415303196838459,-0.2342209667082362,0.5735061674175114,-0.2038146033686661,-0.231125546012139,-13.411282678330837,8.989258875959017,46.07073159167314,2.278014057969099,0.2761183510534691,0.8869620405605995,7263.9208984375,11.797000000000002,8.393333333333334,178.38012547117998,-10.963737978025645,40.04586355664832,1525.0,1535.0,1350.0,1528.0,1475.0,1021.7000000000002,93.0,292.65,1637157383.591127,1637157384.6550686,341aeda5-4bda-4512-8c22-dea08b0a9438
0.0297665188249523,0.1439136370621647,-0.1913644303374878,-0.8115995560995665,-0.314263665761147,0.9521337984329784,-0.1393038068516783,-0.1649574635706203,-13.479407931927469,8.730936814621483,47.82175570451023,4.019529169344856,0.2992664224776785,0.9519641378292456,7290.695475260417,11.792333333333332,8.370000000000001,178.51775378295574,-10.922831405904008,40.20984046151226,1525.0,1636.0,1350.0,1528.0,1475.0,1021.7000000000002,93.0,292.65,1637157386.441188,1637157387.578488,e34f7348-be6f-4521-8f69-5259d740ed45
