raw_voltage_G-,raw_voltage_G0,raw_voltage_G1,raw_voltage_G2,raw_voltage_G3,raw_voltage_G4,raw_voltage_G5,raw_voltage_G6,load_x,load_y,load_z,load_l,load_m,load_n,rpm,voltage,current,roll,pitch,yaw,aileron1_pwm,elevator_pwm,throttle_pwm,rudder_pwm,aileron2_pwm,pbaro,pdiff,Tt,sample_start_time,sample_end_time,uid
-0.0075622435044974,0.1079851476439175,0.0163116641943606,-0.1423879497213741,-0.1173151890123732,0.1319621814858023,-0.2274870930877519,-0.2522698102867898,-14.259571618413664,19.254163944132536,14.18426253490606,0.7412625103543703,0.3991125544109275,0.4753951512901355,-1.0,11.999647058823529,0.2882352941176471,179.17056210363165,0.7775854881863985,90.73633265505472,1955.0,1435.0,1200.0,1528.0,1895.0,1021.7000000000002,250.0,289.15,1637066709.303805,1637066710.991887,cc77fa6c-c405-4893-befd-49f6c79b4f80
-0.0065180823299714,0.1062513244929531,0.0118256383686518,-0.1429164758960358,-0.1204605635922717,0.1336895591422725,-0.2309096217580263,-0.2517477297166078,-14.304995647084638,19.17263108528212,14.08996405066162,0.7455346218209151,0.3935462286587336,0.4903214336004621,1913.4047995174635,12.000470588235292,0.28,179.15623959871797,0.6812229790253952,87.38245826090667,1955.0,1435.0,1200.0,1528.0,1895.0,1021.7000000000002,250.0,289.15,1637066711.182348,1637066712.8395622,cc77fa6c-c405-4893-befd-49f6c79b4f80
-0.0082067874517509,0.1063737878386153,0.0123735007208978,-0.1422074775034444,-0.1197966832972022,0.1342567577983462,-0.2302457414272089,-0.2566591551334919,-14.30547736707646,19.16777697580649,14.285073644011598,0.7452358267877547,0.3922270551061751,0.4880230586679668,1968.6868681066176,12.000117647058824,0.28,179.15740876639356,0.67571117330888,85.2256613023834,1955.0,1435.0,1200.0,1528.0,1895.0,1021.7000000000002,250.0,289.15,1637066712.9491212,1637066714.475115,cc77fa6c-c405-4893-befd-49f6c79b4f80
-0.0090640309023069,0.1057872528682996,0.012695772691648,-0.1421365776657627,-0.1194873021897468,0.1338829223221232,-0.2300394873469195,-0.2577742161036005,-14.30809122816676,19.18170339873912,14.161468481415229,0.7443231836980999,0.3911531392809387,0.4866164894637473,1971.775993795956,12.016529411764706,0.25,179.13440227861395,0.6948214807481833,81.73147192146078,1717.0,1435.0,1200.0,1528.0,1706.0,1021.7000000000002,250.0,289.15,1637066717.3126638,1637066718.7784052,ee8b0dfd-f505-4af8-a6e8-8bbcf945773f
-0.0080005333929759,0.1059419434096471,0.0119738834778998,-0.142136577668812,-0.1198031287358395,0.133489750532178,-0.2302070687875857,-0.2570007633393104,-14.286716311328222,19.122040643041096,14.124324595791162,0.7430130559550895,0.3918644660087418,0.4882750354540321,1973.030912511489,12.017705882352942,0.2458823529411764,179.1448797888007,0.7139325509337959,81.04822559933771,1717.0,1435.0,1200.0,1528.0,1706.0,1021.7000000000002,250.0,289.15,1637066718.8916976,1637066720.4127867,ee8b0dfd-f505-4af8-a6e8-8bbcf945773f
-0.0120031512975878,0.1065671510154328,0.0130696081795266,-0.1421494685445972,-0.1192939389963262,0.1344565664106398,-0.2296334246213762,-0.2536169073688447,-14.300733449836498,19.18208151119025,14.352804448085108,0.7456966420659014,0.3923556418474532,0.4856345036090028,1973.0308694278488,12.016235294117646,0.25,179.14016213696345,0.7264989282067295,80.44208608630663,1717.0,1435.0,1200.0,1528.0,1706.0,1021.7000000000002,250.0,289.15,1637066720.523627,1637066722.2600317,ee8b0dfd-f505-4af8-a6e8-8bbcf945773f
-0.0060926833128072,0.1060063978021161,0.0131276171326651,-0.1422397047018306,-0.1191199121247121,0.1348497382004882,-0.2291757983786747,-0.248370318965991,-14.283567086544142,19.169093169049432,14.32084647876158,0.7467040362318098,0.3904287869257491,0.4845704570816816,1972.3068440755208,12.014333333333331,0.2555555555555555,179.135662783329,0.7842485044308156,79.2510014050895,1480.0,1435.0,1200.0,1528.0,1518.0,1021.7000000000002,250.0,289.15,1637066725.3751707,1637066726.9706252,471e237b-4f25-461a-a2d8-c2af1a2f62f5
-0.0018967022181393,0.1059097162134831,0.0129278085124376,-0.1428391306096716,-0.1191779210804843,0.1355780728241162,-0.2290211078159733,-0.2496013980548906,-14.287175744206486,19.14995214507667,14.332519401987437,0.7495560662970997,0.390049067293274,0.4847064236541064,1972.3096492991729,12.013823529411766,0.256470588235294,179.1466684948116,0.7926859127245123,78.93913711039116,1480.0,1435.0,1200.0,1528.0,1518.0,1021.7000000000002,250.0,289.15,1637066727.079149,1637066728.8093483,471e237b-4f25-461a-a2d8-c2af1a2f62f5
-0.0104175731891347,0.1059806160450853,0.0131211716945804,-0.1414920336877827,-0.1190619031660691,0.1346628204608064,-0.2291886892581306,-0.2512063126793965,-14.273506013226031,19.16755607933594,14.3884067760422,0.7446027679827364,0.3895696056684184,0.4846249771873585,1972.1228099149816,12.015529411764708,0.2529411764705883,179.14853835954085,0.809713147438531,78.6731735618692,1480.0,1435.0,1200.0,1528.0,1518.0,1021.7000000000002,250.0,289.15,1637066728.9195187,1637066730.6565597,471e237b-4f25-461a-a2d8-c2af1a2f62f5
-0.0087030862966684,0.1062319881740767,0.0131082808143078,-0.1439090736121829,-0.1192230391612779,0.1368800515377269,-0.2281445279726566,-0.2481769557679266,-14.245199938745747,19.12965839790156,14.426467755443127,0.7548058776617863,0.3902708564642363,0.483473612646372,1971.8026123046875,12.013529411764708,0.25,179.13835977057423,0.8202458515804618,78.35155361423165,1242.0,1435.0,1200.0,1528.0,1330.0,1021.7000000000002,250.0,289.15,1637066731.804994,1637066733.3185828,e537edfa-91af-4811-9be8-6ceed259a1d6
0.005534889485413,0.105432753710296,0.0120834559346385,-0.1439090736116639,-0.1203703274475972,0.1359390174219343,-0.2296592064009924,-0.2526307548998364,-14.255250226979028,19.166180360083874,14.171357630379816,0.7528366023281063,0.3895410603219392,0.4881112537431125,1971.1624396829045,12.013823529411765,0.25,179.15416482831364,0.8381439573857729,78.24338471189782,1242.0,1435.0,1200.0,1528.0,1330.0,1021.7000000000002,250.0,289.15,1637066733.43196,1637066734.9574692,e537edfa-91af-4811-9be8-6ceed259a1d6
-0.0115713068539633,0.1058194800641399,0.0126184274168545,-0.1432129661119985,-0.1199191466543743,0.1359067902224388,-0.2292466982211754,-0.2545450506267093,-14.24842207558585,19.17300837586093,14.315209650990866,0.7512922052470379,0.3896165588755202,0.4864379412222258,1971.34912109375,12.015176470588234,0.25,179.13972902261486,0.8506794512803775,78.16249437978152,1242.0,1435.0,1200.0,1528.0,1330.0,1021.7000000000002,250.0,289.15,1637066735.0666914,1637066736.8000934,e537edfa-91af-4811-9be8-6ceed259a1d6
-0.0082196783402236,0.1049235640105471,0.0141459965561763,-0.1416467242423885,-0.1185140407945999,0.1356360817788721,-0.2279705010961151,-0.2547964227824458,-14.233285253065905,19.21431227122683,14.367148295082746,0.7475165993708894,0.3855935656882329,0.4805970741323738,1972.950863108916,12.008352941176469,0.27,179.16257560361277,0.8504156069738227,78.00970304804832,1005.0,1435.0,1200.0,1528.0,1141.0,1021.7000000000002,250.0,289.15,1637066739.9575164,1637066741.4230034,3633660e-c095-477b-95f4-f7ce61fec417
-0.0085355048735428,0.1048526641792346,0.0145004957283724,-0.1415629335228237,-0.1179984056103699,0.1353976005295558,-0.2277062380486046,-0.2542292240448401,-14.25330355117472,19.20927856269657,14.33690729935314,0.7467610741656676,0.3857494295469458,0.4789728548945779,1973.752477309283,12.008647058823527,0.2647058823529412,179.156239598718,0.8464416673153652,77.99138407891851,1005.0,1435.0,1200.0,1528.0,1141.0,1021.7000000000002,250.0,289.15,1637066741.5366747,1637066743.1491702,3633660e-c095-477b-95f4-f7ce61fec417
-0.0056608388692794,0.1051620452624563,0.014371586940792,-0.1406412356275244,-0.1180821963267044,0.1351204466458936,-0.2278480377286078,-0.2489375177362203,-14.237041553888483,19.202559933263245,14.460133434313756,0.7440360191788381,0.3855807813546619,0.4796980364079979,1974.0733642578125,12.006588235294116,0.27,179.1708875420568,0.8398951161894564,78.00402274131388,1005.0,1435.0,1200.0,1528.0,1141.0,1021.7000000000002,250.0,289.15,1637066743.2576482,1637066744.9935048,3633660e-c095-477b-95f4-f7ce61fec417
0.0026731143609246,0.1059935069205354,0.0100531425304596,-0.1524557270295268,-0.1235350383495399,0.1460067933343752,-0.2296140883206781,-0.2494467074796322,-14.27346698437122,19.186171278399723,14.55386383322052,0.7948226252526434,0.3893069206581594,0.4956364670807704,1973.1644287109373,12.01394117647059,0.26,179.1625916746461,0.8518368889849354,78.04023359186245,1480.0,1837.0,1200.0,1528.0,1518.0,1021.7000000000002,250.0,289.15,1637066747.9445913,1637066749.4817142,18ac4296-a427-4787-969a-a8e4a8c0f8b3
-0.003276026261353,0.105381190193946,0.009659970724681,-0.1534547701853632,-0.1239411010543671,0.1472700994125378,-0.2299363603206601,-0.2516317116863176,-14.302453742373704,19.20475611269405,14.514583967955696,0.7999978104298419,0.3876620520367742,0.4970181727001109,1973.3782384535848,12.013941176470588,0.25,179.15960487309962,0.8373336069182795,78.1384320251114,1480.0,1837.0,1200.0,1528.0,1518.0,1021.7000000000002,250.0,289.15,1637066749.5917962,1637066751.3415997,18ac4296-a427-4787-969a-a8e4a8c0f8b3
-0.001303721784428,0.1059097162109317,0.0104785415329674,-0.1522559183989965,-0.123296557078393,0.1460454659677066,-0.2292982617578493,-0.2497109705245976,-14.264534167682964,19.205360402666923,14.57640771097627,0.7946152877366384,0.3887323171967284,0.4943038923386982,1973.53859576057,12.013,0.26,179.1509433896804,0.8339324206826354,78.23138406952611,1480.0,1837.0,1200.0,1528.0,1518.0,1021.7000000000002,250.0,289.15,1637066751.4523878,1637066753.1862743,18ac4296-a427-4787-969a-a8e4a8c0f8b3
-0.0044684325677038,0.1057679165499887,0.0105494413653207,-0.1479697007697812,-0.1224908771109711,0.141656121938386,-0.2300523782333588,-0.2557439024842754,-14.258083840580252,19.17952572075902,14.491460093886912,0.7749051636853002,0.3883840484120704,0.4940993109607571,1973.966401941636,12.017117647058823,0.25,179.15518373182746,0.8306584341647881,78.42745107806465,1480.0,1636.0,1200.0,1528.0,1518.0,1021.7000000000002,250.0,289.15,1637066754.907872,1637066756.6674123,be73f1ce-3c74-4922-98c4-b4ccefe25d34
-0.0050227403571586,0.1061868700997285,0.0105687776835092,-0.1478794646044843,-0.1224650953514367,0.1419783939024506,-0.2299234694295426,-0.2530883812950346,-14.253242091858104,19.169663880548185,14.608035232551,0.775382408591579,0.3888778562909533,0.4940776360825025,1972.9507338579965,12.017470588235293,0.25,179.15619138561797,0.8295608830315421,78.51537610325022,1480.0,1636.0,1200.0,1528.0,1518.0,1021.7000000000002,250.0,289.15,1637066756.775664,1637066758.3048103,be73f1ce-3c74-4922-98c4-b4ccefe25d34
-0.002896612994358,0.1058898840920761,0.0105555149499467,-0.1481138555055876,-0.1222716082105269,0.1417580094652294,-0.2300846054352595,-0.2572164376437528,-14.286717275248982,19.1680984131599,14.50424454547198,0.7753714703232547,0.3889487927570175,0.4938544558904746,1972.8438864315256,12.01735294117647,0.25,179.1694459703661,0.831631359456671,78.61182038320997,1480.0,1636.0,1200.0,1528.0,1518.0,1021.7000000000002,250.0,289.15,1637066758.4128456,1637066760.1529531,be73f1ce-3c74-4922-98c4-b4ccefe25d34
-0.0061506922671243,0.1060386249977499,0.0120061106738826,-0.1413244522404352,-0.120196300561329,0.1352880280668879,-0.2299879238246111,-0.2562982103256428,-14.244560229574054,19.158428014198023,14.499820070965324,0.7455459671178368,0.3885033735552388,0.4890175739882891,1972.8438864315256,12.016823529411765,0.2470588235294117,179.14757570464377,0.822209951575916,78.79205019194242,1480.0,1435.0,1200.0,1528.0,1518.0,1021.7000000000002,250.0,289.15,1637066762.3031356,1637066764.0391903,46f27a06-090e-488b-99a5-52dee8ce0e9f
-0.0001370972505541,0.1059741706060042,0.0124895186312496,-0.1413566794476191,-0.1201769642417414,0.1350431013740761,-0.2300974963049825,-0.2580449245970135,-14.252454875814374,19.213955780786925,14.452646899965464,0.7454489579420499,0.3887711564483471,0.4883853811298161,1972.176262350644,12.017117647058823,0.2417647058823529,179.14773882563216,0.8073194423553272,78.88656514434958,1480.0,1435.0,1200.0,1528.0,1518.0,1021.7000000000002,250.0,289.15,1637066764.1487572,1637066765.6132667,46f27a06-090e-488b-99a5-52dee8ce0e9f
-0.0008863795796252,0.1058519551621151,0.0125973557900329,-0.1404522107066979,-0.1199642647303196,0.1347917292492396,-0.2300087475545616,-0.2505156590058609,-14.243983594282795,19.212663562650963,14.518975434748295,0.7428554720101352,0.387560403373333,0.4879154709339035,1970.922420726103,12.016999999999998,0.2452941176470588,179.1321201918795,0.8052476570198653,78.9361908882039,1480.0,1435.0,1200.0,1528.0,1518.0,1021.7000000000002,250.0,289.15,1637066765.7229435,1637066767.3182237,46f27a06-090e-488b-99a5-52dee8ce0e9f
-0.0065061830449399,0.1063134238212504,0.0148667702212427,-0.1326641361814437,-0.1169931649101896,0.1278128060380816,-0.2296168152149144,-0.2497191512551156,-14.234765673201814,19.219634009749463,14.620692404721249,0.7097849756370604,0.3875095426159122,0.4804884084005509,1973.5922923368569,12.015176470588235,0.25,179.14678018849335,0.7817703067966062,79.0287166484592,1480.0,1234.0,1200.0,1528.0,1518.0,1021.7000000000002,250.0,289.15,1637066770.4720185,1637066772.0268106,72cde890-045c-4cdf-851f-ebf7a93b7a4d
-0.0039523016032256,0.1060289568395615,0.0151196297654931,-0.1328221734273552,-0.1169678789558725,0.1276800547730421,-0.2294777424553228,-0.249535828068902,-14.224711621125104,19.24136747765106,14.54275029277652,0.7099924601588005,0.3870981136425335,0.4797636571724349,1974.501328412224,12.015529411764708,0.25,179.15548908146093,0.7797747364534411,79.06891874013807,1480.0,1234.0,1200.0,1528.0,1518.0,1021.7000000000002,250.0,289.15,1637066772.1355605,1637066773.6916952,72cde890-045c-4cdf-851f-ebf7a93b7a4d
-0.0043653055306966,0.1063415606420772,0.0150032400033491,-0.1327906899295148,-0.1169864715713888,0.1278048731820421,-0.2295496338993886,-0.2488343907089457,-14.231456221142588,19.22932351700561,14.60757507989482,0.7101232268149067,0.3877323050912478,0.4801797483360122,1974.9563849954045,12.01641176470588,0.25,179.15647905711475,0.781880898733659,79.10812965083561,1480.0,1234.0,1200.0,1528.0,1518.0,1021.7000000000002,250.0,289.15,1637066773.801242,1637066775.3032424,72cde890-045c-4cdf-851f-ebf7a93b7a4d
-0.0157092789929807,0.1070118863198573,0.0183677593808442,-0.1248370173780298,-0.1134414797144142,0.1206182084304044,-0.2286794994975619,-0.2484541096794549,-14.22747383509009,19.292634774845123,14.735920437887753,0.6766419871275033,0.3883158248923166,0.4698349137131829,1978.710901596967,12.016000000000002,0.2470588235294117,179.14961190456802,0.7698193841842931,79.14648397545606,1480.0,1033.0,1200.0,1528.0,1518.0,1021.7000000000002,250.0,289.15,1637066778.460909,1637066780.218726,6fc11ca5-7bd1-422e-8e65-a79f34d0d23b
-0.0064858551163275,0.1068314140210397,0.0177554426358167,-0.1262872413318012,-0.1139184422555456,0.1213400976147844,-0.228557036137773,-0.2515285847459105,-14.209040846236718,19.251076122856123,14.622147859445588,0.6812206745249868,0.3886558745592295,0.4709797753492673,1979.0870361328125,12.016000000000002,0.25,179.13386550610036,0.7656585748190126,79.17004451211012,1480.0,1033.0,1200.0,1528.0,1518.0,1021.7000000000002,250.0,289.15,1637066780.3286304,1637066781.7715094,6fc11ca5-7bd1-422e-8e65-a79f34d0d23b
-0.0063762826491936,0.1064060150326113,0.0168272993600748,-0.1255846883921551,-0.1149110399743247,0.1207213354573577,-0.2298332332677497,-0.2552024855824635,-14.205495376477977,19.27681242425,14.558122641681615,0.6783614184553938,0.3874578274705696,0.4752702251478207,1979.248384363511,12.016294117647057,0.248235294117647,179.13595875819306,0.7612477259137073,79.16810594371334,1480.0,1033.0,1200.0,1528.0,1518.0,1021.7000000000002,250.0,289.15,1637066781.87924,1637066783.4929905,6fc11ca5-7bd1-422e-8e65-a79f34d0d23b
-0.0002788969175357,0.1095062713029828,0.0224412770833996,-0.1417047331927879,-0.111198466692247,0.1331030241830264,-0.2197138923956017,-0.240526218359652,-14.15129310202916,19.15693368397131,14.701563223590416,0.7420825951488771,0.3997693185267156,0.4486765162517854,1982.614738913144,12.010176470588236,0.2588235294117647,179.11911470814815,0.770445121795153,79.07116747947833,1480.0,1435.0,1200.0,1173.0,1518.0,1021.7000000000002,250.0,289.15,1637066785.4233265,1637066786.972582,bac79b45-af3d-4256-b99f-5f75c02aa1bc
-0.0063311645559684,0.1089197363336835,0.0223768226876857,-0.1405187722807118,-0.1112822574104764,0.1329225518829181,-0.2202939820008268,-0.2427692315357688,-14.170361445528258,19.199735370080976,14.746535172155616,0.7392799109580241,0.3971564542348272,0.4496763799071164,1983.4243020450367,12.014411764705882,0.25,179.12162098579768,0.7692452496570522,79.05977191151194,1480.0,1435.0,1200.0,1173.0,1518.0,1021.7000000000002,250.0,289.15,1637066787.081855,1637066788.821932,bac79b45-af3d-4256-b99f-5f75c02aa1bc
-0.0007494139990684,0.1093257990045623,0.0219320873682095,-0.1405961175512702,-0.1115400750000917,0.1323553532363238,-0.2205324632857173,-0.2450122447817093,-14.159672991692387,19.163694730715093,14.710107179136717,0.7379183227063789,0.3989073640538957,0.4509926499379204,1982.641766716452,12.012823529411762,0.2552941176470588,179.13002533268346,0.7773161634063643,79.01259217893212,1480.0,1435.0,1200.0,1173.0,1518.0,1021.7000000000002,250.0,289.15,1637066788.932593,1637066790.6595335,bac79b45-af3d-4256-b99f-5f75c02aa1bc
-0.0110041081831673,0.1080302657201319,0.0169046446274899,-0.140357636273896,-0.1159745375373263,0.1343534393868309,-0.2253665433152534,-0.251999101758867,-14.19998638858122,19.168019980563177,14.807051221473404,0.741643833965411,0.3931264404132928,0.4707203011334287,1983.3702895220588,12.018117647058824,0.24,179.126973443452,0.7766125346446524,78.98445903151668,1480.0,1435.0,1200.0,1351.0,1518.0,1021.7000000000002,250.0,289.15,1637066791.8028295,1637066793.5263608,0261e175-78a6-435f-83f3-9423d0696750
-0.0036369708727609,0.1082494106539503,0.0176716519222637,-0.1409957348236021,-0.1155813657077139,0.1345403571187536,-0.2246833266657557,-0.2496400707151454,-14.19069946938255,19.18849897911814,14.785917815939053,0.7436785126695898,0.3941974765353279,0.4681557210331529,1981.239954331342,12.016117647058822,0.2494117647058823,179.14493362676245,0.7901644743149829,78.99749625553892,1480.0,1435.0,1200.0,1351.0,1518.0,1021.7000000000002,250.0,289.15,1637066793.636717,1637066795.382045,0261e175-78a6-435f-83f3-9423d0696750
-0.0142139370268713,0.1088037184275173,0.0179294694989853,-0.14124710697825,-0.1154266751548489,0.1345725843134795,-0.2241870277805349,-0.2477064386491632,-14.16637041622233,19.170376004640826,14.83776321003447,0.7442311747615185,0.3956917544236327,0.4670494118037199,1980.7819896024816,12.016764705882352,0.2447058823529412,179.12660863099512,0.7854753077564941,79.01313658518657,1480.0,1435.0,1200.0,1351.0,1518.0,1021.7000000000002,250.0,289.15,1637066795.5154,1637066797.2224302,0261e175-78a6-435f-83f3-9423d0696750
-0.0058993201225066,0.1075587570503372,0.012951359146728,-0.1401993511567224,-0.1195280820001542,0.1350888392011048,-0.2290289167281908,-0.2540999434730799,-14.199781248180052,19.14748153839836,14.837544503500972,0.7426112881255846,0.3908158292805436,0.4861594759827157,1980.0282556870404,12.015117647058824,0.2452941176470588,179.14496094751908,0.7750270864001843,79.0207229164753,1480.0,1435.0,1200.0,1528.0,1518.0,1021.7000000000002,250.0,289.15,1637066798.303175,1637066799.876239,46ac1baa-3dae-46c7-bb90-ebbee1498226
-0.0049890257532461,0.1074892206772405,0.0126416062091128,-0.1411981464263121,-0.1199832291991105,0.1360686699067967,-0.2294840639452311,-0.256388322665716,-14.231953308348777,19.171434858464924,14.833343495290949,0.7471926375361488,0.390923707590418,0.4877942367573911,1979.194673426011,12.016176470588237,0.2411764705882352,179.13870288713605,0.7777798378292475,79.03990851607801,1480.0,1435.0,1200.0,1528.0,1518.0,1021.7000000000002,250.0,289.15,1637066799.9869163,1637066801.524772,46ac1baa-3dae-46c7-bb90-ebbee1498226
-0.0033727078496659,0.1070570043962232,0.0129600357072396,-0.1405123268493049,-0.1195646474674343,0.135300918936552,-0.2292724799820499,-0.2494660438396182,-14.226960923013666,19.1739152927496,14.755806173956223,0.7439428095591216,0.3898902999274784,0.4863356372073276,1975.9217672909008,12.016176470588237,0.25,179.1365630290467,0.7721743398716774,79.05991655081199,1480.0,1435.0,1200.0,1528.0,1518.0,1021.7000000000002,250.0,289.15,1637066801.641971,1637066803.363431,46ac1baa-3dae-46c7-bb90-ebbee1498226
-0.0049131678867918,0.1056390077654352,0.0060698609553073,-0.1386818219513242,-0.1253075342888194,0.1352815826152868,-0.2362722278990022,-0.2620668792644505,-14.274897371470397,19.149174430440446,14.74225061940922,0.7392368020012762,0.3843687811029727,0.5133178572640867,1967.728759765625,12.016999999999998,0.2452941176470588,179.1351728846627,0.7769394640348191,79.0238013229118,1480.0,1435.0,1200.0,1706.0,1518.0,1021.7000000000002,250.0,289.15,1637066806.312952,1637066807.8664818,ae50fe45-df86-4000-981d-12a515a424bd
-0.0082841327362927,0.1056325623262987,0.0055542257996059,-0.1400547006355783,-0.1259649691453345,0.1370347420686129,-0.236530045502382,-0.2633495218436692,-14.289730928354674,19.15754129732133,14.807823012549497,0.7463060389001835,0.3840049127188188,0.5153491113868556,1969.45749798943,12.016117647058824,0.248235294117647,179.1528807527497,0.7764883294123649,79.03934763701443,1480.0,1435.0,1200.0,1706.0,1518.0,1021.7000000000002,250.0,289.15,1637066807.9770043,1637066809.5115187,ae50fe45-df86-4000-981d-12a515a424bd
-0.0149229353854946,0.106032179558823,0.0065726052337352,-0.1391394481862298,-0.1252172981295576,0.1368671606519551,-0.2356728019700235,-0.2595724939424662,-14.264684705972682,19.17602560243976,14.966243151285736,0.744075979698899,0.3838745617493379,0.5120118065378225,1969.2977869370404,12.017117647058823,0.2441176470588235,179.15219291252265,0.7780777326376943,79.05090994195173,1480.0,1435.0,1200.0,1706.0,1518.0,1021.7000000000002,250.0,289.15,1637066809.6436436,1637066811.3485565,ae50fe45-df86-4000-981d-12a515a424bd
-0.0081810057009061,0.1048204369828477,0.0030147226613762,-0.1375732063038618,-0.1283497818558651,0.1363837527162595,-0.2396496384977884,-0.2598238660846424,-14.28617192799265,19.19802462126964,14.904645464667468,0.7394046797737504,0.3796097947800297,0.5265464945971153,1971.9627111098343,12.012352941176468,0.2541176470588235,179.14560619950777,0.7798716585955328,79.03966945945706,1480.0,1435.0,1200.0,1883.0,1518.0,1021.7000000000002,250.0,289.15,1637066813.481163,1637066815.0068104,ab42fe4e-330c-412e-96d1-06832bb4c977
-0.0083204503061736,0.1044359417423774,0.001465214226883,-0.1388844814452967,-0.129787858630307,0.1371496444253502,-0.2407552793768202,-0.2671411759831409,-14.2846775703865,19.177997843774016,14.77840110640869,0.7438543692005108,0.3793389035466004,0.5319647412607541,1974.341172162224,12.01258823529412,0.2535294117647059,179.13548948401944,0.7718408627909736,78.99230852597636,1480.0,1435.0,1200.0,1883.0,1518.0,1021.7000000000002,250.0,289.15,1637066815.1149333,1637066816.6732142,ab42fe4e-330c-412e-96d1-06832bb4c977
-0.0098697108352422,0.1042016748162712,-2.7524759279806688e-05,-0.1377472331863855,-0.1311277663991739,0.1377244040623432,-0.2426725499058559,-0.2610291633835671,-14.318540909237749,19.208069441150247,14.962926587077565,0.7427179657063099,0.3768303505491543,0.5387601550589723,1972.631010167739,12.013117647058824,0.25,179.1307597789072,0.7717231801382337,78.98011462942874,1480.0,1435.0,1200.0,1883.0,1518.0,1021.7000000000002,250.0,289.15,1637066816.78481,1637066818.5146189,ab42fe4e-330c-412e-96d1-06832bb4c977
0.0153448482445084,0.1333608416831054,-0.0782042618578081,-0.2377224576344643,-0.1618789606848979,0.201450457824395,-0.2458565983945103,-0.2649157643614014,-14.620173589008589,12.32089015880404,14.767802432434484,1.0617069683601787,0.497295517020469,0.6967334499572522,6337.03116383272,11.623235294117643,12.08941176470588,179.07889614366007,0.6540954733823986,74.77324121283613,1955.0,1435.0,1400.0,1528.0,1895.0,1021.7000000000002,250.0,289.15,1637066821.4680698,1637066823.0677712,eea6af66-f263-469c-b87b-5880c5b7b4e3
0.0085900277283551,0.1303959396859894,-0.0880528933614479,-0.2416735103073956,-0.172584836097332,0.2079410158934615,-0.2554022947398529,-0.2758343398452574,-14.634525090824924,12.462773759925172,14.684043043909156,1.0856343173175202,0.4868837803192549,0.7377512459165908,7808.910845588235,11.62894117647059,11.868235294117644,179.08432252806776,0.4378229478710764,64.66668342116998,1955.0,1435.0,1400.0,1528.0,1895.0,1021.7000000000002,250.0,289.15,1637066823.1780615,1637066824.6626244,eea6af66-f263-469c-b87b-5880c5b7b4e3
0.0026279962250444,0.1318719452946671,-0.0839407032025965,-0.231863551224901,-0.1668355040131635,0.1968290788835251,-0.2522246934450451,-0.2786703338859991,-14.5347004089397,12.310132495826862,14.623563584047488,1.037768937590399,0.4912994784216036,0.7201026198776816,7820.64404296875,11.626117647058823,11.888823529411765,179.09496878410462,0.3245625051897929,56.02763416003148,1955.0,1435.0,1400.0,1528.0,1895.0,1021.7000000000002,250.0,289.15,1637066824.7715228,1637066826.5037644,eea6af66-f263-469c-b87b-5880c5b7b4e3
0.0063599056681624,0.1251364613271473,-0.0777530808973173,-0.2285377010024272,-0.1572769164728742,0.2003998535992627,-0.2411836538555897,-0.2636073397695975,-14.444553144449934,12.050509693774227,14.69729294285898,1.0369348039715665,0.4647241926574145,0.6824167319862796,7820.64404296875,11.645117647058823,11.912352941176474,179.13015711515686,0.2880644116006725,42.72962106024933,1717.0,1435.0,1400.0,1528.0,1706.0,1021.7000000000002,250.0,289.15,1637066828.4312818,1637066829.981053,a8f160ec-3548-48c1-9706-707585fd7349
0.0068304227570525,0.1253556062922585,-0.0757098764527969,-0.2366847377555357,-0.1566517087032202,0.2081988345286909,-0.2379544884802654,-0.2620088707387857,-14.491919958649786,12.116409813607383,14.789721731813351,1.0733673625690374,0.4661958966504991,0.6742076942457942,7826.105641084559,11.643,11.926470588235292,179.13204867578114,0.365946936827707,38.96714044251319,1717.0,1435.0,1400.0,1528.0,1706.0,1021.7000000000002,250.0,289.15,1637066830.090913,1637066831.623185,a8f160ec-3548-48c1-9706-707585fd7349
0.0001271657408013,0.1253169336116665,-0.0776306172194749,-0.2337778440484671,-0.1579085692179079,0.2054401865600672,-0.2400685926691743,-0.2631303772129459,-14.463457226788314,12.071122333149466,14.757575483584034,1.06022441910271,0.4656538761504514,0.6815617592675538,7827.7861328125,11.64064705882353,11.974117647058824,179.11854981132615,0.4207260034805035,35.83705036633143,1717.0,1435.0,1400.0,1528.0,1706.0,1021.7000000000002,250.0,289.15,1637066831.7337053,1637066833.4626162,a8f160ec-3548-48c1-9706-707585fd7349
-0.011584197859028,0.1127547724648181,-0.0735055369902158,-0.2133458001467325,-0.1506187777849015,0.1986789205991223,-0.2369747830005576,-0.2635751133788983,-14.38113204138638,12.201643178820284,14.74706673300715,1.0000516717028822,0.4157966951939799,0.6602532450259919,7827.7861328125,11.64064705882353,11.94,179.11391251465554,0.6645239794730022,31.12474395559748,1480.0,1435.0,1400.0,1528.0,1518.0,1021.7000000000002,250.0,289.15,1637066835.3945408,1637066836.944553,3cd92a2c-74c2-4bcc-b601-80a0321e853c
-1.7430387315279174e-06,0.1108855952649841,-0.0767024738675719,-0.217651353363842,-0.153055152971509,0.2027653293270744,-0.2378320249069596,-0.2613192085542621,-14.37037177691315,12.097436656201175,14.489749842055089,1.0180610658331843,0.4113162485817781,0.6685734310878877,7826.950712316177,11.638941176470588,11.981176470588236,179.1119775622413,0.7000469144616027,29.596547587190905,1480.0,1435.0,1400.0,1528.0,1518.0,1021.7000000000002,250.0,289.15,1637066837.0540802,1637066838.7914798,3cd92a2c-74c2-4bcc-b601-80a0321e853c
-0.0028764090519082,0.1120522197631277,-0.0772503364515854,-0.2171421626530144,-0.1542991230867725,0.2000453545374116,-0.2401846106976079,-0.266559351532708,-14.410042268780495,12.18045918875297,14.320386248591614,1.0112764296613224,0.4173776271628348,0.6742090786419016,7827.7861328125,11.64129411764706,11.95058823529412,179.090937365391,0.7498275993994667,28.557490495328747,1480.0,1435.0,1400.0,1528.0,1518.0,1021.7000000000002,250.0,289.15,1637066838.900416,1637066840.427827,3cd92a2c-74c2-4bcc-b601-80a0321e853c
0.0013904718756251,0.1092291173733538,-0.0691548642666653,-0.2418604248465005,-0.1484273273690076,0.2288049037736418,-0.2216861976816538,-0.2436715934611799,-14.229354724281148,12.02847338446732,14.882729854745795,1.1312374828712228,0.404080356887697,0.6292622075693532,7834.100040211397,11.637529411764705,11.989999999999998,179.06618636694222,0.9244418155565396,26.808953530069022,1242.0,1435.0,1400.0,1528.0,1330.0,1021.7000000000002,250.0,289.15,1637066842.8056097,1637066844.532129,ee487740-1196-4e17-a3de-78b27ef66afc
0.0035239123430761,0.1088617273540576,-0.069844526225532,-0.2407840371147503,-0.1490203077445542,0.2276511699639995,-0.222994622140762,-0.2467718502559741,-14.251430670265686,12.054192432929366,14.800613052831531,1.1263287737019727,0.4034106571252184,0.6326960423978043,7834.100040211397,11.636352941176469,12.00058823529412,179.05142994412833,0.9652477449244596,26.3733035742381,1242.0,1435.0,1400.0,1528.0,1330.0,1021.7000000000002,250.0,289.15,1637066844.668507,1637066846.1689136,ee487740-1196-4e17-a3de-78b27ef66afc
-0.002741054826428,0.1094998257868836,-0.0715203407321147,-0.2405197744231305,-0.1508637037330756,0.2272515524645062,-0.2242321467744,-0.2485572371775482,-14.175682542500237,12.024063678691432,14.855986229388622,1.1245984528917865,0.4046377314537269,0.6394760693370426,7831.153550091912,11.63735294117647,11.93470588235294,179.03863499093367,0.988004987299085,25.923836145716244,1242.0,1435.0,1400.0,1528.0,1330.0,1021.7000000000002,250.0,289.15,1637066846.3044937,1637066847.8029568,ee487740-1196-4e17-a3de-78b27ef66afc
-0.007091726492113,0.0904277710591441,-0.0457643643482213,-0.2094269715606483,-0.1240506744544652,0.2146958370457225,-0.2028590678238476,-0.2210996625849817,-14.009308639541544,12.558158602004614,14.6589974659636,1.0311217410847775,0.3314879432887533,0.535001028324528,7827.7861328125,11.626823529411766,12.001764705882351,179.01632839665606,0.9990080579426264,25.11246029607376,1005.0,1435.0,1400.0,1528.0,1141.0,1021.7000000000002,250.0,289.15,1637066850.959726,1637066852.7181432,c3006338-7d9b-45e9-b366-90b48b9b9aef
0.003478794263854,0.0884812484426267,-0.0489290750796086,-0.2179349522775784,-0.1284980277308772,0.224022387576102,-0.2037743202604236,-0.2291177899817814,-13.974665990703237,12.61514229929117,14.58344049688602,1.071497229815608,0.3254596225112028,0.5462596024259451,7827.7861328125,11.628058823529411,11.967647058823529,179.01585189051752,1.0100793865336362,25.04577665698713,1005.0,1435.0,1400.0,1528.0,1141.0,1021.7000000000002,250.0,289.15,1637066852.8271573,1637066854.31729,c3006338-7d9b-45e9-b366-90b48b9b9aef
-0.0065503095638439,0.0914203687348116,-0.0434311149910322,-0.2149249317137944,-0.1214402710821844,0.2218953927758372,-0.1973353258035439,-0.2181154238873652,-13.982850103882782,12.41429393872489,15.13257566328653,1.058953448870542,0.3316486017311739,0.5212178430781441,7827.7861328125,11.627,11.975882352941175,179.0045210084603,1.0032740823543127,24.979397061762523,1005.0,1435.0,1400.0,1528.0,1141.0,1021.7000000000002,250.0,289.15,1637066854.426259,1637066855.9906025,c3006338-7d9b-45e9-b366-90b48b9b9aef
0.0033498854453298,0.1133670893335858,-0.1132738987699147,-0.4910540464578676,-0.2227303588301744,0.4698385362190652,-0.207860728849293,-0.2295367433636687,-14.449489136653249,12.20685685456761,16.984437015463026,2.2342019023107804,0.4304181296072911,0.7719730588310516,7827.7861328125,11.636705882352942,11.934117647058825,179.018949582194,1.0426292117428506,24.940000631073843,1480.0,1837.0,1400.0,1528.0,1518.0,1021.7000000000002,250.0,289.15,1637066857.922559,1637066859.476464,0f48144a-2882-4999-a0cb-9aabde08c5c4
0.0059155421707174,0.1139687462429922,-0.1116451860293242,-0.48726809460096,-0.2209437326435497,0.4676560114096112,-0.2071312790008641,-0.2274864739191023,-14.449910241910215,12.226888616990996,17.262250543550984,2.221015262926063,0.4298528947316487,0.766770225187731,7827.7861328125,11.638176470588236,11.933529411764706,179.0040035211867,1.026787441736652,24.95557938857502,1480.0,1837.0,1400.0,1528.0,1518.0,1021.7000000000002,250.0,289.15,1637066859.5864944,1637066861.3152382,0f48144a-2882-4999-a0cb-9aabde08c5c4
0.0060247428196044,0.1133864256578735,-0.1118301208436042,-0.4955529675209695,-0.2222211697100835,0.4764966739284907,-0.2050956356138059,-0.2256050252382228,-14.441919995928552,12.245590099038392,17.360178427729437,2.259704453754982,0.4277529915952235,0.7658568323110595,7826.199001736111,11.63561111111111,11.947777777777778,179.01766519413778,0.9666089879545048,24.98529548813282,1480.0,1837.0,1400.0,1528.0,1518.0,1021.7000000000002,250.0,289.15,1637066861.4259748,1637066863.1701396,0f48144a-2882-4999-a0cb-9aabde08c5c4
0.0024346330210397,0.1138827244142194,-0.0988167780355127,-0.3718714020558623,-0.1933907164234349,0.3563536949177566,-0.2214541626331573,-0.2401588290400012,-14.415715567589745,12.087294079826156,16.529927382691657,1.7102112866098471,0.4223818832036488,0.7321979517186363,7820.64404296875,11.64394117647059,11.91941176470588,179.02739651731818,0.9849910847171008,25.088115492992664,1480.0,1636.0,1400.0,1528.0,1518.0,1021.7000000000002,250.0,289.15,1637066865.3526,1637066866.849699,886954be-50c7-4e3a-92a7-64e32297ac86
0.0007888148501622,0.113298668528165,-0.1016509123913319,-0.3768569503981063,-0.1961445308441659,0.3607533267123915,-0.2230614323791384,-0.2460526882917587,-14.461524982320238,12.056556953920502,16.404974652838654,1.730956163723551,0.422056636620555,0.7417903533421538,7827.7861328125,11.64325,11.915,179.05380951172435,0.943592361394874,25.190573503406704,1480.0,1636.0,1400.0,1528.0,1518.0,1021.7000000000002,250.0,289.15,1637066866.9587066,1637066868.6919353,886954be-50c7-4e3a-92a7-64e32297ac86
0.002073688424628,0.111936201821258,-0.1048754911597985,-0.3711946318334226,-0.1995976750044743,0.3567984299634485,-0.2290082178578266,-0.2502137153484244,-14.496803458053932,12.218208462560945,16.357162325067623,1.7101818442954568,0.4167211777233713,0.7590824099464863,7827.7861328125,11.641470588235292,11.92470588235294,179.04655238550927,0.982051359998382,25.299251706831505,1480.0,1636.0,1400.0,1528.0,1518.0,1021.7000000000002,250.0,289.15,1637066868.8014042,1637066870.327172,886954be-50c7-4e3a-92a7-64e32297ac86
-0.0133309118498508,0.1133026349224863,-0.0777015170536685,-0.2149507141602311,-0.1565034633481413,0.2067357195225463,-0.2411578719413617,-0.2614158900315874,-14.360397039524544,12.369600702234123,15.723643565318856,1.022847255841173,0.4089838243905751,0.6813189720522089,7820.64404296875,11.642941176470586,11.91764705882353,179.07548587038514,0.872000442355217,25.37810583902348,1480.0,1435.0,1400.0,1528.0,1518.0,1021.7000000000002,250.0,289.15,1637066872.463293,1637066874.222303,b26c1aa9-60f0-429b-bcbd-dbd85d88a6ce
-0.0078651792204535,0.1137151430535448,-0.0784362979749949,-0.2130557544012204,-0.1566774909924617,0.2030231470608904,-0.2426338787025643,-0.2668880693192575,-14.380997402831284,12.335378234623311,15.493538462665388,1.0099195430214742,0.4124357290225964,0.6844007353619257,7820.64404296875,11.643470588235292,11.933529411764706,179.0746059813096,0.8998195705680252,25.387480976767023,1480.0,1435.0,1400.0,1528.0,1518.0,1021.7000000000002,250.0,289.15,1637066874.330497,1637066876.0613215,b26c1aa9-60f0-429b-bcbd-dbd85d88a6ce
-0.005422357631723,0.1134122074487114,-0.0765413379393768,-0.2116764305443431,-0.1558073558227474,0.2003225080310385,-0.2424598510324686,-0.2699367622953616,-14.376989037566606,12.464444640518604,15.254520758426496,1.0016532999031025,0.4133420689331043,0.6799729196646412,7820.64404296875,11.642411764705884,11.925294117647056,179.07158623414483,0.823536998320824,25.47518763678707,1480.0,1435.0,1400.0,1528.0,1518.0,1021.7000000000002,250.0,289.15,1637066876.171455,1637066877.9082248,b26c1aa9-60f0-429b-bcbd-dbd85d88a6ce
-0.0058670929825051,0.1146561771801945,-0.0764382114615262,-0.219133804236278,-0.1556011023032976,0.2087531425703498,-0.238972868745321,-0.2687250196942979,-14.361032136092684,12.320043433625308,15.66529599490642,1.036541463580679,0.4151763332080077,0.6753216221281805,7820.64404296875,11.643941176470587,11.918235294117649,179.08493162023137,0.8103290101527323,25.72827346629273,1480.0,1435.0,1400.0,1528.0,1518.0,1021.7000000000002,250.0,289.15,1637066880.4508636,1637066882.2090294,1fb67851-cdd7-4897-81fd-e28e5306b876
-0.0096699022224541,0.1147206315561407,-0.0770956456443187,-0.2133135721379513,-0.155278829657485,0.2038159361112108,-0.2409838451933105,-0.2660566072152163,-14.385265742302671,12.305364139813964,15.724303852142564,1.0121850447597094,0.4143080887432003,0.6787731664865748,7820.64404296875,11.642470588235296,11.93235294117647,179.0769499415225,0.7937805070387334,25.71344552738046,1480.0,1435.0,1400.0,1528.0,1518.0,1021.7000000000002,250.0,289.15,1637066882.319175,1637066884.0525482,1fb67851-cdd7-4897-81fd-e28e5306b876
-0.0070981719220119,0.1143339051533784,-0.0767218104572058,-0.2125852369510699,-0.1547116312615675,0.2051050241196617,-0.2399654659099747,-0.2630401412426573,-14.355528486277723,12.286082471556544,15.954328030837711,1.0133812820475936,0.4105421566272171,0.6763538186773128,7826.94588694853,11.642941176470586,11.937647058823528,179.09643928365531,0.786739868942667,25.755121734592542,1480.0,1435.0,1400.0,1528.0,1518.0,1021.7000000000002,250.0,289.15,1637066884.1616669,1637066885.6915896,1fb67851-cdd7-4897-81fd-e28e5306b876
-0.006139536766356,0.1135704925069033,-0.0775091461611601,-0.2139648088149713,-0.1550674943478895,0.2061676538745832,-0.2400535952447547,-0.2643091494194269,-14.371696113507936,12.2453140386954,15.8157509510906,1.0185414378311886,0.4091407812380546,0.6777427254265974,7827.7861328125,11.643235294117645,11.93,179.08990078374046,0.783573636820048,25.8569049122722,1480.0,1435.0,1400.0,1528.0,1518.0,1021.7000000000002,250.0,289.15,1637066888.2852042,1637066889.9888875,6adc9539-0690-4efa-9b54-a5e340f79ea2
0.0007394824791918,0.1150944670509297,-0.080015430276855,-0.2131008723011591,-0.1576894246087556,0.2049954515961069,-0.2433622131693872,-0.2655925357228526,-14.386166724152508,12.25535358601662,15.951967107298485,1.0139147003488955,0.4134866675550874,0.6898108542773096,7827.7861328125,11.642235294117649,11.924117647058823,179.07042429843426,0.7568860411871562,25.93905631828599,1480.0,1435.0,1400.0,1528.0,1518.0,1021.7000000000002,250.0,289.15,1637066890.0998278,1637066891.8347416,6adc9539-0690-4efa-9b54-a5e340f79ea2
-0.0125123410344182,0.1153587300777456,-0.0782880521955671,-0.212984853955949,-0.1561811915093692,0.2047054069924184,-0.2411514266107096,-0.2673650313960454,-14.3238117880946,12.23429580039616,15.977798778832549,1.0129831453303113,0.4139024013059816,0.682375966022271,7827.7861328125,11.644999999999998,11.92,179.069145847732,0.7530385479168079,25.975040366376533,1480.0,1435.0,1400.0,1528.0,1518.0,1021.7000000000002,250.0,289.15,1637066891.9485867,1637066893.8797493,6adc9539-0690-4efa-9b54-a5e340f79ea2
0.0698088107925693,0.1526907137607558,0.1632354518034425,-0.2169423556732145,0.0615135299250472,0.1596840139103449,-0.0003820248213564,-0.0180103013264365,-12.755691234831874,12.41286649640123,16.10584939922067,0.934761006702626,0.5574879404446844,-0.2804731493202426,7827.7861328125,11.638882352941176,11.923529411764706,179.0635499139226,0.7774645724937481,26.04482531312217,1480.0,1435.0,1400.0,1173.0,1518.0,1021.7000000000002,250.0,289.15,1637066895.4009285,1637066896.950082,4d2555b3-d441-4f1f-b536-d70553585ac2
0.0877917153526678,0.154771172617289,0.1639292389373748,-0.2146677579063361,0.0615008969439743,0.1542912450145804,-0.0011986616943785,-0.0269372349171373,-12.69816447771657,12.440620667904597,15.925761825199256,0.9177305818843138,0.5662442788718283,-0.2801924130784094,7827.7861328125,11.639588235294116,11.918235294117649,179.07735011025264,0.7238399349350688,26.07918136553526,1480.0,1435.0,1400.0,1173.0,1518.0,1021.7000000000002,250.0,289.15,1637066897.0611565,1637066898.7932394,4d2555b3-d441-4f1f-b536-d70553585ac2
0.0644001848895906,0.1539756765495725,0.1611877356867996,-0.2134317809670236,0.05953516671655,0.1564476309421531,-0.0036377452732907,-0.0303098758047156,-12.743769651764197,12.426742344931732,16.263560713266962,0.9195905888042806,0.5602633568780735,-0.2699404906958376,7827.7861328125,11.638176470588236,11.92,179.082128028465,0.7011170381164628,26.09611832624168,1480.0,1435.0,1400.0,1173.0,1518.0,1021.7000000000002,250.0,289.15,1637066898.9043925,1637066900.641003,4d2555b3-d441-4f1f-b536-d70553585ac2
0.0274945015338891,0.1380273396765564,0.0524383513896617,-0.219900811410727,-0.0392738064716087,0.184324928362481,-0.1092970626680366,-0.1333127708598174,-13.404552184626422,12.278720135246015,16.338035773309226,0.9901101463516464,0.4983640175225058,0.1610318582237035,7827.7861328125,11.643058823529412,11.909411764705885,179.0966996343955,0.6992462819470829,26.139038230546458,1480.0,1435.0,1400.0,1351.0,1518.0,1021.7000000000002,250.0,289.15,1637066901.8016224,1637066903.3040798,1ba96c80-e144-44e3-bcb4-00c54adad918
0.0368983975494626,0.1376341678449504,0.0511621541264323,-0.2185923873901755,-0.0396863147984436,0.1839317565059893,-0.111179131653008,-0.1327777997274309,-13.50503173489516,12.271817769668528,16.387087693461144,0.9861230902627152,0.4969236915693902,0.1659786190974938,7827.7861328125,11.64429411764706,11.90705882352941,179.10957172855015,0.6885385573465443,26.19289276549263,1480.0,1435.0,1400.0,1351.0,1518.0,1021.7000000000002,250.0,289.15,1637066903.4122288,1637066904.8518412,1ba96c80-e144-44e3-bcb4-00c54adad918
0.0416193100428486,0.1386351941609573,0.0522583747636385,-0.2220879222716262,-0.0386067035945077,0.1859768203035806,-0.1078333282778915,-0.1278092330754026,-13.40506031774756,12.142410093102832,16.377791906863997,0.9978492585680854,0.5005506391164734,0.1584505570569409,7827.7861328125,11.64423529411765,11.908235294117643,179.0940406819292,0.7130513215592952,26.093350090748658,1480.0,1435.0,1400.0,1351.0,1518.0,1021.7000000000002,250.0,289.15,1637066904.9617598,1637066906.5828707,1ba96c80-e144-44e3-bcb4-00c54adad918
-0.0014519669210554,0.1196965106630319,-0.070373052377234,-0.215936865322887,-0.1492201165266975,0.206232976037065,-0.2328432543730605,-0.2614094446802067,-14.324290026586734,12.191473677485265,16.475410476432366,1.023264133905811,0.4266292791143686,0.6514947135786422,7827.7861328125,11.639588235294116,11.902941176470588,179.09909421836332,0.71870846968359,25.93653607892621,1480.0,1435.0,1400.0,1528.0,1518.0,1021.7000000000002,250.0,289.15,1637066909.532036,1637066911.0817783,9c835c8e-cfc8-4f75-802a-99c1208d1766
0.0115033663505151,0.1188650489616529,-0.0736473357893842,-0.2142030424229813,-0.1524686182502766,0.2037772635563267,-0.2367169643472019,-0.2604490743587337,-14.289123183196605,12.215682363199154,16.209623565653246,1.0138075193676015,0.4251969203668458,0.6654522203878678,7827.7861328125,11.643058823529412,11.90529411764706,179.10003276671046,0.7085163741434082,25.915864310515254,1480.0,1435.0,1400.0,1528.0,1518.0,1021.7000000000002,250.0,289.15,1637066911.190972,1637066912.7980864,9c835c8e-cfc8-4f75-802a-99c1208d1766
0.0015709441539719,0.1175372885145258,-0.0750266599227176,-0.2163235918523905,-0.1533387526563549,0.2083019619183929,-0.2365558280894834,-0.2586894690795269,-14.30465761873756,12.173382753811142,16.386106883354348,1.0284297831777462,0.4189357189965396,0.6683642806062562,7827.7861328125,11.64394117647059,11.901764705882352,179.09373533229572,0.6765271015549372,25.94403622929864,1480.0,1435.0,1400.0,1528.0,1518.0,1021.7000000000002,250.0,289.15,1637066912.9070408,1637066914.5691743,9c835c8e-cfc8-4f75-802a-99c1208d1766
-0.0441316841679462,0.0969323348498397,-0.2011069004024468,-0.197370899526577,-0.26782389840347,0.2188864885492134,-0.3691131265142594,-0.3896326812495417,-15.136564769559048,12.439090415338468,16.50710304321066,1.0045459779104111,0.3361484726389167,1.182044590577899,7827.7861328125,11.63964705882353,11.90470588235294,179.1001259787038,0.6987981418101381,26.02006165873464,1480.0,1435.0,1400.0,1706.0,1518.0,1021.7000000000002,250.0,289.15,1637066916.495082,1637066918.0460246,376a7578-3cab-4fec-96d7-7d972a19cce0
-0.0513783414174399,0.0964993748606357,-0.2075384573698791,-0.1889691451426699,-0.2720959852895098,0.2130909228352391,-0.377092209221519,-0.4001862220911468,-15.198896652018886,12.379025091532665,16.668216246246665,0.971846145673218,0.332094656048902,1.208220337988012,7827.7861328125,11.639411764705883,11.919411764705885,179.12275881495822,0.7153464503139678,26.074711308055367,1480.0,1435.0,1400.0,1706.0,1518.0,1021.7000000000002,250.0,289.15,1637066918.1551638,1637066919.834608,376a7578-3cab-4fec-96d7-7d972a19cce0
-0.0469761061756291,0.0953972047659431,-0.2092271622899388,-0.1944348782971211,-0.2740167261558289,0.2177574207397371,-0.3770986542911598,-0.3973308917580281,-15.1919900033933,12.35218015400256,16.456471468130882,0.9943694231536956,0.330354091724953,1.2126834371357034,7828.627987132353,11.64258823529412,11.90470588235294,179.11025956877717,0.7044148016025837,26.07295735565409,1480.0,1435.0,1400.0,1706.0,1518.0,1021.7000000000002,250.0,289.15,1637066919.9468815,1637066921.534871,376a7578-3cab-4fec-96d7-7d972a19cce0
-0.0823357878724154,0.0805275762105462,-0.3070560530174049,-0.1561167376374818,-0.3633183021143993,0.2047569700464822,-0.4890043971389642,-0.5066326775209624,-15.824629321795417,12.904266802209344,16.742251103576674,0.8772350611399881,0.2656185015980942,1.625267703348748,7834.94189453125,11.632529411764708,11.921764705882351,179.1192569367932,0.7358064420552997,26.01999988570023,1480.0,1435.0,1400.0,1883.0,1518.0,1021.7000000000002,250.0,289.15,1637066924.4824994,1637066926.240142,a45065a1-8501-41e0-8a77-b4a2eb0f455b
-0.0726031740311653,0.0804824582435701,-0.3064437369593419,-0.160009783003208,-0.3629444673018318,0.2066197023891267,-0.48824383561956,-0.5110606958531212,-15.893947420966136,12.914769650580954,16.496828088065996,0.890228725062596,0.2686333891559445,1.6224024673162882,7834.94189453125,11.634058823529411,11.91470588235294,179.11768679683576,0.6895260815400033,25.912097461187987,1480.0,1435.0,1400.0,1883.0,1518.0,1021.7000000000002,250.0,289.15,1637066926.3495874,1637066927.8763678,a45065a1-8501-41e0-8a77-b4a2eb0f455b
-0.089251744600467,0.0809594207992993,-0.3089703488007539,-0.1614728977937636,-0.3658255785049476,0.2081085989017221,-0.4900485584333768,-0.5138837985187749,-15.8330723292233,12.896898885408609,16.566565680216492,0.8966723865127711,0.2693930112292471,1.6325333841656466,7834.94189453125,11.63729411764706,11.91764705882353,179.1287468819812,0.6873779211296865,25.779741352343773,1480.0,1435.0,1400.0,1883.0,1518.0,1021.7000000000002,250.0,289.15,1637066927.9866924,1637066929.7189548,a45065a1-8501-41e0-8a77-b4a2eb0f455b
0.0181421689418903,0.15697048535212,-0.1656173169196841,-0.293430393419497,-0.2148991507846839,0.2458917620471564,-0.2839878237388394,-0.3076812613080756,-14.802378345968702,7.598399206008956,16.654947248962102,1.25178652237373,0.571647146242352,0.9492339680253944,8778.923282398897,11.277823529411767,22.8,179.1031023340786,0.7381822147530586,25.51473684273645,1955.0,1435.0,1600.0,1528.0,1895.0,1021.7000000000002,250.0,289.15,1637066931.8015385,1637066933.40471,2e056ede-cce2-4a00-a250-42900db962be
0.0130051536175674,0.1569318124683574,-0.1599840016889447,-0.2958152063658369,-0.2082861284742887,0.2477931663754286,-0.2748739705234557,-0.3011455842894825,-14.68752343980697,7.372627974282623,16.666551943178742,1.2602822871095556,0.5712332472449009,0.919735537964008,9863.5517578125,11.280588235294116,22.70294117647059,179.106617872622,0.6752116372539803,23.907059571837607,1955.0,1435.0,1600.0,1528.0,1895.0,1021.7000000000002,250.0,289.15,1637066933.5134716,1637066935.256239,2e056ede-cce2-4a00-a250-42900db962be
0.0126442089948296,0.162294417781129,-0.1585982325015976,-0.2926247140181578,-0.2096525619207,0.238698652009317,-0.2799658691821399,-0.3032983618147258,-14.811540253191383,7.6775543518531,16.521113652691394,1.2346535151903706,0.5932132578534351,0.9272173395792924,9863.5517578125,11.283764705882351,22.75,179.08631855040872,0.6936368227309039,22.729554846831167,1955.0,1435.0,1600.0,1528.0,1895.0,1021.7000000000002,250.0,289.15,1637066935.364747,1637066936.990904,2e056ede-cce2-4a00-a250-42900db962be
0.005644461883579,0.1451559953806501,-0.137592543327909,-0.2896404766503614,-0.1817180247805926,0.2536842973149421,-0.2451604908454952,-0.2712838591969757,-14.51955289823724,7.0762793622994575,16.875225145860714,1.2588599976957062,0.5246826857884006,0.8098838073063707,9852.2138671875,11.303411764705883,22.70117647058823,179.1208809147123,0.6601888088125906,21.22183387889692,1717.0,1435.0,1600.0,1528.0,1706.0,1021.7000000000002,250.0,289.15,1637066938.8189976,1637066940.578565,68464a80-2944-400d-a9a6-288c582c8a42
0.0082033013263176,0.1426293831779735,-0.1407959281320246,-0.2918254785120103,-0.1849794185971703,0.2567716632668531,-0.2470425609846671,-0.2698980908432541,-14.465512231695634,7.08166106293407,16.65635886848445,1.2705950330048752,0.5168297078544214,0.8207741895165609,9852.2138671875,11.302647058823528,22.73,179.12035860612875,0.6788483017945574,20.703798783961048,1717.0,1435.0,1600.0,1528.0,1706.0,1021.7000000000002,250.0,289.15,1637066940.6889696,1637066942.2158806,68464a80-2944-400d-a9a6-288c582c8a42
0.0147260860387562,0.1488750137963758,-0.1308957316980238,-0.2872169892550664,-0.1766776910179349,0.2479994204748034,-0.2410289641005311,-0.2694469090441508,-14.49287277862069,7.180969747623426,16.942590193363838,1.2416701567660997,0.5379733104047081,0.7885497399332756,9852.2138671875,11.300588235294116,22.74941176470588,179.14125818143734,0.6756877604499557,20.30817172778723,1717.0,1435.0,1600.0,1528.0,1706.0,1021.7000000000002,250.0,289.15,1637066942.3246033,1637066944.0373333,68464a80-2944-400d-a9a6-288c582c8a42
0.0016611802261985,0.1211942073531638,-0.1344594404669084,-0.2626971735405333,-0.1727866287159158,0.2462838170725499,-0.2415265027687438,-0.2622989160153119,-14.402569864519364,7.21531361376979,16.036820898339776,1.1824555620440562,0.4382978732167198,0.78445324830533,9840.90234375,11.3,22.764705882352946,179.14476247025738,0.7342500597812884,19.63963371582201,1480.0,1435.0,1600.0,1528.0,1518.0,1021.7000000000002,250.0,289.15,1637066946.3195846,1637066947.9523633,d760ea28-7418-4510-8d04-fc68ac49d0b6
0.0045487371590836,0.1232092749901994,-0.1323008374727628,-0.2668493971713009,-0.170851013012155,0.2501521975978277,-0.2383218792503492,-0.2603072748200936,-14.441756512657538,7.161247637967634,16.345197510014145,1.2002932343958452,0.4440469759385823,0.7749488950209192,9840.90234375,11.294411764705885,22.753529411764703,179.14255752448292,0.6842708065543233,19.34664622251702,1480.0,1435.0,1600.0,1528.0,1518.0,1021.7000000000002,250.0,289.15,1637066948.08693,1637066949.5892286,d760ea28-7418-4510-8d04-fc68ac49d0b6
-0.0053809581065385,0.1221866812242707,-0.1305970099121965,-0.26137598195072,-0.1690443063793499,0.2445833368218483,-0.238732403916219,-0.2651182999695227,-14.457192493627112,7.247538774540065,16.131751090556996,1.1760476558565922,0.4416482323503596,0.770327090281527,9840.90234375,11.29605882352941,22.775294117647064,179.14415739585206,0.7285533649872542,19.14001632642704,1480.0,1435.0,1600.0,1528.0,1518.0,1021.7000000000002,250.0,289.15,1637066949.69942,1637066951.4318454,d760ea28-7418-4510-8d04-fc68ac49d0b6
0.0006299099570562,0.1127096544170412,-0.1261261061740198,-0.3055027069517013,-0.1681245920830408,0.2967720557439808,-0.2161753467568416,-0.2433299852727971,-14.173481542979056,7.069174359687761,16.558771398191098,1.3921128603937192,0.406024264109166,0.7302038851078534,9840.90234375,11.299470588235296,22.770000000000003,179.16877661182747,0.7540587226744888,18.96275513888457,1242.0,1435.0,1600.0,1528.0,1330.0,1021.7000000000002,250.0,289.15,1637066952.8196745,1637066954.2996187,fcdee1dc-25de-481b-88cc-33d3a4c25e57
-0.0008168432686889,0.1139624247338319,-0.1236244077261152,-0.3014542239691717,-0.1651692339778127,0.2921398934674513,-0.2147044229478943,-0.2398007350629958,-14.17376555544693,7.040468786083263,16.620341870043923,1.372515334427013,0.4098388797121427,0.7209597132957934,9840.90234375,11.295941176470588,22.77764705882353,179.17369434802987,0.756497812732513,19.012405190176818,1242.0,1435.0,1600.0,1528.0,1330.0,1021.7000000000002,250.0,289.15,1637066954.4103458,1637066956.1446078,fcdee1dc-25de-481b-88cc-33d3a4c25e57
-0.0015679849204146,0.1131157170001479,-0.1235930491621917,-0.3072816458443147,-0.1646505009181546,0.2999496582133215,-0.2117151039344184,-0.2349509140003392,-14.190140884257287,6.936893686916704,16.86260425236437,1.4025554793137092,0.4053496578489448,0.7161734817183998,9840.90234375,11.295235294117646,22.78,179.17740514962836,0.7234145767434346,19.03345302076796,1242.0,1435.0,1600.0,1528.0,1330.0,1021.7000000000002,250.0,289.15,1637066956.2547429,1637066957.9856265,fcdee1dc-25de-481b-88cc-33d3a4c25e57
-0.0083937053311252,0.0825901169106108,-0.0819748460270725,-0.263310850078452,-0.1211953464808051,0.2824309559348955,-0.1742026443604707,-0.2036711942071483,-13.82550225222218,7.632618427312725,16.171018898109317,1.2707589329359557,0.2916452041353105,0.5425320301493982,9840.90234375,11.282117647058826,22.844117647058823,179.17544126935408,0.7180765798802791,18.95286522585432,1005.0,1435.0,1600.0,1528.0,1141.0,1021.7000000000002,250.0,289.15,1637066959.9130924,1637066961.4636755,0339eb71-5cab-48f0-bc81-18b2f0a77d13
-0.0168307855065715,0.0818166641926738,-0.0815236633063358,-0.2650253406237876,-0.1214982804252311,0.28647869040114,-0.1722303373147611,-0.1988886763611429,-13.715836279467572,7.647272637998556,16.422684078127777,1.2839371337246193,0.2859775368381362,0.5398384889988517,9840.90234375,11.28035294117647,22.826470588235296,179.1875154367033,0.7394589076860798,19.00743512267209,1005.0,1435.0,1600.0,1528.0,1141.0,1021.7000000000002,250.0,289.15,1637066961.5741446,1637066963.1021168,0339eb71-5cab-48f0-bc81-18b2f0a77d13
-0.004339523827743,0.0807789484179853,-0.0843016479528721,-0.264993112650529,-0.1238766477699429,0.2855956655756267,-0.176297409927456,-0.1982312415599888,-13.83943264703455,7.70249906063488,16.130647794767942,1.281999170629961,0.2853694259117821,0.5520089825579647,9834.927849264706,11.283,22.800000000000004,179.1820657492973,0.738939916891991,19.07786722984159,1005.0,1435.0,1600.0,1528.0,1141.0,1021.7000000000002,250.0,289.15,1637066963.211913,1637066964.9480312,0339eb71-5cab-48f0-bc81-18b2f0a77d13
0.0203658454982798,0.1214496700179529,-0.1964587469977334,-0.7282205159736114,-0.28813224161259,0.7004434432402821,-0.1883890566475031,-0.2141385881395223,-14.649023348241002,7.20512804308123,19.66069198464413,3.250418423771271,0.4622673620159845,0.9513057603096854,9829.6171875,11.288058823529411,22.78470588235293,179.18557727008238,0.8481500118817882,19.183278744629902,1480.0,1837.0,1600.0,1528.0,1518.0,1021.7000000000002,250.0,289.15,1637066967.3023193,1637066968.8396063,6b041f63-5c9a-4da9-97b6-d4b1360f36a2
0.0127344451674906,0.1199801098702343,-0.1954597046373303,-0.7180044869361875,-0.2849610855901801,0.6962539079688449,-0.1878283034252169,-0.2139581158636937,-14.64485568522476,7.133836236662729,20.204261627867687,3.217625009734571,0.450712789307028,0.9455369226008272,9829.6171875,11.286352941176473,22.82058823529412,179.19307681779102,0.8668926504891799,19.212306646826622,1480.0,1837.0,1600.0,1528.0,1518.0,1021.7000000000002,250.0,289.15,1637066968.9502726,1637066970.6879504,6b041f63-5c9a-4da9-97b6-d4b1360f36a2
0.0110586310042265,0.1195676018235,-0.1983988232436158,-0.725378074730014,-0.2890603838123661,0.7031698637915714,-0.1898328334269912,-0.20872441756987,-14.683085544640017,7.202446362965779,20.145103853998712,3.2500788957290623,0.4506832143501116,0.9577277841981248,9829.6171875,11.286611111111112,22.80055555555556,179.1764329413947,0.8658039957959072,19.22203508503334,1480.0,1837.0,1600.0,1528.0,1518.0,1021.7000000000002,250.0,289.15,1637066970.822326,1637066972.320481,6b041f63-5c9a-4da9-97b6-d4b1360f36a2
0.0043983848330813,0.1194494766223939,-0.1793356916754162,-0.5242741001594956,-0.244055098549872,0.507013595502151,-0.2181686002120885,-0.2448832129955732,-14.603311647544167,6.92082037610338,18.53718852325117,2.354514402926376,0.4403699870100237,0.9104404610651868,9829.6171875,11.296117647058823,22.7764705882353,179.2008126096898,0.7776194413832056,19.39585753459904,1480.0,1636.0,1600.0,1528.0,1518.0,1021.7000000000002,250.0,289.15,1637066975.3592691,1637066977.027279,bcc876ea-d878-4306-8477-16a4821bbfba
0.0098159006712155,0.1185012534498137,-0.17650998662735,-0.525607934610491,-0.2405150649424056,0.510648451267902,-0.213263125477934,-0.2352302992737278,-14.583603002215982,6.825708533081401,18.777888918490497,2.3652496961084712,0.4348825042892157,0.8950485842866104,9829.6171875,11.293058823529412,22.77058823529412,179.22072863775787,0.8379018121131022,19.45565774921771,1480.0,1636.0,1600.0,1528.0,1518.0,1021.7000000000002,250.0,289.15,1637066977.1367297,1637066978.8806298,bcc876ea-d878-4306-8477-16a4821bbfba
0.0024475239081999,0.1196449470780544,-0.180074437405737,-0.5269229298449657,-0.2448833366308402,0.5098776015313413,-0.2182249969972504,-0.2413125627469366,-14.625843869256828,6.907060706464743,18.62198562140076,2.3667994935692565,0.4407901047831839,0.912765755516762,9829.6171875,11.296058823529412,22.760588235294115,179.2255804827236,0.848827082633129,19.554739687524588,1480.0,1636.0,1600.0,1528.0,1518.0,1021.7000000000002,250.0,289.15,1637066979.0092204,1637066980.718032,bcc876ea-d878-4306-8477-16a4821bbfba
0.0053415262446124,0.1180787053835996,-0.1409506178050036,-0.25595015798191,-0.1781279148414711,0.2456017174221476,-0.2495756180447449,-0.2701107894587481,-14.481075062296904,7.314108820854845,16.33218365523078,1.166042452065937,0.4233101618940235,0.8120400050161919,9829.6171875,11.295235294117646,22.79411764705882,179.2132499823926,0.7670403917711021,19.641436483987064,1480.0,1435.0,1600.0,1528.0,1518.0,1021.7000000000002,250.0,289.15,1637066981.7994373,1637066983.3434503,6c470050-4806-46d0-9788-e01979a7bcc6
-0.0071368445567954,0.1192195480634508,-0.1369673356885506,-0.2565238028165778,-0.1741381873394886,0.2477738299789567,-0.2445997377504269,-0.2702074708400905,-14.46197674298858,7.263466850378638,16.759525202420566,1.1721578446459653,0.4239886129585588,0.7948614868231271,9829.6171875,11.29170588235294,22.77705882352941,179.2266154572708,0.8002731323144857,19.60463492251924,1480.0,1435.0,1600.0,1528.0,1518.0,1021.7000000000002,250.0,289.15,1637066983.4546578,1637066985.015462,6c470050-4806-46d0-9788-e01979a7bcc6
-0.0045780050720723,0.1187168037718675,-0.1380888420830969,-0.2551315880230243,-0.1745700317000605,0.2474644491617864,-0.2448059912470728,-0.2706779877165987,-14.40824959156474,7.1883994404716365,16.823230692505806,1.1678058546031087,0.4209143464185041,0.7973816798354013,9829.6171875,11.296176470588236,22.782941176470587,179.1956586292973,0.7204241372423537,19.60634226892382,1480.0,1435.0,1600.0,1528.0,1518.0,1021.7000000000002,250.0,289.15,1637066985.1249435,1637066986.8686554,6c470050-4806-46d0-9788-e01979a7bcc6
-0.0030439904840703,0.119129311943454,-0.0809435734213334,0.0269208562862845,-0.097012054416996,-0.0300568281827129,-0.2705104067527059,-0.2913227329079801,-14.361880540589649,8.51635676496322,14.457104714071672,-0.0807679127119081,0.4120227626390432,0.6491204024849742,9829.6171875,11.292352941176471,22.78235294117647,179.2127405306356,0.6617252812107262,19.7441307888132,1480.0,1234.0,1600.0,1528.0,1518.0,1021.7000000000002,250.0,289.15,1637066989.8144295,1637066991.368557,e33d1eff-58fe-4fbd-af3b-c03ab46e67f3
