raw_voltage_G-,raw_voltage_G0,raw_voltage_G1,raw_voltage_G2,raw_voltage_G3,raw_voltage_G4,raw_voltage_G5,raw_voltage_G6,load_x,load_y,load_z,load_l,load_m,load_n,rpm,voltage,current,roll,pitch,yaw,aileron1_pwm,elevator_pwm,throttle_pwm,rudder_pwm,aileron2_pwm,pbaro,pdiff,Tt,sample_start_time,sample_end_time,uid
-0.0024477872746622,0.1448808247977611,0.0280217880937624,-0.011310514469731,-0.104881192065491,0.0781006206084309,-0.2458124708224433,-0.2714018598513714,-13.863056104980137,20.090145765288447,28.778821884372523,0.3332007750274549,0.3899542247581535,0.4947210527948714,3521.378363715278,12.041,0.01,179.17640713845785,-4.270938490054522,99.69922705464302,1525.0,1435.0,1000.0,1528.0,1475.0,1019.7999999999998,94.0,292.35,1637081794.5674667,1637081795.5646951,5a574512-0a08-4728-8968-80099ae42271
0.0285502645263722,0.1503071904427395,0.0304173794253602,-0.0150113668074165,-0.1030287429477809,0.0787388380948231,-0.2431675596837293,-0.27408014863558,-13.886501833137954,19.99653018098472,29.16135614343891,0.3425310227217747,0.4076878809358607,0.4863524031822646,3513.524658203125,12.04377777777778,0.01,179.19804669556825,-4.262344973713784,99.72521744225476,1525.0,1435.0,1000.0,1528.0,1475.0,1019.7999999999998,94.0,292.35,1637081795.6738613,1637081796.6812792,5a574512-0a08-4728-8968-80099ae42271
0.0021036845849396,0.1472703474148185,0.0268965631102946,-0.0129161725941563,-0.105601841811399,0.0774305428263299,-0.2459515435871725,-0.2672802487374111,-13.827794507261514,19.955012828553947,28.80276912606562,0.3343867179838339,0.3985786365230537,0.4978233690426416,3490.78892686632,12.043555555555557,0.01,179.22967047142544,-4.251129186482323,99.7335836650781,1525.0,1435.0,1000.0,1528.0,1475.0,1019.7999999999998,94.0,292.35,1637081796.788974,1637081798.0210185,5a574512-0a08-4728-8968-80099ae42271
0.1728091604768624,0.4085121694911202,0.0483390524894779,-0.14053438997127,-0.1477535304532923,-0.0598595482318,-0.2845758437960839,-0.3061574089878535,-13.59958408244459,19.585659700823847,28.90543731927911,0.3125034313940115,1.392934749709781,0.6119470989842608,3471.61865234375,12.041,0.01,179.1877589128584,-4.247009491479813,99.69982735238008,1610.0,1435.0,1000.0,1528.0,1542.0,1019.7999999999998,94.0,292.35,1637081798.5653389,1637081799.543658,3df84525-9105-45ea-89a9-cddc5d51377f
0.1618648940680427,0.4074430794265044,0.0450518784173942,-0.1400423252673704,-0.1486284245441102,-0.0592172849634803,-0.2856641514297652,-0.3070307860441147,-13.616009051127596,19.36433205617902,28.898149948449586,0.3111963887189916,1.3888331250636718,0.6191130615115523,3466.782118055556,12.037333333333333,0.01,179.2117844827189,-4.244300420268388,99.6264756741536,1610.0,1435.0,1000.0,1528.0,1542.0,1019.7999999999998,94.0,292.35,1637081799.6517074,1637081800.775409,3df84525-9105-45ea-89a9-cddc5d51377f
0.1682420115368283,0.4158845417327164,0.0536511257746234,-0.144341949248417,-0.1446049231888937,-0.0620837008553351,-0.2796420477183311,-0.3093318082276381,-13.495211936379064,19.54507032812272,29.156953339053818,0.3161824496644035,1.4184225882460209,0.5946960296041907,3466.003173828125,12.037,0.01,179.2237813305411,-4.242271047743117,99.5635810155464,1610.0,1435.0,1000.0,1528.0,1542.0,1019.7999999999998,94.0,292.35,1637081800.8846138,1637081801.9175732,3df84525-9105-45ea-89a9-cddc5d51377f
0.3131209138359911,0.7136124659670268,0.0790994158108288,-0.2813139552722457,-0.1900190066706122,-0.2279226560926441,-0.32288407028449,-0.3481700287879498,-13.104626473174305,18.976457933513046,29.058163262882253,0.2501740790733587,2.5516622555285355,0.718621565315986,3459.009765625,12.035,0.01,179.15848472207574,-4.216967758189158,99.34519027029468,1695.0,1435.0,1000.0,1528.0,1609.0,1019.7999999999998,94.0,292.35,1637081803.5683548,1637081804.5760791,24c6bbd9-3268-498f-a580-bbf02fec7c51
0.3135876925209085,0.7134395100557529,0.0761748423568424,-0.2857167462195054,-0.1935049286641325,-0.2239836096893773,-0.3259254653493718,-0.3446492119327486,-13.191911489343909,19.04226139914944,28.994435407223207,0.2691937592272306,2.552553957393324,0.7314488694089684,3458.855278862847,12.02888888888889,0.0044444444444444,179.17555412372153,-4.208824322855603,99.21170484770548,1695.0,1435.0,1000.0,1528.0,1609.0,1019.7999999999998,94.0,292.35,1637081804.684182,1637081805.8050978,24c6bbd9-3268-498f-a580-bbf02fec7c51
0.312956555143342,0.7117696257945508,0.0779499163397765,-0.2826530995810964,-0.1910855683218528,-0.2247856802333443,-0.3235849970412536,-0.3493038511534617,-13.140798420643304,19.01287822102314,29.064746188014343,0.2604111025597628,2.545040779151696,0.722373441075367,3456.530164930556,12.02988888888889,0.01,179.1954254207468,-4.198709903627806,99.15085621020964,1695.0,1435.0,1000.0,1528.0,1609.0,1019.7999999999998,94.0,292.35,1637081805.9135544,1637081807.0333154,24c6bbd9-3268-498f-a580-bbf02fec7c51
0.4685450657218399,0.9433838895514488,0.103655617190165,-0.404344303980771,-0.2269289179683985,-0.3461613122318291,-0.3523543492149962,-0.3715777465691562,-12.747680540078049,19.00236092722975,28.12861763349052,0.2634283068305177,3.435861798505909,0.8030323631882743,3452.04443359375,12.029777777777776,0.0077777777777777,179.11165694512613,-4.176883796975684,98.89045373028311,1779.0,1435.0,1000.0,1528.0,1677.0,1019.7999999999998,94.0,292.35,1637081809.1720817,1637081810.3104188,b6455d9c-9312-4920-8028-44b5f15c2412
0.4429445563387152,0.9449748816751852,0.1033794945798268,-0.4053304563677436,-0.2270604049412026,-0.346647814062867,-0.3533273529088754,-0.371774977085251,-12.835266491785132,18.99154746512248,28.14775173926809,0.2644331191741795,3.4423830413992884,0.8051272262382732,3447.5706922743057,12.018,0.0,179.11634093707693,-4.178320745454195,98.6769905870626,1779.0,1435.0,1000.0,1528.0,1677.0,1019.7999999999998,94.0,292.35,1637081810.4179258,1637081811.7435691,b6455d9c-9312-4920-8028-44b5f15c2412
0.4594461687101192,0.9373617871312364,0.1006445658047149,-0.4029110957704345,-0.2276389476399566,-0.3408229406421882,-0.3533536503006217,-0.3825437613289007,-12.827484612251242,18.949368627273344,28.22187213726815,0.2716648453533169,3.4126453323893684,0.8089079944378789,3441.572021484375,12.017888888888889,0.0,179.11021349848156,-4.183102873942458,98.535427327415,1779.0,1435.0,1000.0,1528.0,1677.0,1019.7999999999998,94.0,292.35,1637081811.8514206,1637081812.860342,b6455d9c-9312-4920-8028-44b5f15c2412
0.5058479136292698,1.0321638804959583,0.1256402369035132,-0.4545065911199611,-0.2342132965095629,-0.4045415344713328,-0.3587840628108032,-0.3771264974349919,-12.660696759959803,19.561589790077043,25.683253988436267,0.2498498456588694,3.797477531841643,0.7988259381729818,3443.1084255642363,12.015888888888888,0.0,179.0611317591058,-4.188172486990161,98.204544884353,1864.0,1435.0,1000.0,1528.0,1744.0,1019.7999999999998,94.0,292.35,1637081814.5650015,1637081815.617982,25b410d8-c58f-43b5-b4fe-9d0d11211348
0.5267239955932355,1.0388783124248286,0.1264347215678469,-0.459213319696359,-0.2359509475041561,-0.404949649903387,-0.3595866391930304,-0.3912952321365819,-12.653050343956822,19.63456201784984,25.94324975424464,0.260118577890058,3.8209333812326807,0.8023656865451998,3437.27880859375,12.004333333333332,0.0,179.07384501788093,-4.1730156331757335,98.00050360763758,1864.0,1435.0,1000.0,1528.0,1744.0,1019.7999999999998,94.0,292.35,1637081815.7288637,1637081816.8633258,25b410d8-c58f-43b5-b4fe-9d0d11211348
0.5234671649808142,1.0421305916399577,0.1283620169538147,-0.4541252787895666,-0.2353046384356284,-0.4130881887789813,-0.3614532486492791,-0.3827146945078353,-12.657525286520004,19.77474934486348,25.903944837506348,0.231369587820677,3.833009547683282,0.8018379661129116,3428.570556640625,12.003,0.0,179.07838026348983,-4.178674729494305,97.75963698655708,1864.0,1435.0,1000.0,1528.0,1744.0,1019.7999999999998,94.0,292.35,1637081816.9712465,1637081818.0924714,25b410d8-c58f-43b5-b4fe-9d0d11211348
-0.1618691627094364,-0.1938073487119894,0.0080514468541152,0.1768544073045588,-0.0430706853811525,0.2355501848262194,-0.1984619876278525,-0.2223400224752821,-14.331920347059064,21.03303560886911,28.713960503311668,0.2675667934049079,-0.900856127656244,0.3301998774803106,3529.770263671875,12.008777777777778,0.0011111111111111,179.39278146008462,-4.168907274389971,97.33454802100282,1440.0,1435.0,1000.0,1528.0,1408.0,1019.7999999999998,94.0,292.35,1637081820.1192608,1637081821.1654289,ca746b82-b58a-4fdc-b0a8-b66e83bb4053
-0.1708628717102821,-0.1894288324410232,0.0068549154808133,0.1743298577002832,-0.0455557890532663,0.2349190474401661,-0.1985408798075215,-0.2269420667613133,-14.14076986640418,20.943070522229235,28.89868710691729,0.2713130068860548,-0.8871907262293274,0.3362668136357362,3570.457763671875,12.040555555555557,0.01,179.3719539365755,-4.159086505864615,97.45733281389232,1440.0,1435.0,1000.0,1528.0,1408.0,1019.7999999999998,94.0,292.35,1637081821.273915,1637081822.2803662,ca746b82-b58a-4fdc-b0a8-b66e83bb4053
-0.1806323538793535,-0.1950301775765814,0.0050798414566714,0.1771173812173421,-0.0463578595556535,0.2353135083059454,-0.2001450209151185,-0.2246410446868034,-14.15802631872441,21.002048015465743,28.52604865536924,0.2661459379235124,-0.9052290877722868,0.3408476700201616,3597.411187065972,12.038333333333334,0.01,179.34218493653296,-4.149286559929856,97.56474360987004,1440.0,1435.0,1000.0,1528.0,1408.0,1019.7999999999998,94.0,292.35,1637081822.3887863,1637081823.506251,ca746b82-b58a-4fdc-b0a8-b66e83bb4053
-0.3124874956832453,-0.4693251751482093,-0.0037034877915282,0.3117468751685549,0.0055268971301961,0.3761360361183291,-0.1527045206960792,-0.178212993536983,-14.434779988770288,22.05906862947933,28.100038338033745,0.2852643538515995,-1.9453822476620983,0.1813687459169558,3593.324615478516,12.031,0.00625,179.39571085232865,-4.135035316865771,97.65119663442572,1355.0,1435.0,1000.0,1528.0,1341.0,1019.7999999999998,94.0,292.35,1637081825.6481533,1637081826.6949546,c34b2cfc-5fc9-4ffb-8769-c42cb64b735c
-0.3392450968592477,-0.4747950340985467,-0.0132231440718124,0.3082361734917149,-0.0020730494256479,0.3854190149473359,-0.1607515234299375,-0.183485621444871,-14.649122422029656,22.067471242322707,28.13161391482523,0.3135225550365826,-1.964831445285704,0.2153522600737967,3589.37451171875,12.023,0.0,179.39919424880534,-4.138955898810211,97.56707346328692,1355.0,1435.0,1000.0,1528.0,1341.0,1019.7999999999998,94.0,292.35,1637081826.8039849,1637081827.92235,c34b2cfc-5fc9-4ffb-8769-c42cb64b735c
-0.335392528193298,-0.4715999001335778,-0.0090418585739769,0.3107738717057235,0.0007276229228423,0.3787131803843557,-0.157753620447614,-0.1851029110015108,-14.490099301608677,22.08081471036201,27.98229439828873,0.2930821253231308,-1.95269700920384,0.2018737082034414,3585.870849609375,12.023666666666667,0.0066666666666666,179.40591060148915,-4.142036456421494,97.42649906324915,1355.0,1435.0,1000.0,1528.0,1341.0,1019.7999999999998,94.0,292.35,1637081828.029725,1637081829.3569844,c34b2cfc-5fc9-4ffb-8769-c42cb64b735c
-0.4788316848533624,-0.7778199915317157,-0.0225850160289317,0.4537922298158366,0.0533224083616683,0.543479478804607,-0.1080646939150138,-0.1312326982175005,-14.843594746005383,23.37822339910688,27.59919952610387,0.3484069336119044,-3.113756399967556,0.0408334051256678,3558.0849609375,12.023,0.0,179.49507644437398,-4.135498969316538,97.27914683882504,1271.0,1435.0,1000.0,1528.0,1273.0,1019.7999999999998,94.0,292.35,1637081830.0644977,1637081831.0868127,dd68aeb3-a783-43dd-8f90-105d617b8dc8
-0.5059574521143455,-0.783053174987418,-0.0259773797451514,0.454791530627321,0.0510476839138997,0.5481341168240959,-0.1099318088884995,-0.1365973666650866,-14.848472128935846,23.3914468967183,27.64236774565794,0.3565355181504895,-3.1340699664261047,0.0506417942657465,3545.656060112847,12.015222222222222,0.0,179.50396176157426,-4.14683086976389,97.0972293037412,1271.0,1435.0,1000.0,1528.0,1273.0,1019.7999999999998,94.0,292.35,1637081831.195565,1637081832.4354043,dd68aeb3-a783-43dd-8f90-105d617b8dc8
-0.4929139420779218,-0.7874185441477689,-0.0285150781970056,0.4626675990056297,0.0521127283044342,0.546661462986816,-0.1124432100216781,-0.1352561995214876,-15.00612670589272,23.291125737598367,27.838472559396283,0.3346202871498259,-3.1521972771040923,0.0559743862998603,3537.202039930556,12.014222222222225,0.0,179.4982046710138,-4.159341309866153,96.94663956965049,1271.0,1435.0,1000.0,1528.0,1273.0,1019.7999999999998,94.0,292.35,1637081832.549724,1637081833.6570835,dd68aeb3-a783-43dd-8f90-105d617b8dc8
-0.5816150719796417,-0.936485390431516,-0.0441225811298874,0.51753710347843,0.0640911905557552,0.6381369339811667,-0.1003727061741299,-0.122094353687619,-15.425162323914694,24.404851595565106,27.237178639108578,0.4227048177324269,-3.7107196534392255,0.0245939962793371,3536.5533854166665,12.005,0.0,179.55591066258157,-4.154966573702759,96.63284701880173,1186.0,1435.0,1000.0,1528.0,1206.0,1019.7999999999998,94.0,292.35,1637081834.772082,1637081835.910352,e932b671-940d-4660-a73e-534c2a779a41
-0.5738178927302294,-0.9323829949372616,-0.0432021723617226,0.5154990557904765,0.0640648931682815,0.6362040758236445,-0.0982031711773213,-0.1171504435856054,-15.235307439954116,24.281794511612457,27.27937825541194,0.4222911285430186,-3.696743747098437,0.02100755455822,3526.8526746961807,12.004111111111111,0.0,179.5659449693822,-4.151896688262054,96.4202596576148,1186.0,1435.0,1000.0,1528.0,1206.0,1019.7999999999998,94.0,292.35,1637081836.0188916,1637081837.145007,e932b671-940d-4660-a73e-534c2a779a41
-0.5677168957919055,-0.9273864874606588,-0.0425052914413465,0.5114755550984418,0.0637098783620083,0.6366248340649855,-0.0977166693948836,-0.1205691048330791,-15.243710173768,24.244253568199564,27.513371890521384,0.4321315670739388,-3.679479292491581,0.0207573554233911,3522.986572265625,12.004333333333332,0.0,179.57207999707668,-4.152546267711244,96.23642739283363,1186.0,1435.0,1000.0,1528.0,1206.0,1019.7999999999998,94.0,292.35,1637081837.2583497,1637081838.2541988,e932b671-940d-4660-a73e-534c2a779a41
-0.0007844772091595,0.1237468246916354,0.0238693286335364,0.0136264941203962,-0.0998993530684008,0.0780025111128824,-0.2473882916838931,-0.2718054238798534,-14.004849713500189,19.956195326793843,29.065636111906937,0.2756081342697542,0.3058146330301389,0.4938612765306103,3514.8003743489585,12.018999999999998,0.0033333333333333,179.29201036689005,-4.153906898312154,95.94767203875249,1525.0,1435.0,1000.0,1528.0,1475.0,1019.7999999999998,94.0,292.35,1637081840.0969093,1637081841.2351758,cccea667-44c1-40f4-9f6f-b1227451a5b9
0.0061711832466772,0.1127545148445294,0.0234354216566531,0.0212264406354705,-0.0993865538910931,0.0846294539696122,-0.2458761914313184,-0.2776302970774253,-13.876264822421096,20.118113719993257,29.47272959833628,0.2745375327079283,0.2591081588430169,0.4909355839906656,3523.1490342881943,12.044333333333334,0.01,179.24793439726605,-4.143696382117284,96.29238637379366,1525.0,1435.0,1000.0,1528.0,1475.0,1019.7999999999998,94.0,292.35,1637081841.3439543,1637081842.4633665,cccea667-44c1-40f4-9f6f-b1227451a5b9
-0.0067145393127738,0.1183690080354156,0.0235406112248639,0.0189122700753017,-0.098321509433844,0.0810661573094168,-0.2478747935154703,-0.2670455950878361,-14.149872289641264,20.02017986605049,29.440654524433874,0.2709637135475844,0.2826766603470915,0.4926498314158909,3537.364203559028,12.043,0.01,179.20916472571724,-4.146549219324365,96.58096945532576,1525.0,1435.0,1000.0,1528.0,1475.0,1019.7999999999998,94.0,292.35,1637081842.571122,1637081843.58028,cccea667-44c1-40f4-9f6f-b1227451a5b9
0.0066445363170307,0.1178562088906653,0.001937303004553,-0.2808254305625228,-0.1511398257172419,0.3704689484653615,-0.1878904348356479,-0.2152923205380003,-13.982442681828685,19.42605951064169,31.42585630648252,1.592811779760086,0.2974980489464545,0.5091037297853493,3522.022433810764,12.042222222222222,0.01,179.16247507037085,-4.047400296057691,97.16961261292536,1525.0,1535.0,1000.0,1528.0,1475.0,1019.7999999999998,94.0,292.35,1637081845.6269062,1637081846.6519852,e1e05a9d-eac5-4c29-8186-9fd60f54eab4
0.0160195568893962,0.113293611384301,0.0058950606385678,-0.274895367765735,-0.1456436702707936,0.3727568214289381,-0.1838800821230006,-0.2054439460681304,-14.07219094444582,19.47889458089287,31.92206722010044,1.5851574088659175,0.2761445247143879,0.490628355005489,3514.480658637153,12.045,0.01,179.1608889486636,-4.066843330735647,97.33472864156086,1525.0,1535.0,1000.0,1528.0,1475.0,1019.7999999999998,94.0,292.35,1637081846.7606938,1637081847.778616,e1e05a9d-eac5-4c29-8186-9fd60f54eab4
-0.0047108802385792,0.1185834329266552,0.0058586488667048,-0.2802519450371329,-0.148550038076169,0.3675994985855846,-0.1846078119435767,-0.2041538565852078,-13.874819420956316,19.489918185558484,31.22082486316573,1.5857101752306622,0.3014601058316049,0.4954102623087602,3511.440673828125,12.045,0.01,179.14134701853826,-4.068973306255568,97.48369127280932,1525.0,1535.0,1000.0,1528.0,1475.0,1019.7999999999998,94.0,292.35,1637081847.8871424,1637081849.0204017,e1e05a9d-eac5-4c29-8186-9fd60f54eab4
0.023843031236709,0.1172119227900227,-0.0095941038269642,-0.5585128056185781,-0.1945042296686417,0.6400960895374304,-0.1250396618166736,-0.1439737857804509,-13.726060359783643,19.123742289547742,33.5137362663986,2.822978243299658,0.3082152485616449,0.4951354774973204,3502.83056640625,12.041999999999998,0.01,179.12680630470518,-3.99084410043213,97.66229313050606,1525.0,1636.0,1000.0,1528.0,1475.0,1019.7999999999998,94.0,292.35,1637081849.5655296,1637081850.543414,9eaee7f4-bf18-4527-a460-4c3dd64e0e08
0.0067234285142597,0.1138064105306499,-0.0099754160250574,-0.5591044971535315,-0.1945305270677826,0.6442510771460082,-0.1244479704461261,-0.1392402548252868,-13.746619832528877,19.16202286603248,33.55302707143238,2.83388046020816,0.2952891144810545,0.4944566956493343,3501.40087890625,12.036333333333337,0.01,179.12430645546902,-3.9930552318803145,97.67793198697566,1525.0,1636.0,1000.0,1528.0,1475.0,1019.7999999999998,94.0,292.35,1637081850.6509292,1637081851.7763565,9eaee7f4-bf18-4527-a460-4c3dd64e0e08
0.0113254722735568,0.1185136436950538,-0.0084896133191079,-0.5590124562566012,-0.19391253828453,0.6393203165342966,-0.1255787584025342,-0.1484574915329677,-13.829268350207508,19.20428506795911,33.521118148386186,2.8229002157066465,0.3138954511954998,0.4936498957664411,3508.745483398437,12.036125,0.01,179.1251090026965,-3.993022663973101,97.71169247367816,1525.0,1636.0,1000.0,1528.0,1475.0,1019.7999999999998,94.0,292.35,1637081851.893711,1637081852.9969108,9eaee7f4-bf18-4527-a460-4c3dd64e0e08
0.018609850073094,0.1093490025791392,-0.0201525071610176,-0.768931468933057,-0.2287434382505753,0.8531443946581387,-0.0789140327904281,-0.1093795636642367,-13.673454021094692,19.0934072853215,35.29615107331244,3.775962958668397,0.2877918652725185,0.4902565089450819,3517.8458116319443,12.028777777777776,0.0044444444444444,179.14535102721172,-3.938605532999405,97.7185966565642,1525.0,1737.0,1000.0,1528.0,1475.0,1019.7999999999998,94.0,292.35,1637081855.1403072,1637081856.3892453,21549bbe-d3fd-47d3-a53a-dab705fd8d85
0.0350325717964647,0.1179876958538004,-0.01769370089896,-0.7764262291760734,-0.2291378991744845,0.8519215660195806,-0.0771258100167875,-0.0967962605983843,-13.59940382788373,19.076886962851244,35.36061567123403,3.790181910257981,0.3201751206006578,0.4860251621618381,3517.2041015625,12.021222222222224,0.0,179.1788402036222,-3.947546772373512,97.5824383532798,1525.0,1737.0,1000.0,1528.0,1475.0,1019.7999999999998,94.0,292.35,1637081856.4987772,1637081857.5071752,21549bbe-d3fd-47d3-a53a-dab705fd8d85
0.0406141934176029,0.1097544207048362,-0.0170757121599903,-0.7679486034934064,-0.2257564924217396,0.8520393564159449,-0.0772583927157124,-0.1013369440011273,-13.774216593205844,19.159022606553304,35.34213465284943,3.771807471040333,0.2896932045622888,0.4796620256216286,3510.482421875,12.024666666666668,0.0,179.18001347833965,-3.9547421395047753,97.46594112897624,1525.0,1737.0,1000.0,1528.0,1475.0,1019.7999999999998,94.0,292.35,1637081857.6153052,1637081858.7355402,21549bbe-d3fd-47d3-a53a-dab705fd8d85
0.0407128086144104,0.1182901158540773,-0.0248728892703681,-0.8535828162491879,-0.2501758156828798,0.9256200024104398,-0.0721687513532343,-0.1011221820047,-13.775785686331249,19.69970926768174,35.7640369577248,4.133585304378409,0.3280373219443396,0.516957894617897,3504.2626953125,12.027,0.01,179.20912374458223,-3.8795841608340313,97.24536472319016,1525.0,1837.0,1000.0,1528.0,1475.0,1019.7999999999998,94.0,292.35,1637081860.5758605,1637081861.6031349,e7932fb6-60b4-4e99-891a-0862b255776f
0.0250132652143039,0.1168306106032233,-0.0151297050821764,-0.8253394026300783,-0.2388942329229161,0.9007163737272053,-0.0680137631541443,-0.0902219123342652,-13.545241593727257,19.77912672466596,35.769012118117736,4.015041760626943,0.3180291048021323,0.4826018088876896,3498.7006564670137,12.014333333333331,0.0,179.21349658347083,-3.95522371527313,97.09900591183528,1525.0,1837.0,1000.0,1528.0,1475.0,1019.7999999999998,94.0,292.35,1637081861.712176,1637081862.8315132,e7932fb6-60b4-4e99-891a-0862b255776f
0.0450650270877657,0.117409153223501,-0.0180224183581105,-0.8306251814805037,-0.2423786378673408,0.9043980084187342,-0.0715770600446603,-0.1007934645869323,-13.692753891766088,19.85508199652832,35.6561223914471,4.035505537078568,0.3227122840290709,0.4960942606908466,3488.417860243056,12.018666666666668,0.0,179.21322641154364,-3.960552448622471,96.9853750902534,1525.0,1837.0,1000.0,1528.0,1475.0,1019.7999999999998,94.0,292.35,1637081862.939956,1637081863.9011889,e7932fb6-60b4-4e99-891a-0862b255776f
-0.0215766121518167,0.1321367041447537,0.0509182198258805,0.2915899251036443,-0.0517680425358701,-0.2015620459296543,-0.3009990734738784,-0.3219611328297698,-13.712489361918076,20.92943911694376,26.76453705889834,-0.9720491892192284,0.3231151233096007,0.4677763112885357,3484.3193359375,12.019222222222222,0.0011111111111111,179.22223770778862,-4.245970022065502,96.7448765404782,1525.0,1334.0,1000.0,1528.0,1475.0,1019.7999999999998,94.0,292.35,1637081865.5642092,1637081866.522496,d81b925c-768d-471e-b8b7-607646594adf
0.0045311362308125,0.1310494081327575,0.0511205074641305,0.2944345947768289,-0.0514266821385204,-0.2021562659329278,-0.3020231547689538,-0.3234782903287687,-13.774835009521654,21.01356747292373,26.8970718779439,-0.979243845527336,0.3179677275995901,0.4684958797566342,3487.15478515625,12.044,0.01,179.2018624945846,-4.244403726879584,97.00162031573934,1525.0,1334.0,1000.0,1528.0,1475.0,1019.7999999999998,94.0,292.35,1637081866.632068,1637081867.6541786,d81b925c-768d-471e-b8b7-607646594adf
-0.0155241659881596,0.1291640874257384,0.0520601335273186,0.2949033963467179,-0.048448502328537,-0.2017097159418119,-0.2992204591840688,-0.3260963984805803,-13.804475514950274,20.844895062164703,26.775984323276507,-0.980403474574688,0.3121786000366938,0.4588219372473092,3490.152886284722,12.043666666666669,0.01,179.17241830798255,-4.246232604893594,97.2539070131121,1525.0,1334.0,1000.0,1528.0,1475.0,1019.7999999999998,94.0,292.35,1637081867.7619922,1637081868.8726428,d81b925c-768d-471e-b8b7-607646594adf
-0.008594802893238,0.1337398336143158,0.076358924101178,0.6070271216913814,0.0004515002980231,-0.5076273369498111,-0.3698421183473097,-0.3918661887513161,-14.05635365837891,22.301644167045183,24.589999623995656,-2.361524233677817,0.3136334970828949,0.4590798704327479,3498.541259765625,12.048,0.01,179.13716087148697,-4.344104045626129,97.72235781406717,1525.0,1234.0,1000.0,1528.0,1475.0,1019.7999999999998,94.0,292.35,1637081870.57444,1637081871.5437317,37adfb68-81f5-48de-887d-fb1570ffa04f
-0.009160196853149,0.1350152571149795,0.0788966224581351,0.604213300967364,0.0023054665020605,-0.5067463740561667,-0.366239374915221,-0.3979277389066343,-13.97535519377912,22.25689937169137,24.54831912082936,-2.3533334320320503,0.3187197959482651,0.4481118763632528,3497.906928168403,12.038222222222222,0.01,179.13024568440727,-4.335045080352576,97.84732523185144,1525.0,1234.0,1000.0,1528.0,1475.0,1019.7999999999998,94.0,292.35,1637081871.662465,1637081872.7641866,37adfb68-81f5-48de-887d-fb1570ffa04f
-0.0225587186606584,0.1243385160064871,0.07421568663161,0.6111032171330895,0.0002542698506401,-0.5025913849881021,-0.3701708358025402,-0.3959028394786702,-14.066552334330517,22.350689905705885,24.519960399531648,-2.3592003370770995,0.2784288870639671,0.4615101312129628,3499.969970703125,12.038444444444444,0.01,179.1211433189734,-4.341033591002994,97.94961338595164,1525.0,1234.0,1000.0,1528.0,1475.0,1019.7999999999998,94.0,292.35,1637081872.8718023,1637081873.999792,37adfb68-81f5-48de-887d-fb1570ffa04f
-0.0458845064864131,0.1329246144613852,0.0921636568201087,0.7912666357353456,0.0279454244894497,-0.685318875128342,-0.4116286831797053,-0.4377551482411703,-14.124924648576544,23.50093306986032,23.220747877212705,-3.1679356328022963,0.3015353492068646,0.4586291410956748,3501.3994140625,12.036666666666669,0.01,179.1043850703898,-4.42353530369197,98.22303344752632,1525.0,1133.0,1000.0,1528.0,1475.0,1019.7999999999998,94.0,292.35,1637081876.1321328,1637081877.2762086,c3add8f7-65e2-47e6-a9e3-152a619ec3ac
-0.0160895599387756,0.1422207424580087,0.0931366603209642,0.7766452869202767,0.0260783095900185,-0.6789812018080928,-0.4086702259747416,-0.4332451446377197,-14.062088035673783,23.38561962375249,23.518560323902,-3.121348728267021,0.3351771634793132,0.4571416347424135,3498.700005425347,12.03111111111111,0.01,179.085242326876,-4.4168209905785005,98.26782051573392,1525.0,1133.0,1000.0,1528.0,1475.0,1019.7999999999998,94.0,292.35,1637081877.387799,1637081878.708596,c3add8f7-65e2-47e6-a9e3-152a619ec3ac
-0.040769663478297,0.1334111162044803,0.0940307716526712,0.7939752669460707,0.0289315766930629,-0.6883562253757952,-0.4114051552966835,-0.4369793749907634,-14.098758904465006,23.605206832312533,23.217958302537443,-3.180074033037158,0.3029861988210387,0.4544768113138008,3487.15478515625,12.033,0.01,179.0835939745563,-4.427129121560258,98.30839487504342,1525.0,1133.0,1000.0,1528.0,1475.0,1019.7999999999998,94.0,292.35,1637081878.8168228,1637081879.932366,c3add8f7-65e2-47e6-a9e3-152a619ec3ac
-0.0251490118768919,0.1317412318227297,0.0986722613658109,0.8347625189955433,0.0327709960288203,-0.7252909278847042,-0.4241067985662002,-0.4454602860542895,-14.24773445420096,24.358898944022084,23.03484879353279,-3.3499540368095846,0.2946856684716741,0.4604887546425534,3480.07568359375,12.032,0.01,179.1047857748211,-4.457872799083739,98.37657382333848,1525.0,1033.0,1000.0,1528.0,1475.0,1019.7999999999998,94.0,292.35,1637081882.0712912,1637081883.1257088,281e7b56-f321-4f91-a1d8-bcc0023981ed
-0.0209823921938073,0.1356893806395777,0.093550338527233,0.8223041304323732,0.0263023431521015,-0.7168393471321406,-0.4266702892095304,-0.4507930949412161,-14.233458607139742,24.26376479328721,23.126806283229524,-3.303722982796981,0.3097851474240333,0.4804781191033397,3482.1178114149307,12.023222222222223,0.0,179.12746352068532,-4.4562239250134805,98.32350097675776,1525.0,1033.0,1000.0,1528.0,1475.0,1019.7999999999998,94.0,292.35,1637081883.2388954,1637081884.342498,281e7b56-f321-4f91-a1d8-bcc0023981ed
-0.0449640977549166,0.1311100944157271,0.094162258601289,0.8486343923124504,0.0301412567479735,-0.7401358121857341,-0.432127505031717,-0.4562948143950042,-14.218295813083069,24.34186346662971,22.60457716691448,-3.4149952889189183,0.2939295230180212,0.4811039426593044,3480.07568359375,12.024,0.0,179.1369696261902,-4.453577463869447,98.29026072279704,1525.0,1033.0,1000.0,1528.0,1475.0,1019.7999999999998,94.0,292.35,1637081884.4508371,1637081885.5754652,281e7b56-f321-4f91-a1d8-bcc0023981ed
-0.0119477205246586,0.1237599733884931,0.0303647846362192,0.0051718823261664,-0.096875152768269,0.0872197471066486,-0.2392886938363504,-0.2592221198515265,-13.86923509721767,20.133202309166137,29.32420369444602,0.3169983401967444,0.3040681466323198,0.4696704218903399,3484.94921875,12.031,0.0044444444444444,179.15127507795182,-4.224585079229146,98.22000312026456,1525.0,1435.0,1000.0,1528.0,1475.0,1019.7999999999998,94.0,292.35,1637081886.6900015,1637081887.8281424,e7ef6428-2a7f-490b-8cfe-4c4add29cd33
-0.0157345451075951,0.1223925090015844,0.0309301785690612,0.0118119740252325,-0.0962308666236251,0.08190767387079,-0.2402354001015369,-0.2613390601882733,-13.804164931358525,20.20306492474996,29.245187418739565,0.2905944218902883,0.2983985827625476,0.4691682390464698,3493.6300998263887,12.045444444444446,0.01,179.13982919872268,-4.235569304074995,98.33766603018648,1525.0,1435.0,1000.0,1528.0,1475.0,1019.7999999999998,94.0,292.35,1637081887.936734,1637081888.9444282,e7ef6428-2a7f-490b-8cfe-4c4add29cd33
-0.0022176850952829,0.1198153645959372,0.0289578741275013,0.0121538401304689,-0.0970592345242464,0.0864702714224561,-0.2414713776669226,-0.2613522088645812,-13.904817171134887,20.203562420842395,29.5675630645214,0.299981834757403,0.2864207927632261,0.4748199953187593,3503.1488172743057,12.045555555555556,0.01,179.1303762169114,-4.234379475635206,98.41032406475723,1525.0,1435.0,1000.0,1528.0,1475.0,1019.7999999999998,94.0,292.35,1637081889.0529912,1637081890.1276252,e7ef6428-2a7f-490b-8cfe-4c4add29cd33
0.0191752440110043,0.1285723961039778,0.1198285132899608,0.0063552650066934,-0.014196147618835,0.0771215484751919,-0.1474844878882968,-0.1770296108045545,-13.299051423300105,20.20519893617475,29.4078382359686,0.2968692366533315,0.3228678316596051,0.1054799228367126,3512.879638671875,12.044,0.01,179.1283089463226,-4.229432426537608,98.51945455058598,1525.0,1435.0,1000.0,1439.0,1475.0,1019.7999999999998,94.0,292.35,1637081892.1052153,1637081893.244484,fd4feb75-c36d-4b0f-9b44-e01c76cb920c
0.0329024830038368,0.1311758379013161,0.1194077550243258,0.0058424658358029,-0.0147746902575212,0.074097348355706,-0.1479315435839294,-0.1781603987403646,-13.245571078508236,20.128589586852023,29.27080761563655,0.2907064780651278,0.333503462955418,0.1076640635488724,3512.879638671875,12.041777777777778,0.01,179.1216578598908,-4.2332601309531,98.55894594545708,1525.0,1435.0,1000.0,1439.0,1475.0,1019.7999999999998,94.0,292.35,1637081893.3535354,1637081894.5863588,fd4feb75-c36d-4b0f-9b44-e01c76cb920c
0.0356637092345824,0.1333190753414121,0.1232340255490753,0.0034362543969044,-0.0118556796275543,0.0757409353817709,-0.1443156518533241,-0.1726905406974287,-13.27224619255107,20.15914136502844,29.51628322446868,0.3002464178633495,0.3400944016220839,0.0938776404634664,3508.08837890625,12.043111111111113,0.01,179.12163661041345,-4.229200342401435,98.61574959314446,1525.0,1435.0,1000.0,1439.0,1475.0,1019.7999999999998,94.0,292.35,1637081894.6953335,1637081895.8152368,fd4feb75-c36d-4b0f-9b44-e01c76cb920c
0.0672731750429858,0.1547251522534635,0.2446490821720033,-0.0083318289704559,0.0962529013171579,0.0587265225137091,-0.0195608158144911,-0.0428603062704438,-12.295366584839911,20.095714715932328,29.482053061572405,0.2946701493570078,0.4229143666144096,-0.3933486847087952,3508.20703125,12.044,0.01,179.1201605306428,-4.22855528083779,98.60920152873264,1525.0,1435.0,1000.0,1351.0,1475.0,1019.7999999999998,94.0,292.35,1637081896.6126964,1637081897.65915,e4599d0f-6b29-4de4-8824-d6ab13bc2da6
0.0785684107639927,0.1535918358110561,0.2459740661132862,-0.0094267108105543,0.0960662909798102,0.0612981040629945,-0.0187192992271668,-0.0438156097634578,-12.262248522621812,20.251555974890145,29.55268509722055,0.3040456174777572,0.4180247727234589,-0.3961866650224385,3506.4927842881943,12.04011111111111,0.01,179.11491570427015,-4.233242154274659,98.62764247030924,1525.0,1435.0,1000.0,1351.0,1475.0,1019.7999999999998,94.0,292.35,1637081897.7680194,1637081898.887128,e4599d0f-6b29-4de4-8824-d6ab13bc2da6
0.060212325183241,0.1586171662238725,0.2478836612788989,-0.0100937543173494,0.0986591126946474,0.0545846832017512,-0.0179435261498317,-0.0345371813439291,-12.346744492938548,20.099140785663103,29.223801040829272,0.2894540983830598,0.4405863505693725,-0.4032838871167725,3504.2626953125,12.04011111111111,0.01,179.1240013736861,-4.221859217136011,98.62637964422272,1525.0,1435.0,1000.0,1351.0,1475.0,1019.7999999999998,94.0,292.35,1637081898.9961822,1637081900.1152506,e4599d0f-6b29-4de4-8824-d6ab13bc2da6
0.1183164132345843,0.1790107934148462,0.3696931754464042,-0.0141304041501009,0.2068071361712093,0.0342436500301185,0.1027220597641819,0.0842875877970131,-11.545608914894162,20.309598942745605,29.57090974749968,0.2607698294104908,0.5165508362629034,-0.8850315837963635,3498.541259765625,12.042333333333334,0.01,179.15434107397925,-4.220642826849448,98.5413953949298,1525.0,1435.0,1000.0,1262.0,1475.0,1019.7999999999998,94.0,292.35,1637081901.2308056,1637081902.465757,1313ebef-95db-40ea-9fa4-efdbc2ac67c2
0.1096382738737376,0.1707534124639985,0.3698509597901506,-0.009567806439598,0.2077143961727932,0.0385169763524061,0.1037213606677292,0.0810924545099342,-11.52059082578928,20.44893890866229,29.628102312118507,0.2610337300187262,0.4843472814746656,-0.8888233392593492,3499.811225043403,12.044222222222222,0.01,179.14013579832545,-4.221630974981246,98.55712152603878,1525.0,1435.0,1000.0,1262.0,1475.0,1019.7999999999998,94.0,292.35,1637081902.6028135,1637081903.5944626,1313ebef-95db-40ea-9fa4-efdbc2ac67c2
0.1105060878144394,0.1782481690627405,0.3743083674807455,-0.014380229383306,0.2106202579189443,0.0343619883068806,0.1070085346762584,0.0850765095008147,-11.528398625918433,20.38721989851748,29.482103179921875,0.2623381672235299,0.5146804652432556,-0.9028587786378246,3498.541259765625,12.04288888888889,0.01,179.14245806264324,-4.22356946804506,98.56420898566752,1525.0,1435.0,1000.0,1262.0,1475.0,1019.7999999999998,94.0,292.35,1637081903.705903,1637081904.8255785,1313ebef-95db-40ea-9fa4-efdbc2ac67c2
0.1301765370139684,0.1961698413596297,0.47500107500827,-0.0052944800803219,0.3006756736341367,0.0010431916312067,0.2032701370137759,0.1796813768304976,-10.741098163665388,20.553784315396943,29.183517787007727,0.1734378688791508,0.5842392236576797,-1.297519488172155,3502.83056640625,12.039,0.01,179.1443735512505,-4.227274513646707,98.5207727770958,1525.0,1435.0,1000.0,1173.0,1475.0,1019.7999999999998,94.0,292.35,1637081905.5629525,1637081906.5575037,38fb9ad9-6f36-43b7-9093-dc7db3295ed7
0.122826415975765,0.1882937726203581,0.4703464369469918,-0.001573398979667,0.2971123771756616,0.0059476554108879,0.198194740468358,0.1743167089801034,-10.864126081227727,20.73670779068682,29.23174071925769,0.1769916163663124,0.5543924183005021,-1.2801085580014515,3505.0588650173613,12.034666666666666,0.01,179.158820160255,-4.221959250948229,98.45126801319184,1525.0,1435.0,1000.0,1173.0,1475.0,1019.7999999999998,94.0,292.35,1637081906.666031,1637081907.7863386,38fb9ad9-6f36-43b7-9093-dc7db3295ed7
0.1571571552682134,0.1937332868932365,0.4722706979041483,-0.0033833676195765,0.2980631290012534,0.0045311362209667,0.2003455636649439,0.1726827306496425,-10.776223397139251,20.65204409297945,29.567144214547,0.1775236371133145,0.5715424756383551,-1.2858772209244305,3495.2208658854165,12.039333333333332,0.01,179.15175470901357,-4.237594787186989,98.43085105994284,1525.0,1435.0,1000.0,1173.0,1475.0,1019.7999999999998,94.0,292.35,1637081907.8957603,1637081908.9230423,38fb9ad9-6f36-43b7-9093-dc7db3295ed7
-0.055233229871969,0.1041289702551652,-0.1098660654043555,0.0310090707394678,-0.224680490668077,0.0876010592896173,-0.3911693076992564,-0.4073685047579519,-14.87701599347062,20.5182801477232,28.902558583274,0.2545684961696353,0.2292453363799169,1.0475353173823445,3481.489013671875,12.034,0.01,179.18073747839168,-4.22309187655372,98.44981394180851,1525.0,1435.0,1000.0,1617.0,1475.0,1019.7999999999998,94.0,292.35,1637081910.565734,1637081911.5853071,9cabc421-fb45-4f55-8034-3487c70ef95f
-0.0654730303095065,0.096698439826682,-0.1135037030069482,0.036656941529471,-0.2258871365296757,0.0915274622239591,-0.3940640442932733,-0.4186672828526571,-14.97838552493968,20.554550603216747,29.139874033014937,0.2506975488384013,0.1990651118441959,1.0576581636683555,3480.07568359375,12.044666666666666,0.01,179.1947484731091,-4.225077184872471,98.46219707477375,1525.0,1435.0,1000.0,1617.0,1475.0,1019.7999999999998,94.0,292.35,1637081911.693674,1637081912.91342,9cabc421-fb45-4f55-8034-3487c70ef95f
-0.0510650930003768,0.10416841634085,-0.1086826826661035,0.0298519854605508,-0.2232472826150795,0.0921899542270408,-0.3879084303889554,-0.4131013376105003,-14.81797134341785,20.44183779248409,29.42633236487565,0.2671558498087629,0.2245493715616272,1.040133389773056,3478.6630859375,12.044000000000002,0.01,179.19032706398633,-4.215039083522275,98.47495586814335,1525.0,1435.0,1000.0,1617.0,1475.0,1019.7999999999998,94.0,292.35,1637081913.0521698,1637081914.0423195,9cabc421-fb45-4f55-8034-3487c70ef95f
-0.0934959376809389,0.0758592736422744,-0.2472042099314348,0.0631707818290022,-0.3467004088613749,0.0928736864267016,-0.5370672758761311,-0.5549363592463481,-15.855619219151295,20.827899215895204,28.8355890629816,0.1885785530553332,0.1180755983663892,1.604620957512381,3482.90380859375,12.045,0.01,179.20620042361745,-4.225394504077661,98.5095439461003,1525.0,1435.0,1000.0,1706.0,1475.0,1019.7999999999998,94.0,292.35,1637081916.069394,1637081917.1155193,b28a6206-e8fe-4a3d-9ba5-1ba7a336f22a
-0.0802157537955258,0.077963065035814,-0.2450478234759469,0.0603832582334236,-0.3449516319504999,0.0935968646957497,-0.5334513833719153,-0.5654290219759548,-15.761431633063792,20.72953292128509,28.889403806421125,0.1960028830812539,0.1253007388864069,1.5945636652109911,3482.90380859375,12.039888888888887,0.01,179.20896589132138,-4.223220986101781,98.4451754844522,1525.0,1435.0,1000.0,1706.0,1475.0,1019.7999999999998,94.0,292.35,1637081917.2253072,1637081918.343116,b28a6206-e8fe-4a3d-9ba5-1ba7a336f22a
-0.0874606857864754,0.0726509917858081,-0.247887942230037,0.0644988001215587,-0.3460166765645471,0.0946356116787598,-0.5366465174814637,-0.5624311185222777,-15.885219075179894,20.780263198122704,28.81275583693144,0.1891737806683122,0.1062468012623013,1.6036127098060486,3484.004774305556,12.041,0.01,179.20642354313034,-4.227279683720454,98.4276939947265,1525.0,1435.0,1000.0,1706.0,1475.0,1019.7999999999998,94.0,292.35,1637081918.451185,1637081919.4598074,b28a6206-e8fe-4a3d-9ba5-1ba7a336f22a
-0.1162431834756708,0.0681015429068424,-0.3508685463116182,0.1060223824741234,-0.4413578917784012,0.0653797627841746,-0.6578512384284815,-0.6887638348789347,-16.460531539041327,21.23150391538184,28.590384364036048,0.0273034911805307,0.0835931846892816,2.045326924034175,3473.025146484375,12.038666666666668,0.01,179.21902751887876,-4.219340822038914,98.35346957010609,1525.0,1435.0,1000.0,1795.0,1475.0,1019.7999999999998,94.0,292.35,1637081921.711291,1637081922.735988,86421db1-d460-454f-b4e9-98cb01c3e76e
-0.1429365558245435,0.0613866049071693,-0.3545926623191098,0.1070783239102758,-0.4430176622034734,0.0716147733737855,-0.6611975828375972,-0.6781518215649468,-16.682929927153786,21.30034392459321,28.65274417795824,0.0391013507697458,0.0590645415966394,2.056529374500194,3474.1200358072915,12.034444444444444,0.01,179.2153376989071,-4.222912346928662,98.27753076800394,1525.0,1435.0,1000.0,1795.0,1475.0,1019.7999999999998,94.0,292.35,1637081922.8436625,1637081923.9661782,86421db1-d460-454f-b4e9-98cb01c3e76e
-0.1146162850706603,0.0675437347586518,-0.3519376366644672,0.1046382293505337,-0.4416269344099264,0.0694022523798348,-0.6593643504953378,-0.6907063027402998,-16.664943727705026,21.2622373441456,28.893920514489576,0.0395608642995082,0.0803607764336144,2.0494979226600694,3475.842041015625,12.035111111111114,0.01,179.2204117705505,-4.2225532876785445,98.23563818218462,1525.0,1435.0,1000.0,1795.0,1475.0,1019.7999999999998,94.0,292.35,1637081924.0747464,1637081925.1962302,86421db1-d460-454f-b4e9-98cb01c3e76e
-0.1481024767030289,0.0564912441596767,-0.4329295759332548,0.1463231355651642,-0.5158584233064928,0.044617971404169,-0.7565585408207371,-0.7856434696842064,-17.154892801900257,21.83554182942668,28.59774929672184,-0.1106898523075148,0.0347428755829195,2.39742113349961,3480.07568359375,12.033,0.01,179.24043333173756,-4.232423195620428,98.12167116351362,1525.0,1435.0,1000.0,1883.0,1475.0,1019.7999999999998,94.0,292.35,1637081926.21655,1637081927.2440014,c2f42f48-c182-40ac-99e8-e392c68ea0d6
-0.1474844879172728,0.0595943364659589,-0.4235282559476036,0.1401826945772779,-0.508126987719651,0.0462221123745423,-0.7457897537441954,-0.7769521773243392,-17.063660696227245,21.79018865618939,28.531962755315195,-0.0930308944386098,0.0476699485472751,2.35905440946546,3473.3379720052085,12.028333333333332,0.0077777777777777,179.2262614481197,-4.2446277001661175,98.02429695106628,1525.0,1435.0,1000.0,1883.0,1475.0,1019.7999999999998,94.0,292.35,1637081927.357257,1637081928.4239805,c2f42f48-c182-40ac-99e8-e392c68ea0d6
-0.1659058127863591,0.0542559657965688,-0.4303655795021601,0.1491238078011588,-0.512965709246461,0.043263655705821,-0.7539156515261078,-0.7774912743651577,-17.116363398279095,21.85266255773612,28.480198387542377,-0.1198089892020932,0.0269463831387253,2.385831442099767,3477.251953125,12.0295,0.00875,179.22231967005868,-4.258889378241434,97.94447898097056,1525.0,1435.0,1000.0,1883.0,1475.0,1019.7999999999998,94.0,292.35,1637081928.535579,1637081929.604079,c2f42f48-c182-40ac-99e8-e392c68ea0d6
0.0083012720829363,0.1252589247236337,0.0169925604272768,0.0199510170936414,-0.1063159172040881,0.074649593599866,-0.2543439528460574,-0.2774856613930283,-13.84916009963195,19.89392379275068,29.573877966245306,0.2532112708268401,0.3046637692860804,0.5229677237934384,4185.26708984375,12.029000000000002,0.18,179.32598828128116,-4.266854179226462,96.04023931584392,1525.0,1435.0,1200.0,1528.0,1475.0,1019.7999999999998,94.0,292.35,1637081933.0651674,1637081934.1123123,e1c7ba54-d40c-4217-b566-8e24092a50e8
-0.0126051553495859,0.1175932349677568,0.0139946576400196,0.0279848705784633,-0.1073546642724493,0.0721250439353129,-0.2578546551915213,-0.2812198917043325,-13.869240861764338,19.96291014470908,29.173369178607626,0.2296499572477038,0.2784265775714653,0.5320031522103573,4208.330620659723,12.027888888888889,0.1744444444444444,179.3495721655753,-4.275936575843416,95.27501072417256,1525.0,1435.0,1200.0,1528.0,1475.0,1019.7999999999998,94.0,292.35,1637081934.2205794,1637081935.3425562,e1c7ba54-d40c-4217-b566-8e24092a50e8
0.0099317104425653,0.1221426837762129,0.0190306083665478,0.0264990678753586,-0.1046065866009116,0.0715465012932029,-0.2533052057128638,-0.2850461626859127,-13.742867122360163,20.017545701228045,29.565654467318005,0.2324405898524273,0.2916216328879049,0.5160748618799391,4216.146484375,12.022,0.17,179.36429198214657,-4.283296152105974,94.6582734806969,1525.0,1435.0,1200.0,1528.0,1475.0,1019.7999999999998,94.0,292.35,1637081935.4507554,1637081936.50364,e1c7ba54-d40c-4217-b566-8e24092a50e8
0.1541860556847142,0.4108748888668909,0.037320444992387,-0.114888867691847,-0.1540062417236939,-0.0809126347305595,-0.2996149201336222,-0.3274770118091591,-13.544208514897443,19.359350270076057,29.5005428045704,0.2054181721599463,1.392270172606206,0.6583772354674398,4214.07373046875,12.028555555555556,0.1744444444444444,179.28998559525607,-4.288361069398624,93.93499439308796,1610.0,1435.0,1200.0,1528.0,1542.0,1019.7999999999998,94.0,292.35,1637081937.0687838,1637081938.2092495,1dbfbfa5-8c7a-4a0e-b892-2da634b1658b
0.1542912452684806,0.4100596697656111,0.0399370355616073,-0.1185442054811964,-0.1523758032585538,-0.0791244119391565,-0.2949997270782964,-0.3138681091027775,-13.377641357574143,19.32745130107145,29.19022468419148,0.217635299813098,1.391399412831047,0.6455799748860902,4205.805013020833,12.019333333333334,0.2,179.27808133444265,-4.291562815435806,93.48096971056988,1610.0,1435.0,1200.0,1528.0,1542.0,1019.7999999999998,94.0,292.35,1637081938.318266,1637081939.4373386,1dbfbfa5-8c7a-4a0e-b892-2da634b1658b
0.1496760530227879,0.4134520331270749,0.040647065164818,-0.1168085774535114,-0.1515605840281512,-0.0824115861569392,-0.2966038682528443,-0.3200085511923453,-13.51878250711192,19.35113077336852,29.419538927997174,0.2064912648092384,1.4029211146981908,0.6464264236434842,4193.001302083333,12.020666666666664,0.1922222222222222,179.26678116591583,-4.276884786341317,93.0715082178366,1610.0,1435.0,1200.0,1528.0,1542.0,1019.7999999999998,94.0,292.35,1637081939.546581,1637081940.666568,1dbfbfa5-8c7a-4a0e-b892-2da634b1658b
0.3335150881762641,0.7187855502876506,0.0625012940571482,-0.2695717886735613,-0.2059786597273706,-0.2393845697775486,-0.342478580910301,-0.3713235390139194,-12.946996395697845,18.9179670065588,29.54664762994105,0.1968731727315863,2.563120438963623,0.7924347693711781,4195.053602430556,12.017111111111111,0.2022222222222222,179.1684416200658,-4.272569197718863,92.53384103874254,1695.0,1435.0,1200.0,1528.0,1609.0,1019.7999999999998,94.0,292.35,1637081941.57701,1637081942.7198565,dc11acf4-459d-45df-b2eb-57a6b957fa8a
0.3231862401257064,0.7182256350262571,0.0618559122150437,-0.2679660039369057,-0.204970592920576,-0.240169656615006,-0.3433869368417233,-0.3614532486594379,-13.083848261604066,18.849359841972525,29.562820299685992,0.190933470218076,2.561605898437299,0.7931363715745635,4193.45703125,12.018333333333333,0.21,179.11959666058135,-4.265909573550623,92.24697461142182,1695.0,1435.0,1200.0,1528.0,1609.0,1019.7999999999998,94.0,292.35,1637081942.8285666,1637081943.8311927,dc11acf4-459d-45df-b2eb-57a6b957fa8a
0.3230021583905983,0.7149384612837159,0.0590683886182966,-0.2643238145791919,-0.2061802730978761,-0.2415371211591143,-0.345556472086955,-0.3720773971574795,-13.071232175283363,18.79071486167368,29.36900420929356,0.1790925984372073,2.5502793516998703,0.8010663750394142,4189.35791015625,12.015777777777778,0.21,179.1037324078691,-4.271039709663473,92.0232555597076,1695.0,1435.0,1200.0,1528.0,1609.0,1019.7999999999998,94.0,292.35,1637081943.939422,1637081945.0599778,dc11acf4-459d-45df-b2eb-57a6b957fa8a
0.4540683524066054,0.9513914449570948,0.0860758105438155,-0.3864489248359423,-0.2415502698565077,-0.3654373043235772,-0.3746282446540414,-0.4036737203051309,-12.722248548138836,18.789566863681056,28.694987674186983,0.1775620777857685,3.4573738960094693,0.8806534239924341,4182.996961805556,12.013,0.2133333333333333,179.01791032203798,-4.259324085394,91.65585437188324,1779.0,1435.0,1200.0,1528.0,1677.0,1019.7999999999998,94.0,292.35,1637081946.083213,1637081947.1087906,e2839d8b-b922-4d90-96e0-11b780c76bb2
0.4414981998788335,0.9488405980783612,0.0851948479025023,-0.3863305865609074,-0.2428782883388614,-0.3619923452597631,-0.3765479546693641,-0.3945748207673864,-12.821207025768476,18.958092939343164,28.83253384439575,0.1860818447617151,3.447220444637188,0.8861443515917441,4176.2041015625,12.001666666666669,0.25,179.01012087074454,-4.271611405983376,91.36634997372308,1779.0,1435.0,1200.0,1528.0,1677.0,1019.7999999999998,94.0,292.35,1637081947.2169757,1637081948.342816,e2839d8b-b922-4d90-96e0-11b780c76bb2
0.4665859101534013,0.9487617059066648,0.0864176766423565,-0.3869485753823991,-0.2414450802769964,-0.3633992560248611,-0.373668389660594,-0.3973228987647943,-12.685256213590623,18.84062784619717,28.557292265578923,0.1836211172816145,3.4485534001100304,0.8781656482088657,4175.07373046875,12.004,0.25,178.99328976680982,-4.266321424471201,91.12857515160688,1779.0,1435.0,1200.0,1528.0,1677.0,1019.7999999999998,94.0,292.35,1637081948.4561584,1637081949.56553,e2839d8b-b922-4d90-96e0-11b780c76bb2
0.4862159004645721,1.040837973752588,0.1081403339787805,-0.4504896634623735,-0.2516661699682238,-0.4139008795093444,-0.3777419576577458,-0.4014475444253784,-12.482728216273394,19.37741431001152,25.94753820894677,0.2177963564595957,3.824801599579656,0.8751012629129062,4174.622233072917,12.00122222222222,0.2533333333333333,178.93724275230048,-4.258154557794243,90.79662795794428,1864.0,1435.0,1200.0,1528.0,1744.0,1019.7999999999998,94.0,292.35,1637081950.5873373,1637081951.7328389,cbd29567-cd91-4b29-949e-01ad15b348c6
0.4924756907583066,1.0276933240459545,0.1096119764671623,-0.4513246058361422,-0.2483218492717035,-0.3999263411676297,-0.373208185256259,-0.3916426613116767,-12.62811675327582,19.517777005628304,26.016081009343008,0.2520239359282592,3.776121176536277,0.8604246082416429,4164.93017578125,11.989111111111113,0.28,178.92623096953864,-4.256261789052372,90.52000529655876,1864.0,1435.0,1200.0,1528.0,1744.0,1019.7999999999998,94.0,292.35,1637081951.8503332,1637081952.8440096,cbd29567-cd91-4b29-949e-01ad15b348c6
0.5071101883541469,1.0323085161381986,0.110939994787367,-0.4461440183205773,-0.2477696039336181,-0.4099456497649341,-0.374246932429223,-0.403266110735707,-12.517053536008202,19.50661806898309,25.91348744190546,0.2178547804200633,3.7930003177696334,0.8598825620439169,4160.88623046875,11.989,0.28,178.90377330754762,-4.249516597792031,90.29775094096652,1864.0,1435.0,1200.0,1528.0,1744.0,1019.7999999999998,94.0,292.35,1637081952.9518452,1637081954.0781624,cbd29567-cd91-4b29-949e-01ad15b348c6
-0.1782261422674803,-0.1875617174126981,-0.005873022708018,0.1781561281799956,-0.0563640177580422,0.2261883135515819,-0.2111899268712342,-0.2402616975185185,-14.035247695250527,20.70929726610616,28.323384463075843,0.2408406864301784,-0.8771178206920409,0.3859649361375749,4155.063747829861,11.999333333333333,0.26,179.23807312192437,-4.2423608837034505,89.99757171604354,1440.0,1435.0,1200.0,1528.0,1408.0,1019.7999999999998,94.0,292.35,1637081955.0937092,1637081956.236968,8c99dd53-63b3-4513-9b38-700dba270547
-0.1807243947627218,-0.1955955715614785,-0.0067934314713708,0.1795498899301957,-0.0555356498749385,0.2309875874566541,-0.2104141537174833,-0.231425772700024,-14.090502298748786,20.73536576841217,28.06863223703338,0.2485398689712362,-0.904830226046386,0.3836182299489287,4170.109103732639,12.025,0.1822222222222222,179.19413527390356,-4.229561678381277,90.15792862064738,1440.0,1435.0,1200.0,1528.0,1408.0,1019.7999999999998,94.0,292.35,1637081956.3455498,1637081957.4608326,8c99dd53-63b3-4513-9b38-700dba270547
-0.1816053574808638,-0.1844191787184869,-0.0025069564050834,0.173146475087777,-0.0550754454840792,0.2260699752934309,-0.2084287003783884,-0.2329773189794645,-14.001116155683876,20.77401844941588,28.11125588099617,0.252455333165435,-0.8628615905112323,0.3757245770073309,4179.14501953125,12.022,0.19,179.1636210243316,-4.238012424795613,90.28973912907011,1440.0,1435.0,1200.0,1528.0,1408.0,1019.7999999999998,94.0,292.35,1637081957.5699594,1637081958.6852767,8c99dd53-63b3-4513-9b38-700dba270547
-0.3236679350351462,-0.4566720806089899,-0.0182641520429375,0.3076212191218471,-0.0095278546323065,0.3665627745363556,-0.1694235950489492,-0.1988690915516302,-14.434225588333534,21.829097298180816,27.843993047392743,0.2707683584459973,-1.8960790631513584,0.2467545442313837,4193.45703125,12.017,0.2033333333333333,179.19548158007998,-4.223454303466554,90.48581564630338,1355.0,1435.0,1200.0,1528.0,1341.0,1019.7999999999998,94.0,292.35,1637081960.6234024,1637081961.6754637,1a69b387-871b-4d7d-a884-4def965d5153
-0.3393705151777266,-0.4693277037568107,-0.0241684225213694,0.311603756666732,-0.0125115973039903,0.3747933520431316,-0.1724073379081898,-0.1993874536699796,-14.469380682660708,21.86237115675964,27.738197951959272,0.2801719587424323,-1.9432229367086944,0.2614310261660249,4190.725477430556,12.008555555555557,0.23,179.20035985296718,-4.23006455105892,90.42593158330035,1355.0,1435.0,1200.0,1528.0,1341.0,1019.7999999999998,94.0,292.35,1637081961.7843645,1637081962.7313974,1a69b387-871b-4d7d-a884-4def965d5153
-0.3289496660322422,-0.4642234797799792,-0.0200999123735507,0.3121150386328764,-0.0100148621260254,0.3690883354641774,-0.1700739498464356,-0.2010128349953648,-14.397783152571554,21.88246523243648,27.729110470761302,0.2665690803668755,-1.9243098881764564,0.2498134083935839,4184.131944444444,12.011,0.2277777777777778,179.19306521093364,-4.219443085148988,90.40100063391988,1355.0,1435.0,1200.0,1528.0,1341.0,1019.7999999999998,94.0,292.35,1637081962.8403895,1637081963.9093392,1a69b387-871b-4d7d-a884-4def965d5153
-0.5158791575041548,-0.7789543199668525,-0.0391377079591069,0.4645711254850911,0.0411325554461402,0.5324133347832446,-0.1261593239849656,-0.1476144578012295,-14.93013829076185,23.155637355142435,27.149084357684576,0.2968102045314862,-3.1157891680340404,0.1051157045924805,4182.770290798611,12.00711111111111,0.2366666666666666,179.2820534689,-4.220393714672219,90.28699415193368,1271.0,1435.0,1200.0,1528.0,1273.0,1019.7999999999998,94.0,292.35,1637081965.561631,1637081966.6796024,91137adc-646f-4881-8b05-cd932ba6080f
-0.4902316073778864,-0.7755321173492394,-0.0314077914674248,0.462733342478761,0.0471293724106094,0.5321978984743285,-0.1181234471606341,-0.1431191206006341,-14.811149145072957,23.16204038163497,27.414389865082104,0.3010012105907395,-3.1054309849748294,0.0758224667560315,4177.1083984375,12.000666666666667,0.25,179.28947408997826,-4.227276221194,90.1406634202454,1271.0,1435.0,1200.0,1528.0,1273.0,1019.7999999999998,94.0,292.35,1637081966.79091,1637081967.9060152,91137adc-646f-4881-8b05-cd932ba6080f
-0.4922620700147516,-0.7763751514504931,-0.0348264525764388,0.4596403648269407,0.044520873371103,0.5366993036469748,-0.1204699838662936,-0.1496120482590641,-14.905221528066054,23.11381941611534,27.51081632558824,0.3175715970377367,-3.108618410430473,0.0873371944303172,4177.1083984375,11.998666666666669,0.251111111111111,179.29671257267862,-4.235008185061932,90.05479276418019,1271.0,1435.0,1200.0,1528.0,1273.0,1019.7999999999998,94.0,292.35,1637081968.0145874,1637081969.0220816,91137adc-646f-4881-8b05-cd932ba6080f
-0.5791431163154527,-0.9267816470410252,-0.0502367250939913,0.5268989743765854,0.0585161433670977,0.62013637057639,-0.1077885712868681,-0.1314036313548476,-15.099783722371251,24.09217238379382,27.205356515665823,0.3589185440603482,-3.677891180622948,0.0526475069827398,4177.1083984375,11.992666666666668,0.2688888888888889,179.3728873957621,-4.234419033814149,89.78499801523498,1186.0,1435.0,1200.0,1528.0,1206.0,1019.7999999999998,94.0,292.35,1637081971.160724,1637081972.2975037,b54272f3-7b2f-420d-847e-7e58cf1a49a9
-0.5737127030740196,-0.9264660781665726,-0.048724624982715,0.5251896440221897,0.0596206338402148,0.6219114443960848,-0.1075255973530276,-0.1278008882531345,-15.243511637118068,24.188923920640462,27.28428306865816,0.3674201049311315,-3.676081903599591,0.0487018675117833,4172.36474609375,11.988666666666669,0.28,179.37319854882426,-4.2257479663672095,89.61642135741997,1186.0,1435.0,1200.0,1528.0,1206.0,1019.7999999999998,94.0,292.35,1637081972.4058895,1637081973.4344914,b54272f3-7b2f-420d-847e-7e58cf1a49a9
-0.5783015995340136,-0.9157104385601308,-0.0521958809043478,0.5177211852374637,0.054308560571931,0.6194000436565732,-0.112075046514205,-0.1414360871893576,-15.252766222245166,24.0820057794326,27.418138039983788,0.3777587254656247,-3.636164912502695,0.0686084027352598,4162.009548611111,11.988333333333337,0.29,179.37067896793044,-4.241620709384019,89.46544761491592,1186.0,1435.0,1200.0,1528.0,1206.0,1019.7999999999998,94.0,292.35,1637081973.542652,1637081974.670337,b54272f3-7b2f-420d-847e-7e58cf1a49a9
-0.0109352709064651,0.1131358270283475,0.013021654086212,0.0280111679846653,-0.1057899693461293,0.0750835005737689,-0.2563951497470453,-0.273896066705648,-13.93227800581539,19.81145706191525,28.98065622639085,0.2351237831112679,0.2637952696043434,0.5283274222275847,4160.88623046875,11.992,0.28,179.13231143717627,-4.234068844323578,89.32005034241423,1525.0,1435.0,1200.0,1528.0,1475.0,1019.7999999999998,94.0,292.35,1637081975.5737188,1637081976.607232,8e82a9c8-85e4-4ba1-b213-a07634f73e8d
-0.017154604344937,0.1156340792685624,0.015414716854199,0.0231987451100173,-0.105342913625542,0.0770426562971519,-0.2532394622272822,-0.2766441446825213,-13.812263441648335,19.832979878232347,28.997631202834167,0.2507068686505919,0.2729099367522805,0.5203226119848552,4171.236762152777,12.025555555555554,0.18,179.0927737488008,-4.230205423710551,89.70296061311394,1525.0,1435.0,1200.0,1528.0,1475.0,1019.7999999999998,94.0,292.35,1637081976.7195022,1637081977.8101757,8e82a9c8-85e4-4ba1-b213-a07634f73e8d
-0.0090681559707091,0.1116500243809785,0.0110362009498573,0.0327841447535103,-0.1067103781127272,0.0739790101030386,-0.2603003129929456,-0.2827977353372577,-14.090825311763592,19.891177763857787,29.21855633614938,0.2222629091766838,0.2565240917698729,0.5379015737594941,4183.45068359375,12.028666666666666,0.1788888888888888,179.06813801537444,-4.227665447112953,90.0421402181977,1525.0,1435.0,1200.0,1528.0,1475.0,1019.7999999999998,94.0,292.35,1637081977.918084,1637081978.9725847,8e82a9c8-85e4-4ba1-b213-a07634f73e8d
0.0184652144242726,0.1058908955208335,-0.0105671073688335,-0.2673217177077064,-0.1570172934051257,0.3705215432507019,-0.1970945230836465,-0.2232341339175841,-13.994505935399678,19.16726854732337,31.45396742313799,1.5601291155162087,0.2499973836352399,0.5460666239648622,4190.951063368056,12.027333333333337,0.18,179.0789448924612,-4.129036471996844,90.50119723231424,1525.0,1535.0,1200.0,1528.0,1475.0,1019.7999999999998,94.0,292.35,1637081980.0801437,1637081981.2177515,f31d5ae7-25f4-44f6-8a60-1d6bfb66447e
-0.0006792876215395,0.1042078624287429,-0.0082660854766715,-0.2671244872773917,-0.1553211114484912,0.3724675501399743,-0.1952931515223823,-0.2160286476354895,-14.0208856979577,19.28316808002825,31.53648739175105,1.56493991209529,0.243263878149737,0.5379035013893568,4187.31103515625,12.026,0.18,179.0937269396449,-4.137183512152463,90.62059652810515,1525.0,1535.0,1200.0,1528.0,1475.0,1019.7999999999998,94.0,292.35,1637081981.3268423,1637081982.4469936,f31d5ae7-25f4-44f6-8a60-1d6bfb66447e
-0.0092390890274444,0.1105981286987899,-0.0056757922620286,-0.2721209924667402,-0.1549792453158569,0.3698246623980721,-0.1923346945827531,-0.2093359606361608,-13.839168835114505,19.214713050828102,31.41810177509346,1.5700196649495846,0.2677725899203366,0.5304124150252165,4184.81298828125,12.025,0.18,179.08621828501737,-4.140827560370271,90.7564975609308,1525.0,1535.0,1200.0,1528.0,1475.0,1019.7999999999998,94.0,292.35,1637081982.555235,1637081983.673505,f31d5ae7-25f4-44f6-8a60-1d6bfb66447e
0.0177025900122933,0.1040237806854497,-0.0279233868400169,-0.5613134788492218,-0.2086785256319046,0.6574129208045362,-0.1373862884337541,-0.1622110289428858,-13.812437314150914,19.007797107584743,33.65552890026311,2.8665069400415133,0.2572872253196806,0.5555720204221426,4180.730577256944,12.023666666666664,0.1822222222222222,179.09956751029523,-4.061634979470428,90.93524437041997,1525.0,1636.0,1200.0,1528.0,1475.0,1019.7999999999998,94.0,292.35,1637081984.585494,1637081985.7226322,a227b414-ea5a-400d-b52a-3fccda854641
0.0331917543454486,0.112320607880205,-0.0200078714923918,-0.5664283231940355,-0.2026432734495971,0.6541783418437488,-0.1304963711211884,-0.1614221070400281,-13.816229202686417,18.95188260333218,33.739460239119104,2.870811191141255,0.2888189284530063,0.5278500396962089,4181.18359375,12.019,0.19,179.12319085790458,-4.061302719226429,90.95647942854951,1525.0,1636.0,1200.0,1528.0,1475.0,1019.7999999999998,94.0,292.35,1637081985.8310013,1637081986.8465824,a227b414-ea5a-400d-b52a-3fccda854641
0.0208405769917584,0.1108332880688882,-0.0226006933139446,-0.5650603526245244,-0.2041538565152217,0.6552398461025002,-0.1317222342713003,-0.1534302276641528,-13.773846351271771,18.865075042162378,33.84831700383343,2.869444850313153,0.2816415349809927,0.535238006213243,4185.26708984375,12.018444444444444,0.1977777777777777,179.12308461051748,-4.074422089665946,90.98118270495765,1525.0,1636.0,1200.0,1528.0,1475.0,1019.7999999999998,94.0,292.35,1637081986.9808817,1637081987.9762013,a227b414-ea5a-400d-b52a-3fccda854641
0.0181233482939088,0.1088099060392779,-0.0336562185696866,-0.7756241583431429,-0.2406561584038069,0.863255741192811,-0.0885651763015639,-0.1172293357531725,-13.697300876725496,18.894602910774573,35.69549341905818,3.811842932698931,0.2823639249546316,0.5391345221391339,4197.564453125,12.019555555555556,0.1955555555555556,179.13603768482346,-4.025904267783584,91.0631563586464,1525.0,1737.0,1200.0,1528.0,1475.0,1019.7999999999998,94.0,292.35,1637081990.1148186,1637081991.1398098,a83a24f4-7d9c-4a81-8002-379d9d871c56
