raw_voltage_G-,raw_voltage_G0,raw_voltage_G1,raw_voltage_G2,raw_voltage_G3,raw_voltage_G4,raw_voltage_G5,raw_voltage_G6,load_x,load_y,load_z,load_l,load_m,load_n,rpm,voltage,current,roll,pitch,yaw,aileron1_pwm,elevator_pwm,throttle_pwm,rudder_pwm,aileron2_pwm,pbaro,pdiff,Tt,sample_start_time,sample_end_time,uid
-0.0341427203521065,0.0913221402916013,0.0283398853979033,-0.0010474510983919,-0.1088273183279788,0.0365972666962862,-0.2574075994555506,-0.2800496576953712,-13.571670728932304,21.52410180695806,16.707140307482693,0.2245303277672536,0.2927861314988148,0.4923697996129466,2751.4401041666665,12.02111111111111,0.18,179.28764056364105,0.6961525466464816,87.93145694704256,1525.0,1435.0,1200.0,1528.0,1475.0,1019.7999999999998,64.0,292.35,1637080074.6238897,1637080075.698125,d26bb2ad-d14b-4c21-ba37-e01e0d8620c9
-0.0257012571367455,0.0932812960015157,0.0306014611727804,0.0009248533539887,-0.1071968798990748,0.0322976429723928,-0.2569605437347346,-0.283704995774845,-13.58133785800492,21.578145524509544,16.636861710473347,0.2108742682439101,0.300726911060437,0.4865560833393809,3410.4405110677085,12.022555555555556,0.1655555555555555,179.28613185074437,0.6651740517253627,86.49991835780952,1525.0,1435.0,1200.0,1528.0,1475.0,1019.7999999999998,64.0,292.35,1637080075.8063114,1637080076.9618397,d26bb2ad-d14b-4c21-ba37-e01e0d8620c9
-0.0165194211572564,0.0922986838354298,0.0270862077762546,0.0007256000492809,-0.1105831750977801,0.0345708503010066,-0.2591255274064431,-0.2865355056145292,-13.493110672893396,21.54208597127928,16.775074797739208,0.2160842992707262,0.2949931610611519,0.4991932856242068,3445.724066840278,12.023111111111112,0.1611111111111111,179.25569804562258,0.6309087772834889,85.48087917767056,1525.0,1435.0,1200.0,1528.0,1475.0,1019.7999999999998,64.0,292.35,1637080077.0711305,1637080078.0781603,d26bb2ad-d14b-4c21-ba37-e01e0d8620c9
0.1532757613940373,0.3817722749086072,0.0435852930652643,-0.1420894762846464,-0.1616102345015472,-0.1112911818832489,-0.3075734225722376,-0.3375499262624016,-13.47074985410318,20.949943918058448,17.54875526517135,0.2074994075447683,1.3922992556055438,0.6503073856657431,3446.492431640625,12.019,0.17,179.16981676481868,0.5979538793770689,83.53978874469693,1644.0,1435.0,1200.0,1528.0,1569.0,1019.7999999999998,64.0,292.35,1637080080.2166393,1637080081.2621825,904149b8-40d4-415a-b104-698b2d8a2be6
0.1316436280257924,0.3744899206209726,0.0393625386721324,-0.1357174153263474,-0.163772183781296,-0.1096349517619887,-0.3108479541642479,-0.3349581156389097,-13.463110737295612,20.96931870418248,17.574820762609885,0.196773542561839,1.3636490051366503,0.6628792118170933,3447.878662109375,12.018666666666668,0.1744444444444444,179.15597273028098,0.591417672932582,83.03894463323826,1644.0,1435.0,1200.0,1528.0,1569.0,1019.7999999999998,64.0,292.35,1637080081.3708966,1637080082.4875062,904149b8-40d4-415a-b104-698b2d8a2be6
0.1422601885459095,0.3776481360765821,0.0404629834159178,-0.1391613625553674,-0.1637757238059803,-0.1108522176774676,-0.3102785143685238,-0.3332361418572452,-13.456982149222275,20.96973575270191,17.397353909777674,0.201839239893593,1.3775175338931689,0.6606790061034036,3444.492513020833,12.019666666666666,0.18,179.1238389669658,0.5806762873992541,82.4979898564237,1644.0,1435.0,1200.0,1528.0,1569.0,1019.7999999999998,64.0,292.35,1637080082.5956657,1637080083.716082,904149b8-40d4-415a-b104-698b2d8a2be6
0.2700655106284435,0.65691327039629,0.0552552667153358,-0.274606096378568,-0.2171462868920405,-0.2587750640330867,-0.3603356092306404,-0.3820178134060566,-13.171945675809416,20.60732265915849,17.40447886025623,0.1734456811377402,2.440458764409325,0.81744041029583,3439.5771484375,12.0075,0.2,179.0624761680075,0.592241887630824,81.61700227006158,1763.0,1435.0,1200.0,1528.0,1663.0,1019.7999999999998,64.0,292.35,1637080085.6540077,1637080086.7918618,2233f332-5d2b-4de7-b298-8658be7cca75
0.291655668576546,0.6519562123950923,0.0536905718652932,-0.2710427992184338,-0.2175670452092322,-0.253568179686931,-0.3618740069587481,-0.3926814082195883,-13.28813377872941,20.71254859904471,17.90776599759718,0.1777497049774828,2.417692385772335,0.8223535413389362,3440.957763671875,12.009,0.2,179.05325427426305,0.590772303061787,81.27700171418508,1763.0,1435.0,1200.0,1528.0,1663.0,1019.7999999999998,64.0,292.35,1637080086.9000697,1637080088.0212977,2233f332-5d2b-4de7-b298-8658be7cca75
0.2728530340677214,0.6533181137619266,0.0537123177843543,-0.273032804096427,-0.2182128485552305,-0.2556360652776261,-0.3615589439147246,-0.38072570099972,-13.200259855765482,20.67487158134547,17.54449787078965,0.1773294971511852,2.4256437819372785,0.8224668238057815,3442.33984375,12.010555555555555,0.2,179.03216872138535,0.5999618008394775,80.99267080486625,1763.0,1435.0,1200.0,1528.0,1663.0,1019.7999999999998,64.0,292.35,1637080088.1303952,1637080089.2508652,2233f332-5d2b-4de7-b298-8658be7cca75
0.3188355391263349,0.6831176080213612,0.0650530682736404,-0.2973831815334197,-0.2198311498057663,-0.2681652572517553,-0.3606486494003466,-0.3875149809028089,-13.227160320613477,21.13288964720069,16.768830916310655,0.2075669794321738,2.54819987832737,0.8100076863047481,3443.722900390625,11.988333333333337,0.25,179.01169484989327,0.6147692300022256,80.53335576138106,1881.0,1435.0,1200.0,1528.0,1757.0,1019.7999999999998,64.0,292.35,1637080090.157648,1637080091.297968,31b537c3-1307-4a81-afff-481606859f33
0.2860396584646457,0.6846347651326936,0.0635485539822122,-0.2969786061566227,-0.223484970626364,-0.2705547802462307,-0.3643656853789881,-0.380940631783787,-13.16613951270776,21.314198370022726,16.670874514376614,0.2024268834464682,2.5541843195652776,0.8223446336841287,3438.0447591145835,11.99,0.2444444444444444,179.00259400227918,0.6285612080634471,80.19043548936185,1881.0,1435.0,1200.0,1528.0,1757.0,1019.7999999999998,64.0,292.35,1637080091.4068267,1637080092.4223545,31b537c3-1307-4a81-afff-481606859f33
0.3214652782061079,0.6880736545860843,0.063687626738944,-0.2977751138925523,-0.2215126659557658,-0.2747016773725337,-0.3636323925654458,-0.4015613315310075,-13.239165214693314,21.064962814441955,16.462970071397375,0.1931897900430382,2.569544412392398,0.818591772730515,3436.81884765625,11.991,0.25,179.00212803159582,0.6119600834756954,79.85787509649374,1881.0,1435.0,1200.0,1528.0,1757.0,1019.7999999999998,64.0,292.35,1637080092.5359876,1637080093.75474,31b537c3-1307-4a81-afff-481606859f33
0.3677471685246653,0.8001157074809818,0.0866280557639729,-0.342453379267712,-0.2324776684216638,-0.3414935242679485,-0.3754566126952748,-0.4066979210983989,-13.0738617074231,21.708828726724164,16.759702977121304,0.1494238679761866,2.9929363890785545,0.8325265611150505,3431.7740885416665,11.969333333333331,0.29,178.9747435264835,0.6344451729450832,79.21319630803346,2000.0,1435.0,1200.0,1528.0,1852.0,1019.7999999999998,64.0,292.35,1637080095.6895974,1637080096.8281565,c1097c4e-fad5-4d80-a27c-c33b1de29721
0.3714288032021071,0.7951192033719147,0.0911906533093434,-0.3401523570671894,-0.2264424161649243,-0.3402706953363335,-0.3682642745365672,-0.3926945569282191,-12.974400230397228,21.60713694847241,16.584845850321734,0.1465564384789372,2.975046465885063,0.807126919124716,3427.199462890625,11.973333333333334,0.2899999999999999,178.96573678369796,0.6069809645055109,78.89623682613959,2000.0,1435.0,1200.0,1528.0,1852.0,1019.7999999999998,64.0,292.35,1637080096.936615,1637080097.8853664,c1097c4e-fad5-4d80-a27c-c33b1de29721
0.3776612847649765,0.7990112170968194,0.088074412328176,-0.3439917770377689,-0.2308998247081611,-0.3394949221408784,-0.371696084900897,-0.3966786126759176,-12.944922301194492,21.615677900005146,16.709102236644785,0.1568965918513696,2.988609271489417,0.82296164852271,3425.829833984375,11.974777777777778,0.2911111111111111,178.96377424267646,0.5891818531964605,78.65324298058758,2000.0,1435.0,1200.0,1528.0,1852.0,1019.7999999999998,64.0,292.35,1637080097.9942665,1637080099.0805118,c1097c4e-fad5-4d80-a27c-c33b1de29721
-0.1753334288148014,-0.1902572003738353,0.0244215738853473,0.135146744072471,-0.050210427687525,0.1854142082467861,-0.1993429503566935,-0.2194999038054047,-13.629872960532609,22.40972101366972,16.668087581186956,0.2573613774696072,-0.7795513314418255,0.3018646540431043,3419.9086642795137,12.022,0.17,179.22718731820717,0.5704945327040932,78.3019739406729,1406.0,1435.0,1200.0,1528.0,1381.0,1019.7999999999998,64.0,292.35,1637080100.1950982,1637080101.219977,34d40985-cda2-42bc-8ec6-b36c6050a915
-0.1670366007763132,-0.1897575498825311,0.024960670431301,0.1378159293291667,-0.0486325840855849,0.1843623125636187,-0.1983436493439943,-0.2187767254648688,-13.625620372071676,22.318508873871707,16.944389037712455,0.2484449712416259,-0.7804522948163654,0.2980719037261795,3434.9837782118057,12.022666666666668,0.17,179.23173774201422,0.5968410150740981,78.53466937877634,1406.0,1435.0,1200.0,1528.0,1381.0,1019.7999999999998,64.0,292.35,1637080101.3296115,1637080102.4456956,34d40985-cda2-42bc-8ec6-b36c6050a915
-0.1867202007595117,-0.1902966464734448,0.0233696781752329,0.1343841197111878,-0.0504996990132726,0.1855193978127053,-0.1994612886317625,-0.2217483313958944,-13.628872938738018,22.31613061900096,16.574387526133997,0.2586308138218099,-0.7788502714116035,0.3037564853414658,3441.725911458333,12.021,0.17,179.22650429929018,0.618522638323543,78.78045145932953,1406.0,1435.0,1200.0,1528.0,1381.0,1019.7999999999998,64.0,292.35,1637080102.5539732,1637080103.5869052,34d40985-cda2-42bc-8ec6-b36c6050a915
-0.3205607964386247,-0.4804489748641776,0.0183863222437041,0.2820308235077577,0.0080251494634132,0.3348885789936689,-0.1454464398106182,-0.1757147410506692,-13.834961574933027,23.5260712450434,16.89587319415459,0.268948729557998,-1.8869624565295904,0.1199295938340367,3446.492431640625,12.010444444444444,0.2,179.31701341271173,0.626616738584109,79.01480207994183,1287.0,1435.0,1200.0,1528.0,1287.0,1019.7999999999998,64.0,292.35,1637080104.137349,1637080105.224631,e253a043-fb3d-45fb-a7fd-ae985b39f76b
-0.3254652609460264,-0.4820005214059461,0.0219890650491533,0.2833719904424641,0.0107469296212784,0.3351121068234974,-0.142106670723116,-0.1699161655405814,-13.770376496470682,23.62742296396661,16.912254670615496,0.2673120695351382,-1.8933190181290216,0.1064070723610613,3444.1842447916665,12.009666666666668,0.1933333333333333,179.33392951455616,0.6342520244445697,79.05087003221895,1287.0,1435.0,1200.0,1528.0,1287.0,1019.7999999999998,64.0,292.35,1637080105.333482,1637080106.4535306,e253a043-fb3d-45fb-a7fd-ae985b39f76b
-0.3426374610492055,-0.4823555362875689,0.0178866717702846,0.282017674783582,0.0073151198489925,0.3360456641722318,-0.1473267035301633,-0.1645383483039946,-13.954410382361663,23.66043801653948,16.783001792492083,0.2723662492142102,-1.892295192880692,0.1237261687179853,3444.799370659722,12.010222222222222,0.1922222222222222,179.34345838735825,0.6331374170204046,79.07602258329247,1287.0,1435.0,1200.0,1528.0,1287.0,1019.7999999999998,64.0,292.35,1637080106.562383,1637080107.6829803,e253a043-fb3d-45fb-a7fd-ae985b39f76b
-0.4137324750322703,-0.6298708029912767,0.0143102263268512,0.3731381335876551,0.0334284308629195,0.4039849725739721,-0.124881877470742,-0.1551501784277373,-13.734411425348789,24.609058029384787,17.88121129902505,0.22588575256232,-2.468287151648474,0.0453403711797015,3440.957763671875,11.98988888888889,0.24,179.3931138626242,0.6383437880050834,79.15674099999377,1169.0,1435.0,1200.0,1528.0,1193.0,1019.7999999999998,64.0,292.35,1637080108.684611,1637080109.7299037,6bcce5a8-da6f-4b35-9a9d-0caae2f2605b
-0.4410686204141893,-0.6525917580488294,0.0192935822610392,0.3774377569110015,0.0414096895157302,0.4228664988298597,-0.114639042443392,-0.136571069321492,-13.784796612551014,24.831441109564803,18.01954176507415,0.2603351965763355,-2.554583638796476,0.0104501898688812,3458.55712890625,11.992,0.24,179.39731822351328,0.6167119563603694,79.038377616227,1169.0,1435.0,1200.0,1528.0,1193.0,1019.7999999999998,64.0,292.35,1637080109.8383465,1637080110.9578598,6bcce5a8-da6f-4b35-9a9d-0caae2f2605b
-0.4288008841502321,-0.6744317504821475,0.0131136949407373,0.3975026658372721,0.0407259573041383,0.4285730325355043,-0.1190307072750996,-0.1437108121501292,-13.821645775363235,24.99847931337599,18.372543245870585,0.2287343420062803,-2.642224081729529,0.0239949615521195,3509.6982693142363,11.993000000000002,0.2411111111111111,179.40349878580227,0.6231860507720913,78.9538251866716,1169.0,1435.0,1200.0,1528.0,1193.0,1019.7999999999998,64.0,292.35,1637080111.0658982,1637080112.1878445,6bcce5a8-da6f-4b35-9a9d-0caae2f2605b
-0.4715341566475699,-0.7510886803494518,-0.0053865210390017,0.4345688375215291,0.03497997695843,0.4593935739165193,-0.1326396088513745,-0.1535197399884137,-14.253372600345132,25.99529287809225,16.796161284007255,0.219598217282201,-2.9184266346982537,0.0645303292173934,3572.91650390625,11.964,0.3,179.41647462740548,0.6216734662490998,78.75908890433546,1050.0,1435.0,1200.0,1528.0,1098.0,1019.7999999999998,64.0,292.35,1637080114.1185703,1637080115.0584595,f6bf08b3-ef72-4d5a-bfa7-c792731d0e00
-0.4776745993214586,-0.7456845639278332,-0.0034010677937094,0.4302560655192204,0.0351509100786487,0.4582890835338153,-0.1309302781490421,-0.1572934161293247,-14.18100130619846,25.97678243324904,16.84136032145628,0.2268646261155021,-2.898414188831953,0.0598954392246721,3562.0301106770835,11.966333333333331,0.2966666666666666,179.43435606265254,0.6035086315123038,78.49157316184329,1050.0,1435.0,1200.0,1528.0,1098.0,1019.7999999999998,64.0,292.35,1637080115.1910114,1637080116.2842052,f6bf08b3-ef72-4d5a-bfa7-c792731d0e00
-0.4754130230685581,-0.7482617095253548,-0.0085553568348471,0.4331487784572738,0.0319426281597185,0.4572240392277082,-0.1364395822820004,-0.1588975572100157,-14.299165138727073,25.93596606767801,16.66982493712376,0.2173320274854568,-2.9064070049097883,0.0785408838566084,3555.625,11.968333333333334,0.2966666666666666,179.4323434335771,0.5896239241467257,78.30014344997534,1050.0,1435.0,1200.0,1528.0,1098.0,1019.7999999999998,64.0,292.35,1637080116.3928216,1637080117.512912,f6bf08b3-ef72-4d5a-bfa7-c792731d0e00
-0.0164971695299313,0.106429992066131,0.0303779333358171,0.008682584280391,-0.1104577567592378,0.0175579543683692,-0.2636137848660002,-0.2946184148697107,-13.496283114286705,21.704237417451203,17.35961957677422,0.1612354539340417,0.3420675595817963,0.5034611370086868,3553.4972873263887,12.026333333333334,0.16,179.2143738833242,0.5733199661487224,78.04342092419161,1525.0,1435.0,1200.0,1528.0,1475.0,1019.7999999999998,64.0,292.35,1637080118.7179902,1637080119.7658453,7dfac227-70cd-4891-ade1-31c572771d7d
-0.0133283336924183,0.1064299920661587,0.0300623646210465,0.0068549154707305,-0.1094584557846637,0.019004310967089,-0.2634297030953784,-0.2863215866926877,-13.63418948719714,21.61382135763808,17.327317868497627,0.1679187235507141,0.3435334025922389,0.502147197936327,3565.650634765625,12.02588888888889,0.15,179.21047915767747,0.5851129517969187,78.48862327903174,1525.0,1435.0,1200.0,1528.0,1475.0,1019.7999999999998,64.0,292.35,1637080119.8740551,1637080120.8821714,7dfac227-70cd-4891-ade1-31c572771d7d
-0.0155241660010148,0.112136526133964,0.0338491891674347,0.0026867786968626,-0.1078411660508468,0.0169925604196105,-0.2601425286138769,-0.2845596609426958,-13.539930827537727,21.61166626946524,17.31732982612824,0.1730204743173673,0.3651109738223589,0.4908089552807287,3563.50927734375,12.024666666666668,0.16,179.21089504030695,0.5950847493229057,78.84108304859173,1525.0,1435.0,1200.0,1528.0,1475.0,1019.7999999999998,64.0,292.35,1637080120.9904804,1637080122.0181344,7dfac227-70cd-4891-ade1-31c572771d7d
-0.0033090269193778,0.1038659963393262,0.0139946576437802,-0.204260563254039,-0.1457094137525922,0.2265564770395405,-0.2206701378598495,-0.239946128766762,-13.622277593001463,21.10804810297412,18.94714972336348,1.1066522601123916,0.3444416710105455,0.5128830715322574,3555.298773871528,12.027333333333337,0.1522222222222222,179.1891704852869,0.6315566373274187,79.5357193584613,1525.0,1535.0,1200.0,1528.0,1475.0,1019.7999999999998,64.0,292.35,1637080123.6373303,1637080124.8848317,652919c1-45b4-45b3-8553-58e250066edd
0.0056189379957961,0.1071663190445694,0.0187281883510742,-0.2074293993812147,-0.1428429977617765,0.227700413552332,-0.2165545955012631,-0.2362513446895131,-13.605055911529703,21.18246541248638,19.18759267067184,1.117146972646044,0.3552584513587959,0.4973591101204831,3553.495551215278,12.02422222222222,0.16,179.19528578132378,0.6458746051735513,79.76641431004782,1525.0,1535.0,1200.0,1528.0,1475.0,1019.7999999999998,64.0,292.35,1637080124.9930286,1637080126.1136425,652919c1-45b4-45b3-8553-58e250066edd
0.0038307152541701,0.1068376016419991,0.0190700544515163,-0.2060882322116221,-0.1416727637164432,0.2253730944319472,-0.2155815918777503,-0.2428388423013597,-13.565435375649162,21.08821306256777,18.99262680228217,1.1082729090030794,0.3553280620450066,0.4936772510587993,3551.8595377604165,12.025555555555556,0.1577777777777777,179.19508998256754,0.6487130705242532,79.93706506864078,1525.0,1535.0,1200.0,1528.0,1475.0,1019.7999999999998,64.0,292.35,1637080126.2213163,1637080127.3486583,652919c1-45b4-45b3-8553-58e250066edd
0.0081303390210299,0.1014729336589037,0.0055268971423616,-0.405356753752007,-0.1763853245774774,0.4250886283476768,-0.1749784139550249,-0.1962924525666048,-13.5438487988081,20.901426870081924,20.656637247406408,2.004924875663006,0.3439789167492399,0.501649920284258,3536.06689453125,12.025,0.17,179.19552104339516,0.6819634096861783,80.32318097479096,1525.0,1636.0,1200.0,1528.0,1475.0,1019.7999999999998,64.0,292.35,1637080129.1648026,1637080130.107785,c2e7579c-da7b-4511-addb-f9f763672b71
0.0200562066868819,0.1048784459320106,0.0090770451759379,-0.4056065790404333,-0.1740580051464472,0.4212886554426527,-0.1722171875196122,-0.2013021065395925,-13.461213266773925,20.902388895325984,20.58198308592536,1.997162221176963,0.3570842778860018,0.4900713643379227,3535.4187825520835,12.021,0.1655555555555555,179.20268970638406,0.6889323192867559,80.37864818213072,1525.0,1636.0,1200.0,1528.0,1475.0,1019.7999999999998,64.0,292.35,1637080130.2172544,1637080131.4389951,c2e7579c-da7b-4511-addb-f9f763672b71
-0.0034086535746612,0.101730344669814,0.0043288486034986,-0.4050507936481978,-0.1776415309068277,0.4252641128554086,-0.1765415917923443,-0.2031677042750808,-13.562593845944065,20.922375850572923,20.74665279014313,2.0047131734721235,0.3441659670505843,0.5073587046427819,3536.06689453125,12.025,0.16,179.2016515176302,0.6826806091939479,80.43856411934989,1525.0,1636.0,1200.0,1528.0,1475.0,1019.7999999999998,64.0,292.35,1637080131.5471382,1637080132.669632,c2e7579c-da7b-4511-addb-f9f763672b71
-0.0021519416132438,0.1001975101412212,-0.0022965772627371,-0.5577896271642541,-0.2033007083192913,0.5739713025075094,-0.1439343396328665,-0.1612248765637278,-13.43032294812308,20.95639130459098,21.77710053531348,2.6835459032247617,0.3467338721768528,0.5049200311354529,3511.7630750868057,12.013222222222222,0.1888888888888888,179.20187919060257,0.7375113045644984,80.5452433261765,1525.0,1737.0,1200.0,1528.0,1475.0,1019.7999999999998,64.0,292.35,1637080134.6942594,1637080135.7398832,764f1297-b3db-4f70-a11a-34a1bbbb1938
0.0007670689893946,0.0962923474098338,-0.0032432834162621,-0.5550678462498976,-0.204234265858096,0.5754308076511879,-0.1457620085570799,-0.1681147941303217,-13.476177821218934,21.105000725428763,21.78469498490448,2.681602073839884,0.3319517724283005,0.509553237629459,3501.3994140625,12.015,0.18,179.21391550173996,0.724105623504304,80.49948864783649,1525.0,1737.0,1200.0,1528.0,1475.0,1019.7999999999998,64.0,292.35,1637080135.8488224,1637080136.856084,764f1297-b3db-4f70-a11a-34a1bbbb1938
0.0148887689671076,0.102537978036406,0.0017269238452464,-0.555028400255579,-0.2001187235262834,0.5690799879638524,-0.1416990611379048,-0.1671417906902645,-13.402901332587604,21.01061522708687,21.792511643365533,2.6669018753340312,0.3550974000448963,0.4922450832640788,3498.8985290527344,12.01625,0.18,179.21222123537083,0.7232793670123161,80.5147164597273,1525.0,1737.0,1200.0,1528.0,1475.0,1019.7999999999998,64.0,292.35,1637080136.9640486,1637080138.1757631,764f1297-b3db-4f70-a11a-34a1bbbb1938
0.0098664726710857,0.0996568964435898,-0.0040155164746062,-0.5664257947325834,-0.2112718533760271,0.5821508022174207,-0.1494224035772266,-0.1645054765562683,-13.45380377062521,21.568197179517604,21.6991249254175,2.725353303334128,0.3465282307956696,0.5254153239801841,3498.8587510850693,12.006888888888888,0.2077777777777777,179.22269457155315,0.7176254518843361,80.44694552037141,1525.0,1837.0,1200.0,1528.0,1475.0,1019.7999999999998,64.0,292.35,1637080140.298385,1637080141.4780724,8217d5b9-595b-4b8c-93db-d6cf1db97def
-0.0072521186911801,0.0982029540888056,-0.0029914353121689,-0.5589664361651802,-0.208490398134506,0.5765120349347649,-0.1497511210384403,-0.1707511079211,-13.51842265985172,21.53881603928835,21.6748661810378,2.6956755817639024,0.3408934405283844,0.5205211010407328,3480.548583984375,12.009555555555556,0.1922222222222222,179.200147358193,0.7153009226947759,80.34138267001913,1525.0,1837.0,1200.0,1528.0,1475.0,1019.7999999999998,64.0,292.35,1637080141.5875156,1637080142.703778,8217d5b9-595b-4b8c-93db-d6cf1db97def
0.0152650239867054,0.0961295058626107,-0.0035603693038554,-0.5597882300373109,-0.2080099649420007,0.5811520071075255,-0.1483224645256556,-0.1797149797649434,-13.526349240035346,21.46382166362653,21.94218132535334,2.707469130059874,0.3308674852188641,0.5187523181179179,3466.6263292100693,12.009,0.2,179.19696297221995,0.7042786278448802,80.26323468117548,1525.0,1837.0,1200.0,1528.0,1475.0,1019.7999999999998,64.0,292.35,1637080142.8119752,1637080143.9323263,8217d5b9-595b-4b8c-93db-d6cf1db97def
-0.0156950990523557,0.1134908418281717,0.0481155246528897,0.2004563161503127,-0.0747853419703104,-0.1778842760969649,-0.3012190613024572,-0.3303828741535451,-13.547770347527768,22.11863888577347,15.583429623869106,-0.7072226093459874,0.362176825443717,0.4840622398950968,3467.4052734375,12.026,0.16,179.20487536691846,0.5134658741580554,80.20264938541764,1525.0,1334.0,1200.0,1528.0,1475.0,1019.7999999999998,64.0,292.35,1637080144.6374166,1637080145.6624749,a48ebb51-b33b-4738-b6ae-7944e709a2f0
-0.0383371545838758,0.1057068137822611,0.0439605366262707,0.20563690225699,-0.0779015831256766,-0.1755832540630978,-0.3060183361489836,-0.3298832236731129,-13.618120855857727,22.290872837150506,15.468361920506574,-0.7128569247067463,0.33360142923282,0.4996249008422597,3467.2501356336807,12.025777777777778,0.16,179.20559481351106,0.5138464615478231,80.4081280374984,1525.0,1334.0,1200.0,1528.0,1475.0,1019.7999999999998,64.0,292.35,1637080145.7711394,1637080146.8919382,a48ebb51-b33b-4738-b6ae-7944e709a2f0
-0.015142853792484,0.1092043669275433,0.0463798967446321,0.2062680396516974,-0.0756137098708772,-0.1785417109538338,-0.3043353027768513,-0.3296202500015732,-13.62838167682136,22.240754880085422,15.633939559411129,-0.7211192047065734,0.3453993111951549,0.4914902642151804,3473.025146484375,12.027111111111113,0.16,179.20007298502205,0.5071418897544988,80.56735416633965,1525.0,1334.0,1200.0,1528.0,1475.0,1019.7999999999998,64.0,292.35,1637080146.9998744,1637080148.1279051,a48ebb51-b33b-4738-b6ae-7944e709a2f0
-0.0244652796593822,0.1093358538837817,0.0608960573941864,0.4245363831463118,-0.0423869531533638,-0.3908800363128514,-0.3527882562645507,-0.3817285420019501,-13.650420908631952,23.06996255800312,13.899574173812676,-1.6846995166330485,0.3354808972528635,0.4945615801958788,3478.8200412326387,12.023333333333332,0.1711111111111111,179.21278472597734,0.4339730554549303,80.87875083860952,1525.0,1234.0,1200.0,1528.0,1475.0,1019.7999999999998,64.0,292.35,1637080150.1669157,1637080151.1925058,e4cf1872-92b5-4fe2-8694-9ad89b7a1732
-0.0312763045221674,0.1109268461073205,0.0610012469541446,0.421722562379554,-0.0425973323108722,-0.3903803857777253,-0.3528671484674214,-0.3777181890814863,-13.699114515217412,23.060524842412,13.824390325082202,-1.6773232667870657,0.342812029300817,0.4948486839457872,3477.7227376302085,12.019333333333334,0.18,179.21533921672696,0.4573032029645976,80.9485037660533,1525.0,1234.0,1200.0,1528.0,1475.0,1019.7999999999998,64.0,292.35,1637080151.3015282,1637080152.3278904,e4cf1872-92b5-4fe2-8694-9ad89b7a1732
-0.0334852855683588,0.1145558862011678,0.0652088297532877,0.4226429710456751,-0.041492841774916,-0.3948377946647404,-0.3514733864031291,-0.3759825608927405,-13.589753606219476,23.266636296371047,13.835203848904936,-1.6877832556708896,0.3557101782933324,0.4860788319128178,3476.547180175781,12.01825,0.1775,179.20583842359144,0.4604640064051531,80.99760827272627,1525.0,1234.0,1200.0,1528.0,1475.0,1019.7999999999998,64.0,292.35,1637080152.435707,1637080153.553212,e4cf1872-92b5-4fe2-8694-9ad89b7a1732
-0.0309344383877437,0.1080078355877443,0.0689693568499919,0.5324740210541409,-0.0281337660028655,-0.4937949050893186,-0.3802032929233885,-0.3981644155430132,-13.797078631240408,23.932167946620243,13.130386667612552,-2.153522611033212,0.3255923110387196,0.5024210184066102,3473.494384765625,12.017,0.18,179.22865808560846,0.4387195299999867,81.07619870604614,1525.0,1133.0,1200.0,1528.0,1475.0,1019.7999999999998,64.0,292.35,1637080155.6965992,1637080156.8340113,19891356-39fe-421f-b43e-7c070b8f9bde
-0.0399544442906013,0.1162652166791061,0.0765956006088527,0.5314747201666425,-0.0227033543307118,-0.501513192317207,-0.3750884491764647,-0.398282754050916,-13.752526306329148,23.93959049035232,13.101273063028971,-2.1681657284323457,0.3571118377146712,0.4783241740081972,3472.8694118923613,12.016111111111112,0.1744444444444444,179.2249743369161,0.4234900342778239,81.09490052290354,1525.0,1133.0,1200.0,1528.0,1475.0,1019.7999999999998,64.0,292.35,1637080156.942464,1637080158.063183,19891356-39fe-421f-b43e-7c070b8f9bde
-0.0264315155161947,0.1113010782145259,0.0726135685596824,0.5182405586861425,-0.0271395222561635,-0.484865926660977,-0.3724824782059081,-0.3995384549390103,-13.606146940893456,23.8401906012762,13.03909814118047,-2.101697513694383,0.33938360108742,0.485422765999685,3457.614501953125,12.016333333333332,0.1866666666666666,179.2072978073441,0.4345718620525946,81.10239931170231,1525.0,1133.0,1200.0,1528.0,1475.0,1019.7999999999998,64.0,292.35,1637080158.1711147,1637080159.294679,19891356-39fe-421f-b43e-7c070b8f9bde
-0.0373115562714278,0.114253466192243,0.0760170579929759,0.5356954513423785,-0.0248202944537209,-0.5037090245753933,-0.3799140215818126,-0.4098404601455103,-13.869010045517332,24.281802300044223,13.037151024475168,-2.180450092654875,0.350408770358847,0.4883479644717239,3454.67271592882,12.016666666666666,0.1722222222222222,179.2211327349629,0.4254794602757223,81.07574260119158,1525.0,1033.0,1200.0,1528.0,1475.0,1019.7999999999998,64.0,292.35,1637080160.202525,1637080161.2280643,9f74429e-30c8-4d6e-9cc2-353ae11df9f6
-0.0327884046136478,0.111150373930426,0.0777789832807342,0.5399161824475407,-0.0227165029999918,-0.5062072774477897,-0.3772185383123101,-0.4080653857867045,-13.703460513464533,24.26159331151101,12.818941268842266,-2.195582621908899,0.3391242479780632,0.478720867073739,3451.1178385416665,12.009666666666666,0.1966666666666666,179.22354910410928,0.4407595154059992,81.04793993672008,1525.0,1033.0,1200.0,1528.0,1475.0,1019.7999999999998,64.0,292.35,1637080161.337299,1637080162.3874283,9f74429e-30c8-4d6e-9cc2-353ae11df9f6
-0.0259116362653939,0.1123863513552441,0.075714637968887,0.5337625931810559,-0.0254777292952349,-0.5014474482163979,-0.3781520959441213,-0.4051595234409172,-13.716868112053731,24.243828796038816,12.850937483047316,-2.171227862731759,0.3441976976270636,0.4867635147776667,3452.04443359375,12.014333333333331,0.1833333333333333,179.2205665881717,0.436856933855934,81.03174555819798,1525.0,1033.0,1200.0,1528.0,1475.0,1019.7999999999998,64.0,292.35,1637080162.499408,1637080163.4491563,9f74429e-30c8-4d6e-9cc2-353ae11df9f6
-0.0003869819606373,0.1092402729816638,0.0327376186080564,0.0018255390779064,-0.1078649348493761,0.0223577342635001,-0.2598967491061323,-0.2848792753428252,-13.618596891730247,21.59231769893688,17.56104487575182,0.1868351201803922,0.352680243567797,0.4919452527960299,3449.26611328125,12.023888888888887,0.1622222222222222,179.2257469072022,0.5473719589121709,81.01866119247796,1525.0,1390.3333333333333,1200.0,1528.0,1475.0,1019.7999999999998,64.0,292.35,1637080164.115937,1637080165.1150246,6bc9b3cb-5d5a-4b75-ad34-6eaf3ad7b30d
-0.0307898027096182,0.1066272225059694,0.0318768847163223,0.0022791691108755,-0.1087089800555693,0.0234485703527889,-0.2598401085661146,-0.276867672690469,-13.539032876526312,21.605976705656914,17.40793377094834,0.1883264284172332,0.343563415023316,0.4937093873594457,3456.8401150173613,12.02777777777778,0.16,179.24169160436466,0.5809144013118035,81.02254908793553,1525.0,1435.0,1200.0,1528.0,1475.0,1019.7999999999998,64.0,292.35,1637080165.2237556,1637080166.254918,6bc9b3cb-5d5a-4b75-ad34-6eaf3ad7b30d
-0.0201525071796368,0.105562178127522,0.0280637627796587,0.0024369534589667,-0.1105366489386944,0.0244478712680808,-0.2634034056950062,-0.2902267497698398,-13.700275987475743,21.51462736663793,17.395864693946514,0.1893375447946441,0.3405543506352135,0.5062500401544688,3462.2705078125,12.026666666666666,0.16,179.24090233806055,0.5802426415347621,81.05701725812703,1525.0,1435.0,1200.0,1528.0,1475.0,1019.7999999999998,64.0,292.35,1637080166.3640337,1637080167.4828885,6bc9b3cb-5d5a-4b75-ad34-6eaf3ad7b30d
0.0043303657186085,0.1201835280834484,0.0984487335622836,-0.005899320107552,-0.0482512718789853,0.0121932862318892,-0.1911513118118634,-0.2157919713072418,-13.09306480082631,21.426431837231657,17.146266389131853,0.1837903567764184,0.3987947044429296,0.22440594495811,3466.003173828125,12.021,0.17,179.22294804746232,0.5758656820024985,81.11575688498914,1525.0,1435.0,1200.0,1439.0,1475.0,1019.7999999999998,64.0,292.35,1637080169.135966,1637080170.1468265,72806c62-a112-4c25-bfd1-dc78c390e5c5
0.0163614229717449,0.1177641680253297,0.0964895778501976,-0.0077532863123295,-0.0494478032776373,0.0171503447783705,-0.1917035571022275,-0.2207753274680159,-13.143064069410164,21.40387132012529,17.2620653513529,0.1988578041388647,0.3891518728027259,0.229321107721998,3467.931610107422,12.025,0.16375,179.22143857565575,0.5802172528856306,81.10770836082592,1525.0,1435.0,1200.0,1439.0,1475.0,1019.7999999999998,64.0,292.35,1637080170.2557583,1637080171.3788693,72806c62-a112-4c25-bfd1-dc78c390e5c5
0.0178077795842924,0.1150686853459361,0.0972127561345856,-0.0052287365814762,-0.049342613702904,0.0180313074391433,-0.1913485422719921,-0.22207704859147,-13.085861855913336,21.529994150354707,17.344601117174378,0.1960567229369213,0.3776429568003703,0.2274872295968615,3468.808837890625,12.023666666666664,0.1677777777777778,179.21790888567472,0.5744878277040725,81.10706053635589,1525.0,1435.0,1200.0,1439.0,1475.0,1019.7999999999998,64.0,292.35,1637080171.512819,1637080172.464721,72806c62-a112-4c25-bfd1-dc78c390e5c5
0.0283884344242697,0.1335400745793734,0.187563514287651,-0.0131816751158395,0.0304871686606527,0.0020278267194252,-0.1018848063094359,-0.1246042376821157,-12.537112462824968,21.61368101773762,17.289783252791356,0.1833557688822852,0.4502321854971447,-0.1293417473710104,3469.901068793403,12.021999999999998,0.16,179.20741619728972,0.5642431487053863,81.0915681494985,1525.0,1435.0,1200.0,1351.0,1475.0,1019.7999999999998,64.0,292.35,1637080174.1360474,1637080175.267749,97cacec9-dac0-466f-a703-742461c6f382
0.0390692215676995,0.1317938266167284,0.1869526056556312,-0.0133546310793915,0.0309959220643345,0.0029497525969187,-0.100412152248257,-0.1273406839881697,-12.46948378549499,21.48340986727045,17.159569826967537,0.1849368891194354,0.4443384700001334,-0.1315944049632921,3468.808837890625,12.022,0.1633333333333333,179.21244776997827,0.5698481786220115,81.05835369847462,1525.0,1435.0,1200.0,1351.0,1475.0,1019.7999999999998,64.0,292.35,1637080175.376896,1637080176.501871,97cacec9-dac0-466f-a703-742461c6f382
0.0460759595485234,0.1340205077008192,0.1904587559424206,-0.0136873942126371,0.0336352699907706,0.0030771938358996,-0.0977758385081487,-0.1212285626893353,-12.494766329734208,21.536862522704368,17.46723590476289,0.1865391428512682,0.4504061328423513,-0.1430612819136935,3470.213134765625,12.022666666666668,0.16,179.20988569012965,0.5701431396298405,81.06096890201684,1525.0,1435.0,1200.0,1351.0,1475.0,1019.7999999999998,64.0,292.35,1637080176.6168635,1637080177.724007,97cacec9-dac0-466f-a703-742461c6f382
0.0753727718888646,0.14541587558056,0.2711568523588352,-0.011619003107587,0.1074424416573628,-0.0134729693127117,-0.0172334965231237,-0.0378112067470608,-11.976774507801364,21.55030039885116,17.59031412793463,0.1490706038836757,0.4932500264352908,-0.4663375434240733,3464.602294921875,12.024,0.16,179.21210170706036,0.5622210451140758,81.06662733428924,1525.0,1435.0,1200.0,1262.0,1475.0,1019.7999999999998,64.0,292.35,1637080178.635617,1637080179.5734024,324e0633-5dab-4eb0-8da0-e69925a10ce3
0.0688904646662253,0.150057365225681,0.2772578470588791,-0.0180618644126395,0.1110188869721914,-0.0143933780654279,-0.0104356204136563,-0.034865898763263,-11.81074636926254,21.52698511802784,17.31180651119463,0.1617242467180109,0.5131313634859186,-0.4889658505537704,3456.684977213541,12.022666666666668,0.17,179.22238797195035,0.5708239885388242,81.06818006396055,1525.0,1435.0,1200.0,1262.0,1475.0,1019.7999999999998,64.0,292.35,1637080179.682827,1637080180.8034909,324e0633-5dab-4eb0-8da0-e69925a10ce3
0.075635745787473,0.1500179191324613,0.279203853982068,-0.0168258869415747,0.1122548643896487,-0.0139068763256618,-0.0096861447241246,-0.0392444146827903,-11.846789263678572,21.642543456813787,17.5463056337902,0.160911604510912,0.5111333105667697,-0.4941048402414831,3458.6609497070312,12.023249999999996,0.16,179.22444385889054,0.5817816263397213,81.05938733376902,1525.0,1435.0,1200.0,1262.0,1475.0,1019.7999999999998,64.0,292.35,1637080180.921435,1637080182.021365,324e0633-5dab-4eb0-8da0-e69925a10ce3
0.0975020274232087,0.1620621245356678,0.3523894924457983,-0.0034536625639971,0.1790107933889734,-0.0439779454538237,0.0580033441831749,0.0280900601334567,-11.382875910132327,21.79375374561347,17.237864636258635,0.0680043373938676,0.5587523803658752,-0.7797623830739708,3462.8918185763887,12.020333333333332,0.17,179.1953874752514,0.5663178186657775,81.01982839591612,1525.0,1435.0,1200.0,1173.0,1475.0,1019.7999999999998,64.0,292.35,1637080182.6158056,1637080183.755283,c637c296-c415-49e3-82c2-1eaf5a3e1204
0.0803035329342335,0.1599320358085335,0.3514690837844952,-0.0014813581026745,0.1780377899127819,-0.0442014733070086,0.0570829354652918,0.0378332441025959,-11.330186281925638,21.842573620475072,17.15966339542161,0.0633448643436864,0.5507830700023916,-0.7762059659633329,3461.803955078125,12.018555555555556,0.17,179.1969280623642,0.5691117692072012,80.97570689169766,1525.0,1435.0,1200.0,1173.0,1475.0,1019.7999999999998,64.0,292.35,1637080183.8669288,1637080184.8929088,c637c296-c415-49e3-82c2-1eaf5a3e1204
0.0983293838559889,0.1588007422453014,0.3492166111073118,-0.0012972763496817,0.1772468452526837,-0.0428800293057953,0.0551536170992633,0.0337111278112951,-11.44745954892253,21.78174779412292,17.19927047238048,0.0653309834903151,0.5468525354234903,-0.7694478225404572,3461.803955078125,12.020333333333332,0.17,179.19798750059547,0.56987737886651,80.96101819043261,1525.0,1435.0,1200.0,1173.0,1475.0,1019.7999999999998,64.0,292.35,1637080185.0005355,1637080186.1219308,c637c296-c415-49e3-82c2-1eaf5a3e1204
-0.058822824077747,0.091479924645613,-0.0643189793119748,0.0148624715734213,-0.1957796533321872,0.0292076993233197,-0.3626629288858636,-0.3865804118898565,-14.349326056666634,21.83694209041864,16.999536147827527,0.1691513165051276,0.2884628506588134,0.8868661791773766,3459.630425347222,12.027,0.1544444444444444,179.2132673926787,0.5738016486387835,81.00396262538408,1525.0,1435.0,1200.0,1617.0,1475.0,1019.7999999999998,64.0,292.35,1637080187.2363873,1637080188.3742669,362ba7a5-c6c2-462d-8949-00ad116f1d9f
-0.039652024271069,0.0907698950563169,-0.063714139254287,0.0145863489537088,-0.1942018096257179,0.0318111412178042,-0.3589812932777796,-0.3883554861606275,-14.215741456040163,21.66192158620743,17.252334222142512,0.1746018885278474,0.2826831580917024,0.8790842360399203,3456.530164930556,12.026777777777776,0.16,179.22684580874866,0.5705764534712479,81.03069826252525,1525.0,1435.0,1200.0,1617.0,1475.0,1019.7999999999998,64.0,292.35,1637080188.4827776,1637080189.60964,362ba7a5-c6c2-462d-8949-00ad116f1d9f
-0.0357600100395124,0.0878508845220387,-0.0660414585904888,0.0198852736309471,-0.1949118392919941,0.028905279339022,-0.3618082634731338,-0.3858177875217117,-14.255021709087568,21.64344813954453,17.106983835530475,0.1558376630151093,0.272501082649705,0.8867170869658382,3457.614501953125,12.025777777777778,0.16,179.2311867734212,0.5742930250171194,81.0578042477014,1525.0,1435.0,1200.0,1617.0,1475.0,1019.7999999999998,64.0,292.35,1637080189.7230835,1637080190.8327634,362ba7a5-c6c2-462d-8949-00ad116f1d9f
-0.0903665477942939,0.0751755414549036,-0.1651563370520103,0.0404366859884823,-0.2854800696753004,0.0274589227257748,-0.4705874503057934,-0.4951229236871904,-15.005046273058149,21.972676851179425,17.02577846333506,0.1030853052375155,0.2221809602359873,1.2979294787032083,3464.291259765625,12.023444444444443,0.16,179.24326254787377,0.5703357426638578,81.08271774215397,1525.0,1435.0,1200.0,1706.0,1475.0,1019.7999999999998,64.0,292.35,1637080191.741706,1637080192.767254,28179054-661d-47c2-b4b2-bcb2d0b28ab9
-0.0881575667237942,0.0743997683815876,-0.1669577085715283,0.0378069467482001,-0.2875312665543723,0.0305357176795266,-0.4712185878503366,-0.4918488974733129,-14.96403281054754,21.9621584908994,17.0014232145886,0.1157886607638535,0.219406317748821,1.303959077339221,3462.7364095052085,12.024666666666668,0.16,179.234586689808,0.5646572526397527,81.0670712965853,1525.0,1435.0,1200.0,1706.0,1475.0,1019.7999999999998,64.0,292.35,1637080192.8747814,1637080193.995921,28179054-661d-47c2-b4b2-bcb2d0b28ab9
-0.0683967189010759,0.0722669402895907,-0.1670941263010441,0.0395047721612316,-0.2858022127476045,0.0310266023425727,-0.4705140367077883,-0.4995644447805218,-15.041815706722032,21.86795957702,17.000115501441517,0.1123912549242138,0.2117497497445837,1.3005261006142836,3463.20263671875,12.02411111111111,0.16,179.23420571703434,0.5591015755830677,81.08096693699673,1525.0,1435.0,1200.0,1706.0,1475.0,1019.7999999999998,64.0,292.35,1637080194.10419,1637080195.224489,28179054-661d-47c2-b4b2-bcb2d0b28ab9
-0.1117989238703746,0.0617507226505827,-0.2469675334014299,0.0708101743144434,-0.3588498063388124,0.0163614229793495,-0.5631805942231436,-0.5907797161965113,-15.596311188724494,22.31776464382465,16.88188745064848,0.0075260059547332,0.1683696899708394,1.63909613774205,3453.4364420572915,12.021666666666668,0.17,179.2554597479116,0.5462548731728383,81.10099229273331,1525.0,1435.0,1200.0,1795.0,1475.0,1019.7999999999998,64.0,292.35,1637080197.2712698,1637080198.4091022,a97e76a0-4cf8-4373-8257-26945201d223
-0.0971381267101738,0.0600808382310335,-0.24233919175883,0.0736108465969482,-0.3539321930707166,0.0169794117204958,-0.5585522517554421,-0.584823355159966,-15.606428493198733,22.354423343836192,17.1388597846726,0.0031064242184502,0.1598498877814316,1.6196622745670266,3444.3383517795137,12.021,0.17,179.25746023442852,0.541804815201098,81.04979850708423,1525.0,1435.0,1200.0,1795.0,1475.0,1019.7999999999998,64.0,292.35,1637080198.5170355,1637080199.524558,a97e76a0-4cf8-4373-8257-26945201d223
-0.1056018418240417,0.0636117688848489,-0.2420069342517346,0.0704516194920267,-0.354504161424962,0.0144179445258245,-0.558068784132405,-0.5755793129849703,-15.52613247281457,22.285735113540127,16.856700989162896,0.0040335506090592,0.1754343422371719,1.6193859840391307,3434.829969618056,12.02,0.17,179.26201521169497,0.542799959533608,81.01205715846046,1525.0,1435.0,1200.0,1795.0,1475.0,1019.7999999999998,64.0,292.35,1637080199.6331856,1637080200.8681495,a97e76a0-4cf8-4373-8257-26945201d223
-0.131364185161307,0.0524677431123041,-0.2902661958208838,0.1005788223005738,-0.3987035121773069,-0.0017443320292271,-0.6174189834455446,-0.6495807055661517,-15.825224994599523,22.79524907514428,16.532001494515452,-0.0994725051210465,0.1318721345194676,1.827911314533488,3435.135687934028,12.016555555555556,0.1788888888888888,179.24362227117,0.5405233839638455,80.95138307024342,1525.0,1435.0,1200.0,1873.2222222222224,1475.0,1019.7999999999998,64.0,292.35,1637080202.6144612,1637080203.621993,8e575dc3-6927-4dcf-87d1-28854b44683a
-0.1452122918727257,0.0490470592080914,-0.2964349581293876,0.1035762193013827,-0.4024589828631409,0.0010796034168484,-0.6223709863918938,-0.6439904849575685,-15.903290182241475,22.70639728997792,16.807856479304096,-0.1007796339282069,0.1163885033258623,1.848469021537778,3435.44140625,12.014666666666669,0.1844444444444444,179.24893767616413,0.530371398695614,80.86257239719549,1525.0,1435.0,1200.0,1883.0,1475.0,1019.7999999999998,64.0,292.35,1637080203.7297904,1637080204.7893765,8e575dc3-6927-4dcf-87d1-28854b44683a
-0.1362029057021924,0.0547950623495107,-0.2940398722998045,0.1012099597295255,-0.4020432818032985,-0.0050315061393613,-0.6223628950476512,-0.6416520390151027,-15.888860152627908,22.75339658363428,16.438830794535928,-0.1087951490509206,0.1415595129422243,1.8447716207681224,3435.44140625,12.01475,0.18,179.25870067267277,0.5358031940855756,80.79279309763237,1525.0,1435.0,1200.0,1883.0,1475.0,1019.7999999999998,64.0,292.35,1637080204.9017246,1637080205.9829743,8e575dc3-6927-4dcf-87d1-28854b44683a
-0.028423037351104,0.0896785532779433,-0.0770600665393638,-0.0038086773831395,-0.1630525454748335,0.048181268118386,-0.3143546108625827,-0.3338672793467286,-13.79790587078307,16.243954262518393,17.20290684043134,0.2165039727735321,0.2773975746398444,0.7934636751922645,7856.486328125,11.673,11.67,179.2642023900492,0.2683464197825915,66.69007633903122,1525.0,1435.0,1400.0,1528.0,1475.0,1019.7999999999998,64.0,292.35,1637080209.1374218,1637080210.1757982,e3cc873b-bef3-4076-ad89-a424399013f6
-0.0415454366028077,0.090454326349131,-0.0777437987712968,-0.0041636921931351,-0.1640386977693455,0.0444996331604279,-0.3162611721043471,-0.3426900561532317,-13.821091563150478,16.2663508575124,16.7312834466235,0.2090592477258898,0.2846520289698893,0.7978535558488034,7856.486328125,11.67,11.68,179.3208610859442,0.1979851949205409,59.40951815552618,1525.0,1435.0,1400.0,1528.0,1475.0,1019.7999999999998,64.0,292.35,1637080210.28339,1637080211.5177848,e3cc873b-bef3-4076-ad89-a424399013f6
-0.0354707387512109,0.092715902072504,-0.0718400338897622,-0.0059519149165393,-0.159489248501658,0.0446705661986863,-0.3116065329175378,-0.3359842199419658,-13.873962115529336,16.36088120609735,16.876219087800713,0.2143942605009759,0.292819995678226,0.777368965531069,7863.6943359375,11.67,11.682222222222222,179.35606388092643,0.1656183232372552,53.53880967499976,1525.0,1435.0,1400.0,1528.0,1475.0,1019.7999999999998,64.0,292.35,1637080211.6271007,1637080212.7454257,e3cc873b-bef3-4076-ad89-a424399013f6
0.1265080508326281,0.3739533527125825,-0.0751140594041574,-0.1461038747140518,-0.2278098807225489,-0.0959941900856359,-0.3779154193536628,-0.3975727240271559,-13.839220465334677,15.751600886812568,17.44550429450438,0.2103564730994966,1.3593777905365474,1.0031748965841203,7870.9150390625,11.65877777777778,11.733333333333333,179.32549954330054,0.1935856103866516,46.46950848361329,1644.0,1435.0,1400.0,1528.0,1569.0,1019.7999999999998,64.0,292.35,1637080213.6555502,1637080214.7938025,9b19a65c-e03e-46ed-9418-88f86cc40345
0.1164088408820827,0.377486305981756,-0.0733243194884776,-0.1497384780511075,-0.2268985748451105,-0.0962207522663733,-0.3763512299457424,-0.4013590436585344,-13.8516671582033,15.727242344180253,17.442888878192438,0.2179670913901379,1.3733003326425823,0.9976602033708948,7878.1494140625,11.665,11.726666666666668,179.34139263458923,0.2482074024648728,42.85027206632871,1644.0,1435.0,1400.0,1528.0,1569.0,1019.7999999999998,64.0,292.35,1637080214.90142,1637080216.0228786,9b19a65c-e03e-46ed-9418-88f86cc40345
0.1007892014543316,0.3739927987976012,-0.0759555760142115,-0.1486547220079916,-0.2288486278616162,-0.0925097854134237,-0.3789673152557044,-0.4018591999055539,-13.94025385974942,15.80203821019638,17.60496276174648,0.2242074963431132,1.3590891221132575,1.0073504166706475,7878.1494140625,11.662,11.73,179.36910043532225,0.3014137401125768,40.01468374308721,1644.0,1435.0,1400.0,1528.0,1569.0,1019.7999999999998,64.0,292.35,1637080216.1317732,1637080217.251233,9b19a65c-e03e-46ed-9418-88f86cc40345
0.2653051771253251,0.6663277359899697,-0.0649420253066825,-0.3062206238272409,-0.2904801150207673,-0.2316396917954425,-0.4324228450505351,-0.4603764738693676,-13.736990836479094,15.42314605596492,17.75971242910213,0.2651577552647039,2.472804196302118,1.1868982496433325,7885.396484375,11.651666666666667,11.753333333333334,179.2537066660246,0.456758495378289,34.58833978086275,1763.0,1435.0,1400.0,1528.0,1663.0,1019.7999999999998,64.0,292.35,1637080219.1851728,1637080220.323386,91b94b51-5720-41d2-a8d8-adeb3efe59c0
0.2951006267865514,0.6689574749825993,-0.0634511653282274,-0.3007062621495032,-0.2880966605900898,-0.2382499467303814,-0.4335344157658431,-0.4605681414748978,-13.858400696263947,15.411500996169414,17.91032282531897,0.2378245127936729,2.481607148520586,1.1837011784646718,7885.396484375,11.656222222222222,11.77111111111111,179.26183459113693,0.5260652668020874,33.07797853187802,1763.0,1435.0,1400.0,1528.0,1663.0,1019.7999999999998,64.0,292.35,1637080220.432435,1637080221.5565176,91b94b51-5720-41d2-a8d8-adeb3efe59c0
0.283819046078866,0.6627118448750301,-0.0677770866193069,-0.2988259982723182,-0.2909104820081199,-0.2344894191737166,-0.4361510069605126,-0.4679577105434919,-13.847098721497751,15.405375242149177,17.794447347029053,0.2417647132297152,2.458623402187756,1.1962636303604062,7885.396484375,11.652666666666669,11.76,179.23863926871556,0.5901371488298286,31.78034883696268,1763.0,1435.0,1400.0,1528.0,1663.0,1019.7999999999998,64.0,292.35,1637080221.6649764,1637080222.7871847,91b94b51-5720-41d2-a8d8-adeb3efe59c0
0.2969282954382209,0.715832572542676,-0.0576262926668387,-0.3580214385258976,-0.3033228530402948,-0.241589716120027,-0.4392278025463325,-0.4710476548423983,-13.951835414131834,16.010150237311947,16.456625547429923,0.3635883981586227,2.6783987980020965,1.2074140271532314,7890.2373046875,11.629,11.833333333333332,179.19534952975604,0.6713061564309082,30.21979973741165,1881.0,1435.0,1400.0,1528.0,1757.0,1019.7999999999998,64.0,292.35,1637080223.6914814,1637080224.8296702,5e422adc-7c98-4dc6-97ee-3f693a26b0e9
0.3084050836611712,0.7071645482431811,-0.0630076496777928,-0.3612302266890755,-0.3066504851168086,-0.2284663042514681,-0.4407166398541645,-0.4695679207689902,-14.037244774842552,15.989574190075665,16.66893251870982,0.3999031901394969,2.644664844101464,1.2205727408498313,7885.396484375,11.629333333333332,11.835555555555556,179.21012095220104,0.7201942255555447,29.54071652719212,1881.0,1435.0,1400.0,1528.0,1757.0,1019.7999999999998,64.0,292.35,1637080224.9379003,1637080226.05819,5e422adc-7c98-4dc6-97ee-3f693a26b0e9
0.2969677415131821,0.7044589513931434,-0.0582705788228271,-0.3584816428553686,-0.3020211319303837,-0.2307683377860566,-0.4358485868437988,-0.465222781068183,-13.947840435826627,16.026046397507237,16.360870855175836,0.3890036319216285,2.6365772858196808,1.200188957460927,7885.396484375,11.630888888888888,11.847777777777775,179.21059906544295,0.7768488778836714,28.830023011766286,1881.0,1435.0,1400.0,1528.0,1757.0,1019.7999999999998,64.0,292.35,1637080226.1667223,1637080227.292724,5e422adc-7c98-4dc6-97ee-3f693a26b0e9
0.3729934979307255,0.8301867730610023,-0.0343136534762534,-0.429589806207159,-0.316629335725107,-0.2849935679683765,-0.4458810444181449,-0.4684442124965423,-13.980585917886772,16.65681109736455,16.902417669375833,0.4329990471509535,3.1138494832519563,1.2167856378922792,7885.396484375,11.605222222222222,11.868888888888888,179.1658734689379,0.8514871337052264,27.669399322502336,2000.0,1435.0,1400.0,1528.0,1852.0,1019.7999999999998,64.0,292.35,1637080229.2207067,1637080230.251557,039b1394-26c0-4e62-8ab9-4f04f04507b9
0.3863262749209336,0.8284905913969363,-0.035944091831173,-0.4245144084581541,-0.3177864211510648,-0.2886489061501765,-0.4479979849574718,-0.4798309862813981,-13.9048975089764,16.66808142182528,16.796011708769843,0.413350825634989,3.1071670800775224,1.223335661641899,7885.396484375,11.6065,11.9125,179.17195556266628,0.8865682859532009,27.29620705918328,2000.0,1435.0,1400.0,1528.0,1852.0,1019.7999999999998,64.0,292.35,1637080230.3595068,1637080231.4746969,039b1394-26c0-4e62-8ab9-4f04f04507b9
0.3565839262363807,0.8180242301251485,-0.0412693139655751,-0.4223711703729859,-0.3189435065658122,-0.2809700663596855,-0.4479716874657438,-0.4689570116006313,-13.870456248132363,16.44729695888575,16.692454892830117,0.4240436458242373,3.067980702954008,1.2308540789360851,7885.396484375,11.605,11.914444444444444,179.16310951905376,0.8865555897758277,26.952608914604884,2000.0,1435.0,1400.0,1528.0,1852.0,1019.7999999999998,64.0,292.35,1637080231.583516,1637080232.703984,039b1394-26c0-4e62-8ab9-4f04f04507b9
-0.1847610448720954,-0.2094280013855438,-0.0635037601150864,0.1111898200171187,-0.0850807716311222,0.2272533579023228,-0.2252458846741319,-0.2549750903712555,-13.777008565943571,16.894513898238404,16.438526595867792,0.3643707577883586,-0.8510954296224174,0.505398638025434,7885.396484375,11.666555555555554,11.738888888888887,179.39990155283942,0.9015693653567044,26.55810876152104,1406.0,1435.0,1400.0,1528.0,1381.0,1019.7999999999998,64.0,292.35,1637080233.7267826,1637080234.8639429,53e056eb-b316-4a35-81f6-bc87c6e4756f
-0.2053256077620347,-0.2126757296987023,-0.0683687779229088,0.1151870235822504,-0.088788704153765,0.2283578483352012,-0.229466616620453,-0.2456263662419141,-13.745505538965972,16.886851278162855,16.63124229017629,0.3575895193189566,-0.8660080778709759,0.5230290105261597,7885.396484375,11.662333333333336,11.762222222222222,179.41909286658728,0.9278898313464332,26.35886000087325,1406.0,1435.0,1400.0,1528.0,1381.0,1019.7999999999998,64.0,292.35,1637080234.9727583,1637080236.0392368,53e056eb-b316-4a35-81f6-bc87c6e4756f
-0.2053782025720529,-0.2118079156587044,-0.0654103211519426,0.1172776662433231,-0.0889333398231328,0.2244526857313141,-0.2300846054427492,-0.24942633994946,-13.682849456532226,17.19680383860572,16.475685430360738,0.3463068870696547,-0.8618826113027629,0.5198937356321093,7885.396484375,11.663,11.77,179.42105085414937,0.9320009767545137,26.233697922697623,1406.0,1435.0,1400.0,1528.0,1381.0,1019.7999999999998,64.0,292.35,1637080236.148225,1637080237.0914943,53e056eb-b316-4a35-81f6-bc87c6e4756f
-0.3527751076300556,-0.502617682358919,-0.0662518377603715,0.2594282159332878,-0.025346242334268,0.3799097116471943,-0.1676940356524772,-0.190901486716868,-13.818752987058376,18.190214812587325,16.901921051378885,0.3815258417511818,-1.9729501463791783,0.311758802622593,7887.010091145833,11.650777777777778,11.833333333333334,179.48301584811955,0.9248245586550112,25.96248932459421,1287.0,1435.0,1400.0,1528.0,1287.0,1019.7999999999998,64.0,292.35,1637080239.1439493,1637080240.2102406,7acaad37-43ea-478d-92e2-ec2f9525fc09
-0.3453380014317156,-0.5013397298836252,-0.061642208082703,0.2613732114558807,-0.0203376003543114,0.375514001689364,-0.1640124003797108,-0.1937992572310073,-13.85825570149849,18.152463424259267,16.74233515324207,0.3671946078719963,-1.9664109361943507,0.293346027460393,7892.65771484375,11.648111111111112,11.794444444444444,179.48664647311838,0.9351426503293075,25.924989878503546,1287.0,1435.0,1400.0,1528.0,1287.0,1019.7999999999998,64.0,292.35,1637080240.3243835,1637080241.4187949,7acaad37-43ea-478d-92e2-ec2f9525fc09
-0.3574165982052326,-0.5040640393173987,-0.0651736446076099,0.257390168135714,-0.025333093620039,0.3792654255771959,-0.1665369502672395,-0.1868648365174472,-13.73882671467249,18.25527854459222,16.349806827722123,0.3851126062432729,-1.973726805983281,0.3076813580357024,7892.65771484375,11.648999999999996,11.77888888888889,179.4839690389637,0.92656777471318,25.916202081226416,1287.0,1435.0,1400.0,1528.0,1287.0,1019.7999999999998,64.0,292.35,1637080241.5273492,1637080242.5340817,7acaad37-43ea-478d-92e2-ec2f9525fc09
-0.4447502561959979,-0.682307822460968,-0.0534976019080023,0.3300498590289512,0.0186624448299888,0.4959469462256247,-0.114862570294916,-0.1452229119864008,-13.70847170267563,19.38171737074905,17.850221906405245,0.4917122446088004,-2.663949011027289,0.1390134966295598,7892.65771484375,11.621666666666666,11.86,179.5320050004865,0.9229699725678756,25.89546240153915,1169.0,1435.0,1400.0,1528.0,1193.0,1019.7999999999998,64.0,292.35,1637080243.648884,1637080244.791647,bd350a3d-d69e-437f-a3db-1cd0c1b9af2d
-0.4512588622852428,-0.6866337451920325,-0.0515384460778802,0.3383729831891094,0.0225150128736491,0.4950922810654992,-0.1133504701408735,-0.1344935752959494,-13.770507405941576,19.41060637068741,18.2288235072606,0.4713349545918029,-2.6839903791472866,0.1289709915637487,7892.65771484375,11.625444444444446,11.857777777777777,179.55406651150562,0.922598723327364,25.89474124739928,1169.0,1435.0,1400.0,1528.0,1193.0,1019.7999999999998,64.0,292.35,1637080244.9066422,1637080246.01593,bd350a3d-d69e-437f-a3db-1cd0c1b9af2d
-0.443685211536031,-0.6845431016791744,-0.053747427127046,0.3369134780321009,0.0197932327260935,0.4935144376632145,-0.1154805590638817,-0.145183465884251,-13.704561469287649,19.36967807407696,18.08818939384763,0.4707110823254974,-2.675330542815159,0.1388267659067353,7892.65771484375,11.624222222222222,11.863333333333337,179.55438070020747,0.9189847587726176,25.95285686058972,1169.0,1435.0,1400.0,1528.0,1193.0,1019.7999999999998,64.0,292.35,1637080246.1258955,1637080247.2447164,bd350a3d-d69e-437f-a3db-1cd0c1b9af2d
-0.4748870750597402,-0.7569004065568241,-0.0526166392246065,0.358503635718978,0.0326921038493101,0.5333286862422841,-0.1042647204943828,-0.1342174524721458,-14.116471513668532,20.104404501575004,16.537537155515516,0.5159492768311674,-2.932629703403111,0.0924050853581152,7892.65771484375,11.563666666666668,12.038888888888888,179.6023028252441,0.9032790233673884,26.038658076398374,1050.0,1435.0,1400.0,1528.0,1098.0,1019.7999999999998,64.0,292.35,1637080249.1784527,1637080250.224818,9f845538-ec7a-448e-84fe-7a27fa7fafab
-0.4926509680496443,-0.7512990595799135,-0.0488166658826536,0.3534019419365641,0.035519073548295,0.5320795601996671,-0.0989000521421384,-0.1160591018492937,-13.980515139499158,19.93290606890813,16.508979475787015,0.5237667092674715,-2.911464289201548,0.0764949408540132,7892.65771484375,11.569888888888888,12.026666666666666,179.5954604935156,0.896271225563021,26.05925109674596,1050.0,1435.0,1400.0,1528.0,1098.0,1019.7999999999998,64.0,292.35,1637080250.3336842,1637080251.4530208,9f845538-ec7a-448e-84fe-7a27fa7fafab
-0.4618304165449432,-0.7508257063352058,-0.046331562188061,0.3616593225454547,0.0378858389021605,0.5248477779401796,-0.0979664946500839,-0.1263413830706387,-13.85080726817523,19.96659874308542,16.639773530232848,0.4893225366912059,-2.912624738134464,0.0689456945320847,7885.396484375,11.573777777777776,12.003333333333334,179.57622060953352,0.8904296529145146,26.126487099480617,1050.0,1435.0,1400.0,1528.0,1098.0,1019.7999999999998,64.0,292.35,1637080251.5609407,1637080252.6858883,9f845538-ec7a-448e-84fe-7a27fa7fafab
-0.0398098086180358,0.0955954665191685,-0.0692628893093399,-0.0071221489104381,-0.1539667956375706,0.0411467155981823,-0.3060577822716269,-0.3259912089300018,-13.868666387610444,15.940367819705706,16.659630021702597,0.2064242896053365,0.3058025811265256,0.7586429917297486,7887.81689453125,11.666333333333334,11.72,179.35454302547123,0.8555024311635475,26.200704124729445,1525.0,1435.0,1400.0,1528.0,1475.0,1019.7999999999998,64.0,292.35,1637080253.6843936,1637080254.733805,1b7cf28e-baff-40e0-888d-2e897213b383
-0.0337482594663633,0.0985670718279371,-0.0704988668073621,-0.0054917105188098,-0.1575037951958276,0.0386616120057338,-0.310620380537933,-0.3317240414048579,-13.873440861845474,16.166740711822072,16.90852554189252,0.198638442325785,0.314500488483825,0.7722701131724895,7892.65771484375,11.666666666666666,11.725555555555555,179.36322647263603,0.8523588899589021,26.255278854017668,1525.0,1435.0,1400.0,1528.0,1475.0,1019.7999999999998,64.0,292.35,1637080254.8430166,1637080255.8471558,1b7cf28e-baff-40e0-888d-2e897213b383
-0.0182894380049986,0.0973938035661387,-0.0713773009109763,-0.0076061220901866,-0.1570714053591304,0.0431554318261671,-0.3090273652020178,-0.3405715983983241,-13.884308239933349,16.02754900700416,17.11150850377866,0.2125666774726584,0.3085801836045633,0.7707857822238743,7892.65771484375,11.66811111111111,11.711111111111112,179.3614157135961,0.8409331277713161,26.341675434648973,1525.0,1435.0,1400.0,1528.0,1475.0,1019.7999999999998,64.0,292.35,1637080255.955446,1637080257.071253,1b7cf28e-baff-40e0-888d-2e897213b383
-0.0163656825779554,0.0936757568845772,-0.0943637516672488,-0.3131712279959242,-0.2104930459221423,0.3445397213681418,-0.2483218492674411,-0.2790898024247694,-13.89873937332718,15.452030128758665,19.58858286706948,1.5745252723604115,0.3089377664339966,0.7890400297409415,7892.65771484375,11.664888888888887,11.75,179.38783336748585,0.8877511218978937,26.50382792009462,1525.0,1535.0,1400.0,1528.0,1475.0,1019.7999999999998,64.0,292.35,1637080259.1629689,1637080260.1541345,e23c292f-1845-4e33-b277-7f5d77fa06cd
-0.0019547111569065,0.0963712395869609,-0.0933775993864766,-0.3153539120118445,-0.2114266034407942,0.3407791944795755,-0.2483612953583051,-0.2784981110551807,-13.791322033932932,15.508245022019269,19.146385684659823,1.5714038081912989,0.3225385796412774,0.788758881010712,7892.65771484375,11.664666666666667,11.776666666666666,179.39206808477127,0.895917656551767,26.54191191654174,1525.0,1535.0,1400.0,1528.0,1475.0,1019.7999999999998,64.0,292.35,1637080260.2672968,1637080261.2185557,e23c292f-1845-4e33-b277-7f5d77fa06cd
-0.0023592864456288,0.0968501555540394,-0.0930979367142566,-0.3152982828232492,-0.2102604151017179,0.342376760987879,-0.2477974184960452,-0.2763452648293082,-13.879416794542449,15.454384506823104,19.45166489817441,1.574529463710293,0.3222626033276334,0.7864359434509265,7892.65771484375,11.664222222222223,11.763333333333334,179.3946165042416,0.8855574572355559,26.57639317792917,1525.0,1535.0,1400.0,1528.0,1475.0,1019.7999999999998,64.0,292.35,1637080261.3272026,1637080262.402076,e23c292f-1845-4e33-b277-7f5d77fa06cd
-0.0210582500588906,0.0917929647502608,-0.108054579523122,-0.5932162714352603,-0.2556487082583752,0.6184740721026242,-0.1879202722806965,-0.2125614371935549,-13.806803926629312,15.207349609665073,21.789997514224368,2.819898808988176,0.3153218360507796,0.7837931402056112,7892.65771484375,11.65788888888889,11.75,179.38561279709575,0.9438057136483132,26.64952666955717,1525.0,1636.0,1400.0,1528.0,1475.0,1019.7999999999998,64.0,292.35,1637080263.218012,1637080264.3560617,a33fa41d-553e-4553-87d2-a8cafe820169
0.0101946843749138,0.0910328689767179,-0.1119698569267595,-0.596459954735212,-0.2582885622269787,0.620898994884259,-0.1912827988058745,-0.2203808667111476,-13.957989374622755,15.134514369127835,21.578023539060204,2.8318772080111927,0.3155697120886376,0.7970179742631325,7892.65771484375,11.659666666666666,11.736666666666668,179.39572451270695,0.9545099363120944,26.70160060097178,1525.0,1636.0,1400.0,1528.0,1475.0,1019.7999999999998,64.0,292.35,1637080264.464398,1637080265.471873,a33fa41d-553e-4553-87d2-a8cafe820169
0.0099676165069808,0.0917803217772827,-0.1096349518029476,-0.5939116354341296,-0.2557372091543141,0.6186510737648845,-0.1881604888939787,-0.2158738975925853,-13.836583718231102,15.05240854343924,21.71743026371768,2.8207327531087127,0.3161111522871898,0.7863427087169731,7892.65771484375,11.660555555555556,11.735555555555557,179.4071582493776,0.9499398757111868,26.76480110027181,1525.0,1636.0,1400.0,1528.0,1475.0,1019.7999999999998,64.0,292.35,1637080265.5815735,1637080266.6998014,a33fa41d-553e-4553-87d2-a8cafe820169
