raw_voltage_G-,raw_voltage_G0,raw_voltage_G1,raw_voltage_G2,raw_voltage_G3,raw_voltage_G4,raw_voltage_G5,raw_voltage_G6,load_x,load_y,load_z,load_l,load_m,load_n,rpm,voltage,current,roll,pitch,yaw,aileron1_pwm,elevator_pwm,throttle_pwm,rudder_pwm,aileron2_pwm,pbaro,pdiff,Tt,sample_start_time,sample_end_time,uid
-0.0264112867487692,0.1095462330217407,0.0302727437609997,0.0647749227697075,-0.1128902657155613,-0.032446538482521,-0.2908710358715427,-0.3097394177711121,-13.867728643258788,22.890224252890395,17.909930798748714,-0.0699043322853898,0.3446142411254441,0.5466247467674221,3411.7393391927085,12.042,0.01,179.20033101439068,0.6132808535194957,88.58072334589536,1525.0,1435.0,1000.0,1528.0,1475.0,1019.7999999999998,94.0,292.35,1637081053.756438,1637081054.7827008,a5cb2ba8-ee2b-4296-b106-99d4a544b5c1
-0.0070432567201428,0.1178036141096656,0.0344145831111246,0.0605278938932118,-0.1107864741851974,-0.0379163962960217,-0.2878599840032767,-0.3120667374286481,-13.791675222407084,22.825918728228675,17.754562133924225,-0.0728221129755205,0.3772075618980376,0.5346487773886972,3413.248806423612,12.041777777777778,0.01,179.20173955117951,0.6079208862842628,88.5987641522231,1525.0,1435.0,1000.0,1528.0,1475.0,1019.7999999999998,94.0,292.35,1637081054.8915167,1637081056.009778,a5cb2ba8-ee2b-4296-b106-99d4a544b5c1
-0.033695664673531,0.103800252854173,0.0250790087015356,0.067378364602438,-0.1159539121266289,-0.0298036504846157,-0.2955256750011792,-0.3260175062999663,-13.98616609717585,22.893096650263026,17.78883743647978,-0.0701566302397138,0.3243250947608551,0.5635771573448988,3415.818603515625,12.041666666666666,0.01,179.1989558696378,0.5966746359347849,88.63016253183764,1525.0,1435.0,1000.0,1528.0,1475.0,1019.7999999999998,94.0,292.35,1637081056.1179287,1637081057.239343,a5cb2ba8-ee2b-4296-b106-99d4a544b5c1
0.1394200702306756,0.3824737072237191,0.0488124055511993,-0.0711168555866291,-0.1588975571076187,-0.1701791394397094,-0.3321842457688778,-0.3546553715071667,-13.671449056482944,22.29947813813608,18.47536502617374,-0.0756733590502972,1.3797540435100433,0.6758479012731464,3413.0996907552085,12.040666666666668,0.01,179.1239831598483,0.5831948662948435,88.65942761570142,1610.0,1435.0,1000.0,1528.0,1542.0,1019.7999999999998,94.0,292.35,1637081058.150033,1637081059.287495,6e1cae06-14b7-4dbf-961c-05ed3746f31a
0.1096908686686808,0.3768329169705137,0.042816600048731,-0.0643715741273637,-0.1620532444633959,-0.1740448564666246,-0.3392450968118666,-0.356667122393051,-13.814085484856546,22.289072989055967,17.9740266326969,-0.1000950875966037,1.3628397785122743,0.6969461866772751,3404.399353027344,12.0335,0.01,179.11696058701665,0.5764900440019597,88.62414968863831,1610.0,1435.0,1000.0,1528.0,1542.0,1019.7999999999998,94.0,292.35,1637081059.3968174,1637081060.6248667,6e1cae06-14b7-4dbf-961c-05ed3746f31a
0.1152204010554856,0.3752990710964682,0.0428267144177434,-0.0622237850680054,-0.1610160145434098,-0.1717625460262018,-0.3385613645353915,-0.3559328181171156,-13.849709230307244,22.26180406580079,18.36893318548548,-0.099946564261395,1.353574753142688,0.6949226624646532,3406.3163248697915,12.034333333333333,0.01,179.12304970066168,0.5660577260108208,88.56923952117086,1610.0,1435.0,1000.0,1528.0,1542.0,1019.7999999999998,94.0,292.35,1637081060.7339785,1637081061.7404597,6e1cae06-14b7-4dbf-961c-05ed3746f31a
0.2985192875733155,0.6893642495674345,0.0553999023736971,-0.2132542724026191,-0.224417516700245,-0.3360368144085959,-0.3986377686159478,-0.4284984640228261,-13.559287553478532,21.830731205854008,18.812036493968943,-0.1304197519723568,2.5449122237601087,0.8873578068762896,3411.588650173612,12.033555555555555,0.01,179.01658222969937,0.5324902099393134,88.47769829027472,1695.0,1435.0,1000.0,1528.0,1609.0,1019.7999999999998,94.0,292.35,1637081063.6794128,1637081064.7254715,80295a1f-dddc-4790-9274-821a46f53d6f
0.2792564487682256,0.6845912732951374,0.05303313705087,-0.2114791982288482,-0.2249566133047581,-0.3339724687515696,-0.3996239210284247,-0.4165988914367428,-13.594088841355765,21.777411613223947,18.66104711047079,-0.1302979218818591,2.528225696659819,0.8919449306693038,3407.219672309028,12.027444444444445,0.01,179.01901833050334,0.5358503902777115,88.42693784218301,1695.0,1435.0,1000.0,1528.0,1609.0,1019.7999999999998,94.0,292.35,1637081064.8339417,1637081065.9535637,80295a1f-dddc-4790-9274-821a46f53d6f
0.3169011637451057,0.6910953258315231,0.0594395864291235,-0.2176692004982274,-0.2211713055362806,-0.3344650392311949,-0.3937858987467498,-0.4256462077971698,-13.540258800519124,21.798306806307647,18.733232807256904,-0.1169455463015696,2.552767683164522,0.8706080060749881,3400.310438368056,12.026777777777776,0.0,179.01687213328415,0.5362703639058961,88.3688630204001,1695.0,1435.0,1000.0,1528.0,1609.0,1019.7999999999998,94.0,292.35,1637081066.062317,1637081067.06959,80295a1f-dddc-4790-9274-821a46f53d6f
0.4422871215719614,0.963304162869996,0.0753727718902606,-0.3510000333159503,-0.2736988362104398,-0.4791735510769425,-0.4423440441848097,-0.4730988518803729,-13.206500694493265,21.61298688075649,18.499067018561828,-0.1416676655809984,3.590852286716264,1.0213176025743371,3394.17626953125,12.02,0.0066666666666666,178.94153970019835,0.5496875590523476,88.27933897203883,1779.0,1435.0,1000.0,1528.0,1677.0,1019.7999999999998,94.0,292.35,1637081069.116761,1637081070.255586,4de626ab-506c-4cf9-945d-ff753c9bf033
0.4647845389247038,0.9640141924172886,0.076122247575582,-0.3531564198782452,-0.2727652786489214,-0.4768593799476716,-0.4405558210956279,-0.4676947367775774,-13.213602151666397,21.55172657535726,18.655114922228105,-0.1319506171284818,3.592494514116294,1.0167856711160246,3390.595703125,12.012,0.0,178.9532800364717,0.5429049677631135,88.12282898175755,1779.0,1435.0,1000.0,1528.0,1677.0,1019.7999999999998,94.0,292.35,1637081070.3643303,1637081071.4865122,4de626ab-506c-4cf9-945d-ff753c9bf033
0.4575133105174157,0.964776816740786,0.0791990424697626,-0.3532747581133958,-0.2694518067670133,-0.4769645695306168,-0.4368478879351133,-0.46613004120488,-13.19728311871328,21.489874387008086,18.757613665522943,-0.1321523184083722,3.5945394465085605,1.00307188878194,3394.474934895833,12.012666666666668,0.0,178.9511641956488,0.5529521938191532,87.97772920193968,1779.0,1435.0,1000.0,1528.0,1677.0,1019.7999999999998,94.0,292.35,1637081071.5955951,1637081072.5996711,4de626ab-506c-4cf9-945d-ff753c9bf033
0.4873214022845611,1.0200802295319524,0.087232895785709,-0.3937070068916902,-0.2829160735717709,-0.5100861439816863,-0.4478270518108275,-0.4711922906114418,-13.138402060592137,22.082910861087072,16.442160816367267,-0.1113837860297884,3.8275633594037215,1.0289609170976677,3395.07275390625,12.008333333333333,0.0,178.90936495574817,0.5480390644370434,87.74378839267757,1864.0,1435.0,1000.0,1528.0,1744.0,1019.7999999999998,94.0,292.35,1637081073.621503,1637081074.670524,a5a513e0-4e14-48e2-a9c0-7eedf22f211e
0.4936985193826771,1.0253002615202538,0.0943594890467286,-0.3918924863597092,-0.278261434491757,-0.5161213971111192,-0.4458941930576839,-0.4670635989445586,-13.28080805716259,22.33793377287364,16.58131645116341,-0.1270429862911362,3.84714894158591,1.010794367264735,3392.386176215278,11.999777777777778,0.0,178.91264648218936,0.5560817663383086,87.55520611078363,1864.0,1435.0,1000.0,1528.0,1744.0,1019.7999999999998,94.0,292.35,1637081074.7848127,1637081075.7303295,a5a513e0-4e14-48e2-a9c0-7eedf22f211e
0.4913186055863292,1.0384226595680557,0.097686109146158,-0.3994003933610217,-0.2778406761307893,-0.519355977233897,-0.4424755312881927,-0.4717050900648799,-13.109398200835663,22.1761833255356,16.993245635940216,-0.1181301935042398,3.8926343286638665,1.0031085115538525,3420.3692220052085,12.001333333333331,0.0,178.90507256130974,0.5577240355207754,87.38105374187617,1864.0,1435.0,1000.0,1528.0,1744.0,1019.7999999999998,94.0,292.35,1637081075.8479626,1637081076.9028473,a5a513e0-4e14-48e2-a9c0-7eedf22f211e
-0.1967789543865434,-0.2326880475642685,0.0234880164345889,0.2263723952755398,-0.0430312392938583,0.1484400756004642,-0.2223137250842359,-0.2429308831714941,-14.06053299090282,23.912899024507688,17.335376361694568,-0.0216993040379547,-0.9528243838479132,0.3217531573155326,3471.1520182291665,12.004888888888887,0.0011111111111111,179.25480101411165,0.5528397743600796,87.1834669939264,1440.0,1435.0,1000.0,1528.0,1408.0,1019.7999999999998,94.0,292.35,1637081077.6058533,1637081078.6522987,ed0ab880-a3ef-4ef9-90f8-1a3708460dbb
-0.2015782289873184,-0.2329115754290889,0.0210423589166104,0.2298567996350431,-0.0445564881039865,0.1450740094790178,-0.2244306654014783,-0.2526872169702006,-13.985610166501724,23.82441540251468,17.2649941877219,-0.0378051177297813,-0.9541547861719673,0.3301713211805384,3493.3184407552085,12.039,0.01,179.26326741304285,0.5660351069381788,87.36785250403035,1440.0,1435.0,1000.0,1528.0,1408.0,1019.7999999999998,94.0,292.35,1637081078.760857,1637081079.8025954,ed0ab880-a3ef-4ef9-90f8-1a3708460dbb
-0.219407862888984,-0.2345683113400213,0.0208845745535434,0.2305142344093108,-0.0446353802908073,0.1459286747175973,-0.2236154461487647,-0.2453239462033681,-13.904381397510706,23.812122879530097,17.244044314992276,-0.0374193788655792,-0.9608489476428173,0.3291707557272046,3509.0465494791665,12.039888888888887,0.01,179.27213755204494,0.5843656093362495,87.50139484486263,1440.0,1435.0,1000.0,1528.0,1408.0,1019.7999999999998,94.0,292.35,1637081079.912562,1637081081.1095254,ed0ab880-a3ef-4ef9-90f8-1a3708460dbb
-0.3797430884791354,-0.5256147582473452,0.0130216541115154,0.3805145516284327,0.0116936357697055,0.2912612077179077,-0.1742289382061864,-0.2028799500275581,-14.207134159098816,25.05697180796937,17.146688469108057,-0.0415089215678817,-2.068390011332573,0.1580893846712728,3541.4243977864585,12.034333333333334,0.0066666666666666,179.32899811797537,0.5732575635957587,87.69351137019713,1355.0,1435.0,1000.0,1528.0,1341.0,1019.7999999999998,94.0,292.35,1637081083.1356442,1637081084.2738595,974f161f-abb1-4730-954f-c35a10ff8dab
-0.3515583472527695,-0.5236545905201159,0.016352320046108,0.377536877874937,0.0153155959084731,0.2911727068803902,-0.1704856052331568,-0.2006643945089931,-14.271346155610964,24.968694178410885,17.046049094045788,-0.0354586156397252,-2.0591154849130544,0.1433468259710639,3541.91162109375,12.020555555555555,0.0,179.33791227375218,0.5834628504270444,87.61551516333502,1355.0,1435.0,1000.0,1528.0,1341.0,1019.7999999999998,94.0,292.35,1637081084.383023,1637081085.4106054,974f161f-abb1-4730-954f-c35a10ff8dab
-0.3695791444082441,-0.5235504123817915,0.014599497673739,0.3779374073601822,0.013652791529446,0.2919580885798339,-0.1713888195848115,-0.1983436494592975,-14.199629593206582,24.926927454505368,17.21443157638395,-0.0348984685621963,-2.0608858571264808,0.1496078013175823,3538.66259765625,12.020111111111111,0.0,179.35464320157905,0.5783108422934939,87.54417687309386,1355.0,1435.0,1000.0,1528.0,1341.0,1019.7999999999998,94.0,292.35,1637081085.518857,1637081086.639701,974f161f-abb1-4730-954f-c35a10ff8dab
-0.5196452485365943,-0.834661832190333,0.0090901938705929,0.5290027655878786,0.0739790100990064,0.457539607923524,-0.113166388357781,-0.1416990611365123,-14.382441536602371,26.354278378133813,17.380284360573476,0.0055410474609015,-3.246843319156351,-0.0447449322309136,3531.332550048828,12.0165,0.00875,179.44845528064673,0.5571529980591801,87.37763589624275,1271.0,1435.0,1000.0,1528.0,1273.0,1019.7999999999998,94.0,292.35,1637081088.665242,1637081089.5970085,ba9e1af0-947c-4713-8283-1dfe448ab03a
-0.5136231440247847,-0.8325185936507024,0.0061054397776219,0.5303833785527082,0.0712440812878123,0.4545943002145118,-0.1175449044700615,-0.1463799973726101,-14.44468683658315,26.345568949115524,17.4129140859344,-0.0044242648375306,-3.2390128592622136,-0.0304397342831974,3526.6910807291665,12.013222222222222,0.0,179.4642692555776,0.5649071059399382,87.22263964663624,1271.0,1435.0,1000.0,1528.0,1273.0,1019.7999999999998,94.0,292.35,1637081089.70669,1637081090.7676277,ba9e1af0-947c-4713-8283-1dfe448ab03a
-0.5292963942297934,-0.8165429199482469,0.0102209817643589,0.517931564369049,0.0701395908122046,0.4490586995733821,-0.115283328586653,-0.1353482403841055,-14.28543996580187,26.31250538295637,17.245434858287407,0.0112639512842636,-3.176943688260218,-0.0360527173787739,3516.1246337890625,12.01725,0.0,179.45493542262182,0.5748800136681143,87.12750839242136,1271.0,1435.0,1000.0,1528.0,1273.0,1019.7999999999998,94.0,292.35,1637081090.8763618,1637081091.9039762,ba9e1af0-947c-4713-8283-1dfe448ab03a
-0.6074259709241344,-0.9938663353155338,0.0080514468332293,0.6087101546457971,0.1042604571937905,0.5520392792508241,-0.0825956679390601,-0.1125483996218804,-14.46905115174583,27.39462149376316,19.17321128290917,0.0451811288256241,-3.869096559048016,-0.1446232818442253,3491.416015625,12.012999999999998,0.0,179.49224874605758,0.5867524165701171,86.98375681605468,1186.0,1435.0,1000.0,1528.0,1206.0,1019.7999999999998,94.0,292.35,1637081092.5808487,1637081093.6006038,c8e0853a-f252-4a1d-a068-e3bd4cc4eda7
-0.5940800399407634,-0.9852013390826764,0.0088535173103184,0.6010839115590717,0.1029455875814875,0.550264205425934,-0.0834503332369294,-0.1176237969018682,-14.53974607019656,27.382164665692088,19.12985689382757,0.0583100998678658,-3.834723355303265,-0.1418327068293551,3484.3193359375,11.9965,0.0,179.4935225763378,0.5895351850483683,86.7220939764988,1186.0,1435.0,1000.0,1528.0,1206.0,1019.7999999999998,94.0,292.35,1637081093.7097676,1637081094.8308823,c8e0853a-f252-4a1d-a068-e3bd4cc4eda7
-0.6153677861052925,-0.983373669177756,0.0128638697435167,0.6001240568252303,0.1065746277118935,0.5496725141497358,-0.0783880849253884,-0.1020557395433527,-14.439126262766765,27.30267485115697,19.209971385771084,0.0588818490342905,-3.828919631401412,-0.1590209889373159,3480.07666015625,11.997666666666667,0.0,179.518258106417,0.5948831520206844,86.52938075824932,1186.0,1435.0,1000.0,1528.0,1206.0,1019.7999999999998,94.0,292.35,1637081094.939997,1637081096.0599406,c8e0853a-f252-4a1d-a068-e3bd4cc4eda7
-0.017364983507493,0.107271508603495,0.0355453709913679,0.0734793596402962,-0.1064737015695375,-0.0385343850561398,-0.2869527238372821,-0.3069124476753426,-13.86475182399215,22.911693201111703,17.90221789469793,-0.1028144825200488,0.3353928496772206,0.5249026132374622,3482.117974175347,12.007444444444443,0.0022222222222222,179.21423272608138,0.5652075216127294,86.30458405446603,1525.0,1435.0,1000.0,1528.0,1475.0,1019.7999999999998,94.0,292.35,1637081097.174999,1637081098.206916,59782b11-3b5b-43f4-b272-31481cb25f75
-0.033853449022475,0.1073241033871182,0.0336914048128085,0.0723091256675086,-0.1076307868968578,-0.0381925189507867,-0.2889907720375234,-0.3146044361100922,-13.965992444117315,22.880353277611498,17.79095380057929,-0.0997752719680775,0.3373188169488633,0.5316887491925638,3489.6821560329863,12.041,0.01,179.20569195397923,0.5721609150630829,86.64774338310619,1525.0,1435.0,1000.0,1528.0,1475.0,1019.7999999999998,94.0,292.35,1637081098.3447034,1637081099.33587,59782b11-3b5b-43f4-b272-31481cb25f75
-0.0226902056382374,0.1098618017194215,0.0375439728296927,0.0706129438751075,-0.1057242258373925,-0.0397835112249292,-0.2851119061072531,-0.3157878189711982,-13.803762989107229,22.91332007627556,17.724763044802238,-0.0990427894396369,0.346728783047369,0.5186165452438395,3501.8785807291665,12.040444444444445,0.01,179.20701852849805,0.5796299107189853,86.96636184205848,1525.0,1435.0,1000.0,1528.0,1475.0,1019.7999999999998,94.0,292.35,1637081099.4450252,1637081100.565654,59782b11-3b5b-43f4-b272-31481cb25f75
-0.0128549805727264,0.1089150956091119,0.0129559106248014,-0.2351600027701858,-0.1604491033890117,0.2589417142172919,-0.2266790927132167,-0.2571446255532552,-13.861741467397003,22.27266973212476,20.168762783546708,1.2568706643343832,0.3580048863759561,0.5443480042669807,3513.1996799045137,12.041,0.01,179.20576177369074,0.6645462197882179,87.39372753733609,1525.0,1535.0,1000.0,1528.0,1475.0,1019.7999999999998,94.0,292.35,1637081101.680598,1637081102.8187764,29e4cd4e-68a9-46f2-9f1a-2267877b4aa6
-0.0025989973047094,0.1078763486244657,0.0149808098735918,-0.2339240251579414,-0.1580823378791412,0.2589154168370093,-0.22575868386935,-0.2553695512993106,-13.981527777913424,22.33816450199921,20.19330913150379,1.2545021225910054,0.354716521291239,0.5368628768502001,3525.2414279513887,12.038444444444444,0.01,179.19334904323912,0.6643113786746457,87.53997478893449,1525.0,1535.0,1000.0,1528.0,1475.0,1019.7999999999998,94.0,292.35,1637081102.9269936,1637081104.054898,29e4cd4e-68a9-46f2-9f1a-2267877b4aa6
0.0059724356381619,0.1044232987567202,0.0106250513180738,-0.2319051943350588,-0.1605987962649945,0.26032384441585,-0.2276065816218606,-0.2585060214779298,-13.89067272196662,22.19210605139256,20.15423913985745,1.251967439023678,0.3409415412426486,0.5485270345378221,3525.885009765625,12.043,0.01,179.20104438970398,0.6658845514816029,87.69147749164426,1525.0,1535.0,1000.0,1528.0,1475.0,1019.7999999999998,94.0,292.35,1637081104.1678925,1637081105.276986,29e4cd4e-68a9-46f2-9f1a-2267877b4aa6
0.0129296132240277,0.096187157830547,-0.0076349480458863,-0.5191061518545346,-0.2097567188364126,0.5469507342861126,-0.167996455661467,-0.1956481663938609,-13.82306419204726,21.94878603949669,22.31779497671811,2.541768019047792,0.3245958198556603,0.5551840426070881,3515.761474609375,12.041111111111112,0.01,179.2112972625581,0.7503379077201392,87.83840624433985,1525.0,1636.0,1000.0,1528.0,1475.0,1019.7999999999998,94.0,292.35,1637081106.187054,1637081107.2109375,8dec8bf0-5a5b-4dbb-b7e5-cb5f7e026884
0.0076701346254902,0.108560080818941,-0.0005609493266377,-0.5230376130839179,-0.205785812161196,0.5417044049793356,-0.1627369767298403,-0.1880350706723574,-13.725471113441651,21.9073949263679,22.82791917234909,2.539055523749605,0.366721644899434,0.5349118834864436,3512.8809407552085,12.037,0.01,179.19896042309725,0.7389230904363794,87.82303452415778,1525.0,1636.0,1000.0,1528.0,1475.0,1019.7999999999998,94.0,292.35,1637081107.3195305,1637081108.4411042,8dec8bf0-5a5b-4dbb-b7e5-cb5f7e026884
0.0159932594855031,0.1052597581159,0.0013324629655329,-0.5232216949009132,-0.2037214666417242,0.5449784300353909,-0.1607778208249213,-0.1853790338927047,-13.800622897009864,21.994458278711527,22.82373757616396,2.5474608753928787,0.3550565686068397,0.5262346812489433,3514.31982421875,12.034111111111113,0.01,179.19788732448762,0.7330303388009672,87.86284086664062,1525.0,1636.0,1000.0,1528.0,1475.0,1019.7999999999998,94.0,292.35,1637081108.5499687,1637081109.7809887,8dec8bf0-5a5b-4dbb-b7e5-cb5f7e026884
0.0072756737394386,0.0959767786953551,-0.0161553034033356,-0.7608976120170982,-0.2491765145977748,0.7821282926956894,-0.1160065069242655,-0.1364921770809235,-13.69390612161435,22.08648537416517,24.233045142343887,3.616524574646885,0.335149701455395,0.5470563968662843,3508.027587890625,12.031875,0.00625,179.2020425459602,0.7861324953123857,87.87061419109853,1525.0,1737.0,1000.0,1528.0,1475.0,1019.7999999999998,94.0,292.35,1637081110.6921804,1637081111.732064,a8a04750-fe58-414e-b107-6e71030c5603
0.0166506942827504,0.0947276525759906,-0.0166681025822313,-0.7582284255409476,-0.2484533362331014,0.7815497501121231,-0.1159539121491782,-0.1416727638491739,-13.699156380393765,22.0168105303959,24.32525838322508,3.608728121021824,0.3293222710994187,0.5467227619143491,3501.8767903645835,12.02411111111111,0.0,179.19780536221757,0.7909453389004709,87.75971639382205,1525.0,1737.0,1000.0,1528.0,1475.0,1019.7999999999998,94.0,292.35,1637081111.8404033,1637081113.1768198,a8a04750-fe58-414e-b107-6e71030c5603
0.0191357979167798,0.0956612099866097,-0.0163656825498636,-0.7586360353494104,-0.2477433065275736,0.7809317614514961,-0.1155725999150658,-0.1360056752843526,-13.731268239828848,21.963676465949675,24.31753157119704,3.607904316224158,0.3331878975648803,0.544898375825248,3495.213840060764,12.028,0.0055555555555555,179.19186613327935,0.7784919119050299,87.71046997099636,1525.0,1737.0,1000.0,1528.0,1475.0,1019.7999999999998,94.0,292.35,1637081113.2860923,1637081114.287817,a8a04750-fe58-414e-b107-6e71030c5603
0.0134950071592645,0.0967110827975937,-0.0164562062932711,-0.7941006148850049,-0.259479530856611,0.8157424259355401,-0.1156656523156118,-0.1380942953882922,-13.842966784568912,22.83306172226141,24.759056879417933,3.771900837786708,0.3383783604021756,0.5611433034273356,3481.96142578125,12.023,0.0077777777777777,179.21524359407854,0.8166118142771709,87.61569654280297,1525.0,1837.0,1000.0,1528.0,1475.0,1019.7999999999998,94.0,292.35,1637081115.077696,1637081116.2238033,12a2e4a5-f7d6-4a52-b8f3-76deaa4ed466
-0.0010343024036799,0.0997636031579616,-0.0191926523192836,-0.8029603117827895,-0.261483695830151,0.8195757762976507,-0.1154411129942244,-0.1333759358662547,-13.861026409715333,22.581619588280947,24.562976506727708,3.798656749322231,0.3526059225940948,0.5673891151150348,3476.899932861328,12.00775,0.0,179.22568866086678,0.7712754731658593,87.40853140317965,1525.0,1837.0,1000.0,1528.0,1475.0,1019.7999999999998,94.0,292.35,1637081116.331571,1637081117.3635333,12a2e4a5-f7d6-4a52-b8f3-76deaa4ed466
-0.0008502206563112,0.0932287012217822,-0.0188113401697847,-0.7846178714019512,-0.2575916813097302,0.8061641072607337,-0.1167296854132972,-0.1437108119102841,-13.783466690224031,22.52569026042512,24.144287003216856,3.726763411252039,0.3290228306449224,0.5622597063727683,3468.808837890625,12.012999999999998,0.0,179.21726533007288,0.75822879799493,87.25008638236099,1525.0,1837.0,1000.0,1528.0,1475.0,1019.7999999999998,94.0,292.35,1637081117.4725924,1637081118.588135,12a2e4a5-f7d6-4a52-b8f3-76deaa4ed466
-0.0442328278808218,0.1126538767525222,0.0569236339811184,0.338331008575967,-0.0606181268822628,-0.3048298961320945,-0.34107731737298,-0.3655541254266878,-13.86196464131304,23.57388823842668,15.333748017812228,-1.2936102435183314,0.347082150825597,0.509447708598195,3407.8299967447915,12.017666666666663,0.0022222222222222,179.20672862491327,0.4527743191551704,87.09007022830575,1525.0,1334.0,1000.0,1528.0,1475.0,1019.7999999999998,94.0,292.35,1637081119.5905845,1637081120.8416288,f9763c06-33ca-42d9-b6fe-7723d1f149e8
-0.0338534490450856,0.1094147460597853,0.054400601458502,0.3400823136498961,-0.0622283365177762,-0.3028232025114863,-0.3433211933372158,-0.3667916205607639,-13.908899628876002,23.600138572468484,15.37864568149846,-1.2930195326587473,0.3344925840371063,0.5179179929169337,3389.1062825520835,12.043666666666669,0.01,179.21382746819063,0.4572280293808418,87.42954884389317,1525.0,1334.0,1000.0,1528.0,1475.0,1019.7999999999998,94.0,292.35,1637081120.951604,1637081122.0132203,f9763c06-33ca-42d9-b6fe-7723d1f149e8
-0.0304084905773569,0.1129780426784205,0.0580822364020291,0.339871934525229,-0.059585448469983,-0.307359503394551,-0.3406125614654127,-0.3659369551478442,-13.848495539207422,23.58942269391429,15.227067554317548,-1.3026201152403851,0.3490321371051098,0.5057054625913652,3389.7019856770835,12.040333333333333,0.01,179.20019441060725,0.4752338902789091,87.67762207345794,1525.0,1334.0,1000.0,1528.0,1475.0,1019.7999999999998,94.0,292.35,1637081122.121831,1637081123.2992294,f9763c06-33ca-42d9-b6fe-7723d1f149e8
-0.04779106751032,0.1079683894959003,0.0781602954766668,0.6567423373617135,-0.0108300812996747,-0.6070183612118847,-0.4114971961704923,-0.4339420255191353,-14.119062134763976,24.883782264613945,13.201722917164552,-2.681654403677363,0.3123897386002368,0.5114500693105838,3397.614664713541,12.03711111111111,0.01,179.22173075597024,0.3853549448140516,88.08672384289493,1525.0,1234.0,1000.0,1528.0,1475.0,1019.7999999999998,94.0,292.35,1637081125.1206324,1637081126.16599,b7343c0d-e913-4d82-8885-c8a481d4251f
-0.0344977351870547,0.1154105514387671,0.0839851678629835,0.6508648707130221,-0.0079373680667232,-0.6087013948738067,-0.4073422072949054,-0.4346389066405656,-14.10732764197282,24.950287957588017,13.267217362911552,-2.671431019197392,0.340732876894547,0.494576581593884,3402.260932074653,12.033,0.01,179.20571016781705,0.3968426678453192,88.18548003028434,1525.0,1234.0,1000.0,1528.0,1475.0,1019.7999999999998,94.0,292.35,1637081126.2740517,1637081127.394108,b7343c0d-e913-4d82-8885-c8a481d4251f
-0.0447668672884106,0.1138195592077942,0.0778973215564681,0.6521665915144516,-0.0129996162250166,-0.6075706066234808,-0.4133511627063005,-0.4342970404953963,-14.159630177691747,24.9367658808528,13.33058980567186,-2.672235349631205,0.3340277688307291,0.5182026813161675,3403.0103624131943,12.034777777777778,0.01,179.20114001235237,0.3895623176268448,88.3005247010244,1525.0,1234.0,1000.0,1528.0,1475.0,1019.7999999999998,94.0,292.35,1637081127.5017369,1637081128.6237068,b7343c0d-e913-4d82-8885-c8a481d4251f
-0.0497830950921103,0.1142721777915474,0.0964582232135344,0.8338850964641207,0.0172246854284234,-0.7846942348389006,-0.4525251832926419,-0.4816798956688257,-14.310957481123465,26.1174849919874,11.9100224164616,-3.4717195003848653,0.3282101230528052,0.5065650869453228,3406.01513671875,12.03,0.0044444444444444,179.20265783216792,0.3173912482705618,88.46576670870462,1525.0,1133.0,1000.0,1528.0,1475.0,1019.7999999999998,94.0,292.35,1637081130.6499193,1637081131.9004755,d99d1ae7-2c99-453b-bd09-24eb1e835ba5
-0.0636483957735886,0.116817461908564,0.1008023501275995,0.8328822556263327,0.0200956527351493,-0.786787406906111,-0.448300404992536,-0.475741740512899,-14.189164381089949,26.12945331436096,11.867939561593996,-3.47381072700515,0.3376665122994089,0.4910381117041406,3398.512668185764,12.027555555555557,0.0011111111111111,179.19546943752144,0.3444570616179601,88.46906872571336,1525.0,1133.0,1000.0,1528.0,1475.0,1019.7999999999998,94.0,292.35,1637081132.0095265,1637081133.1371045,d99d1ae7-2c99-453b-bd09-24eb1e835ba5
-0.0612158868862607,0.1151607262107144,0.0986591126621871,0.8361299833100585,0.0190569057235675,-0.7873396524787188,-0.4501806690523832,-0.4745846551547605,-14.1896549655752,26.09322861929109,11.968696762222924,-3.4827088169651144,0.3300268608888952,0.4980361312061241,3391.788845486112,12.030222222222225,0.01,179.20115822619016,0.3185257711508225,88.49660273607748,1525.0,1133.0,1000.0,1528.0,1475.0,1019.7999999999998,94.0,292.35,1637081133.2514603,1637081134.3590786,d99d1ae7-2c99-453b-bd09-24eb1e835ba5
-0.0444118524658924,0.1139641948793594,0.0998687927046924,0.8597318909514157,0.0176105491123077,-0.8090613085832533,-0.4613965094388893,-0.489692510698388,-14.26652545124312,26.77733054244181,11.757508890092828,-3.580237530614724,0.3251373532743029,0.5137559370006979,3390.595703125,12.02777777777778,0.0088888888888888,179.21602223564392,0.3224301877213287,88.49892651821511,1525.0,1033.0,1000.0,1528.0,1475.0,1019.7999999999998,94.0,292.35,1637081135.1556978,1637081136.2081206,6d5d1cf3-81f2-4475-940b-700a2fcad599
-0.0424375250765565,0.1249681362549511,0.1076346148610072,0.8632547297881104,0.0215738696225344,-0.8239254109591265,-0.4590110320444649,-0.4894932577288935,-14.127852034179131,26.911512480845527,11.67513206417384,-3.6202529469537073,0.3662182816358642,0.4956637574920186,3391.937744140625,12.019,0.0,179.22269760719277,0.339015647934265,88.45532107273394,1525.0,1033.0,1000.0,1528.0,1475.0,1019.7999999999998,94.0,292.35,1637081136.3203695,1637081137.431916,6d5d1cf3-81f2-4475-940b-700a2fcad599
-0.0396783216346734,0.1155420383956188,0.0980016778877727,0.8456364897931076,0.0143759698296533,-0.7978060191456089,-0.4593584610697929,-0.4909284887283608,-14.219854187253963,26.68232704492629,11.733726366690908,-3.5238526782592503,0.3325511512122182,0.5179103031312059,3389.255126953125,12.022,0.0088888888888888,179.223930076883,0.3271417257302008,88.4391137927434,1525.0,1033.0,1000.0,1528.0,1475.0,1019.7999999999998,94.0,292.35,1637081137.54043,1637081138.6603346,6d5d1cf3-81f2-4475-940b-700a2fcad599
-0.0039523015854165,0.1057760972935769,0.0357087182571564,0.0429910730994249,-0.1098372394105903,-0.0080865552351678,-0.2796324390533498,-0.3029081633141964,-13.94522579948068,22.97118593223953,18.0596912249534,0.0347670730277342,0.3327231658716749,0.5185318261652,3389.553032769097,12.026555555555555,0.0022222222222222,179.2351118554642,0.5720678181617398,88.36924930554316,1525.0,1435.0,1000.0,1528.0,1475.0,1019.7999999999998,94.0,292.35,1637081139.661754,1637081140.702897,5274f67b-3e16-49c6-886e-880fcadaf629
-0.0290278773648387,0.1057199624752299,0.0330997134776437,0.0426982617626973,-0.1109442585490572,-0.0106854456481457,-0.2820877055461988,-0.3055449831740507,-14.023641586952438,22.848791718122428,17.626743926664805,0.0285377660309336,0.3367734134478206,0.5264671643956867,3401.6980590820312,12.041,0.01,179.23579221819654,0.5562297685927846,88.44484697764172,1525.0,1435.0,1000.0,1528.0,1475.0,1019.7999999999998,94.0,292.35,1637081140.8109355,1637081142.0286744,5274f67b-3e16-49c6-886e-880fcadaf629
-0.0256749597411168,0.1091386234347824,0.0369654301979904,0.0435003322463444,-0.1086037904767628,-0.0129207240603001,-0.2790766536914856,-0.3040591802103473,-13.926746227918466,22.89285522491532,17.91541587407015,0.022284902304862,0.3464982379273,0.5146003826488255,3405.86474609375,12.040333333333333,0.01,179.23572050121024,0.5487744659246325,88.51393320273154,1525.0,1435.0,1000.0,1528.0,1475.0,1019.7999999999998,94.0,292.35,1637081142.137678,1637081143.258157,5274f67b-3e16-49c6-886e-880fcadaf629
0.0071047407054301,0.121669330731444,0.1309128639812905,0.0344934752731508,-0.0225587186331629,-0.0234791274047638,-0.1818288853154497,-0.2032218161552399,-13.374223696468992,22.780407630695294,17.71546351165449,0.0230548013521538,0.3984203591674045,0.1324708608088692,3412.19189453125,12.041,0.01,179.24166124796835,0.548650413799629,88.54313605598288,1525.0,1435.0,1000.0,1439.0,1475.0,1019.7999999999998,94.0,292.35,1637081144.1671288,1637081145.1018822,198423fe-e246-4032-b17e-a6fd68d14bfa
0.0075912424738552,0.1245357464512862,0.1356595432127983,0.0310222194413186,-0.0197843436556464,-0.0224403803630857,-0.1762012428300628,-0.1978177016580339,-13.214109604588582,22.78613006898104,17.846927723381473,0.0335951485265589,0.4076011458023436,0.1148206937216011,3412.19189453125,12.038333333333334,0.01,179.25457030549964,0.5559622498858006,88.57649090533967,1525.0,1435.0,1000.0,1439.0,1475.0,1019.7999999999998,94.0,292.35,1637081145.2103095,1637081146.2606494,198423fe-e246-4032-b17e-a6fd68d14bfa
0.0032921244525028,0.1272059431614668,0.136359458410695,0.0311572464401604,-0.0195284497912527,-0.0250534309725059,-0.1775656730444816,-0.2026493421099315,-13.31909681022126,22.840902957089515,17.862402801712943,0.0277662532080071,0.4182506004252058,0.115710957824113,3412.19189453125,12.038777777777778,0.01,179.2438044095479,0.5556313295921069,88.61763975944939,1525.0,1435.0,1000.0,1439.0,1475.0,1019.7999999999998,94.0,292.35,1637081146.370288,1637081147.465987,198423fe-e246-4032-b17e-a6fd68d14bfa
0.0586213329036518,0.1431148537977769,0.2590863498806429,0.0237641390508435,0.0913878837684482,-0.0395599833742507,-0.0505259964175406,-0.0691971460799863,-12.360913445803504,22.795790243794418,18.00531020957671,0.0181621595439099,0.4785600319696218,-0.3807784810463416,3410.0805392795137,12.039333333333332,0.01,179.22878406465315,0.5564027970872665,88.6437067969618,1525.0,1435.0,1000.0,1351.0,1475.0,1019.7999999999998,94.0,292.35,1637081149.07737,1637081150.3329875,658a44fb-8d5f-480d-a76d-a6b9814d3d82
0.0590026451241379,0.14366709902281,0.2589417142272438,0.023685246873909,0.0907435976551103,-0.0403357564796881,-0.0517488252186497,-0.0702227442428534,-12.398672725761603,22.86099679968666,17.955804608703552,0.0169950169240241,0.4813389551653884,-0.3780195993334745,3410.834228515625,12.038,0.01,179.23406911325094,0.5677714809492104,88.64402174457351,1525.0,1435.0,1000.0,1351.0,1475.0,1019.7999999999998,94.0,292.35,1637081150.441764,1637081151.5620973,658a44fb-8d5f-480d-a76d-a6b9814d3d82
0.042632518294587,0.1404982633156015,0.2576662907609411,0.0255129156701258,0.0907304489590789,-0.0387973589727313,-0.0510913903765604,-0.0748379368198163,-12.32692412406705,22.773646745376123,17.97064342856152,0.0157251486846137,0.4685071979818654,-0.377459644712991,3414.910888671875,12.037999999999998,0.01,179.2414350928158,0.5621226477013453,88.61752212841367,1525.0,1435.0,1000.0,1351.0,1475.0,1019.7999999999998,94.0,292.35,1637081151.670148,1637081152.790521,658a44fb-8d5f-480d-a76d-a6b9814d3d82
0.0964238343352712,0.1656517184914883,0.3828287219963725,0.0214236710924173,0.2004037213715433,-0.0656864437801509,0.0696530890468695,0.0534538952791042,-11.56072042878184,23.09423735774489,18.055238446025584,-0.0267172215476656,0.5651187244294769,-0.8658319111718715,3425.829833984375,12.042000000000002,0.01,179.243261030054,0.5530628464410976,88.55227105454281,1525.0,1435.0,1000.0,1262.0,1475.0,1019.7999999999998,94.0,292.35,1637081154.724501,1637081156.0670502,364b786f-d3af-47f5-ae43-5cac7b3636fe
0.0807505886177344,0.1663617480644725,0.3868390740431624,0.0215157119814035,0.2040327613883358,-0.0664753655900539,0.073453062249633,0.0535064900198696,-11.550557261932797,23.10551286160887,18.083898939011057,-0.0284135359256189,0.5676989113565947,-0.8815220748799203,3426.8951009114585,12.03788888888889,0.01,179.2363003083798,0.5694777238653095,88.5896731704378,1525.0,1435.0,1000.0,1262.0,1475.0,1019.7999999999998,94.0,292.35,1637081156.175701,1637081157.184095,364b786f-d3af-47f5-ae43-5cac7b3636fe
0.078581053746475,0.1557244531332689,0.3784239090797904,0.0275378149026438,0.1988521752663829,-0.0627411357216036,0.0666814836860959,0.0492857585425047,-11.607692634581433,23.107574976874584,17.863345568243016,-0.0340758785717129,0.5288868456456808,-0.8549400330815904,3434.984375,12.037333333333336,0.01,179.24549677864226,0.5649762082444316,88.57949846530421,1525.0,1435.0,1000.0,1262.0,1475.0,1019.7999999999998,94.0,292.35,1637081157.2915394,1637081158.412288,364b786f-d3af-47f5-ae43-5cac7b3636fe
0.1143718044548397,0.1815747890940527,0.4946978202286123,0.031311490763002,0.3010306884172755,-0.0970329371389935,0.1773277603420734,0.1528317400456932,-10.7700161871304,23.349010330901613,17.94941721525564,-0.1118210693183235,0.6260602238348437,-1.306372628574005,3439.5771484375,12.037,0.01,179.24521446415656,0.5598119093277654,88.54118338079016,1525.0,1435.0,1000.0,1173.0,1475.0,1019.7999999999998,94.0,292.35,1637081160.0793753,1637081161.074854,9901ac57-124e-448e-ba57-011eccf25d46
0.1186188332540984,0.1773277603575584,0.4893463013319619,0.0341253117565021,0.2977698119398239,-0.0964280970886707,0.1729360959228893,0.1455210650911734,-10.80930171229438,23.28050365783829,17.775800810023593,-0.1175772634543888,0.6112612338285908,-1.2891171398099055,3433.72119140625,12.03425,0.01,179.24715423788086,0.5486593710116849,88.50454624608221,1525.0,1435.0,1000.0,1173.0,1475.0,1019.7999999999998,94.0,292.35,1637081161.183933,1637081162.2105095,9901ac57-124e-448e-ba57-011eccf25d46
0.1137669644439427,0.1809305029987187,0.4920549325217899,0.0318374386043539,0.2997947110485408,-0.0973879519626294,0.1748426568411825,0.1586960583205356,-10.860938181878764,23.272657331375694,17.859770721036806,-0.1145030539095404,0.6248482220773767,-1.2977804108233204,3427.372039794922,12.034,0.01,179.2280280006575,0.546808243004266,88.49422583024632,1525.0,1435.0,1000.0,1173.0,1475.0,1019.7999999999998,94.0,292.35,1637081162.3182943,1637081163.3485649,9901ac57-124e-448e-ba57-011eccf25d46
-0.0628594740028112,0.0858654314104338,-0.0987028216410263,0.0666683350210393,-0.2308735272693514,-0.0061359966419622,-0.4226735902960581,-0.4394776277830829,-14.867969555275636,23.158410309092123,17.597817344145927,-0.0202496386823649,0.2572376158181208,1.0666903136349688,3438.6583658854165,12.03711111111111,0.01,179.2496358732793,0.5470341135655689,88.55855786421886,1525.0,1435.0,1000.0,1617.0,1475.0,1019.7999999999998,94.0,292.35,1637081165.6712716,1637081166.8089466,fd3c7552-6524-4fed-9ff7-82e9ef43e50c
-0.0725106174612356,0.0806191016560294,-0.1020688880692319,0.0684697063975648,-0.2333849285421559,-0.0019415624661423,-0.4251849918170364,-0.4447371074543144,-14.885947540579805,23.2203825062059,17.675810583667193,-0.0146410410660736,0.2365625541161097,1.0777279364413643,3445.5692545572915,12.040666666666668,0.01,179.24698120642188,0.5396511652494448,88.58189130824344,1525.0,1435.0,1000.0,1617.0,1475.0,1019.7999999999998,94.0,292.35,1637081166.9169648,1637081167.944625,fd3c7552-6524-4fed-9ff7-82e9ef43e50c
-0.0469889969971851,0.0828923089181838,-0.0992171379841666,0.0698447565849594,-0.2304133228542809,-0.0059372490596331,-0.4230417538784953,-0.4552054953120447,-14.887552168132808,23.16921625315943,17.624314417760118,-0.026927864361381,0.2455668497193171,1.066976100137235,3452.04443359375,12.040888888888889,0.01,179.24741682070896,0.5389182302190559,88.60868006907813,1525.0,1435.0,1000.0,1617.0,1475.0,1019.7999999999998,94.0,292.35,1637081168.0530095,1637081169.1777277,fd3c7552-6524-4fed-9ff7-82e9ef43e50c
-0.1238957251815023,0.0604095556254768,-0.2440353737634082,0.1006708631906602,-0.3601515274658303,-0.0040848000073314,-0.5776967592499104,-0.594632285398095,-15.892720458946224,23.403280643866324,17.64085157775614,-0.0984639882314364,0.1552385332309869,1.6580573885279073,3445.876654730903,12.039666666666667,0.01,179.24340977639588,0.5469412656815389,88.63237551312874,1525.0,1435.0,1000.0,1706.0,1475.0,1019.7999999999998,94.0,292.35,1637081170.1768649,1637081171.417268,80c35dd1-1a98-4b80-856d-7b2af16a8278
-0.099465446083066,0.0637361757766287,-0.2381710545217453,0.097633514398245,-0.3563515535623904,-0.0054128183385925,-0.5728185914243314,-0.5997865760746136,-15.85174331021461,23.47965443534542,17.558096335165438,-0.0937909777941256,0.1689058372742002,1.6381989842031843,3445.2608778211807,12.035111111111112,0.01,179.23908247210173,0.5483894555130585,88.6217682293477,1525.0,1435.0,1000.0,1706.0,1475.0,1019.7999999999998,94.0,292.35,1637081171.5309744,1637081172.6559803,80c35dd1-1a98-4b80-856d-7b2af16a8278
-0.1273669812179243,0.0537694640317487,-0.2422077047478943,0.1070742781525069,-0.3576138286283206,-0.0039007182432014,-0.5770261755153944,-0.5987083827212726,-15.953562264303644,23.58203274246949,17.588183701994936,-0.111257914042595,0.1305620685563955,1.6502173678259593,3445.10693359375,12.037,0.01,179.22819666838453,0.5381825619272025,88.60856016131271,1525.0,1435.0,1000.0,1706.0,1475.0,1019.7999999999998,94.0,292.35,1637081172.7645972,1637081173.772086,80c35dd1-1a98-4b80-856d-7b2af16a8278
-0.151744665819995,0.0391349650833421,-0.3591653751466498,0.1507936921821719,-0.4637632753961794,-0.0238341422083534,-0.7110640324651137,-0.7386105624758611,-16.760018779618886,24.101867102356746,17.470890335419657,-0.2574735792594744,0.069632796683233,2.1427340832400725,3446.3384874131943,12.038444444444444,0.01,179.25599250266683,0.5237726414735719,88.61922056878728,1525.0,1435.0,1000.0,1795.0,1475.0,1019.7999999999998,94.0,292.35,1637081174.5902698,1637081175.6155932,3f0f966b-62c0-4de5-8a88-7f4a5e3b292f
-0.165782417344884,0.0394004676064978,-0.3613692993633103,0.1527700423068574,-0.4649279467583821,-0.0268234478226716,-0.7134383845690743,-0.7340338032451206,-16.777713424882588,24.022005868358825,17.32514907068714,-0.2693203993013645,0.0716611296313379,2.150569472226206,3445.722710503472,12.035222222222224,0.01,179.26066586987898,0.5280990208462789,88.56410929019427,1525.0,1435.0,1000.0,1795.0,1475.0,1019.7999999999998,94.0,292.35,1637081175.7238743,1637081176.8510685,3f0f966b-62c0-4de5-8a88-7f4a5e3b292f
-0.1650117014041223,0.0385301250497784,-0.3607563677374642,0.1541071635220645,-0.4658144725800421,-0.0284098886452107,-0.7150086430068505,-0.7383738862208179,-16.78168181572095,24.224992702819986,17.147429145534453,-0.2745557445368724,0.0698777012665958,2.15274684202924,3446.492431640625,12.036,0.01,179.2675491827425,0.5224582984480532,88.52236620962678,1525.0,1435.0,1000.0,1795.0,1475.0,1019.7999999999998,94.0,292.35,1637081176.964406,1637081178.186314,3f0f966b-62c0-4de5-8a88-7f4a5e3b292f
-0.1832170843846625,0.024481754450161,-0.4536251227981379,0.1976020377298589,-0.5481314015909723,-0.0488348717805017,-0.8213209566947148,-0.8405635770679892,-17.36039924169353,24.554267198294227,17.21296385893782,-0.4212894973117714,0.0094660077844154,2.541055985827417,3452.198974609375,12.036222222222223,0.01,179.2677647131563,0.5055331311876473,88.51042400331797,1525.0,1435.0,1000.0,1883.0,1475.0,1019.7999999999998,94.0,292.35,1637081179.0959966,1637081180.125029,c35d6ce1-561f-49bc-8e54-e0b01c152c8b
-0.1945699732308303,0.021292184132919,-0.4543882530762683,0.2007850335396588,-0.5486381322339245,-0.0489350041323074,-0.8237352607552679,-0.8442340881264403,-17.466765066046122,24.70104403617086,17.157724835529308,-0.4278219114525141,-0.001692190984268,2.54565329299208,3453.8993326822915,12.028,0.0,179.27444312034478,0.4915794045233468,88.38198077815605,1525.0,1435.0,1000.0,1883.0,1475.0,1019.7999999999998,94.0,292.35,1637081180.2358863,1637081181.4634626,c35d6ce1-561f-49bc-8e54-e0b01c152c8b
-0.1790676588968885,0.0235537599162066,-0.4424492340580365,0.2007850335220059,-0.5369094917123769,-0.0512886208443073,-0.8111913984645156,-0.8384092131657765,-17.41935599019863,24.613932100930874,17.233166041441876,-0.433057904243233,0.0065413027241948,2.4959934370580417,3450.346001519097,12.025,0.0022222222222222,179.2747861476231,0.4993645750905939,88.24556368659312,1525.0,1435.0,1000.0,1883.0,1475.0,1019.7999999999998,94.0,292.35,1637081181.5719078,1637081182.691661,c35d6ce1-561f-49bc-8e54-e0b01c152c8b
-0.0427682653639758,0.0953587899833681,0.0192672849056119,0.0579376007364461,-0.1187019898134041,-0.0122369918364538,-0.294171359093119,-0.3116065329873674,-14.059189107734678,22.661784036916988,17.860393968246267,-0.0112340881415458,0.2933371167033758,0.5723544975280087,4181.197591145833,12.026777777777776,0.14,179.22820577530342,0.4469697611516192,86.09391825316563,1525.0,1435.0,1200.0,1528.0,1475.0,1019.7999999999998,94.0,292.35,1637081187.077953,1637081188.2206163,120205a1-8aef-42d6-a339-8c5c4f3a9f4a
-0.0138542815326444,0.101012729280863,0.0225807563903671,0.0547819136227079,-0.1170715513907481,-0.0156556529429446,-0.291462727286758,-0.3220071532960941,-13.976581982731698,22.62738803620197,17.77205862585799,-0.0118333444617357,0.3153390733404917,0.5623643951008492,4195.509765625,12.026777777777776,0.14,179.23561425382314,0.4179042379841738,85.33022948969713,1525.0,1435.0,1200.0,1528.0,1475.0,1019.7999999999998,94.0,292.35,1637081188.3291578,1637081189.3383844,120205a1-8aef-42d6-a339-8c5c4f3a9f4a
-0.0365226344752994,0.0928079429425655,0.0202665858306729,0.060869759975463,-0.1173476740206926,-0.0128155345045831,-0.2922647978668042,-0.3173130680768594,-13.949912424369318,22.64837278004553,17.81746750301155,-0.0191393655805495,0.2830790234170423,0.5661716130852628,4197.564453125,12.023999999999996,0.1488888888888888,179.2462905984058,0.4046102085796696,84.72311674167194,1525.0,1435.0,1200.0,1528.0,1475.0,1019.7999999999998,94.0,292.35,1637081189.4460351,1637081190.569278,120205a1-8aef-42d6-a339-8c5c4f3a9f4a
0.1473618825592423,0.3825263020009424,0.0370311736709619,-0.0842392550738221,-0.1686012957560497,-0.1579902970176808,-0.3387717436915727,-0.3646089363254795,-13.78328066289832,21.98706129408272,18.43130857463105,-0.0214034761441376,1.3819967763227163,0.7143822363772937,4205.344401041667,12.024222222222225,0.1444444444444445,179.17042389274494,0.3789720025970343,83.49256254004575,1610.0,1435.0,1200.0,1528.0,1542.0,1019.7999999999998,94.0,292.35,1637081192.613198,1637081193.7526748,f56545dc-188e-454f-8895-3f1379dba2a7
0.1102825599915793,0.3745844900775757,0.0307197994364228,-0.0792690476178089,-0.1736240981475744,-0.1566622785737498,-0.3455433233824063,-0.3636753787733104,-13.836579355394628,22.12566869092167,18.11294379678024,-0.0291038092050406,1.3543993513645012,0.7380072928978495,4202.824435763889,12.018666666666666,0.16,179.1835697301675,0.3622024681930677,83.09261777755603,1610.0,1435.0,1200.0,1528.0,1542.0,1019.7999999999998,94.0,292.35,1637081193.8611572,1637081194.867838,f56545dc-188e-454f-8895-3f1379dba2a7
0.1323592205166843,0.3756758317858126,0.0340069735170935,-0.0765604160793,-0.1703500724969896,-0.1576878769919918,-0.3422955948670362,-0.3651085869343173,-13.791347207299696,22.10923849933883,18.49861626002922,-0.037379466193102,1.354628819109676,0.7251812322687233,4203.740234375,12.017,0.16,179.20260774411403,0.3573076593704505,82.7680547772961,1610.0,1435.0,1200.0,1528.0,1542.0,1019.7999999999998,94.0,292.35,1637081194.9758532,1637081196.210108,f56545dc-188e-454f-8895-3f1379dba2a7
0.280650210485542,0.6903372529956093,0.0468795471990452,-0.2286776948061544,-0.2327537910604201,-0.322914413474273,-0.4012806570960265,-0.4272098914902124,-13.502740753534,21.57029610088461,18.75390726252281,-0.0682720172557794,2.5500309432862784,0.9141361512714477,4201.6796875,12.017666666666669,0.1644444444444444,179.1104244754359,0.3542666510446347,82.13406902943642,1695.0,1435.0,1200.0,1528.0,1609.0,1019.7999999999998,94.0,292.35,1637081198.143318,1637081199.2805984,63d085bc-0aa8-4baf-9554-5cb0bd1d0368
0.3024770449095303,0.6843151507010218,0.044105172283619,-0.2266659440237942,-0.2344105269801064,-0.3180888411654854,-0.4035553819990254,-0.4354672745692592,-13.587342739473844,21.65981564064628,18.84431018336757,-0.0615392140804354,2.526819899562576,0.9227337523560186,4202.137586805556,12.011555555555557,0.1777777777777777,179.1255267826007,0.3527930495891717,81.86573138751413,1695.0,1435.0,1200.0,1528.0,1609.0,1019.7999999999998,94.0,292.35,1637081199.3893642,1637081200.5145178,63d085bc-0aa8-4baf-9554-5cb0bd1d0368
0.2834099193787316,0.6905137489392016,0.0467713233001486,-0.2304638947854395,-0.2337257832867909,-0.3218347030164198,-0.4013969725275892,-0.4275047257920793,-13.470496537739912,21.619517002285736,18.696564178182754,-0.0614885415875226,2.5511868174456755,0.9157003343789036,4200.993489583333,12.008666666666668,0.1733333333333333,179.14369508579296,0.3480281892658026,81.64391719966845,1695.0,1435.0,1200.0,1528.0,1609.0,1019.7999999999998,94.0,292.35,1637081200.6234734,1637081201.7393272,63d085bc-0aa8-4baf-9554-5cb0bd1d0368
0.4606518029013698,0.9724268288098006,0.0588453664985601,-0.3688286571627426,-0.2905686158422255,-0.4688472705172905,-0.4562675052571708,-0.4868635174102115,-13.360133680746468,21.35749885312148,18.79035336838581,-0.08079364466936,3.624716546381891,1.0880033389604578,4198.478515625,12.004888888888887,0.2011111111111111,179.03684360641725,0.3499209135402957,81.33361487548558,1779.0,1435.0,1200.0,1528.0,1677.0,1019.7999999999998,94.0,292.35,1637081202.6490471,1637081203.8785546,916ba76b-94ae-4351-965f-2d32405c14b2
0.4511756394836625,0.976584345122243,0.061724425244609,-0.3708940142621128,-0.288832987685729,-0.4711396956718773,-0.4538754534353266,-0.4778981274205754,-13.313809859483149,21.33316230022597,18.79354014685612,-0.0812802363030408,3.640390041252085,1.0788409334291529,4195.966362847223,12.000222222222222,0.21,179.02654671678854,0.3473474470785247,81.1486495582121,1779.0,1435.0,1200.0,1528.0,1677.0,1019.7999999999998,94.0,292.35,1637081203.98689,1637081205.0149276,916ba76b-94ae-4351-965f-2d32405c14b2
0.4339639975588331,0.9672093253710844,0.060541042598683,-0.3633598099397958,-0.2871894004067721,-0.4697459335292823,-0.4538097099115479,-0.4759784173299402,-13.3409319321733,21.336608864886102,18.66796776491707,-0.0952133321172625,3.605530341925079,1.076855976002837,4195.738064236111,12.000888888888888,0.21,179.03364707788572,0.3464836238049787,81.02515366673902,1779.0,1435.0,1200.0,1528.0,1677.0,1019.7999999999998,94.0,292.35,1637081205.1242657,1637081206.136117,916ba76b-94ae-4351-965f-2d32405c14b2
0.4831532659496523,1.0125854730408133,0.0735056570170656,-0.4064349471893884,-0.2946578609505439,-0.4873257448231752,-0.4552955129817084,-0.4743874244879363,-13.295816798756196,21.98531453848472,16.887779555004034,-0.0328657221782626,3.797313293939765,1.0738389021510146,4206.261610243056,11.998555555555557,0.2166666666666666,178.99796313402192,0.3484324896256965,80.69896963491607,1864.0,1435.0,1200.0,1528.0,1744.0,1019.7999999999998,94.0,292.35,1637081208.178683,1637081209.2037127,4a6df038-2e09-471f-b9f5-e3e67c9ea432
0.4850466780394709,1.0178975459592443,0.0756225971074652,-0.4069477465057333,-0.2932903963326568,-0.4937554589649569,-0.454887903322936,-0.4840911647378316,-13.297510758479207,21.9411759871844,16.65693469846423,-0.0463822397504596,3.819491349391329,1.068840003669541,4205.802734375,11.984666666666667,0.25,179.000019779872,0.3426860653068779,80.47520125405782,1864.0,1435.0,1200.0,1528.0,1744.0,1019.7999999999998,94.0,292.35,1637081209.3123884,1637081210.44023,4a6df038-2e09-471f-b9f5-e3e67c9ea432
0.4829297381365754,1.0172664085901797,0.0713492708379829,-0.4120231442757119,-0.2977872511235261,-0.4909416371564392,-0.4581356320392084,-0.4855901164711899,-13.299155656857211,21.919350054743244,16.27618107229815,-0.0290293447407861,3.8208640663447113,1.0847638890321372,4193.45703125,11.987444444444444,0.24,178.9988313269564,0.3376304179801727,80.31758780877063,1864.0,1435.0,1200.0,1528.0,1744.0,1019.7999999999998,94.0,292.35,1637081210.5527823,1637081211.6608174,4a6df038-2e09-471f-b9f5-e3e67c9ea432
-0.1979886345309905,-0.2381973519406812,0.0036860796271728,0.2179835274666553,-0.0586650397053787,0.162732708015186,-0.2352783410295625,-0.2641265841426172,-14.123773257352454,23.5455638454601,17.380230065646074,0.0258955827408074,-0.9736662808598532,0.3879276461084245,4191.634114583333,11.991666666666667,0.2299999999999999,179.33540635323666,0.3330340356563306,80.06475621408407,1440.0,1435.0,1200.0,1528.0,1408.0,1019.7999999999998,94.0,292.35,1637081213.595197,1637081214.6407378,9c9b579c-aec8-443f-87a9-f25bcf0382ef
-0.2212850923608921,-0.2329166326366024,0.0072493763673519,0.2145689123481856,-0.0569516633817851,0.1585225967386452,-0.2329292756026311,-0.2527281802433983,-14.072486836557898,23.5495000815572,17.09290656530355,0.0243209731044321,-0.9510304515874224,0.3776302650517159,4198.70703125,12.023444444444443,0.15,179.34815755750716,0.338982970340853,80.28631464929086,1440.0,1435.0,1200.0,1528.0,1408.0,1019.7999999999998,94.0,292.35,1637081214.750435,1637081215.869845,9c9b579c-aec8-443f-87a9-f25bcf0382ef
-0.1920980180540842,-0.2289143713386197,0.0102341304641222,0.2135655657327795,-0.0552463785509446,0.1572497018492841,-0.2314126238813388,-0.2627985656734813,-14.100235570000098,23.60471825005861,17.354743003600095,0.0242663514455921,-0.9378301019962944,0.3698823740705811,4205.802734375,12.021,0.16,179.35106873591343,0.3625999087188733,80.48870453804695,1440.0,1435.0,1200.0,1528.0,1408.0,1019.7999999999998,94.0,292.35,1637081215.9779108,1637081217.0998192,9c9b579c-aec8-443f-87a9-f25bcf0382ef
-0.3762121572156394,-0.5335034724757178,0.0014588927358144,0.3622262336861857,0.004050703084734,0.3162184430324712,-0.1755301535379695,-0.2049250782100967,-14.338316903634375,24.647930385937755,17.157798964193343,0.0524756868400449,-2.0956357499155462,0.1850902256144041,4207.86767578125,12.017666666666669,0.16,179.43203379833477,0.3846308439693081,80.72515885692363,1355.0,1435.0,1200.0,1528.0,1341.0,1019.7999999999998,94.0,292.35,1637081218.213709,1637081219.2395313,32bdb8f6-8684-4a8c-ae13-45c8d37a971b
-0.3630179438211601,-0.5166604936927286,0.0048300162213927,0.3517057603051454,0.0036466335360291,0.307210575258863,-0.1745971017436463,-0.1997242627171722,-14.274840169110677,24.518062994658745,16.864109655757748,0.0552575052328948,-2.0288038465854883,0.1813461292030808,4204.656901041667,12.011888888888889,0.18,179.43446534567929,0.3777735593439942,80.71408787918895,1355.0,1435.0,1200.0,1528.0,1341.0,1019.7999999999998,94.0,292.35,1637081219.3482704,1637081220.3713446,32bdb8f6-8684-4a8c-ae13-45c8d37a971b
-0.3362224133468067,-0.5028189586118361,0.0060735794777576,0.3444122801646241,0.001003745549846,0.301274445003643,-0.1755680824723217,-0.2070996705825823,-14.157905455032914,24.48859074223516,16.994178501010687,0.0583166739372657,-1.9778937875394813,0.1865213933576123,4191.40625,12.012,0.19,179.4341374965991,0.3874688942911542,80.69841866632302,1355.0,1435.0,1200.0,1528.0,1341.0,1019.7999999999998,94.0,292.35,1637081220.479581,1637081221.6044588,32bdb8f6-8684-4a8c-ae13-45c8d37a971b
-0.5120715974780453,-0.7844337887360484,-0.0008502206580395,0.4775256244534855,0.0544926423262823,0.4532399846092634,-0.1234618181803189,-0.1506401752668259,-14.371957068082272,25.67142195401371,16.95722449023288,0.1069151736150878,-3.049086067526588,0.0153217251303353,4116.91943359375,12.008222222222225,0.1922222222222222,179.49640301889275,0.3977454652929182,80.70367411743439,1271.0,1435.0,1200.0,1528.0,1273.0,1019.7999999999998,94.0,292.35,1637081223.6303427,1637081224.6757548,d0d59378-b01d-48c6-bedd-e0cda9550867
-0.4948205035144745,-0.7827113087352804,0.0001885263647353,0.4774072862051637,0.0550974823466737,0.4520960481409535,-0.1227912346222672,-0.1474055958913535,-14.3541312906176,25.66903706568732,17.02551142996438,0.1046673090544618,-3.0432767316119897,0.012444356681402,4113.845865885417,12.002,0.21,179.50163797943662,0.4015928361471924,80.62156917233159,1271.0,1435.0,1200.0,1528.0,1273.0,1019.7999999999998,94.0,292.35,1637081224.7840965,1637081225.904751,d0d59378-b01d-48c6-bedd-e0cda9550867
-0.5094155601939498,-0.7883126559066413,-0.0006792876009952,0.4852965032527728,0.0556760249928721,0.4499396621469446,-0.1243822269594391,-0.153993093044461,-14.36688188903747,25.743093380481668,16.96123778362822,0.0824565340093418,-3.064650378098518,0.0143659673437569,4111.65380859375,12.00311111111111,0.2,179.51206995502898,0.4117950962323224,80.5610483839159,1271.0,1435.0,1200.0,1528.0,1273.0,1019.7999999999998,94.0,292.35,1637081226.014042,1637081227.133302,d0d59378-b01d-48c6-bedd-e0cda9550867
-0.5877555150810998,-0.9455316987054114,0.0024501021422123,0.5677388210737359,0.0899546758740913,0.5418621893117365,-0.0897091129511548,-0.1177815810850671,-14.374617567307173,26.742524649526366,19.05410593054721,0.1101599504136541,-3.682746740919199,-0.1017200708509375,4135.68017578125,11.99577777777778,0.2233333333333333,179.54824567251296,0.4197137993694367,80.3756322741572,1186.0,1435.0,1200.0,1528.0,1206.0,1019.7999999999998,94.0,292.35,1637081229.2729857,1637081230.411359,4d05c981-b848-4c51-a5ac-20c207093940
-0.5756981568605815,-0.9430991884761109,-0.0022045364039028,0.5594551432140282,0.0848003870139203,0.5468849907784481,-0.0950343352015309,-0.1270777099491546,-14.601381362183432,26.780334472230752,18.98496210258997,0.1400265106177952,-3.670680090193717,-0.0808228951328029,4134.79345703125,11.989222222222224,0.24,179.56199712004192,0.4160115492835826,80.19478707877305,1186.0,1435.0,1200.0,1528.0,1206.0,1019.7999999999998,94.0,292.35,1637081230.5195286,1637081231.6398804,4d05c981-b848-4c51-a5ac-20c207093940
-0.6067816846083501,-0.950146893786688,0.0007013255175415,0.5768114206161993,0.0892314975870243,0.5396400598532947,-0.0932855585211185,-0.1114176116711954,-14.420719163860328,26.88452611754256,19.26091860936188,0.0855649953034585,-3.702788694330551,-0.0935369230177143,4129.483072916667,11.987444444444444,0.24,179.5623158622032,0.4313955365328314,80.06389257460903,1186.0,1435.0,1200.0,1528.0,1206.0,1019.7999999999998,94.0,292.35,1637081231.7480917,1637081232.8689764,4d05c981-b848-4c51-a5ac-20c207093940
-0.0377323145283134,0.1085863782065288,0.0175974004622903,0.048325903759864,-0.1228175320010143,-0.0166681025891742,-0.2969194370100889,-0.3185753430139951,-14.029653203938672,22.5101748230029,17.799423719457803,-0.0005927884359646,0.3443549174209175,0.5856620770181787,4124.84423828125,11.987,0.24,179.2757317493682,0.4227218484751172,79.850573624271,1525.0,1435.0,1200.0,1528.0,1475.0,1019.7999999999998,94.0,292.35,1637081234.5755138,1637081235.5321696,2295226e-3981-4e33-82df-d3880e417f5c
-0.0082660854902617,0.1056673676869043,0.0171108986828021,0.0481812680929782,-0.1232382903190447,-0.0146957981162299,-0.2968536935319175,-0.3246105955482551,-14.015397443796193,22.55410772738596,17.652144076710275,0.004416216440039,0.334599001421855,0.5862344606444159,4131.471516927083,12.024333333333333,0.15,179.27245325856657,0.4341531839073385,80.15624963365603,1525.0,1435.0,1200.0,1528.0,1475.0,1019.7999999999998,94.0,292.35,1637081235.6405995,1637081236.760109,2295226e-3981-4e33-82df-d3880e417f5c
-0.0328415051016472,0.104979589742667,0.0213336531087951,0.0470115398482933,-0.1186873239638594,-0.0132069610793848,-0.292439776707584,-0.3087618626872035,-14.098251453056983,22.55217503330497,17.648590486900687,0.0105556322444341,0.3330490175717775,0.5678396856641653,4140.78564453125,12.024888888888889,0.1477777777777777,179.2651783481906,0.4429316519286873,80.44509681583605,1525.0,1435.0,1200.0,1528.0,1475.0,1019.7999999999998,94.0,292.35,1637081236.868925,1637081237.9898384,2295226e-3981-4e33-82df-d3880e417f5c
-0.0021782390000306,0.1023801936758916,0.0006881768340435,-0.2258770221707402,-0.1660898945496985,0.255273228171629,-0.2373163891752154,-0.2566712724247371,-14.04785809858725,21.93862996926932,19.869206563098256,1.224720277923779,0.335540970319575,0.5827735938173175,4146.79541015625,12.024777777777778,0.15,179.26762355591347,0.5246652677497117,80.8940739885575,1525.0,1535.0,1200.0,1528.0,1475.0,1019.7999999999998,94.0,292.35,1637081239.103617,1637081240.1367188,ea7aecff-4cb7-4e9b-bc5d-6c2c39fdb1f4
-0.0154068391407785,0.1019958471773225,-0.0026500749123854,-0.2282008016426204,-0.1696511686446473,0.2558355877581447,-0.2403633470282966,-0.2591508133939075,-14.033226600355992,21.937653640196853,19.56695316948966,1.231012341492992,0.3367492063965352,0.596030251249691,4145.459309895833,12.020666666666669,0.15,179.2771888563911,0.5153505616952049,81.00797877661607,1525.0,1535.0,1200.0,1528.0,1475.0,1019.7999999999998,94.0,292.35,1637081240.2495525,1637081241.2660675,ea7aecff-4cb7-4e9b-bc5d-6c2c39fdb1f4
-0.0226244621208316,0.102275004113225,0.001108935125717,-0.2274154197991734,-0.1657348797131808,0.2573112759790941,-0.2351731514392692,-0.2589196998333778,-13.949976502586033,21.869348091780445,19.95302798019334,1.232394597350289,0.3339256650582903,0.5788538885163862,4146.349772135417,12.023888888888887,0.15,179.2698107342677,0.5104464087943482,81.16103041444761,1525.0,1535.0,1200.0,1528.0,1475.0,1019.7999999999998,94.0,292.35,1637081241.374848,1637081242.4942658,ea7aecff-4cb7-4e9b-bc5d-6c2c39fdb1f4
0.0007802176623751,0.0997504544644625,-0.0183642844199733,-0.5187511370252398,-0.2179089113605374,0.542151460604537,-0.1778579786942049,-0.2083498082201077,-13.852501796014373,21.63596501376909,22.1031192163822,2.5275255674082246,0.3393421687934969,0.5951928895995855,4151.259114583333,12.024111111111113,0.151111111111111,179.27372215593238,0.599448671020113,81.40113053652126,1525.0,1636.0,1200.0,1528.0,1475.0,1019.7999999999998,94.0,292.35,1637081244.076443,1637081245.0323217,9a180397-21e2-4d50-a750-940496277331
0.0111282418054753,0.0939124334077542,-0.0200473175858999,-0.5192113414981436,-0.2197891751279269,0.549067674180545,-0.1763195811071171,-0.2069954923795702,-13.649780977935285,21.66277701249023,22.210865945216973,2.5443184874334346,0.3150066960954943,0.5974299803143371,4165.613552517361,12.017444444444443,0.16,179.28480831186525,0.5958621635886706,81.40276446955271,1525.0,1636.0,1200.0,1528.0,1475.0,1019.7999999999998,94.0,292.35,1637081245.1406603,1637081246.3856633,9a180397-21e2-4d50-a750-940496277331
-0.0159449242692569,0.0960162247840707,-0.0171414556444406,-0.5210521594428851,-0.2158445658391473,0.5481998603137042,-0.1748074808997903,-0.1917430033376489,-13.914045805417429,21.62297597212012,22.15849592374816,2.546260302433961,0.3256419337571302,0.5859394452098631,4185.26708984375,12.018111111111113,0.16,179.27528247470278,0.6016396142789532,81.42329753601759,1525.0,1636.0,1200.0,1528.0,1475.0,1019.7999999999998,94.0,292.35,1637081246.494466,1637081247.6141176,9a180397-21e2-4d50-a750-940496277331
