raw_voltage_G-,raw_voltage_G0,raw_voltage_G1,raw_voltage_G2,raw_voltage_G3,raw_voltage_G4,raw_voltage_G5,raw_voltage_G6,load_x,load_y,load_z,load_l,load_m,load_n,rpm,voltage,current,roll,pitch,yaw,aileron1_pwm,elevator_pwm,throttle_pwm,rudder_pwm,aileron2_pwm,pbaro,pdiff,Tt,sample_start_time,sample_end_time,uid
-0.0375745301987646,0.0699423603749739,0.02969420112483,0.0878508845041879,-0.1096030914522989,-0.0924834880100714,-0.3077013695161649,-0.3358921790260081,-14.222096411860193,23.687134560944813,6.811506482969373,-0.2535626157381703,0.2940845161511886,0.5460809487823832,3492.3055419921875,12.048875,0.02,179.1849175541637,5.30976611560117,76.86515087202449,1525.0,1435.0,1000.0,1528.0,1475.0,1019.7999999999998,94.0,292.35,1637082559.605621,1637082560.706669,89ebfeaf-901d-41b2-affb-ef4d26527786
-0.0462789673905176,0.0742156866321684,0.0283135880085159,0.0879166279885695,-0.1108916637614387,-0.0958627031032385,-0.3112120719484748,-0.3361945987925495,-14.364054469693889,23.675953858847297,6.916958752741055,-0.2615019763562123,0.3100864036485453,0.555288145306157,3481.020914713541,12.049333333333331,0.02,179.22533861367182,5.325938189286761,76.65925652704176,1525.0,1435.0,1000.0,1528.0,1475.0,1019.7999999999998,94.0,292.35,1637082560.815482,1637082561.9368002,89ebfeaf-901d-41b2-affb-ef4d26527786
-0.0588228240535903,0.0743340248945067,0.033296943916741,0.0853394835246918,-0.1073415155701278,-0.0934959377020989,-0.3043221540854899,-0.3228092240968332,-14.166791470984467,23.668440559443592,6.977250136941929,-0.2500628927284294,0.309232796468092,0.5340678698269536,3478.6630859375,12.048666666666666,0.02,179.23740831684515,5.3354817659683,76.47194997270277,1525.0,1435.0,1000.0,1528.0,1475.0,1019.7999999999998,94.0,292.35,1637082562.0455253,1637082563.167079,89ebfeaf-901d-41b2-affb-ef4d26527786
0.1218665611640954,0.3522054107340643,0.0379384337229883,-0.0461474804146988,-0.1661161919352896,-0.23909146337273,-0.3642407727113436,-0.394587969412595,-14.22474228957794,23.097617683197186,7.566117024974919,-0.2841213437694244,1.363083911554864,0.7265994592629526,3475.685791015625,12.04211111111111,0.01,179.20530339210646,5.352073101804039,75.94967424544839,1610.0,1435.0,1000.0,1528.0,1542.0,1019.7999999999998,94.0,292.35,1637082565.190818,1637082566.44331,79a1c716-8901-4936-a959-7562690a8ca5
0.1026037215101526,0.3584247436016602,0.0425536261212594,-0.0497765207151111,-0.1629868019736744,-0.2416817568503741,-0.3604407988152994,-0.3842530922021114,-14.210737884490907,23.060971811034825,7.621850208979482,-0.2817530437696989,1.3865558792259025,0.7114599092434767,3478.506293402778,12.041111111111112,0.01,179.2326681655612,5.360954814182255,75.83778436319497,1610.0,1435.0,1000.0,1528.0,1542.0,1019.7999999999998,94.0,292.35,1637082566.5510452,1637082567.504924,79a1c716-8901-4936-a959-7562690a8ca5
0.1113344556501051,0.3530469272302917,0.0384906789582147,-0.0483038666978421,-0.1655376492606668,-0.2372769431057676,-0.3637542708899457,-0.3891707054994882,-14.307420074999577,23.095618461426447,7.663405124365453,-0.2751914598763814,1.366263493927998,0.7245291516744048,3478.036187065972,12.042,0.01,179.258698775398,5.373521366185825,75.75951570767597,1610.0,1435.0,1000.0,1528.0,1542.0,1019.7999999999998,94.0,292.35,1637082567.6132042,1637082568.694091,79a1c716-8901-4936-a959-7562690a8ca5
0.2665679576140387,0.6551250478811365,0.0477999559344389,-0.202748463052605,-0.2293614270424177,-0.3857257464048684,-0.4220556014564005,-0.4409239847409336,-14.13107451048079,22.63300223730216,8.234802730925367,-0.2628099189113967,2.5125254435916786,0.9180949413851158,3477.0952962239585,12.035,0.01,179.25630213790922,5.431662450290043,75.56841005033864,1695.0,1435.0,1000.0,1528.0,1609.0,1019.7999999999998,94.0,292.35,1637082570.6280775,1637082571.7619638,5a681096-f4c3-4a68-a4db-fd9ea9b2e12b
0.2732211975410403,0.6467756265793559,0.0366761588682041,-0.2014467419873969,-0.2373689839722866,-0.3782309881254215,-0.4302472409781341,-0.4529550445345215,-14.198089946365116,22.55188799912932,8.23462041307152,-0.2500299299804306,2.4808191371762405,0.9548149334528094,3473.651123046875,12.034333333333333,0.01,179.27971602638402,5.469346785806987,75.4770342618024,1695.0,1435.0,1000.0,1528.0,1609.0,1019.7999999999998,94.0,292.35,1637082571.8703225,1637082572.995144,5a681096-f4c3-4a68-a4db-fd9ea9b2e12b
0.2806107643950544,0.6546385461675951,0.050298208215289,-0.2020515820769278,-0.2261005500213731,-0.3856468542136261,-0.4191760363901436,-0.4449474868997415,-14.171691545563776,22.584618244572752,8.29094867193385,-0.264412473010383,2.51056237805427,0.9061661147217918,3470.213134765625,12.033666666666669,0.01,179.31118953807945,5.491168291567794,75.43440097991308,1695.0,1435.0,1000.0,1528.0,1609.0,1019.7999999999998,94.0,292.35,1637082573.1038249,1637082574.2232826,5a681096-f4c3-4a68-a4db-fd9ea9b2e12b
0.4090735176226862,0.918401368635547,0.0493646507944793,-0.3303434280381511,-0.2899900730937181,-0.5226300034013647,-0.4840911646447939,-0.502565087584978,-14.260049666468944,22.33573037696816,8.51301543705274,-0.2845423978867356,3.514222602338183,1.118027824001331,3465.0704752604165,12.024555555555557,0.01,179.29381505465074,5.52424789378742,75.24567602295646,1779.0,1435.0,1000.0,1528.0,1677.0,1019.7999999999998,94.0,292.35,1637082576.1586723,1637082577.387883,0c3529fb-8808-47dc-a71b-31bac6d6ab10
0.4310318385516332,0.9178096773564276,0.0484442420542071,-0.3289891121047153,-0.2915547681715508,-0.5226300034020713,-0.4846828561069186,-0.5092314783200724,-14.137470403229004,22.37056538186529,8.600936589668526,-0.2873365891598094,3.510132067940756,1.1223917670499308,3460.716851128472,12.026000000000002,0.01,179.29409585131663,5.528958495016874,75.15256991983048,1779.0,1435.0,1000.0,1528.0,1677.0,1019.7999999999998,94.0,292.35,1637082577.496497,1637082578.52796,0c3529fb-8808-47dc-a71b-31bac6d6ab10
0.4193163511686155,0.920597200733605,0.0526255274572218,-0.3244002163457236,-0.2874918204670725,-0.5304008850153172,-0.4823029415139085,-0.5124134637180418,-14.100515165593167,22.35184752327984,8.51057050989008,-0.3150619076748795,3.520826090070443,1.108053440782489,3457.614501953125,12.023999999999996,0.01,179.29365416575033,5.524693705926371,75.07864602353352,1779.0,1435.0,1000.0,1528.0,1677.0,1019.7999999999998,94.0,292.35,1637082578.637066,1637082579.7528312,0c3529fb-8808-47dc-a71b-31bac6d6ab10
0.4900431821529436,1.0095218271469022,0.0716122447389236,-0.3668836613677269,-0.2955256750527536,-0.574396435667431,-0.4883907894756123,-0.5117560287120154,-14.015263007777046,22.808832596061496,9.1246130096336,-0.3139779241937628,3.854743896037362,1.1129081605433029,3462.8918185763887,12.015,0.0,179.29688863977725,5.540072019138262,74.93218931280057,1864.0,1435.0,1000.0,1528.0,1744.0,1019.7999999999998,94.0,292.35,1637082580.6637218,1637082581.623629,2269e267-2f76-4350-8383-86a70a4d8ee2
0.4445092510371033,1.0011461081748383,0.0587265224637769,-0.3622027246526133,-0.3053083065128215,-0.5686767510502543,-0.5000799834580146,-0.5142148357046026,-14.13715448563617,22.815503084817777,9.28966962980904,-0.3123165250983007,3.821336586298995,1.159612436210696,3460.2516276041665,12.013,0.0,179.26609814699884,5.537604186413772,74.76236956055664,1864.0,1435.0,1000.0,1528.0,1744.0,1019.7999999999998,94.0,292.35,1637082581.7324278,1637082582.8266032,2269e267-2f76-4350-8383-86a70a4d8ee2
0.4602613877359648,1.009916287998424,0.0652088297380931,-0.3702497282245106,-0.3019553884191727,-0.5698995801805777,-0.4948468008959832,-0.5170944013105242,-14.12090576686782,22.84131133203313,9.32872661451131,-0.2964040501836715,3.8551710671387216,1.13980509842469,3455.3501892089844,12.015,0.0,179.2610143992541,5.54850198446489,74.66698084615554,1864.0,1435.0,1000.0,1528.0,1744.0,1019.7999999999998,94.0,292.35,1637082582.9353456,1637082584.0547247,2269e267-2f76-4350-8383-86a70a4d8ee2
-0.2081262803583097,-0.2399461287303554,0.0220942546234298,0.224058224862473,-0.0482118257898205,0.0861941487866822,-0.2404720766355929,-0.2604317999849432,-14.186520051323514,24.4113522147442,7.098283861008703,-0.154814375354864,-0.8882187828179792,0.3409330617073957,3452.04443359375,12.044444444444446,0.02,179.59373928584472,5.548418178280933,74.46046229777365,1440.0,1435.0,1000.0,1528.0,1408.0,1019.7999999999998,94.0,292.35,1637082586.193488,1637082587.3310287,9c78aa33-2d65-45be-ba9e-f0127c644e6c
-0.2192237811475492,-0.2383288388971599,0.0182022404785016,0.2260173804938669,-0.052261624399557,0.0817367407985367,-0.2472173586242569,-0.2736330929392515,-14.299978044445384,24.4974490293702,6.9050945229163725,-0.1689610988712475,-0.8801241894156593,0.3611838359683831,3453.28076171875,12.049,0.01,179.633023498311,5.552369917034479,74.68297771837415,1440.0,1435.0,1000.0,1528.0,1408.0,1019.7999999999998,94.0,292.35,1637082587.439927,1637082588.5607746,9c78aa33-2d65-45be-ba9e-f0127c644e6c
-0.2096219447251777,-0.2386175623833891,0.0227401843362289,0.2338041476224043,-0.0470026935525034,0.074650141459818,-0.2435072343740431,-0.2664215798664038,-14.206892492804188,24.460792762588337,6.908485153948194,-0.2024203148084206,-0.8825676236848125,0.3426711017257617,3457.614501953125,12.048333333333334,0.0144444444444444,179.63810667687332,5.55575669479355,74.8882233851132,1440.0,1435.0,1000.0,1528.0,1408.0,1019.7999999999998,94.0,292.35,1637082588.669694,1637082589.7458744,9c78aa33-2d65-45be-ba9e-f0127c644e6c
-0.368645586759609,-0.5148065269958008,0.0231067042386422,0.357990836652527,0.0118382714193173,0.2295280822382456,-0.1805271642906259,-0.2066010314557346,-14.167454966678026,25.45334076613658,6.943605743126444,-0.1279002256313822,-1.9342845356116067,0.1396975141107964,3456.22021484375,12.035,0.01,179.74720604739582,5.5668568905596825,75.08214535711829,1355.0,1435.0,1000.0,1528.0,1341.0,1019.7999999999998,94.0,292.35,1637082590.5868404,1637082591.632238,dee7eda4-7c48-4337-8188-81d0eb2f7564
-0.3560885796089998,-0.5196058024283825,0.0213973737040148,0.3632503147561678,0.0115358514043568,0.2288180526824823,-0.1827229967584933,-0.2045103885301398,-14.223913172511534,25.50673685498517,6.847350957292539,-0.1411347581870278,-1.9517870465853249,0.1448340708996147,3456.22021484375,12.032666666666668,0.01,179.74779951494372,5.561158473221514,75.1095397280594,1355.0,1435.0,1000.0,1528.0,1341.0,1019.7999999999998,94.0,292.35,1637082591.7406514,1637082592.863888,dee7eda4-7c48-4337-8188-81d0eb2f7564
-0.3686455867730354,-0.5153061775871065,0.0233959755543581,0.3658274590318101,0.0129427619184346,0.2222437048628158,-0.1826704019672868,-0.2097567188781424,-14.20149678080264,25.497745732207783,6.856890556854467,-0.1616688833432244,-1.9360947996255644,0.1406942827208696,3458.69970703125,12.032222222222224,0.01,179.72699779437147,5.556536474723793,75.135802564328,1355.0,1435.0,1000.0,1528.0,1341.0,1019.7999999999998,94.0,292.35,1637082592.9738405,1637082593.9784634,dee7eda4-7c48-4337-8188-81d0eb2f7564
-0.5133733187589233,-0.7805023267620307,0.0271959488101963,0.4986555774255718,0.0720330030597888,0.3652620651117023,-0.1235012642567958,-0.1507848109197052,-14.18621445306514,26.747220814789628,7.863468506008044,-0.1312749421029294,-2.9558629325678254,-0.0592193315569947,3460.0959201388887,12.027555555555557,0.01,179.76852382670532,5.548782217877321,75.19043117621969,1271.0,1435.0,1000.0,1528.0,1273.0,1019.7999999999998,94.0,292.35,1637082596.1165905,1637082597.3667538,cad5daa9-fd9b-43e9-8b42-9da0c3605f89
-0.4967139162648595,-0.7712587891813988,0.0297862419866479,0.4931068281074734,0.0724800587304036,0.3610676313318988,-0.1217919336522676,-0.141449235902969,-14.115600057853152,26.66550146501666,7.8455420211410045,-0.128563836079234,-2.9206889612891302,-0.064665360037007,3458.69970703125,12.025,0.01,179.75008231594632,5.535945256787236,75.10786633171274,1271.0,1435.0,1000.0,1528.0,1273.0,1019.7999999999998,94.0,292.35,1637082597.4760563,1637082598.4831,cad5daa9-fd9b-43e9-8b42-9da0c3605f89
-0.486037172209968,-0.7746906004177816,0.0272353948981353,0.4914369438486771,0.0705734977869427,0.3655644851294376,-0.1240798069286984,-0.154571635770431,-14.242208735298023,26.724748949225503,7.769571929880078,-0.1145020534817916,-2.931946020662884,-0.0559839227648396,3458.69970703125,12.024777777777778,0.01,179.73471135467415,5.539204442818063,75.08310310142191,1271.0,1435.0,1000.0,1528.0,1273.0,1019.7999999999998,94.0,292.35,1637082598.5910864,1637082599.7131329,cad5daa9-fd9b-43e9-8b42-9da0c3605f89
-0.579379792935035,-0.9344867874005244,0.0422249086862327,0.5907227399089224,0.1153185105412629,0.44503519883439,-0.0803866868689852,-0.1046197353922552,-13.915429940959667,27.93438059163872,10.01422098335661,-0.1505977052599298,-3.564739441818565,-0.2151371575519201,3460.40625,12.013333333333334,0.0,179.7399356904793,5.531173468446466,75.02945955459055,1186.0,1435.0,1000.0,1528.0,1206.0,1019.7999999999998,94.0,292.35,1637082601.6459634,1637082602.691721,bca64938-1817-4cdd-8346-d90e29040af6
-0.5676015918028093,-0.9362203934667084,0.035519073583036,0.5892308687433849,0.1103907838642655,0.449298410374378,-0.0864477303989395,-0.1172460245228503,-14.089603375658928,27.875845825030783,10.135910433707668,-0.1384426201844447,-3.571329717991416,-0.1908039847850516,3457.1500651041665,12.012666666666668,0.0,179.72451615897305,5.524374394582672,74.81917624388365,1186.0,1435.0,1000.0,1528.0,1206.0,1019.7999999999998,94.0,292.35,1637082602.8003738,1637082603.9271228,bca64938-1817-4cdd-8346-d90e29040af6
-0.5755140750356914,-0.9364722416857676,0.0331523082497157,0.5921427989753112,0.1074687390455667,0.4468497187886109,-0.0903008043064126,-0.1116805856331446,-14.063013801976735,27.97418878665553,10.108658981634369,-0.1499706395715332,-3.572727860877027,-0.1781770805762796,3451.3502502441406,12.01075,0.00125,179.70428855374604,5.523390153651103,74.6976962068531,1186.0,1435.0,1000.0,1528.0,1206.0,1019.7999999999998,94.0,292.35,1637082604.044448,1637082605.0334442,bca64938-1817-4cdd-8346-d90e29040af6
-0.0387973589832011,0.0846951974554613,0.0307329481404481,0.0759250171206935,-0.1118909647301154,-0.0921810679630047,-0.3075830312310601,-0.3244396625829864,-14.232126317079093,23.59287600344352,7.353582770246012,-0.226472969952956,0.3462157875927915,0.5500894496738727,3447.878662109375,12.047875,0.02,179.4440002897606,5.514153923624248,74.62501189502674,1525.0,1435.0,1000.0,1528.0,1475.0,1019.7999999999998,94.0,292.35,1637082605.5886142,1637082606.671071,b6dbd831-0dab-42f4-bc84-775b23b5cc01
-0.0500789407244308,0.0828543799973855,0.031337788161326,0.0782917824158973,-0.1109442585561959,-0.0918129044670511,-0.307214867692218,-0.3287261382435231,-14.250488065952789,23.63638123265489,7.462588488063642,-0.2306578483440164,0.3382231299215192,0.5473724113846653,3447.1085340711807,12.047,0.02,179.45854859269275,5.52037223575213,74.91705361359983,1525.0,1435.0,1000.0,1528.0,1475.0,1019.7999999999998,94.0,292.35,1637082606.7801964,1637082607.811715,b6dbd831-0dab-42f4-bc84-775b23b5cc01
-0.0399215725698988,0.082101069276682,0.0306704918281766,0.0773620600168539,-0.1107327836722174,-0.0905029655383466,-0.3072784197294259,-0.3324253053750062,-14.315191723193749,23.580872970668803,7.420398119304536,-0.2260575081557479,0.336300869777558,0.5479031822979618,3449.439666748047,12.047125,0.01125,179.4770259619449,5.526271052737821,75.20660421040063,1525.0,1435.0,1000.0,1528.0,1475.0,1019.7999999999998,94.0,292.35,1637082607.920087,1637082609.037875,b6dbd831-0dab-42f4-bc84-775b23b5cc01
-0.0324333898155624,0.0768454258612069,0.0136264941441004,-0.1821576027693344,-0.1544138513327309,0.1671375211028004,-0.2523847968643711,-0.2855063670990239,-14.21241008250682,23.1493531788236,9.490730602017036,0.9349803291141974,0.3283768521938379,0.5527319747363623,3435.5958658854165,12.048333333333334,0.0122222222222222,179.49752013427704,5.603882539708544,75.46710240783929,1525.0,1535.0,1000.0,1528.0,1475.0,1019.7999999999998,94.0,292.35,1637082609.589112,1637082610.6864665,1574e8fe-091d-4d7a-a42e-16eb6df40144
-0.0275552233825353,0.0809872651431145,0.0137448324123251,-0.182565212400573,-0.1546505278840194,0.1635479271525101,-0.2527003656127571,-0.2758157768299483,-14.170322744938202,23.070534733549703,9.503956504188162,0.9273401891188772,0.3435525138279803,0.5539203555575697,3424.160400390625,12.050333333333334,0.0188888888888888,179.49977865016257,5.612544927123413,75.58237854610122,1525.0,1535.0,1000.0,1528.0,1475.0,1019.7999999999998,94.0,292.35,1637082610.820366,1637082611.9082572,1574e8fe-091d-4d7a-a42e-16eb6df40144
-0.0446879750720555,0.0748862701362885,0.0094320599815938,-0.1768586777223275,-0.1566228324835475,0.1642579567243228,-0.2568027593544888,-0.2771963901574386,-14.253864769680206,23.07764093208787,9.47007980095761,0.9158480837511144,0.3205857286387941,0.5675291186997568,3413.3997938368057,12.048777777777778,0.0188888888888888,179.4893755131467,5.607922359443261,75.73521161787934,1525.0,1535.0,1000.0,1528.0,1475.0,1019.7999999999998,94.0,292.35,1637082612.0159428,1637082613.1369126,1574e8fe-091d-4d7a-a42e-16eb6df40144
-0.0317628062588402,0.0715859473969301,-0.0055706026906536,-0.4502595611685941,-0.2014072958701305,0.4345688375417888,-0.1989090433400393,-0.2267842822990645,-14.24153719416195,22.81787171141852,11.814508179596697,2.1379089817453143,0.3200476569504279,0.5671744422098264,3412.19189453125,12.04088888888889,0.01,179.48689235992848,5.655553584825861,76.01769685830246,1525.0,1636.0,1000.0,1528.0,1475.0,1019.7999999999998,94.0,292.35,1637082615.1631784,1637082616.2144785,158320ab-29d1-46ba-9b07-69cf7b10a866
-0.0302507061544878,0.0721644900241159,-0.0056231974821534,-0.4533100593905375,-0.202906247400087,0.435633881844419,-0.1978571475428986,-0.2162784728769935,-14.07572952274526,22.82635984900632,11.650132077505482,2.147294365990454,0.3228732502089377,0.5677139736550192,3413.552001953125,12.043,0.01,179.46202288225058,5.663965958857984,75.9830404784538,1525.0,1636.0,1000.0,1528.0,1475.0,1019.7999999999998,94.0,292.35,1637082616.3233137,1637082617.4369383,158320ab-29d1-46ba-9b07-69cf7b10a866
-0.0330250811333143,0.0736239952998604,-0.0048342756889908,-0.4541384274376131,-0.2026958682319119,0.4355155435913498,-0.1977651066553169,-0.2151345362392663,-14.102346597544951,22.86315665975787,11.731208622349673,2.149179778752987,0.3279697194271536,0.5664709681082746,3414.910888671875,12.044333333333334,0.0133333333333333,179.44384091867997,5.65810096079506,76.00767924751977,1525.0,1636.0,1000.0,1528.0,1475.0,1019.7999999999998,94.0,292.35,1637082617.544751,1637082618.7581854,158320ab-29d1-46ba-9b07-69cf7b10a866
-0.0158134373121993,0.0680752455172006,-0.0179566748259469,-0.7006634095545614,-0.24461391644183,0.681435586504547,-0.147458190487223,-0.1753597262027667,-14.147937240431384,22.9325234953601,13.787837867969172,3.258006234344641,0.318775148570496,0.5698331988504015,3417.634033203125,12.035999999999998,0.01,179.44286647835838,5.728316159236438,76.03356338774441,1525.0,1737.0,1000.0,1528.0,1475.0,1019.7999999999998,94.0,292.35,1637082620.6009395,1637082621.7381992,a58dfcea-889d-45c1-a623-99c15a3607f2
0.0014376525002085,0.080185194685134,-0.0107906352101539,-0.7099726901625927,-0.2409322810583541,0.6757947963640767,-0.1417385072004736,-0.1708628717068131,-14.07169609887774,22.868503382072863,13.50426590744725,3.266255680696743,0.3677678704706468,0.5479702867766091,3415.516031901041,12.036444444444443,0.01,179.42253072846952,5.723927478103489,75.9591689673046,1525.0,1737.0,1000.0,1528.0,1475.0,1019.7999999999998,94.0,292.35,1637082621.8466988,1637082622.927159,a58dfcea-889d-45c1-a623-99c15a3607f2
-0.0060571044603138,0.0751229466664721,-0.014800987659467,-0.7061201206657934,-0.243759251093054,0.6788847396814315,-0.1441841648955482,-0.1690352028168935,-13.997689786197004,22.86715021806177,13.71736137768706,3.264371305484421,0.3456403126403118,0.5605434787373272,3412.19189453125,12.037777777777778,0.01,179.41596919340685,5.718797721445593,75.8851706978367,1525.0,1737.0,1000.0,1528.0,1475.0,1019.7999999999998,94.0,292.35,1637082623.0363655,1637082624.086814,a58dfcea-889d-45c1-a623-99c15a3607f2
-0.0209545776471112,0.0767139388956359,-0.0146826494288865,-0.7139961934145503,-0.2502941539626043,0.6846964628674328,-0.1488388037639486,-0.1745576556762458,-14.032304578035887,23.49088445751327,13.709355138041657,3.2993195155909723,0.3529112481736178,0.5757421195504439,3409.477294921875,12.022444444444444,0.01,179.41366666074669,5.702352191175887,75.73482077927684,1525.0,1837.0,1000.0,1528.0,1475.0,1019.7999999999998,94.0,292.35,1637082626.1300075,1637082627.2669542,649e942a-100e-41a3-9454-f049071d48ee
-0.0209151315567317,0.0758329762531385,-0.0119345718868295,-0.7155740373008238,-0.2483875928217684,0.6865635775480388,-0.1457620086245515,-0.1633155197404032,-13.99522322046228,23.551749368120745,13.66704513627507,3.307626638925852,0.3500891544343957,0.5648395274823372,3408.121826171875,12.025,0.01,179.38859379521347,5.6945874044544444,75.52607691731785,1525.0,1837.0,1000.0,1528.0,1475.0,1019.7999999999998,94.0,292.35,1637082627.374931,1637082628.4975443,649e942a-100e-41a3-9454-f049071d48ee
0.0043698118427889,0.076556154546547,-0.0069775132469463,-0.7139698963500127,-0.243272749311109,0.6859981836811356,-0.1400686227054161,-0.164078144125868,-13.93263683559887,23.492308632474945,13.93861387947824,3.3026651570736187,0.3500673736805681,0.5435624981070439,3403.7610948350693,12.023111111111112,0.01,179.37400602896616,5.6753820983051,75.35802959916356,1525.0,1837.0,1000.0,1528.0,1475.0,1019.7999999999998,94.0,292.35,1637082628.6067836,1637082629.6118114,649e942a-100e-41a3-9454-f049071d48ee
-0.051196579980624,0.08420869570048,0.0572407198483217,0.4062333994623005,-0.0542602262810363,-0.4121414824140232,-0.3725770476499598,-0.3903146422996613,-14.24004349686241,24.521193183214404,4.882043272527017,-1.6834856537804397,0.3273805015414136,0.5269638048480023,3402.7099609375,12.044555555555556,0.02,179.37313631821183,5.380209402043736,75.2174567169456,1525.0,1334.0,1000.0,1528.0,1475.0,1019.7999999999998,94.0,292.35,1637082630.6356037,1637082631.6609075,82c7d5a4-da3f-4eea-99f9-5bd79d595bc9
-0.0572055343925771,0.0808426294883607,0.0533355570587825,0.4079821759267434,-0.0566927351859378,-0.4104715976646985,-0.3755749509620279,-0.4045809805443512,-14.2708254805879,24.481108388018825,4.853580946142952,-1.6841582209446602,0.3147622767666358,0.5394313326453719,3404.5126953125,12.047444444444444,0.02,179.39359197586612,5.386214324120909,75.49854025076905,1525.0,1334.0,1000.0,1528.0,1475.0,1019.7999999999998,94.0,292.35,1637082631.7688062,1637082633.0071404,82c7d5a4-da3f-4eea-99f9-5bd79d595bc9
-0.0428294573816779,0.0809958623610649,0.0567719182384875,0.4055663560405035,-0.0544230678463024,-0.4091850480591153,-0.371369895998865,-0.3978695812770401,-14.17298018319612,24.506613668621235,4.770216768251194,-1.675441524883877,0.3158990415116689,0.5256064618071246,3412.7961154513887,12.047444444444444,0.0177777777777777,179.40474491587082,5.380937908123336,75.74388140466581,1525.0,1334.0,1000.0,1528.0,1475.0,1019.7999999999998,94.0,292.35,1637082633.1156971,1637082634.2348578,82c7d5a4-da3f-4eea-99f9-5bd79d595bc9
-0.0538789140706676,0.0831436513078988,0.0750046083921802,0.7157010855931394,-0.0087525872553831,-0.7117346161457699,-0.4447239587541958,-0.4710871008986175,-14.453922200846987,25.703498007226404,2.4339664487508164,-3.046570441620289,0.309641052471588,0.5419854129490931,3416.271728515625,12.038666666666666,0.01,179.43956522025954,5.288436324170768,76.08501064930266,1525.0,1234.0,1000.0,1528.0,1475.0,1019.7999999999998,94.0,292.35,1637082635.1416256,1637082636.2809703,25d1bd91-6ec4-42b4-a9cc-b5dbf57f790a
-0.0721556026217401,0.0860758105406002,0.0742814301057637,0.7119274101351505,-0.0097913342767323,-0.70974916222478,-0.4453025015079817,-0.4691410935976386,-14.512777554039353,25.6642221424003,2.626301782683562,-3.033891715105282,0.3197684413219531,0.5457776534044945,3412.644856770833,12.038333333333334,0.01,179.4572963913449,5.288817818695034,76.16756031561142,1525.0,1234.0,1000.0,1528.0,1475.0,1019.7999999999998,94.0,292.35,1637082636.3890195,1637082637.3953435,25d1bd91-6ec4-42b4-a9cc-b5dbf57f790a
-0.0846205672341943,0.0841955469996271,0.0751886901417395,0.7157536803729359,-0.0088840742165054,-0.7103540024880831,-0.4447502561430636,-0.4696538926588327,-14.467309231169011,25.72886757260456,2.783797600797736,-3.043360288951668,0.3105861308074828,0.5425523937603705,3407.9712999131943,12.040888888888889,0.01,179.44729547658022,5.275190405504129,76.26488747564447,1525.0,1234.0,1000.0,1528.0,1475.0,1019.7999999999998,94.0,292.35,1637082637.503024,1637082638.624998,25d1bd91-6ec4-42b4-a9cc-b5dbf57f790a
-0.0899063433886518,0.0908487872165711,0.0933733368613795,0.8648467333381271,0.0156908394489823,-0.8606042232697071,-0.4771618000476031,-0.5014474480959632,-14.517854471173962,26.87019597532261,1.800614205409226,-3.709020686697016,0.3274271229842952,0.5306617714671068,3410.834228515625,12.032888888888888,0.01,179.43709724523944,5.2361697245033225,76.39862333850323,1525.0,1133.0,1000.0,1528.0,1475.0,1019.7999999999998,94.0,292.35,1637082639.6474807,1637082640.671976,9ee9bd43-0f56-4b1c-a36f-708c955eab74
-0.0647134402416838,0.0952536004085827,0.1009601344663691,0.876062570257802,0.0234617189960386,-0.8783681210286508,-0.4738877739575383,-0.49768692029536,-14.468453670033888,26.85234921398636,1.3990971369178111,-3.7740183905361984,0.3462565897350873,0.5051812885298709,3409.327338324653,12.035222222222224,0.01,179.45161974523472,5.226190154079764,76.43792045243795,1525.0,1133.0,1000.0,1528.0,1475.0,1019.7999999999998,94.0,292.35,1637082640.7806823,1637082642.014032,9ee9bd43-0f56-4b1c-a36f-708c955eab74
-0.0565875456147458,0.0916245602911613,0.0941491099293028,0.8664245767763721,0.0172818317251837,-0.8648512544122506,-0.4772801383468708,-0.5043533107503451,-14.58231930038537,26.816077513437527,1.5151687525144444,-3.722521642081877,0.3331769015039568,0.5272880439812441,3409.0259602864585,12.030333333333331,0.01,179.43847238999234,5.2277754220133765,76.50023833951523,1525.0,1133.0,1000.0,1528.0,1475.0,1019.7999999999998,94.0,292.35,1637082642.1219146,1637082643.2433755,9ee9bd43-0f56-4b1c-a36f-708c955eab74
-0.0839762810890326,0.0943463403898194,0.0955560204207899,0.8779954284272758,0.0144548620102005,-0.8784207157420109,-0.4841832055428136,-0.5089816532281874,-14.497217347982346,27.33521378966088,1.4521337124552087,-3.775570778111548,0.3420149543075599,0.5392375371877414,3407.670247395833,12.023,0.01,179.4203314075568,5.205189836271044,76.56557592911558,1525.0,1033.0,1000.0,1528.0,1475.0,1019.7999999999998,94.0,292.35,1637082645.1767476,1637082646.2082703,38d01c2a-bc51-41f8-8a5c-9dd47a7973c5
-0.0666068525698755,0.0980016778982105,0.099855644017925,0.8666218071600066,0.016847924732522,-0.8706761297185521,-0.4791604023653195,-0.497515986977634,-14.614097504103974,27.373780227224564,1.609335894657982,-3.7320755776496832,0.3568322259173356,0.5234325630701825,3401.359619140625,12.02533333333333,0.01,179.42308625052203,5.211487697572619,76.54705700954595,1525.0,1033.0,1000.0,1528.0,1475.0,1019.7999999999998,94.0,292.35,1637082646.316838,1637082647.5429962,38d01c2a-bc51-41f8-8a5c-9dd47a7973c5
-0.0586255936210763,0.0921505081402712,0.0930840655497418,0.8661353054303079,0.0122064349152337,-0.8657848120228187,-0.4829866739212345,-0.5095733445657527,-14.600055700470698,27.262113480398146,1.3865812088644742,-3.721092576833308,0.3363903895841948,0.5434618584570253,3397.315185546875,12.023111111111112,0.01,179.41599196070413,5.212271461779879,76.51555617709386,1525.0,1033.0,1000.0,1528.0,1475.0,1019.7999999999998,94.0,292.35,1637082647.6516209,1637082648.660154,38d01c2a-bc51-41f8-8a5c-9dd47a7973c5
-0.0414796931240425,0.080303532941771,0.0357557501255843,0.098238354405817,-0.1037387725977281,-0.1081830321855662,-0.307675072135305,-0.3307247404223245,-14.34184152781271,23.69061858803478,7.406346321716551,-0.3119137099145582,0.3276260979208562,0.5318921139642321,3387.91552734375,12.045,0.02,179.41128368363627,5.4016794376535024,76.39910145174514,1525.0,1435.0,1000.0,1528.0,1475.0,1019.7999999999998,94.0,292.35,1637082650.5941494,1637082651.639042,fe709502-ffd3-43c6-81ea-5203226c3bf8
-0.0555487985652606,0.0710205534552504,0.0282083984350839,0.1057199624758968,-0.1099975523635981,-0.1049353040310949,-0.3146044361011227,-0.3350112160625035,-14.275528499124498,23.83028655518217,7.496562493017108,-0.3208944765376922,0.2901431106124471,0.5596292591240549,3395.0743001302085,12.046333333333331,0.02,179.41865118102098,5.433552800006583,76.49987861621895,1525.0,1435.0,1000.0,1528.0,1475.0,1019.7999999999998,94.0,292.35,1637082651.7478278,1637082652.7560513,fe709502-ffd3-43c6-81ea-5203226c3bf8
-0.0226639082026418,0.0814257235796269,0.036871872162999,0.0968122266118405,-0.1038065389481307,-0.1084085829224351,-0.3055252599699852,-0.3363235575725313,-14.163394467995111,23.67080602987973,7.355795716693364,-0.309197554406017,0.3312660264479587,0.5275870498812295,3401.359619140625,12.046555555555551,0.02,179.41331300872966,5.439537658403067,76.56836947648611,1525.0,1435.0,1000.0,1528.0,1475.0,1019.7999999999998,94.0,292.35,1637082652.8640788,1637082653.9850304,fe709502-ffd3-43c6-81ea-5203226c3bf8
-0.0159975190569282,0.0991587631477035,0.138328728472645,0.0897311480502813,-0.0131836979927026,-0.1238299816953021,-0.2046681728938717,-0.2297032932001236,-13.611367230738413,23.78431761678972,7.481151670972485,-0.3217761031549439,0.400063147787805,0.1248594733556717,3417.634033203125,12.048333333333334,0.02,179.41335095422502,5.454548801515202,76.64719441296751,1525.0,1435.0,1000.0,1439.0,1475.0,1019.7999999999998,94.0,292.35,1637082655.099412,1637082656.1571395,f9e6ceb2-1c73-461a-a5b5-8eb03d698257
0.0098396695586231,0.104365646779017,0.1405903041824554,0.081421172098452,-0.0115532596096144,-0.1211739449122067,-0.2006052253321613,-0.2315046648281075,-13.602775251057992,23.619612230268896,7.522440978171533,-0.2980306978691487,0.4203290836070112,0.114460221536412,3418.0884602864585,12.046333333333331,0.02,179.41942526912692,5.442831185107221,76.66272170968067,1525.0,1435.0,1000.0,1439.0,1475.0,1019.7999999999998,94.0,292.35,1637082656.266257,1637082657.26888,f9e6ceb2-1c73-461a-a5b5-8eb03d698257
-0.0067145393372925,0.0972522022205662,0.137789631957965,0.089928378498195,-0.0131442518865545,-0.123264587704585,-0.2036031283618864,-0.2341607017523998,-13.522298712531304,23.709933334412383,7.32431970484305,-0.3214506018349727,0.393612257171736,0.1236668517948879,3420.058403862847,12.049,0.02,179.4030054943622,5.444350048423903,76.6877968519436,1525.0,1435.0,1000.0,1439.0,1475.0,1019.7999999999998,94.0,292.35,1637082657.401469,1637082658.4902089,f9e6ceb2-1c73-461a-a5b5-8eb03d698257
0.0329156317054843,0.1224451037859523,0.2628337281000026,0.0795540572568828,0.0977255552706167,-0.1454332911534336,-0.0777569474752398,-0.1082093295999514,-12.60373727583162,23.705705202476658,7.285059135514216,-0.3412102570667099,0.4911519268000948,-0.373422733768174,3425.829833984375,12.047999999999998,0.01,179.41553206130004,5.436417779772187,76.76655196871349,1525.0,1435.0,1000.0,1351.0,1475.0,1019.7999999999998,94.0,292.35,1637082660.086936,1637082661.0684211,b4df5383-2f4a-4533-b643-0d96dceee106
0.0534801927220768,0.1221558324742266,0.2615583046374412,0.076924318038839,0.0962134552272014,-0.1415281280464807,-0.0790718171541788,-0.1082487757256549,-12.691227093306514,23.75979627782933,7.445417471571821,-0.3262261961526589,0.4895088025267252,-0.3676678340886872,3421.72705078125,12.046,0.0133333333333333,179.4181457470224,5.437334448077047,76.78678526576478,1525.0,1435.0,1000.0,1351.0,1475.0,1019.7999999999998,94.0,292.35,1637082661.1810806,1637082662.2378006,b4df5383-2f4a-4533-b643-0d96dceee106
0.0220285111353166,0.1148320088126866,0.2553521203489217,0.0851028070061533,0.0921636568359614,-0.1413440463010817,-0.084147214151681,-0.1054481032833668,-12.607605343207952,23.75524036638745,7.478207454331263,-0.3445531155197514,0.4597570766685319,-0.3471737437918634,3420.968451605903,12.045,0.0144444444444444,179.40215096180606,5.439259612785605,76.78149262806794,1525.0,1435.0,1000.0,1351.0,1475.0,1019.7999999999998,94.0,292.35,1637082662.345355,1637082663.2836428,b4df5383-2f4a-4533-b643-0d96dceee106
0.0762405858305702,0.1431674485782206,0.3923089312526602,0.0812370903479201,0.2139994727063091,-0.1723092284431265,0.0496670708041878,0.0227385407132849,-11.75631686061778,23.88460141695792,7.553415139883863,-0.3972983143184693,0.5685009070152458,-0.8862857637887251,3417.179931640625,12.046333333333331,0.0133333333333333,179.39241414768924,5.433343625463251,76.7800256552162,1525.0,1435.0,1000.0,1262.0,1475.0,1019.7999999999998,94.0,292.35,1637082665.1369846,1637082666.38505,4d19e01a-dc01-4839-8b05-221662a0ff0d
0.0680883942077427,0.1408927241876086,0.3913622251946094,0.0830121643365969,0.2133420379208031,-0.1721251466420232,0.0488650003268616,0.0258153356726411,-11.73371693974582,23.91347950086549,7.487941499413677,-0.4007435539415802,0.5601115661048648,-0.8833059419182946,3416.120524088541,12.045222222222224,0.01,179.39150649143954,5.453792737519576,76.78313415019846,1525.0,1435.0,1000.0,1262.0,1475.0,1019.7999999999998,94.0,292.35,1637082666.4927728,1637082667.6139534,4d19e01a-dc01-4839-8b05-221662a0ff0d
0.0829069747622834,0.1354754614712115,0.3837096845701653,0.0846031565588887,0.207254191818972,-0.16878537753101,0.0415806225748398,0.0102867252199387,-11.830411238746152,23.95329322448461,7.35902038739683,-0.3970138751408282,0.5409402000404083,-0.8551187505723997,3412.6460774739585,12.04588888888889,0.01,179.37606267481624,5.451974673971753,76.78145923603199,1525.0,1435.0,1000.0,1262.0,1475.0,1019.7999999999998,94.0,292.35,1637082667.7222269,1637082668.8431857,4d19e01a-dc01-4839-8b05-221662a0ff0d
0.1139904922472527,0.1629693845447199,0.4993787556632799,0.0966079160839592,0.3090250952074966,-0.2127677706323799,0.1490580643025824,0.1326221944125536,-10.92907702856535,24.213291416078665,7.35888070301889,-0.5149911880229959,0.6435401126566438,-1.3004736070035705,3414.910888671875,12.039555555555555,0.01,179.37667283838206,5.428614383509186,76.73939285984378,1525.0,1435.0,1000.0,1182.888888888889,1475.0,1019.7999999999998,94.0,292.35,1637082670.57047,1637082671.7175024,902db00b-00d4-496c-80f8-31ad106d2ea5
0.1168043132071728,0.161733407135557,0.4954209984509998,0.0945172734150685,0.3050804865897732,-0.2089546483023406,0.1448504816114723,0.1158970529032857,-11.032623094213818,24.28315613735916,7.423347557079927,-0.5014823896309298,0.6390736384186012,-1.283893393058832,3412.644856770833,12.042333333333334,0.01,179.36319915187937,5.426177476363439,76.69531309567024,1525.0,1435.0,1000.0,1173.0,1475.0,1019.7999999999998,94.0,292.35,1637082671.8361845,1637082672.941826,902db00b-00d4-496c-80f8-31ad106d2ea5
0.1254956012526897,0.1646655663028101,0.4989974435131639,0.0948985856071574,0.3084597013224845,-0.2123075661841409,0.1472829903800248,0.1194997956939271,-11.0768837059147,24.263603107511223,7.4286433126043745,-0.5098499624845703,0.6505167958621553,-1.2964917916194163,3406.015869140625,12.04022222222222,0.01,179.3512417673724,5.43056345387984,76.66912083802306,1525.0,1435.0,1000.0,1173.0,1475.0,1019.7999999999998,94.0,292.35,1637082673.054986,1637082674.0551136,902db00b-00d4-496c-80f8-31ad106d2ea5
-0.0713798294893142,0.0583320616312901,-0.1050667909824642,0.1234049585761815,-0.2321883970462724,-0.1036730291198152,-0.4586747286536872,-0.4813299378159341,-15.286746170745142,24.08904935081851,7.158353367034025,-0.3634347731527385,0.2420862913372155,1.1101811305406866,3406.61669921875,12.048222222222222,0.0188888888888888,179.40117803930426,5.451901534029391,76.74537155209728,1525.0,1435.0,1000.0,1617.0,1475.0,1019.7999999999998,94.0,292.35,1637082676.1018083,1637082677.1268363,9160c7e2-137d-43d6-b1ee-525e66efa23d
-0.0768628360884819,0.055031738869566,-0.1080252478133273,0.1251405864542616,-0.2344762704531098,-0.1004647470492116,-0.4596214350067968,-0.4912572059265055,-15.171305725488487,24.051176111191925,7.366614592892455,-0.3604475560814623,0.2266433156840942,1.1186837942855377,3405.865966796875,12.047555555555554,0.02,179.39891193431964,5.446727713164975,76.72349066163618,1525.0,1435.0,1000.0,1617.0,1475.0,1019.7999999999998,94.0,292.35,1637082677.236799,1637082678.3554933,9160c7e2-137d-43d6-b1ee-525e66efa23d
-0.07638392008986,0.0540789641179658,-0.1026686709579614,0.1292920343137468,-0.2282134445995707,-0.1043375440803686,-0.4558755728684186,-0.486812945568373,-15.291402089462231,24.080080944621297,7.26220012778344,-0.3781336596970697,0.2246742029218633,1.097196683321435,3412.0410427517363,12.045333333333334,0.02,179.39475766148448,5.44298960755047,76.72891383183716,1525.0,1435.0,1000.0,1617.0,1475.0,1019.7999999999998,94.0,292.35,1637082678.4641826,1637082679.586837,9160c7e2-137d-43d6-b1ee-525e66efa23d
-0.120266684766314,0.031469275123034,-0.2458367453558723,0.1608392958048421,-0.3573377059744739,-0.1047512222701103,-0.6100557110125384,-0.6349199040322171,-16.260247378821315,24.4134627286027,7.040247350021515,-0.4556680013777059,0.1357439515885183,1.6841555322092945,3410.834228515625,12.043,0.01,179.42125575982448,5.440979065477286,76.7181464180656,1525.0,1435.0,1000.0,1706.0,1475.0,1019.7999999999998,94.0,292.35,1637082680.5872917,1637082681.5400174,5f6634ce-ee2f-402c-a589-27696c0f393a
-0.1266701002594762,0.0307723942215499,-0.247401440419396,0.1576704601162175,-0.3588629550359304,-0.1011747766901222,-0.6103712798464218,-0.6395613954409068,-16.25972042564808,24.384832146038868,7.029891918918436,-0.4407522260998703,0.1335087474069341,1.688700537261342,3407.2186686197915,12.044666666666666,0.02,179.40831482807704,5.4450931160873575,76.66254184803253,1525.0,1435.0,1000.0,1706.0,1475.0,1019.7999999999998,94.0,292.35,1637082681.6496732,1637082682.7760067,5f6634ce-ee2f-402c-a589-27696c0f393a
-0.1288527840242485,0.0334415795808274,-0.2414582289833511,0.1548960852785752,-0.354589627975851,-0.0997678661149228,-0.6042308366622691,-0.6285033383767638,-16.190576307429136,24.421932386073387,7.284061567386175,-0.4307152045510477,0.1414967131371686,1.6667264343141914,3407.2186686197915,12.043666666666669,0.01,179.40222229933735,5.44174390436872,76.6185781970749,1525.0,1435.0,1000.0,1706.0,1475.0,1019.7999999999998,94.0,292.35,1637082682.9093876,1637082683.9987469,5f6634ce-ee2f-402c-a589-27696c0f393a
-0.1752150905337178,0.0045933396884083,-0.3696974826586269,0.2092001987810578,-0.4665376508814896,-0.1150992468292907,-0.7472361106776698,-0.7726525518444192,-17.121824374043186,24.88124351700608,7.1501852100527445,-0.5914943764920292,0.0262680676769164,2.193573875876815,3337.351318359375,12.042,0.01,179.4338733959512,5.427195316845378,76.49929121995032,1525.0,1435.0,1000.0,1795.0,1475.0,1019.7999999999998,94.0,292.35,1637082686.137386,1637082687.2738912,e9b33fce-db5b-42bf-a2c6-8ffcbd220ce8
-0.1677597791214816,0.0064473058827806,-0.3674753526260134,0.2059656196366489,-0.4656566880622156,-0.1141130945904233,-0.7443433963100654,-0.7734020278284289,-17.021577677258392,24.882132185240284,7.144341823125282,-0.5818158741712046,0.0331029686140857,2.185483823555604,3319.259114583333,12.042333333333334,0.01,179.4425477361971,5.417501855457052,76.49909997465357,1525.0,1435.0,1000.0,1795.0,1475.0,1019.7999999999998,94.0,292.35,1637082687.382274,1637082688.4665754,e9b33fce-db5b-42bf-a2c6-8ffcbd220ce8
-0.1910461222409846,0.0094715060681807,-0.3668310663698605,0.2072673404897246,-0.4646442381786063,-0.1183206776603545,-0.7442250579797092,-0.7695889044107266,-17.017442423288546,24.79000419705888,7.141867176445628,-0.5947841977579935,0.0443172346114594,2.183472663349176,3304.470648871528,12.04322222222222,0.01,179.44204078437872,5.424543922786943,76.47944572586191,1525.0,1435.0,1000.0,1795.0,1475.0,1019.7999999999998,94.0,292.35,1637082688.5752015,1637082689.6200752,e9b33fce-db5b-42bf-a2c6-8ffcbd220ce8
-0.2238521227094014,-0.0069380671329548,-0.4654989037167495,0.2535113029627784,-0.5544761547980449,-0.1403447453130571,-0.8609592380488164,-0.8920296236663738,-17.737808051389262,25.49665184964937,6.944976794348658,-0.7492128140567174,-0.0223216885711761,2.6038751286593897,3294.0278591579863,12.037444444444445,0.01,179.47028437550662,5.434238996858823,76.48981395302198,1525.0,1435.0,1000.0,1883.0,1475.0,1019.7999999999998,94.0,292.35,1637082690.6431148,1637082691.7795756,6ec0261c-668b-4a86-8092-9dbdce0bb119
-0.2084287003891925,-0.0081871932962085,-0.463460855408456,0.2517362290473036,-0.5519647531582972,-0.1374783293922305,-0.8586976612609173,-0.8827334905606977,-17.85354604591647,25.50829015897153,6.963125179574627,-0.7386441965380308,-0.0260004063868134,2.5942295945336,3291.778727213541,12.03677777777778,0.01,179.46028042510227,5.431525182460473,76.37004355028618,1525.0,1435.0,1000.0,1883.0,1475.0,1019.7999999999998,94.0,292.35,1637082691.891569,1637082693.0105612,6ec0261c-668b-4a86-8092-9dbdce0bb119
-0.2200784465226907,-0.0057020896568443,-0.4654594577955482,0.2540109533904582,-0.5546733854778444,-0.1408312471143262,-0.8615246325103907,-0.883141100548568,-17.754305506919824,25.51536616849944,7.111120256297918,-0.7512889340588466,-0.0191004815630425,2.6052640434027303,3290.2344563802085,12.030333333333331,0.01,179.45038423990485,5.416957147870743,76.31516677485466,1525.0,1435.0,1000.0,1883.0,1475.0,1019.7999999999998,94.0,292.35,1637082693.1197271,1637082694.2347157,6ec0261c-668b-4a86-8092-9dbdce0bb119
-0.0594276641066792,0.0769900615106677,0.0223046337491419,0.1074950364197038,-0.113324172741778,-0.1128639683540452,-0.320587093838415,-0.3401523571362615,-14.341284919544892,23.494073573368933,7.391994826978356,-0.3452879091873943,0.3133260648673199,0.5814081419819895,4091.391710069444,12.032555555555554,0.18,179.30414837195505,5.4077459737288125,74.30863857617288,1525.0,1435.0,1200.0,1528.0,1475.0,1019.7999999999998,94.0,292.35,1637082699.197841,1637082700.2690609,1bc1aec0-a40b-4867-9b49-07d5aefb9dae
-0.0523010704915705,0.0751755414329141,0.0218312806955609,0.1099801399488933,-0.1143497710979135,-0.1134162136264197,-0.3212576774344798,-0.339416029908115,-14.246105541442862,23.57359936271221,7.380193761278488,-0.3515850167988048,0.3056168188743371,0.5842245550025837,4115.385796440973,12.032000000000002,0.18,179.26666277597022,5.39147532476098,73.63823805420824,1525.0,1435.0,1200.0,1528.0,1475.0,1019.7999999999998,94.0,292.35,1637082700.378211,1637082701.4069364,1bc1aec0-a40b-4867-9b49-07d5aefb9dae
-0.0424658453547191,0.0769111693256358,0.0248817782557972,0.1107953591226062,-0.1110888942287553,-0.1167954287633439,-0.3187988708500839,-0.3392582455718279,-14.266869174750882,23.5260502707895,7.270244146613635,-0.3612087918888902,0.3133401272263061,0.5721912215445606,4137.010525173611,12.032555555555556,0.18,179.21970446651648,5.329465839697466,72.95724998012018,1525.0,1435.0,1200.0,1528.0,1475.0,1019.7999999999998,94.0,292.35,1637082701.5155303,1637082702.5567086,1bc1aec0-a40b-4867-9b49-07d5aefb9dae
0.1073109546914432,0.3399376780038874,0.0218049832989421,-0.0170757122042023,-0.1745313582700624,-0.250636020064267,-0.3820046646347477,-0.4023325530527679,-14.289121893511538,22.980867334430773,7.892871388912633,-0.3771999013747421,1.310027990769569,0.7845791455462363,4147.241482204861,12.026,0.2077777777777777,179.10338482713135,5.24264996134211,72.1493281526768,1610.0,1435.0,1200.0,1528.0,1542.0,1019.7999999999998,94.0,292.35,1637082703.6379938,1637082704.6104152,ee57a248-9480-4ff9-9e84-9973042ca26d
0.1011705136198131,0.3503119986069637,0.0291419558696202,-0.0209019829254177,-0.1702580316194462,-0.2587882127795796,-0.3769555643196502,-0.3982827539319526,-14.185921745796229,22.966500328955973,7.725544851399791,-0.3865924704554742,1.3506265632754837,0.7626325881631922,4154.8359375,12.026444444444444,0.2044444444444444,179.1014966592808,5.20462691484695,71.77307655750793,1610.0,1435.0,1200.0,1528.0,1542.0,1019.7999999999998,94.0,292.35,1637082704.7192783,1637082705.7999327,ee57a248-9480-4ff9-9e84-9973042ca26d
0.0911117611422197,0.3497729020939154,0.0301807028847219,-0.022940030852255,-0.1683909165942953,-0.2553958486963344,-0.3750227056072039,-0.3927997463541242,-14.284401159055042,22.91417993317686,7.878419657011857,-0.3746923570651293,1.3482626021405943,0.7560067246567772,4153.493815104167,12.027,0.2,179.11723948640775,5.19771888997952,71.45161066858165,1610.0,1435.0,1200.0,1528.0,1542.0,1019.7999999999998,94.0,292.35,1637082705.9076307,1637082706.936632,ee57a248-9480-4ff9-9e84-9973042ca26d
0.277376185304432,0.6491423916727064,0.0418698939053236,-0.1695480019757969,-0.2296112523241064,-0.4103927054580075,-0.4332188469639644,-0.453165423663334,-14.091403721137038,22.57076332334445,8.175736015356946,-0.3938292886101419,2.485864894878197,0.9419498038478292,4148.802734375,12.017,0.23,179.03391573199306,5.149761143609099,70.87160011118307,1695.0,1435.0,1200.0,1528.0,1609.0,1019.7999999999998,94.0,292.35,1637082708.5876052,1637082709.6051023,066a2be7-21f2-42af-ae74-1d21461ebff8
0.270289038439708,0.6464600578999786,0.0362554005858357,-0.1673127234323196,-0.2339108764655965,-0.4094197017469394,-0.4390437206861889,-0.4661957848427902,-14.17929844928799,22.57972339818161,8.189353090385408,-0.3969473002934254,2.475674934257986,0.963401696715508,4148.58056640625,12.019333333333334,0.23,179.04996515872278,5.132840203714039,70.65896038521251,1695.0,1435.0,1200.0,1528.0,1609.0,1019.7999999999998,94.0,292.35,1637082709.721793,1637082710.828181,066a2be7-21f2-42af-ae74-1d21461ebff8
0.2583368742266435,0.6450925936238298,0.0388193963688233,-0.1687590801341497,-0.2310444603587386,-0.406605880192188,-0.4348624343640588,-0.4516533233069555,-14.147899558749216,22.52960772575173,8.23592854007531,-0.3875429643700054,2.47025085234642,0.9499793369188674,4154.8359375,12.021222222222224,0.23,179.05905082813868,5.138982630780126,70.44468293166096,1695.0,1435.0,1200.0,1528.0,1609.0,1019.7999999999998,94.0,292.35,1637082710.9364262,1637082712.0567102,066a2be7-21f2-42af-ae74-1d21461ebff8
0.4023423971238229,0.916292014502017,0.046392033992992,-0.2927305652732679,-0.2888870996291388,-0.5552241134744116,-0.495802104487363,-0.5182813238400955,-14.189687887319453,22.404174026787107,8.451700528478169,-0.442299769321831,3.501538435207654,1.137260618130143,4157.747395833333,12.009666666666668,0.25,178.99098875196944,5.125477449516241,70.14584014708558,1779.0,1435.0,1200.0,1528.0,1677.0,1019.7999999999998,94.0,292.35,1637082713.1711986,1637082714.196587,4834da2b-7182-4523-8472-2488a4898b26
0.4012105978942097,0.91895361383891,0.0498248551582731,-0.2981817120787358,-0.2859534228027454,-0.5529640541981414,-0.490704960505827,-0.50913943741052,-14.150343460642732,22.295836121388497,8.464066396534522,-0.4254501400208252,3.512019920468073,1.1216919611357072,4158.86767578125,12.012999999999998,0.25,179.00467796888597,5.1175108401912,69.96578725364515,1779.0,1435.0,1200.0,1528.0,1677.0,1019.7999999999998,94.0,292.35,1637082714.3051548,1637082715.4241683,4834da2b-7182-4523-8472-2488a4898b26
0.4286271444960221,0.912954268797781,0.0476057598036766,-0.2908594045059146,-0.2865102195824585,-0.5547942522496299,-0.4923379278934762,-0.5183824676586244,-14.07323801976863,22.29643201961381,8.311607970598342,-0.446172207015063,3.489282029324453,1.1269771365975,4152.320251464844,12.0135,0.25,179.0208751933202,5.121702032807599,69.81436025219867,1779.0,1435.0,1200.0,1528.0,1677.0,1019.7999999999998,94.0,292.35,1637082715.5431004,1637082716.6546977,4834da2b-7182-4523-8472-2488a4898b26
0.4728578376902158,1.007917686240718,0.0587659685569885,-0.3359579224751043,-0.3032439609055481,-0.6009568104010142,-0.5094418576081005,-0.5314527810901853,-14.169642465923262,22.81901399489331,9.043973649171926,-0.444086252845639,3.845912923670578,1.1707550529610584,4150.81201171875,11.996,0.31,179.00755120179682,5.118129683789125,69.59159533996598,1864.0,1435.0,1200.0,1528.0,1744.0,1019.7999999999998,94.0,292.35,1637082718.5874684,1637082719.6339777,8481b968-da13-4f93-860c-4971a2f620e3
0.4525036576637247,0.9917316422758616,0.0568857050013719,-0.3267669822642214,-0.3010218308791922,-0.5934357537711182,-0.5075747422471657,-0.5387108634681984,-14.154039654900796,22.82567564926695,9.06151125292486,-0.4479567577002733,3.783688862401291,1.16578804992088,4144.348795572917,11.997777777777776,0.301111111111111,178.9792787720924,5.127901882080381,69.35523740264763,1864.0,1435.0,1200.0,1528.0,1744.0,1019.7999999999998,94.0,292.35,1637082719.741764,1637082720.802415,8481b968-da13-4f93-860c-4971a2f620e3
0.4582496374223226,0.999200101294828,0.0553604562382097,-0.3267012388201245,-0.3037830575338289,-0.5999706580442886,-0.511966408005619,-0.5335302759073948,-14.184498663265124,22.82995604345696,9.158682086941836,-0.4628372759107522,3.810949768759796,1.1788990728795323,4141.008029513889,11.99877777777778,0.3,179.00523956221772,5.1364867658209175,69.20520243169949,1864.0,1435.0,1200.0,1528.0,1744.0,1019.7999999999998,94.0,292.35,1637082720.9108562,1637082721.9780777,8481b968-da13-4f93-860c-4971a2f620e3
-0.2244711229378727,-0.2388461896058788,0.0228887393160896,0.2647109572035993,-0.0421593795670961,0.0456966702084629,-0.2510340210258849,-0.2824012514497074,-14.30336113177193,24.41652269801332,6.77924255696929,-0.3375560572785847,-0.8853934825704972,0.3466001276396839,4136.124348958333,12.033,0.1866666666666666,179.3401495401603,5.133272640065865,68.91174790746932,1440.0,1435.0,1200.0,1528.0,1408.0,1019.7999999999998,94.0,292.35,1637082724.2305448,1637082725.256913,fe7d4e07-ec0a-4ef6-b35c-1dfe53184df7
-0.1969347158405744,-0.2369370998314015,0.0200693553657496,0.263446659584079,-0.0457246992592375,0.0447990188418006,-0.25368904656481,-0.279215220755835,-14.211531406392124,24.39593930402622,6.730758251586675,-0.3369595943180262,-0.8784768891372029,0.3593037415604362,4144.344943576389,12.03077777777778,0.1822222222222222,179.3764208802927,5.16049445386669,69.10985830325545,1440.0,1435.0,1200.0,1528.0,1408.0,1019.7999999999998,94.0,292.35,1637082725.3649273,1637082726.5936515,fe7d4e07-ec0a-4ef6-b35c-1dfe53184df7
-0.215709538842334,-0.2383657564122014,0.0242921097939198,0.2631938000240911,-0.042058235752437,0.0462403182370164,-0.2492134320846371,-0.2665595990060139,-14.184761283415227,24.456853662387854,6.736162721316329,-0.3325220023937728,-0.8837727263543512,0.342007743663287,4148.802734375,12.031555555555554,0.1822222222222222,179.4047221485736,5.163853246822913,69.32479297278715,1440.0,1435.0,1200.0,1528.0,1408.0,1019.7999999999998,94.0,292.35,1637082726.7023504,1637082727.7132752,fe7d4e07-ec0a-4ef6-b35c-1dfe53184df7
-0.3699159533518176,-0.5138057086721288,0.0241783229941475,0.3997885159335487,0.0178821203000757,0.1882083060706585,-0.1904867968666676,-0.2159371124603315,-14.193739883760063,25.454343556401096,6.646680041003691,-0.3150371595095056,-1.9327914122510503,0.1442352380947568,4165.689514160156,12.02025,0.22375,179.4964800482484,5.165806165103958,69.66692891141665,1355.0,1435.0,1200.0,1528.0,1341.0,1019.7999999999998,94.0,292.35,1637082729.7600586,1637082730.701641,935438d5-d431-451b-95b5-03029cc6e9f3
-0.3633729586617065,-0.5197635868309677,0.023238191200273,0.4038797830224914,0.0183863222293528,0.1893456682666802,-0.1912170553043161,-0.21559474094661,-14.245847457088246,25.506837601385296,6.507358221938156,-0.3214575122276658,-1.9540958989704933,0.1449302153674707,4166.955078125,12.022666666666668,0.2244444444444444,179.5053809231018,5.178850634692967,69.65572322717334,1355.0,1435.0,1200.0,1528.0,1341.0,1019.7999999999998,94.0,292.35,1637082730.8109426,1637082731.809386,935438d5-d431-451b-95b5-03029cc6e9f3
-0.360054429413599,-0.5155630829722491,0.0238243196223486,0.4043652733081458,0.0175534028820084,0.184895846189987,-0.1918775245021527,-0.2140533087175875,-14.146368676487793,25.522942488168216,6.522401477889857,-0.3323635841335428,-1.939201213668279,0.1468027850498466,4169.206868489583,12.018333333333334,0.22,179.4928255175875,5.170425596351757,69.65979326100877,1355.0,1435.0,1200.0,1528.0,1341.0,1019.7999999999998,94.0,292.35,1637082731.9177475,1637082733.1480064,935438d5-d431-451b-95b5-03029cc6e9f3
-0.4815271682535035,-0.7712719378848962,0.0316139107715355,0.5298311333673099,0.0790149607036119,0.3248166783550816,-0.1293261370887145,-0.1529017511621869,-14.145953666687046,26.64773201111428,7.476365625526271,-0.2929665211241554,-2.9216574253860315,-0.065544559853721,4171.01025390625,12.011,0.2566666666666666,179.55156666226944,5.177915041072284,69.6410550164758,1271.0,1435.0,1200.0,1528.0,1273.0,1019.7999999999998,94.0,292.35,1637082734.1532776,1637082735.4039614,9e192dbc-06b4-4e7e-8d9e-dd3812179f8e
-0.5043927569082055,-0.7755058199674175,0.0244347225752655,0.5352615444165366,0.0731111961453632,0.3246194479334282,-0.13688663793469,-0.1664712068109589,-14.156886513287825,26.69729837189552,7.512147998895832,-0.3056880947322349,-2.9388996971151187,-0.037395059549923,4175.07373046875,12.009777777777778,0.26,179.56217622278018,5.167744462511312,69.55479276289816,1271.0,1435.0,1200.0,1528.0,1273.0,1019.7999999999998,94.0,292.35,1637082735.5124795,1637082736.6321545,9e192dbc-06b4-4e7e-8d9e-dd3812179f8e
-0.4902771220659859,-0.7743649172003848,0.0246081842059438,0.5298594536399972,0.0725503536609702,0.3277994093296099,-0.1351611243109987,-0.1631021060470104,-14.099996747619866,26.646423155425413,7.423634660139086,-0.2866705970120202,-2.9335635316308672,-0.0392978752780135,4175.751953125,12.009666666666668,0.2566666666666666,179.5496906369774,5.173715328506372,69.5221459764853,1271.0,1435.0,1200.0,1528.0,1273.0,1019.7999999999998,94.0,292.35,1637082736.740487,1637082737.953975,9e192dbc-06b4-4e7e-8d9e-dd3812179f8e
-0.5837188640242796,-0.9494237150701752,0.0334021334686477,0.6376109861864832,0.1160942836129377,0.4169627347124637,-0.0965595840555809,-0.1219628667225268,-14.111476708167402,27.95833168263005,9.98536931597261,-0.3198325010542875,-3.625450577150048,-0.1827244873189135,4171.01025390625,11.999000000000002,0.2922222222222222,179.5720708901578,5.17943613368682,69.42926375178212,1186.0,1435.0,1200.0,1528.0,1206.0,1019.7999999999998,94.0,292.35,1637082738.586106,1637082739.7042837,b8c6b679-851c-4d7d-a39f-a5341cc74415
-0.5986031929234852,-0.9410479906414412,0.0303253385196709,0.6398199669405199,0.1117815113123252,0.4078112428525206,-0.1038571108902706,-0.1269593717776272,-14.174198979959376,27.996435082640065,10.100097579032258,-0.3452939408186535,-3.595075798020896,-0.1611310573941243,4171.01025390625,11.997777777777776,0.2911111111111111,179.5759823118225,5.173279097605008,69.2844098587744,1186.0,1435.0,1200.0,1528.0,1206.0,1019.7999999999998,94.0,292.35,1637082739.8124716,1637082741.0257862,b8c6b679-851c-4d7d-a39f-a5341cc74415
-0.5828943309393954,-0.943155070494068,0.0309855126539844,0.6379621659115059,0.1118499941067917,0.4099692723993413,-0.1012410680648954,-0.1197999060610457,-14.010781456031925,27.98118680631053,9.882244583307426,-0.3362744935341119,-3.6019341040288224,-0.1663068797422021,4168.531304253473,11.999555555555556,0.3,179.57918491163332,5.185866424767302,69.21921418532682,1186.0,1435.0,1200.0,1528.0,1206.0,1019.7999999999998,94.0,292.35,1637082741.1354456,1637082742.161837,b8c6b679-851c-4d7d-a39f-a5341cc74415
-0.0549571072120733,0.0848924278912426,0.0186492961681754,0.1225634420366974,-0.1173476740233537,-0.1363869874456736,-0.331855528304643,-0.3573377059936984,-14.313933042148063,23.56374111758589,7.0630138364793735,-0.4318967552962596,0.3436011130972574,0.6085296179799214,4173.041015625,12.0295,0.19,179.28041042894966,5.16702636772701,69.00921243019569,1525.0,1435.0,1200.0,1528.0,1475.0,1019.7999999999998,94.0,292.35,1637082744.1890385,1637082745.1215503,b8601c56-fb56-4d19-acdf-e166d777638b
-0.0319337393246282,0.0860626618424206,0.0194250692517187,0.1186977254104074,-0.1170452539868465,-0.1344015342231681,-0.3305275097750041,-0.3613743564400152,-14.327995424516592,23.544439354196825,7.010661603940418,-0.4188198164952238,0.3490785335019339,0.6052013843246129,4176.883192274306,12.029,0.19,179.3030479525888,5.166922136194363,69.21628479308278,1525.0,1435.0,1200.0,1528.0,1475.0,1019.7999999999998,94.0,292.35,1637082745.2306004,1637082746.3517292,b8601c56-fb56-4d19-acdf-e166d777638b
-0.0424501680396513,0.0857369787511402,0.0197532809430298,0.1206821670703956,-0.116082870514922,-0.1357427013176717,-0.330191712248736,-0.3528100022589268,-14.33103946662674,23.50857067480329,7.037400920257394,-0.4265287171760803,0.3474174503103505,0.6029933883829547,4183.45068359375,12.029111111111112,0.18,179.32201766464362,5.177204606534864,69.45735404310865,1525.0,1435.0,1200.0,1528.0,1475.0,1019.7999999999998,94.0,292.35,1637082746.460724,1637082747.6916654,b8601c56-fb56-4d19-acdf-e166d777638b
-0.0303558957623118,0.0844716696109716,0.0023317638897811,-0.1950959210985993,-0.1660898945603413,0.1717921594058098,-0.2606684765461531,-0.2825216127665714,-14.166435080255074,22.859455912946828,9.448885327548428,0.9721579052289236,0.3578974185999219,0.596726766644922,4185.26708984375,12.033333333333337,0.1822222222222222,179.3272996776018,5.244539220125658,69.78178423413472,1525.0,1535.0,1200.0,1528.0,1475.0,1019.7999999999998,94.0,292.35,1637082748.6017077,1637082749.7357914,18b08d18-724e-41c5-a3d9-e2014c789ab6
-0.032236159365116,0.0747284857764407,-0.0021387929127872,-0.1921243154631325,-0.1681147939460433,0.1777353699180818,-0.2636532309748884,-0.2847437427367516,-14.277207157281143,22.909914022263983,9.297001501333211,0.9788417965526242,0.3228362934800725,0.6083630039729933,4185.26708984375,12.033333333333337,0.18,179.3292637364431,5.24407647480939,69.90199859916657,1525.0,1535.0,1200.0,1528.0,1475.0,1019.7999999999998,94.0,292.35,1637082749.8449495,1637082750.941796,18b08d18-724e-41c5-a3d9-e2014c789ab6
-0.0388631024646021,0.0796198007408367,-0.0046107478487352,-0.1907174048039782,-0.1715071578613411,0.1727914603034627,-0.2686628848803064,-0.2888198390276348,-14.302235661490249,22.952006125708355,9.430409535446303,0.9647231398624508,0.3398472363280267,0.6242433200791241,4183.45068359375,12.02988888888889,0.18,179.33616981660393,5.256786840240483,70.00127539875272,1525.0,1535.0,1200.0,1528.0,1475.0,1019.7999999999998,94.0,292.35,1637082751.0499623,1637082752.0034168,18b08d18-724e-41c5-a3d9-e2014c789ab6
-0.0106065534617759,0.0692980742552278,-0.0214410794244696,-0.4717971307334284,-0.2186583871352896,0.4562773331877378,-0.2078238602849391,-0.2283226799202958,-14.148698189203763,22.717968570971543,11.667862919128757,2.2338451931450627,0.3137533011558607,0.6244304788728613,4183.2236328125,12.02511111111111,0.1977777777777777,179.31675386552328,5.32217684205633,70.2019562223965,1525.0,1636.0,1200.0,1528.0,1475.0,1019.7999999999998,94.0,292.35,1637082753.0859385,1637082754.1460583,222462a0-e6b8-4498-9575-7d35e1aaa119
-0.0217303507577777,0.0765824519356367,-0.0126708988190091,-0.472572903949571,-0.2111373320952537,0.4496240934676057,-0.2011311732253344,-0.2197365803456887,-14.175136018304084,22.68220754270011,11.695229377846813,2.2208351159560733,0.3416696090325458,0.5936122428698329,4183.2236328125,12.027666666666669,0.2,179.30552958798725,5.329014051142991,70.16709114232322,1525.0,1636.0,1200.0,1528.0,1475.0,1019.7999999999998,94.0,292.35,1637082754.2551506,1637082755.269067,222462a0-e6b8-4498-9575-7d35e1aaa119
-0.0187455966477162,0.0714807578158885,-0.021533120310831,-0.4717708333059532,-0.2185794949596339,0.4542524341500145,-0.2089414996046081,-0.2270209588673001,-14.225917907099316,22.69875367684792,11.683452651378154,2.229067307862791,0.3223386637959916,0.6262799749907475,4184.81298828125,12.024222222222225,0.19,179.29751246372143,5.329846480448087,70.1618706010676,1525.0,1636.0,1200.0,1528.0,1475.0,1019.7999999999998,94.0,292.35,1637082755.3776102,1637082756.4984844,222462a0-e6b8-4498-9575-7d35e1aaa119
-0.0292003275699803,0.0683275993340294,-0.0362803949921937,-0.7298616185499045,-0.2644861504153876,0.7082139152437907,-0.1577161972315471,-0.1804862010283866,-14.153910307273527,22.75912532188392,13.699683484456749,3.381965785033871,0.3229755724042139,0.6361995403745404,4187.31103515625,12.018666666666668,0.2255555555555556,179.29117253035187,5.406212596260144,70.17433493739297,1525.0,1737.0,1200.0,1528.0,1475.0,1019.7999999999998,94.0,292.35,1637082757.085987,1637082758.341964,d8cc244f-e6b7-4e44-88b0-c6d42e83a5d0
