raw_voltage_G-,raw_voltage_G0,raw_voltage_G1,raw_voltage_G2,raw_voltage_G3,raw_voltage_G4,raw_voltage_G5,raw_voltage_G6,load_x,load_y,load_z,load_l,load_m,load_n,rpm,voltage,current,roll,pitch,yaw,aileron1_pwm,elevator_pwm,throttle_pwm,rudder_pwm,aileron2_pwm,pbaro,pdiff,Tt,sample_start_time,sample_end_time,uid
0.0099974539114063,0.147361882537811,-0.0395336860497342,-0.1815001684139723,-0.1722434849774712,0.3397272986250262,-0.2403142925368496,-0.2505439798411004,-14.427085653374228,18.412645499342776,43.813274197509,1.2926455130879762,0.286644673702678,0.6910350208200832,4520.537326388889,11.94488888888889,0.14,178.7753065561786,-11.21596282424092,108.64046984384588,1553.0,1435.0,1200.0,1528.0,1471.0,998.74,108.0,293.1,1649410930.9580088,1649410931.936795,1f184913-dd59-4f92-913e-c11002bba7b6
0.0096950338824,0.1473092877624584,-0.0492900189660549,-0.1858655356373936,-0.1799354729260685,0.342146658728057,-0.2459550837107086,-0.270556298026499,-14.321115115196587,18.08606117746876,43.52269126606458,1.3052855923120026,0.2881862390917089,0.7225956894075652,4538.615017361111,11.943777777777775,0.1455555555555555,179.04817564916024,-11.315089549392791,108.71540081359048,1553.0,1435.0,1200.0,1528.0,1471.0,998.74,108.0,293.1,1649410932.046046,1649410933.1617486,1f184913-dd59-4f92-913e-c11002bba7b6
0.0116015948557963,0.1495314173676034,-0.0458187630816695,-0.1872724467631666,-0.1776344509283825,0.3385833621353328,-0.2442194557038325,-0.2652573726106464,-14.35253638877979,18.154368858030065,43.16110037163441,1.3010042447806578,0.3003421776187843,0.7119552874372543,4547.443956163194,11.946000000000002,0.1411111111111111,179.31200460732038,-11.425517107117663,108.79469247966514,1553.0,1435.0,1200.0,1528.0,1471.0,998.74,108.0,293.1,1649410933.2699363,1649410934.598282,1f184913-dd59-4f92-913e-c11002bba7b6
0.2057946866043165,0.458603640794737,0.0126605705837499,-0.3552374544862412,-0.1990713792941141,0.1938723595442092,-0.245407895674853,-0.2775337051596924,-13.38543844124952,17.507482794818177,43.87528837182645,1.3539314582915636,1.4707526127756194,0.701005621273369,4544.767252604167,11.946666666666664,0.1466666666666666,179.42853218802026,-11.510070864765408,108.83890277634282,1658.0,1435.0,1200.0,1528.0,1551.0,998.74,108.0,293.1,1649410935.5082238,1649410936.6537223,8dd66af9-4760-4cff-8733-d4264553039d
0.2095420648740246,0.4483881161246424,0.0173081290274402,-0.3480415763379226,-0.1949381368166814,0.1917913255628755,-0.2448374444561567,-0.2748559220882985,-13.550441030044656,17.954350390677106,43.114559633725406,1.3360123929738688,1.4397645940338222,0.6856839416130268,4536.74658203125,11.943,0.14,179.5506969515151,-11.53079280493358,108.88426889281006,1658.0,1435.0,1200.0,1528.0,1551.0,998.74,108.0,293.1,1649410936.7862215,1649410937.7626774,8dd66af9-4760-4cff-8733-d4264553039d
0.1784858570101609,0.4557589711740262,0.0071608753937111,-0.3558948896113214,-0.1998426010093136,0.1966538143069785,-0.2454078957631393,-0.2685445467400979,-13.369210403688252,17.034992369903627,43.7728860336343,1.358250572138889,1.4606003832913004,0.7092636114438953,4535.947265625,11.940666666666663,0.14,179.6803658161781,-11.550165782740674,108.92074210297793,1658.0,1435.0,1200.0,1528.0,1551.0,998.74,108.0,293.1,1649410937.8714263,1649410939.1086605,8dd66af9-4760-4cff-8733-d4264553039d
0.3589011309397713,0.7135998229921388,0.0649519243316858,-0.4928815763762491,-0.2149636032583641,0.0547490417167574,-0.2523868199558228,-0.2790002908555701,-12.951800350897775,17.407676048788232,41.77255477544372,1.3536194268730362,2.462970861275716,0.6883352183481275,4525.56787109375,11.918,0.1322222222222222,179.59050025835828,-11.530407942746598,108.91166402266109,1767.0,1435.0,1200.0,1528.0,1630.0,998.74,108.0,293.1,1649410940.2191494,1649410941.453183,cd5edc60-d644-42b0-be49-a3c5ff910e24
0.3563219637823262,0.7091621384390496,0.0603751663294512,-0.480693743239855,-0.2142935258149407,0.0616015353767942,-0.2526902518292626,-0.2873067278579443,-12.934268818395983,17.108014988603426,43.70756775962132,1.339628025387518,2.4272569837412417,0.6965275115901032,4520.79443359375,11.900666666666666,0.13,179.6078838487059,-11.527957707245594,108.8177496804833,1767.0,1435.0,1200.0,1528.0,1630.0,998.74,108.0,293.1,1649410941.562357,1649410942.7910366,cd5edc60-d644-42b0-be49-a3c5ff910e24
0.3504303368553745,0.709048351656786,0.0590350110734897,-0.4907449128832176,-0.2218034545653661,0.0584028620105072,-0.2586830233060242,-0.288305522774456,-12.881727051768516,17.61472942757772,41.88774192702319,1.358141853283194,2.443748555824447,0.7142756918807928,4513.65283203125,11.90277777777778,0.13,179.64429938172077,-11.502935024630036,108.75523371792008,1767.0,1435.0,1200.0,1528.0,1630.0,998.74,108.0,293.1,1649410942.8996036,1649410944.0249746,cd5edc60-d644-42b0-be49-a3c5ff910e24
0.4914106464607126,0.971075041800444,0.1147399678826525,-0.6243220516200862,-0.2387101512055786,-0.0771784050399507,-0.2656386845128525,-0.2794448175495906,-12.341162677935344,17.868774649441065,41.80738806545981,1.3595070704080343,3.4433760577752484,0.7019690879083831,4522.915961371527,11.878666666666668,0.1255555555555555,179.47871282894243,-11.48839914884765,108.58690674146474,1886.0,1435.0,1200.0,1528.0,1710.0,998.74,108.0,293.1,1649410945.028589,1649410946.1584525,3082ffba-708d-40dc-9624-6c88344856a9
0.5052688653283067,0.968608649990972,0.1124768749664939,-0.614873698924658,-0.2407299935359979,-0.0871051655565249,-0.272299511587947,-0.2956258075530079,-12.407585448570712,18.061943021808467,41.25351733591607,1.3169332690958495,3.4382011688167013,0.716166123074314,4522.121148003473,11.857333333333331,0.1122222222222222,179.46785889944138,-11.448476408557708,108.3970092687006,1886.0,1435.0,1200.0,1528.0,1710.0,998.74,108.0,293.1,1649410946.2674265,1649410947.502854,3082ffba-708d-40dc-9624-6c88344856a9
0.5110284994804383,0.9741781339057408,0.1140562356480721,-0.6250715278189689,-0.241694905675333,-0.0849361365355736,-0.2711742864841178,-0.2984709837927107,-12.44163297281404,18.10168601016299,41.01295224019072,1.3450977869881884,3.4628195901670007,0.7139305202808146,4512.332845052083,11.85588888888889,0.12,179.47185835465538,-11.416223116932048,108.26311175803149,1886.0,1435.0,1200.0,1528.0,1710.0,998.74,108.0,293.1,1649410947.6110554,1649410948.730616,3082ffba-708d-40dc-9624-6c88344856a9
-0.2020910281720603,-0.2308209324982516,-0.1011616280690638,0.0213973735468246,-0.1401738123085585,0.5140395506104863,-0.2275600556155324,-0.2570262872977168,-15.145715326001469,19.31469435804758,42.282064539877126,1.2289665806174863,-1.1419860741532657,0.6661877764230563,4510.224989149306,11.869777777777776,0.1133333333333333,-179.86202759862303,-11.371069969557691,107.95402824316054,1449.0,1435.0,1200.0,1528.0,1386.0,998.74,108.0,293.1,1649410950.9619093,1649410952.0138242,d8413d91-777d-4ade-8057-76c10be6684e
-0.2092307709586861,-0.2347260957319121,-0.1063685120988295,0.0325606167955577,-0.1430007822210978,0.5096215890845887,-0.234160701844257,-0.2532000163435216,-15.19030847261353,19.328351126932134,42.52585452503943,1.1937049682017384,-1.1601821870113618,0.6864660909754738,4523.1796875,11.939777777777778,0.14,-179.93307219072983,-11.327750822839226,107.83382374395748,1449.0,1435.0,1200.0,1528.0,1386.0,998.74,108.0,293.1,1649410952.1285942,1649410953.3264797,d8413d91-777d-4ade-8057-76c10be6684e
-0.1906516613303969,-0.2214196136734578,-0.1020031447767892,0.0236589493724879,-0.1411599646862779,0.5058084675352346,-0.2304001744311018,-0.2486505668967547,-15.140472165795131,19.16660125626519,42.70483587940734,1.2044150794331985,-1.1108438417459578,0.6745398743366644,4522.649631076389,11.933666666666666,0.1344444444444444,-99.97663442887318,-11.288704244037818,107.73698987536449,1449.0,1435.0,1200.0,1528.0,1386.0,998.74,108.0,293.1,1649410953.4436638,1649410954.565336,d8413d91-777d-4ade-8057-76c10be6684e
-0.4170616244534615,-0.5976413148928784,-0.172976272035556,0.2099162968485502,-0.12739833587861,0.6903873191903257,-0.2387450459142984,-0.2554211348823459,-16.488237075579807,21.19503738092812,40.600921865667786,1.20793641552729,-2.521115059649752,0.7157893819837636,4521.3907470703125,11.93125,0.135,-179.96789287457352,-11.218118911004856,107.51046797963336,1342.0,1435.0,1200.0,1528.0,1293.0,998.74,108.0,293.1,1649410956.491853,1649410957.6290803,7251b53e-b075-4566-9316-adbfce1fe1b9
-0.4094631936187967,-0.579397493061352,-0.1681213684266383,0.2063130485216741,-0.1229859365855113,0.6818280244820001,-0.2320695531665725,-0.2573555106558615,-16.25193206663016,20.66512804256676,41.50261419800917,1.1938221765411134,-2.4616113957070693,0.6974876939357492,4521.324490017361,11.892222222222223,0.1277777777777777,-179.9973290926215,-11.170382695179702,107.25781795414224,1342.0,1435.0,1200.0,1528.0,1293.0,998.74,108.0,293.1,1649410957.7370322,1649410958.8599122,7251b53e-b075-4566-9316-adbfce1fe1b9
-0.4291862421122031,-0.5891452314967492,-0.1687408742679119,0.2110035928380797,-0.1248191683230443,0.6879345818605651,-0.2360141624781384,-0.25557285044231,-16.43753619670301,21.18470274532156,41.60406658543793,1.2002999274735926,-2.49836481908146,0.7051070585521575,4525.833550347223,11.899555555555557,0.13,179.98284302030183,-11.167660105885544,107.0867687678477,1342.0,1435.0,1200.0,1528.0,1293.0,998.74,108.0,293.1,1649410958.968427,1649410959.9942474,7251b53e-b075-4566-9316-adbfce1fe1b9
-0.5599197165408775,-0.8586976610222108,-0.1970419283404269,0.3312989851532238,-0.0914710383595559,0.8098983365916753,-0.2157393762789815,-0.2414713776999853,-17.345952266162154,22.21536678539148,37.10773157252684,1.207261014278415,-3.4796574610266133,0.6304351009330766,4530.35205078125,11.891,0.12,179.9990761032292,-11.123550459634384,106.79709057931866,1227.0,1435.0,1200.0,1528.0,1189.0,998.74,108.0,293.1,1649410960.9308755,1649410961.929822,262bf065-87f1-4234-a917-2fc7ea6a4096
-0.5821278712577079,-0.8692823669821717,-0.1877063531161805,0.3397404475534215,-0.0824510322772354,0.8126464138616452,-0.2077318194543337,-0.2247330856110936,-17.364694522550245,22.57512838131248,37.19156976835891,1.1972481221522735,-3.520408344247421,0.59277380683663,4528.759060329861,11.705555555555556,0.0444444444444444,-179.95385417964448,-11.105403880238264,106.12791493794518,1227.0,1435.0,1200.0,1528.0,1189.0,998.74,108.0,293.1,1649410962.0378838,1649410963.2676938,262bf065-87f1-4234-a917-2fc7ea6a4096
-0.5763631776170699,-0.8637002368237374,-0.1928763198322802,0.3371172828223831,-0.0882809621982685,0.8103438750740009,-0.2142050244270968,-0.2403507041451999,-17.407507279070792,22.5360109004572,37.25422958831341,1.1974629201639382,-3.4997297404879952,0.617705009363865,4532.481825086806,11.714222222222222,0.05,-179.9355280231914,-11.071655346366798,105.54322266532552,1227.0,1435.0,1200.0,1528.0,1189.0,998.74,108.0,293.1,1649410963.3770208,1649410964.607091,262bf065-87f1-4234-a917-2fc7ea6a4096
0.0223703772368619,0.1440843172491365,-0.0459017010013158,-0.1731659171438374,-0.1775403871612278,0.3346266163117797,-0.24878357099273,-0.2674066787203953,-14.443960203055775,18.503201405239988,43.66459788621761,1.2626345972423318,0.2743606722975399,0.7184061747040219,4526.896918402777,11.771555555555556,0.07,-100.0281006631791,-11.068704704645354,105.07708502176938,1299.4444444444443,1435.0,1200.0,1528.0,1251.6666666666667,998.74,108.0,293.1,1649410965.5018294,1649410966.5483716,ea4a8e96-1d68-4d81-bd4c-a95402175913
0.0065792985453467,0.1455761885032361,-0.0445109735433332,-0.1730142011572748,-0.1737222078079293,0.3320095203414304,-0.2441435978847322,-0.2702766348229805,-14.346370499553776,18.138617036044813,43.54737635137107,1.2540942125523284,0.2803676142330596,0.7049380239412125,4527.161946614583,11.951666666666666,0.14,179.53758754176815,-11.025739020216434,105.2748941303221,1553.0,1435.0,1200.0,1528.0,1471.0,998.74,108.0,293.1,1649410966.656345,1649410967.7738917,ea4a8e96-1d68-4d81-bd4c-a95402175913
0.0230910269390367,0.1451463273059933,-0.0472797855726304,-0.1779576055919595,-0.1770725969575401,0.3342852560879749,-0.2462929041676088,-0.2759154036165684,-14.347130186633612,18.149138090255168,43.14508441454008,1.2702265708173153,0.2827595429609011,0.715668120757262,4529.820475260417,11.94688888888889,0.14,179.4251945022459,-11.015775481764678,105.49948972297985,1553.0,1435.0,1200.0,1528.0,1471.0,998.74,108.0,293.1,1649410967.883392,1649410968.8891723,ea4a8e96-1d68-4d81-bd4c-a95402175913
0.0280900601403262,0.1411294007092201,-0.0723528331309111,-0.4738220308157037,-0.2270078102234866,0.6308920030541326,-0.1834593239894905,-0.2049048498554579,-14.248455472405787,17.034699718836965,46.17693472888839,2.596035938766009,0.2749428634914629,0.7301197140722466,4537.546875,11.943444444444443,0.14,179.2235415150102,-10.90412370749482,105.95900132413117,1553.0,1522.0,1200.0,1528.0,1471.0,998.74,108.0,293.1,1649410971.0331025,1649410972.0781069,cf14fc7f-39c1-4265-b48e-dae275f84f88
0.0164797612337943,0.1300581987408927,-0.077756947545194,-0.4676026958104038,-0.2307288916838265,0.6355466410755857,-0.1884558289520463,-0.2045235376549299,-14.295397837112525,17.208843296176,46.06883820800597,2.5933107050656106,0.2336040561969527,0.7481264776409181,4541.554361979167,11.931,0.1333333333333333,179.18258618292697,-10.87295565703728,106.07466830099558,1553.0,1522.0,1200.0,1528.0,1471.0,998.74,108.0,293.1,1649410972.1861708,1649410973.2339776,cf14fc7f-39c1-4265-b48e-dae275f84f88
0.0122458809851208,0.1276519873778593,-0.0722476435878972,-0.4718365772300709,-0.223654892319836,0.6417922711797317,-0.1791596998474101,-0.2074293995764345,-14.312732183202868,17.0214559959192,46.12662312526135,2.615928668099374,0.2250572065499425,0.7175639504835541,4539.416395399306,11.931333333333336,0.1311111111111111,179.1509396397726,-10.846320765186384,106.17402478612205,1553.0,1522.0,1200.0,1528.0,1471.0,998.74,108.0,293.1,1649410973.3443038,1649410974.4303043,cf14fc7f-39c1-4265-b48e-dae275f84f88
0.0273931792505717,0.1223267655223862,-0.0843181472610023,-0.7712193433044716,-0.2722130333884233,0.9267639388257132,-0.1173476740794693,-0.1326133114395107,-14.298123813506118,17.171487322743005,46.89437982230323,3.932155510043334,0.2342741495429078,0.7099102900342347,4525.590983072917,11.931,0.14,179.08720031443804,-10.725347300519273,106.34682857212336,1553.0,1613.0,1200.0,1528.0,1471.0,998.74,108.0,293.1,1649410976.4702663,1649410977.608297,47086951-d9fe-4146-9b0c-ce262f581ba2
0.0214474399003931,0.1372318238120474,-0.0949311686140307,-0.7834805081904138,-0.2846517017857584,0.919718261098728,-0.1266650432134929,-0.1427469114424412,-14.071180803698711,16.78228835520286,46.29096284799747,3.940890660005981,0.2947492052277007,0.755748252075078,4481.691569010417,11.92111111111111,0.14,179.1085438966844,-10.680539836607911,106.35882314321582,1553.0,1613.0,1200.0,1528.0,1471.0,998.74,108.0,293.1,1649410977.7162907,1649410978.7232263,47086951-d9fe-4146-9b0c-ce262f581ba2
0.0468401010971081,0.1339239153383003,-0.0903008043685029,-0.7765182701463627,-0.2797735347643179,0.9167051869921188,-0.1231068034441795,-0.1426326187001602,-14.03495509648286,16.885367907236184,46.34332376713285,3.919355246668839,0.2810601551455296,0.7374438073057256,4445.7607421875,11.918,0.13,179.10833747318952,-10.674854842488738,106.40346677745084,1553.0,1613.0,1200.0,1528.0,1471.0,998.74,108.0,293.1,1649410978.831442,1649410979.9522982,47086951-d9fe-4146-9b0c-ce262f581ba2
0.0311800037935847,0.1212485724325934,-0.104343612820621,-1.0413594576669107,-0.3236770381050749,1.1947738002878563,-0.0649106708397988,-0.0913395514900147,-14.042361506781322,16.970644199974082,49.605492996320265,5.142011730841321,0.2363786357706178,0.7342299204654035,4445.7626953125,11.914333333333332,0.13,179.10331500741984,-10.539457441250637,106.41926728173078,1553.0,1710.0,1200.0,1528.0,1471.0,998.74,108.0,293.1,1649410982.0921316,1649410983.1376667,9a37c51b-6c5e-406a-8807-6fe417a1e6b4
0.0303384872345664,0.1330692500926852,-0.1137449312335884,-1.052325477206583,-0.3319344206967035,1.1865690138470482,-0.0704988670194425,-0.0885783252052496,-13.83331678981465,16.334056148938174,48.59955575632177,5.143567867158499,0.2888927553179027,0.7665710304925342,4452.689453125,11.89788888888889,0.1288888888888889,179.14645751785724,-10.537064882902625,106.33373130493491,1553.0,1710.0,1200.0,1528.0,1471.0,998.74,108.0,293.1,1649410983.245373,1649410984.5715587,9a37c51b-6c5e-406a-8807-6fe417a1e6b4
0.0502719108120027,0.1236153377047361,-0.1076176383030061,-1.053272183894689,-0.3278057293145288,1.2046747681312833,-0.0623729722728777,-0.0879997829124034,-13.803033859681564,16.72441154138967,49.78197180952792,5.18948599185075,0.2432523948772813,0.7414023230131883,4463.510362413194,11.903555555555556,0.1211111111111111,179.15270182857847,-10.54098740362472,106.26531861238824,1553.0,1710.0,1200.0,1528.0,1471.0,998.74,108.0,293.1,1649410984.679875,1649410985.8939514,9a37c51b-6c5e-406a-8807-6fe417a1e6b4
0.0445390792381289,0.1092832590855269,-0.1028972561010393,-1.1756866373357246,-0.3390347177933143,1.3339396014349945,-0.0292514053306682,-0.0536290890048263,-14.113155094099486,17.319098041897643,50.27693531299556,5.760198432353713,0.2026876709678824,0.7005337891169923,4487.400173611111,11.890666666666666,0.1177777777777777,179.16971507089107,-10.482777780469457,106.1332720829842,1553.0,1814.0,1200.0,1528.0,1471.0,998.74,108.0,293.1,1649410987.0072124,1649410987.963658,c9e8913b-6d3b-4999-bc0f-6930c484e9d8
0.058364933366768,0.1196707289136962,-0.1044386879984548,-1.175337185324541,-0.3445794228095181,1.325127951784973,-0.0358631769131387,-0.057507954560298,-14.036118977239031,17.513189929745298,50.48264258967648,5.740890675424304,0.2391411253378909,0.7211250683133203,4496.027506510417,11.850666666666664,0.11,179.19453294269522,-10.500555245059182,105.97002221381192,1553.0,1814.0,1200.0,1528.0,1471.0,998.74,108.0,293.1,1649410988.073815,1649410989.1745455,c9e8913b-6d3b-4999-bc0f-6930c484e9d8
0.0401474146840859,0.1187108741311697,-0.0962177181579182,-1.1598161474953648,-0.3329468705771545,1.3138746902842318,-0.0269503834906268,-0.0470678896111697,-13.87266680766766,17.247092608189856,50.849057899538046,5.679377480101917,0.2297423632411254,0.6821453672352256,4496.813639322917,11.841111111111111,0.1088888888888888,179.2040906540738,-10.487001019242506,105.8301551178082,1553.0,1814.0,1200.0,1528.0,1471.0,998.74,108.0,293.1,1649410989.2831173,1649410990.3526,c9e8913b-6d3b-4999-bc0f-6930c484e9d8
0.0124168140325848,0.156237252245201,-0.0259379337357752,0.1030507769718997,-0.1326527575190283,0.0558469577122727,-0.3090425368751474,-0.3287918816824909,-14.495171666435285,19.17040082558492,41.72300424090854,0.0181840207430659,0.3047810495764596,0.7166950250113479,4529.288899739583,11.877222222222224,0.1166666666666666,179.17613544871088,-10.904399476382558,105.62678319963145,1553.0,1349.0,1200.0,1528.0,1471.0,998.74,108.0,293.1,1649410992.4432845,1649410993.6821773,d8a01e81-1876-4aa7-b97b-600f83fbd095
0.0013587603001255,0.1463099868838864,-0.022637610863251,0.1177773165642523,-0.1267095463768465,0.0541507760962042,-0.3046508716519883,-0.3299226700998031,-14.3587884136704,19.20033828733595,42.05521064050443,-0.0183625905507337,0.2620347230319172,0.6973282182611993,4525.302517361111,11.945,0.14,179.11794375480218,-10.931706003501835,105.85879258317826,1553.0,1349.0,1200.0,1528.0,1471.0,998.74,108.0,293.1,1649410993.7905102,1649410994.9019604,d8a01e81-1876-4aa7-b97b-600f83fbd095
-0.0079505167680064,0.1535417696205337,-0.016036965230458,0.1113870502724427,-0.125775988925912,0.0513895498492405,-0.3054134962864842,-0.3242687295632552,-14.594088010701302,19.71049184055516,41.85119565470696,-0.0065929868490927,0.2938457537212773,0.6883024313792993,4532.748046875,11.947333333333331,0.14,179.05451102907034,-10.909847500883028,106.05041429925286,1553.0,1349.0,1200.0,1528.0,1471.0,998.74,108.0,293.1,1649410995.0144622,1649410996.132413,d8a01e81-1876-4aa7-b97b-600f83fbd095
0.0145823032245593,0.1706472114470491,0.0024703308703393,0.3569667554960041,-0.0860937270536064,-0.2039515690592431,-0.3592705647938651,-0.3904228666782018,-14.52465572634975,20.20776625261079,39.94130431199599,-1.1303976876919128,0.3453830339797493,0.6870810221088899,4535.14599609375,11.948,0.14,179.00442297515693,-10.97437400551943,106.28984658060769,1553.0,1264.0,1200.0,1528.0,1471.0,998.74,108.0,293.1,1649410996.950208,1649410997.9793308,8dd81a8e-66cf-48e7-a115-492dad11ef53
0.0100181883998392,0.1698001320044646,0.0014715356664976,0.3500510474952987,-0.086586803178973,-0.1947348378944054,-0.3577913361731688,-0.3932675372367376,-14.624430581272035,20.140085960321183,40.23126881002448,-1.094588715505591,0.3411292104902855,0.6872118084293863,4536.479817708333,11.948666666666668,0.14,178.97054979033314,-10.965194800457365,106.47893657322994,1553.0,1264.0,1200.0,1528.0,1471.0,998.74,108.0,293.1,1649410998.087916,1649410999.2172496,8dd81a8e-66cf-48e7-a115-492dad11ef53
-0.0130552453421857,0.1520746785785573,-0.0064935401074001,0.3520233517540055,-0.0917324951679906,-0.1900822219426844,-0.3625198104581286,-0.3930526061112619,-14.579331104582955,20.20539657722553,38.632947192248864,-1.0887784368319753,0.2877479957459098,0.7074329962571445,4520.000922309027,11.945333333333334,0.14,178.95858329890726,-10.96989776515587,106.6344577039014,1553.0,1264.0,1200.0,1528.0,1471.0,998.74,108.0,293.1,1649410999.328221,1649411000.4337018,8dd81a8e-66cf-48e7-a115-492dad11ef53
-0.0109221222083965,0.1646787149854329,0.0212001431504116,0.5838854184998988,-0.0507626730539433,-0.4234362153008817,-0.4112342224171687,-0.433928877020984,-14.77921235696764,21.63622956777263,37.47091456364737,-2.1256017584416544,0.3199672863532061,0.6844321328510855,4499.4365234375,11.939666666666666,0.1388888888888889,178.91174489721894,-11.039888800583238,106.81307929325574,1553.0,1178.0,1200.0,1528.0,1471.0,998.74,108.0,293.1,1649411001.4546382,1649411002.483565,a6c05d1a-1f77-4e56-8946-ebbc188e10f9
0.0045012988091027,0.1645077819350691,0.0257232947145533,0.5904466172885404,-0.0475675397491639,-0.4241462452349941,-0.4104715980013567,-0.4318908285214632,-14.884409857684137,21.935924773062435,38.22191380909516,-2.1397190491176,0.3128986604905172,0.673728374525817,4496.28955078125,11.927,0.1333333333333333,178.89606885416387,-11.013081825910753,106.90030612132615,1553.0,1178.0,1200.0,1528.0,1471.0,998.74,108.0,293.1,1649411002.5965474,1649411003.8216534,a6c05d1a-1f77-4e56-8946-ebbc188e10f9
-0.0291118267518715,0.1655394488448173,0.0167189663105755,0.5940478425668547,-0.0525771931744263,-0.4273024386073519,-0.4161007581062289,-0.4391615533355045,-14.797972660009975,21.49313552211252,38.33681192009691,-2.1582567521443026,0.3141161946205522,0.7014009568176518,4494.71728515625,11.92,0.13,178.89105549531303,-10.999031842196825,106.97677236581418,1553.0,1178.0,1200.0,1528.0,1471.0,998.74,108.0,293.1,1649411003.930091,1649411004.9362075,a6c05d1a-1f77-4e56-8946-ebbc188e10f9
-0.0109089735131234,0.1783796559880427,0.0337965943353636,0.7031177845318891,-0.0362728092463549,-0.5523723637709606,-0.4426464645027998,-0.4735327598210809,-14.68241223795978,22.65472471344428,36.57343458168677,-2.6770128958003183,0.364759124750369,0.6933375293661372,4499.4365234375,11.929777777777778,0.1355555555555555,178.86373777427264,-11.009449683092123,107.10489608990493,1553.0,1088.0,1200.0,1528.0,1471.0,998.74,108.0,293.1,1649411007.0775957,1649411008.122742,8fbd840e-a781-40b5-8ba6-d21b9c299c14
0.0019393258697143,0.1717092214889161,0.0408417669167949,0.7131067469584962,-0.0289348251323614,-0.5462855266408695,-0.4378340406088783,-0.4683162660441552,-14.863139637625345,23.001413982250977,37.85887517282873,-2.6831046312635043,0.3288499072864459,0.6677125045463287,4501.503967285156,11.906125,0.12125,178.85676794567962,-11.035922547677709,107.12202402247732,1553.0,1088.0,1200.0,1528.0,1471.0,998.74,108.0,293.1,1649411008.23211,1649411009.350364,8fbd840e-a781-40b5-8ba6-d21b9c299c14
0.0007013255092153,0.1779326003281585,0.0429349382324584,0.7023420115326457,-0.0292119592049638,-0.5537398283697026,-0.4375842151793826,-0.4631452867613774,-14.891138301088777,22.97822189064017,36.267295781028594,-2.675890154810188,0.3679533292837018,0.66328484927746,4498.387261284723,11.889,0.12,178.85921467122228,-11.015561089715732,107.1094503082615,1553.0,1088.0,1200.0,1528.0,1471.0,998.74,108.0,293.1,1649411009.464656,1649411010.6723034,8fbd840e-a781-40b5-8ba6-d21b9c299c14
0.0119303122647141,0.1432463407053223,-0.0447274212912358,-0.1879561787475246,-0.1778316814136552,0.3469722297646876,-0.2415108240105067,-0.2686365878694625,-14.233226252891283,18.352343002843007,43.40015876739372,1.3228623833196798,0.273962827302312,0.7064526541242087,4496.290364583333,11.918,0.1266666666666666,178.87689878989335,-10.741209845684196,107.0660565986446,1553.0,1435.0,1200.0,1528.0,1471.0,998.74,108.0,293.1,1649411011.4891002,1649411012.6376505,82a3add7-af07-457a-a56d-b0a492603521
0.0231855963976228,0.1453369833918164,-0.0424263993071101,-0.186562416524275,-0.1739922617090173,0.3417521979229573,-0.2364354265386996,-0.2629432017110213,-14.031775963968736,18.02616812454849,43.16313851353653,1.306004234080809,0.2824476362341074,0.6910660345652454,4507.060275607639,11.948555555555556,0.14,178.8832721152989,-10.711133202537784,107.0906308603684,1553.0,1435.0,1200.0,1528.0,1471.0,998.74,108.0,293.1,1649411012.750768,1649411013.959265,82a3add7-af07-457a-a56d-b0a492603521
0.0211738458698353,0.1375003606371435,-0.0507100782297306,-0.1750573063097697,-0.1788441310608875,0.3409764248779405,-0.2464284368629794,-0.2646262347626387,-14.240163362767175,18.11579350542622,43.39689299810744,1.2784222890692398,0.2505185445523387,0.722493761268324,4517.352973090277,11.946888888888887,0.14,178.89256572602952,-10.711593386533114,107.10024776671976,1553.0,1435.0,1200.0,1528.0,1471.0,998.74,108.0,293.1,1649411014.0677502,1649411015.184549,82a3add7-af07-457a-a56d-b0a492603521
0.0410187686706331,0.1607730466016173,0.0991132483396469,-0.1940394741360662,-0.0472924285396137,0.3293039234006688,-0.0932117236776657,-0.1151472902278065,-13.1566987124194,18.326350813618976,43.65261466978881,1.3044539029332485,0.3397089974826051,0.1246234563896065,4515.23779296875,11.948333333333332,0.14,178.89059559590896,-10.705198527058952,107.09635987126222,1553.0,1435.0,1200.0,1424.0,1471.0,998.74,108.0,293.1,1649411015.9972446,1649411017.2264664,9bc29f7a-0a86-4b69-b0fb-07590b85eda3
0.0510572925727582,0.1699518477174675,0.1020969908968314,-0.1993874540352925,-0.0455350546575066,0.3285832737349606,-0.0892165427158184,-0.1125428367845812,-13.060244206865985,18.13613246559572,44.15694695545626,1.313914775573974,0.3698268949114877,0.1143949762719646,4530.35205078125,11.948,0.14,178.8876950422414,-10.717502543666296,107.0906316192783,1553.0,1435.0,1200.0,1424.0,1471.0,998.74,108.0,293.1,1649411017.334399,1649411018.4606256,9bc29f7a-0a86-4b69-b0fb-07590b85eda3
0.0628289157170175,0.1680053350308044,0.0948722881485474,-0.1961083709825533,-0.049566141630468,0.3274464173632224,-0.0945872796959985,-0.1146390429889237,-13.080035416234306,17.89720205399906,44.10796870169088,1.3020018891875231,0.3622346741667297,0.1371886772440671,4552.005859375,11.943888888888884,0.1344444444444444,178.8971738269896,-10.72143208430504,107.10443087813144,1553.0,1435.0,1200.0,1424.0,1471.0,998.74,108.0,293.1,1649411018.5749257,1649411019.6951828,9bc29f7a-0a86-4b69-b0fb-07590b85eda3
0.133200737071295,0.1924619091467632,0.2881186694578134,-0.2068114109436416,0.1235890402816662,0.3026348291624135,0.1010653239407261,0.079343678061287,-11.773274191208294,18.134728495554224,44.07377115767027,1.2822396836330958,0.4585884455505374,-0.6370051148226731,4567.367838541667,11.941666666666668,0.13,178.86006009685957,-10.730647527315204,107.09866619847196,1553.0,1435.0,1200.0,1304.0,1471.0,998.74,108.0,293.1,1649411021.5143323,1649411022.5639906,bbcd1cd2-b68a-4819-bd68-e0800f6e4bf3
0.1272438720545692,0.1939229315229188,0.283789208597105,-0.2131303714298133,0.117723710398186,0.3076338620330822,0.0966605107529046,0.072385994934116,-11.810089193007537,18.22468266481632,44.12620124207872,1.3080977694124185,0.4643691088905402,-0.616710614166842,4567.367838541667,11.945333333333332,0.14,178.87392082741522,-10.738833509035466,107.12254909326975,1553.0,1435.0,1200.0,1304.0,1471.0,998.74,108.0,293.1,1649411022.6733456,1649411023.7254171,bbcd1cd2-b68a-4819-bd68-e0800f6e4bf3
0.1183937882574206,0.1900921096082002,0.2877085313118432,-0.2005379649963925,0.1250060651343954,0.303575466606921,0.1008959081170917,0.0801108538943726,-11.824113687719318,18.104978987095432,44.69664734897646,1.2700581280444931,0.4437406493685103,-0.6375114498358455,4564.125,11.943,0.13,178.87714923016293,-10.7225696902568,107.13134637692076,1553.0,1435.0,1200.0,1304.0,1471.0,998.74,108.0,293.1,1649411023.8340929,1649411024.9138267,bbcd1cd2-b68a-4819-bd68-e0800f6e4bf3
0.1699118959310719,0.2218755413912888,0.4740280715525126,-0.2055228385749438,0.2895255798766099,0.2635043114361987,0.283674410388596,0.2565749489233069,-10.501319107771469,18.46150965420124,44.18480903037718,1.203482770648172,0.5705532944591344,-1.3719457382272475,4566.016276041667,11.931333333333336,0.1277777777777777,178.8593148473301,-10.747905612936792,107.07869776097849,1553.0,1435.0,1200.0,1166.0,1471.0,998.74,108.0,293.1,1649411027.0575998,1649411028.0965605,d1d5481a-011d-4b60-916e-3f8c6bbc96f7
0.1768169840762793,0.2187284516563488,0.4648239849551713,-0.2190599289798432,0.2789343056300877,0.2774045053048162,0.2777332227687558,0.2516128335267478,-10.499547167877544,18.52175767703604,43.891535092506885,1.2651499533493398,0.5624207700280084,-1.3374514887990103,4559.26953125,11.923111111111112,0.1255555555555555,178.87298585040884,-10.7240612328168,107.03459978296712,1553.0,1435.0,1200.0,1166.0,1471.0,998.74,108.0,293.1,1649411028.2048194,1649411029.2035065,d1d5481a-011d-4b60-916e-3f8c6bbc96f7
0.1695174350440539,0.2100417153047457,0.4714377786010024,-0.2000266830404847,0.2903407989663014,0.2706046070047211,0.2844370346671837,0.2650558575458265,-10.516418120695162,18.42418734699972,44.25876055318056,1.2066678969800813,0.5247791502410072,-1.3718856987575612,4547.712456597223,11.927666666666669,0.1288888888888889,178.87001395920998,-10.71385455860334,107.01488102683332,1553.0,1435.0,1200.0,1166.0,1471.0,998.74,108.0,293.1,1649411029.312374,1649411030.641183,d1d5481a-011d-4b60-916e-3f8c6bbc96f7
-0.0505391451334527,0.104365646770237,-0.2403800358892434,-0.142146116895009,-0.3494353382659867,0.356307803626977,-0.4474983344605773,-0.4726123501302969,-15.70680358506497,18.566903455390293,43.76705451874423,1.2315012654735833,0.1172745232997445,1.495257418809664,4540.753038194444,11.926111111111112,0.13,178.9255752713783,-10.739163634845347,107.05724489570537,1553.0,1435.0,1200.0,1623.0,1471.0,998.74,108.0,293.1,1649411031.4567692,1649411032.8012693,5ad4a846-64d2-4e18-88f9-e7e8b50b7b61
-0.0478568110293396,0.1214589515781489,-0.2240887994997779,-0.152454695679212,-0.3395475171000823,0.3494047385325604,-0.43352126750808,-0.4506540223926147,-15.480018537169776,18.599880349984147,43.93204171722457,1.2404130449720514,0.1806199462514022,1.4420384021030896,4542.891927083333,11.947555555555557,0.1311111111111111,178.95273817479756,-10.733839407523584,107.04286051731331,1553.0,1435.0,1200.0,1623.0,1471.0,998.74,108.0,293.1,1649411032.909027,1649411033.919584,5ad4a846-64d2-4e18-88f9-e7e8b50b7b61
-0.041492841840154,0.1187766176076078,-0.2313337319920047,-0.1534539968216916,-0.3462007585784183,0.3515348271390549,-0.4403717399608877,-0.4584249039003503,-15.512935094685346,18.614821093694324,43.676296506819945,1.2471347751361848,0.1727232003235106,1.4700064291044217,4552.005859375,11.949,0.1333333333333333,178.93864369999028,-10.760033562445535,107.04898112571956,1553.0,1435.0,1200.0,1623.0,1471.0,998.74,108.0,293.1,1649411034.0277607,1649411035.2617424,5ad4a846-64d2-4e18-88f9-e7e8b50b7b61
-0.1125221022111097,0.0859443235736529,-0.3971914120609585,-0.1185442057519043,-0.4967796600199872,0.3566891156985072,-0.6229940329792618,-0.6347752692640776,-17.019338170406247,19.45257333121908,43.0623129005595,1.1764080121972762,0.0508873804277796,2.1552679634986203,4542.3564453125,11.947,0.14,178.9343452342726,-10.791502520681508,107.05897369247528,1553.0,1435.0,1200.0,1712.0,1471.0,998.74,108.0,293.1,1649411035.932289,1649411036.8970652,844afa58-f100-4c9d-a911-7fe556d4539f
-0.113010626872647,0.0966731538563453,-0.4050760797682456,-0.1107096050417745,-0.5004294354370974,0.3424146898467187,-0.628060328237077,-0.64974304157755,-16.76025313474341,18.733633709546773,43.51023143157364,1.1217018078280216,0.0838467405581484,2.180674968753694,4537.281195746527,11.93688888888889,0.13,178.95828732404323,-10.76764808500524,107.00593651466022,1553.0,1435.0,1200.0,1712.0,1471.0,998.74,108.0,293.1,1649411037.0052042,1649411038.223647,844afa58-f100-4c9d-a911-7fe556d4539f
-0.0905061262887632,0.0963697223993103,-0.4006510368828762,-0.1157794394876398,-0.4980778411077055,0.3488120357178627,-0.6237237856272906,-0.6538267251027594,-16.7921643367529,18.911604535706367,43.74535400995987,1.148935346895753,0.0817584097989468,2.165420971887156,4539.9501953125,11.927,0.12,178.9567512903899,-10.770826494562757,106.9777392170367,1553.0,1435.0,1200.0,1712.0,1471.0,998.74,108.0,293.1,1649411038.331422,1649411039.5658965,844afa58-f100-4c9d-a911-7fe556d4539f
-0.1306673041989507,0.0881796018955249,-0.517712389878249,-0.0710774095541822,-0.6072681866939827,0.3187288323643647,-0.764474059232208,-0.7917050212192249,-17.73246159192054,19.7104773147415,43.182837793589925,0.9794015050123543,0.0497699443173704,2.6717302012561577,4542.3564453125,11.928555555555556,0.1211111111111111,178.96557589479755,-10.772467921829543,106.9309023331682,1553.0,1435.0,1200.0,1801.0,1471.0,998.74,108.0,293.1,1649411040.468484,1649411041.496976,a284efdc-a12d-476a-bb71-f0e7564c19ef
-0.1535591860514504,0.0780551058940667,-0.5319261343437247,-0.0570740475778401,-0.6150522173447106,0.3196360923114159,-0.7775701665039163,-0.8054454152320774,-17.921990745391863,19.55633070023349,43.63212843525596,0.9480986947435044,0.0065285143860001,2.7198154219399897,4543.4267578125,11.918222222222225,0.1244444444444444,178.97436862498907,-10.774498575015286,106.88654177232878,1553.0,1435.0,1200.0,1801.0,1471.0,998.74,108.0,293.1,1649411041.6232357,1649411042.6328475,a284efdc-a12d-476a-bb71-f0e7564c19ef
-0.1555036761145932,0.0814762954536094,-0.5163343054394951,-0.0605296263768624,-0.6059856831060288,0.3151690758340621,-0.7655274733952476,-0.7924317403882143,-17.68951306636551,19.97745343741556,43.12168663508433,0.94945934987917,0.0236597047248852,2.668720339375704,4547.17578125,11.907,0.12,178.9941640310236,-10.781955623769123,106.80950786322975,1553.0,1435.0,1200.0,1801.0,1471.0,998.74,108.0,293.1,1649411042.7407153,1649411043.9564736,a284efdc-a12d-476a-bb71-f0e7564c19ef
-0.005482101893196,0.1334136448037826,-0.1329486033642348,-0.1319624511023804,-0.223940118046791,0.3408848897757551,-0.3025035880922558,-0.3331248835698864,-14.219262477246769,14.920624565911256,47.95903122795082,1.156466824166258,0.184035257098158,0.9834991888973112,7558.5771484375,11.637222222222222,7.571111111111112,-178.8669009107683,-10.772849274058204,93.87584267814591,1553.0,1435.0,1350.0,1528.0,1471.0,998.74,108.0,293.1,1649411048.43238,1649411049.5951378,0b2e1ed5-8506-4ff7-b78a-d70b0876b7b6
-0.0243454242160198,0.1241336997733841,-0.1459202988729463,-0.1459961567557876,-0.2336878545357205,0.3440582768136359,-0.3073964210182292,-0.3279791909957467,-14.02535283068689,14.455776479457668,45.21790340991242,1.1911876698248212,0.1730495526564262,1.0166385045099675,7570.446017795139,11.64111111111111,7.583333333333333,-178.31044084562785,-10.630446565188867,88.2474731039211,1553.0,1435.0,1350.0,1528.0,1471.0,998.74,108.0,293.1,1649411049.7039282,1649411050.8301866,0b2e1ed5-8506-4ff7-b78a-d70b0876b7b6
-0.0277524538150335,0.1226291855234907,-0.1517446660604011,-0.1478395030880054,-0.2376188094734076,0.3463279439122785,-0.3117380199958031,-0.3333544801849685,-14.11241947268781,14.317166493673485,45.05278058609501,1.199167026942871,0.1693417960240363,1.035678272831756,7571.93115234375,11.64011111111111,7.557777777777777,-178.0429159962168,-10.56706686828686,83.62663232326393,1553.0,1435.0,1350.0,1528.0,1471.0,998.74,108.0,293.1,1649411050.9632008,1649411052.0534315,0b2e1ed5-8506-4ff7-b78a-d70b0876b7b6
0.1590788877308493,0.44976620052083,-0.101176799797772,-0.3194831093930422,-0.2695686281778109,0.1830499715631248,-0.3278654042202346,-0.3471459476057178,-13.265530677332574,13.61332769144956,45.0759923839223,1.2177276567710118,1.4144315018412146,1.0722199534799213,7571.93115234375,11.633666666666668,7.541111111111111,-178.30169820349025,-10.402637463390402,75.12171112516037,1658.0,1435.0,1350.0,1528.0,1551.0,998.74,108.0,293.1,1649411053.942777,1649411054.9845066,d3e7fb97-f082-4fdd-a292-5e09e7295bbc
0.1746044631663695,0.4449871555646231,-0.0821870470669778,-0.2789750045550173,-0.2513374527550376,0.1790042190389224,-0.3224921380198629,-0.3455276462963122,-13.715873078310976,14.612715773103195,49.21956559912375,1.1252643965600309,1.359203588853376,1.018748879918847,7571.93115234375,11.630555555555556,7.514444444444444,-178.50670101905885,-10.37641475448317,72.53691482622826,1658.0,1435.0,1350.0,1528.0,1551.0,998.74,108.0,293.1,1649411055.0921838,1649411056.2413476,d3e7fb97-f082-4fdd-a292-5e09e7295bbc
0.1892829591105958,0.449070836836441,-0.1054754122216765,-0.3157028584992449,-0.2706559243246597,0.1777652073148832,-0.3313422234842527,-0.3619635197547207,-13.31881067369587,13.35957329558794,44.6963482913188,1.195341218016584,1.414823101566359,1.0839910593919997,7578.6259765625,11.629,7.510000000000001,-178.71867973449972,-10.3478408478179,70.12287477436627,1658.0,1435.0,1350.0,1528.0,1551.0,998.74,108.0,293.1,1649411056.348819,1649411057.469587,d3e7fb97-f082-4fdd-a292-5e09e7295bbc
0.3323003088888865,0.7255347922788253,-0.0625904316165638,-0.4821729723134264,-0.304083960604967,0.0527008795596306,-0.3468551589919612,-0.3649978346239689,-12.76202897707294,13.29014771547068,43.73821020581208,1.2916234581849697,2.479495748665867,1.1242104555436938,7571.93115234375,11.601444444444446,7.538888888888888,-179.59487006160734,-10.416356467520806,65.48016069234708,1767.0,1435.0,1350.0,1528.0,1630.0,998.74,108.0,293.1,1649411059.5171268,1649411060.7536252,5f31c836-31b1-46b1-ab23-8979c43d008c
0.3360851102685508,0.7196325453897604,-0.0541418881853596,-0.4677473316830363,-0.2992862028858297,0.0559258502012743,-0.3443073458288881,-0.3715908956109672,-12.77345535048368,14.022160375968026,45.29557559432578,1.2718454695912198,2.4424086191423298,1.103832315460145,7578.6259765625,11.584222222222222,7.585555555555556,-179.88159229604557,-10.479246667532298,64.11376541177798,1767.0,1435.0,1350.0,1528.0,1630.0,998.74,108.0,293.1,1649411060.8663568,1649411061.9150836,5f31c836-31b1-46b1-ab23-8979c43d008c
0.3422649970691299,0.7192249358445831,-0.0487377738397119,-0.4625404468873812,-0.2895298689077774,0.0529016500578882,-0.3392187995010408,-0.3594152004599442,-13.10527864297741,13.79681262134568,45.53522918179984,1.2519506337630972,2.4408020468325446,1.0761272062247658,7571.93115234375,11.587333333333332,7.546666666666665,179.90022960556078,-10.459972822331906,63.1238137305844,1767.0,1435.0,1350.0,1528.0,1630.0,998.74,108.0,293.1,1649411062.023465,1649411063.057459,5f31c836-31b1-46b1-ab23-8979c43d008c
0.5076492848437483,1.0044727279522414,0.0141655904948978,-0.6229151408378425,-0.3122508193575458,-0.0879603363338249,-0.3444519815437835,-0.371617193359143,-12.273172771556387,14.44332497904597,44.4593844341039,1.3048463008171474,3.53804470027628,1.0606887073084308,7578.6259765625,11.557666666666668,7.586666666666667,179.40541882786894,-10.510392994193726,61.62111747166824,1886.0,1435.0,1350.0,1528.0,1710.0,998.74,108.0,293.1,1649411064.0214057,1649411065.1607802,d1570752-63a9-41a6-8952-d1a89d6663e4
0.5159592601180844,1.0047225531675574,0.0135213043963715,-0.6227442079208894,-0.3137760682857445,-0.0817935974620483,-0.3458062974407404,-0.3670677430685194,-12.350508547527737,14.597928726632226,45.383509117365854,1.3194193914107537,3.531279298759307,1.0667902306347066,7571.93115234375,11.529444444444444,7.524444444444445,179.11854025798968,-10.573023647016758,60.81016911151261,1886.0,1435.0,1350.0,1528.0,1710.0,998.74,108.0,293.1,1649411065.269353,1649411066.3861866,d1570752-63a9-41a6-8952-d1a89d6663e4
0.5157225836075457,1.0022505984287091,0.0086299893104576,-0.623283304547613,-0.3179573543494373,-0.0847783516633338,-0.3494879330235002,-0.3783624752853805,-12.23897865588483,14.501693652562818,44.512395259597405,1.3129640920518852,3.5286939034958937,1.0829795881825606,7571.93115234375,11.52775,7.5725,178.91969789359752,-10.584025706245438,60.174762304850645,1886.0,1435.0,1350.0,1528.0,1710.0,998.74,108.0,293.1,1649411066.494519,1649411067.6242142,d1570752-63a9-41a6-8952-d1a89d6663e4
-0.2204203126457916,-0.2621542794227812,-0.1812634915092972,0.0416858119264904,-0.1790808077151193,0.5484759828876633,-0.2659674019259077,-0.2874786721031254,-15.083466489996995,15.880583680859058,45.051961202271066,1.2343032950998167,-1.2921294941252808,0.8847982480862675,7571.93115234375,11.593666666666666,7.576666666666666,179.3372808607089,-10.632494293847536,58.82709654135057,1449.0,1435.0,1350.0,1528.0,1386.0,998.74,108.0,293.1,1649411069.6470363,1649411070.7819855,6e9b3e23-71fc-4197-9b6e-7341d3d78ebc
-0.2348181366189153,-0.2691230893266902,-0.1960820736347768,0.0306540556516828,-0.1913090964215303,0.5582323145845003,-0.2738960668120128,-0.2974848314603103,-14.985873399656931,15.560976026054512,43.940522538212406,1.278127386379727,-1.3086934494345628,0.9306335890815144,7571.93115234375,11.619666666666667,7.62,179.10968074372627,-10.669687709517884,58.45192639280029,1449.0,1435.0,1350.0,1528.0,1386.0,998.74,108.0,293.1,1649411070.8901184,1649411072.0178735,6e9b3e23-71fc-4197-9b6e-7341d3d78ebc
-0.2235608284883974,-0.2565842886874867,-0.1839883063568533,0.0367833710603187,-0.182306790188327,0.5455367438452269,-0.2663320254690741,-0.3019346543143607,-14.853390172795647,15.620362019629969,44.758401601749554,1.2369654390473572,-1.269838811140861,0.8939101638069553,7571.93115234375,11.625333333333336,7.604444444444444,178.9745871910425,-10.634734026712868,58.12210794142899,1449.0,1435.0,1350.0,1528.0,1386.0,998.74,108.0,293.1,1649411072.1300137,1649411073.244445,6e9b3e23-71fc-4197-9b6e-7341d3d78ebc
-0.4188473189041894,-0.6174321320683863,-0.2235497030563724,0.2078064366927059,-0.1414360874610736,0.7365154697867794,-0.237684552930677,-0.2703722163082718,-15.855915100200589,17.31525078871147,43.97620098592228,1.2889703971299575,-2.632745205503885,0.80671842211733,7578.6259765625,11.630000000000004,7.62,178.92744674321088,-10.674875333056248,57.7399603751866,1342.0,1435.0,1350.0,1528.0,1293.0,998.74,108.0,293.1,1649411073.9453208,1649411074.9920638,ecc51c5b-8d7e-46af-8781-4907c2994142
-0.4225992495931701,-0.6248237247117093,-0.2144958130219673,0.2284129715724848,-0.1322911684067325,0.7378490508578713,-0.2348130794935567,-0.2611736901192126,-16.11107528293513,17.89021274329533,45.872911767009214,1.2499200588708337,-2.6774260968959736,0.7793799218548065,7578.6259765625,11.576888888888888,7.602222222222222,178.82467668131923,-10.689424015443327,57.47804235217421,1342.0,1435.0,1350.0,1528.0,1293.0,998.74,108.0,293.1,1649411075.1011972,1649411076.2201583,ecc51c5b-8d7e-46af-8781-4907c2994142
-0.4179400586838296,-0.6129747225422468,-0.2221033462595202,0.2004694646241004,-0.1439474886161238,0.7365023210601517,-0.2395122219310269,-0.2661514839481355,-15.917742928564705,17.591439538925236,43.63050613126883,1.3073079407976282,-2.611526009162896,0.8106005619539267,7573.418891059027,11.579666666666666,7.572222222222223,178.76232767893575,-10.71298333002921,57.25150964197688,1342.0,1435.0,1350.0,1528.0,1293.0,998.74,108.0,293.1,1649411076.3287506,1649411077.3392918,ecc51c5b-8d7e-46af-8781-4907c2994142
-0.6425855966440028,-0.9631115159683572,-0.2648497627212393,0.3831442905477783,-0.1095373481133197,0.8818742935205012,-0.2238652715060199,-0.2448768906796662,-16.506536908148796,19.30663953714722,39.31951653246029,1.2301667228989563,-3.907548322037195,0.7517619975692251,7558.5771484375,11.54588888888889,7.596666666666668,178.76582018233134,-10.704835388668078,56.79867986310861,1227.0,1435.0,1350.0,1528.0,1189.0,998.74,108.0,293.1,1649411078.9290478,1649411080.004349,9df5a162-7172-4427-8c8f-7e3e798967f2
-0.6463987198645695,-0.9597717451275786,-0.2638373130707993,0.3842224835018851,-0.1089982516080154,0.8793760414458752,-0.2256140483298779,-0.2477827527123371,-16.659214459183094,19.39338094196251,39.56749416884575,1.222708785333996,-3.896206449825637,0.7527584794400903,7551.91748046875,11.446666666666667,7.558888888888889,178.72838012094095,-10.72011072729186,56.63829677611295,1227.0,1435.0,1350.0,1528.0,1189.0,998.74,108.0,293.1,1649411080.1276228,1649411081.227746,9df5a162-7172-4427-8c8f-7e3e798967f2
-0.6373129676258344,-0.9583911312436764,-0.2572761126910889,0.3883511738654595,-0.1071705826338388,0.8925641826774438,-0.2231552418273589,-0.2489398382204748,-16.758928272966333,20.022279955742853,42.20116637295613,1.247896366370584,-3.913746448112679,0.7414146468240598,7551.91748046875,11.457,7.5675,178.72095646422306,-10.721290310447896,56.49582519616949,1227.0,1435.0,1350.0,1528.0,1189.0,998.74,108.0,293.1,1649411081.3376544,1649411082.3643053,9df5a162-7172-4427-8c8f-7e3e798967f2
-0.0188376375214582,0.1241412855673121,-0.1325475680664806,-0.1238036845749955,-0.2196708370208059,0.3341391033543683,-0.3028232025845669,-0.3283842721075583,-14.385253838868891,14.877834470359913,46.77896612449226,1.1223686061305558,0.1599121847232925,0.9747793642005872,7552.749938964844,11.470625,7.5775,178.3369290781391,-10.716116228708197,56.19124785117158,1553.0,1435.0,1350.0,1528.0,1471.0,998.74,108.0,293.1,1649411084.50238,1649411085.5319462,bcbd73d4-b8ed-4e48-a6e7-152a571a9c22
-0.0219811874241877,0.1275852324686697,-0.1292568537200933,-0.1251605289486784,-0.2145210990458081,0.3274833349088409,-0.2970418211456053,-0.3144764894142232,-14.273589730609292,14.494837280113092,46.17419244468694,1.1080576396223167,0.1777680172084898,0.9548352933008614,7558.5771484375,11.625222222222222,7.622222222222224,178.2857489528684,-10.695192015333667,56.25396279042625,1553.0,1435.0,1350.0,1528.0,1471.0,998.74,108.0,293.1,1649411085.6398551,1649411086.870257,bcbd73d4-b8ed-4e48-a6e7-152a571a9c22
-0.0232424508556669,0.1283620169664844,-0.1410942212581851,-0.1333627873676709,-0.2261662937252083,0.3297211417037652,-0.3083719532449219,-0.3315005135795622,-14.37070802444878,14.428277065130716,45.43936332388245,1.130391895248263,0.1881399014972672,1.0019088599190151,7565.248046875,11.629333333333332,7.643333333333334,178.27527751396084,-10.678934742152958,56.296066353199926,1553.0,1435.0,1350.0,1528.0,1471.0,998.74,108.0,293.1,1649411086.978738,1649411088.100633,bcbd73d4-b8ed-4e48-a6e7-152a571a9c22
-0.0001796371566336,0.1194472011071496,-0.1833672831417868,-0.4889167377863739,-0.3008246006354744,0.6825269281868362,-0.2485979720139306,-0.27843236843906,-14.203004702855278,13.449118051997742,47.88483616146343,2.717114566244257,0.1729226038713688,1.075885640410682,7565.248046875,11.623555555555557,7.6644444444444435,178.25723974327275,-10.553223782386535,56.45364185299175,1553.0,1522.0,1350.0,1528.0,1471.0,998.74,108.0,293.1,1649411090.1247785,1649411091.270085,c80f3b4a-2516-4b91-afb6-518a3278d9bf
0.0021871281992999,0.1234838507709277,-0.1754517672035594,-0.4867997971495399,-0.2948682402672401,0.679818297024327,-0.2428256936094954,-0.2655334949862175,-14.171769367829064,13.575869099823755,48.38986783640852,2.707583226835772,0.1836086457706725,1.0499537700376096,7565.248046875,11.619555555555555,7.639999999999999,178.25438320637988,-10.54298950282518,56.48245842110004,1553.0,1522.0,1350.0,1528.0,1471.0,998.74,108.0,293.1,1649411091.391791,1649411092.4896212,c80f3b4a-2516-4b91-afb6-518a3278d9bf
-0.0020730494491181,0.119710175012445,-0.1932945497056553,-0.4960959277288456,-0.3099497971282793,0.6849462880613095,-0.2561190271517046,-0.2734227136822949,-14.180893802297897,13.264573097196768,47.26090801686127,2.736939674429156,0.1795337262073748,1.1117349047734626,7565.248046875,11.603555555555555,7.645555555555556,178.28797559453778,-10.523969228397725,56.49992625044739,1553.0,1522.0,1350.0,1528.0,1471.0,998.74,108.0,293.1,1649411092.600074,1649411094.0383728,c80f3b4a-2516-4b91-afb6-518a3278d9bf
0.0041518469076061,0.1265864372928529,-0.2136613765012715,-0.8858507449242327,-0.3767810914258236,1.0642654090793413,-0.176870309316436,-0.1943429056033132,-14.085216699333069,13.0571426309582,51.3473710743574,4.4668221176315885,0.2151209866902874,1.121020742281723,7565.248046875,11.608777777777778,7.635555555555555,178.33485497736112,-10.378830080128417,56.57532015523572,1553.0,1613.0,1350.0,1528.0,1471.0,998.74,108.0,293.1,1649411094.9480731,1649411096.0860825,f4809d14-d15f-4708-aba4-088e90fa288d
0.0266568522548532,0.1179088036703435,-0.2194999039996522,-0.8872960910392608,-0.3809527690101755,1.0666003139786084,-0.1809873687821806,-0.2029719909631452,-14.11289028799002,13.055233199432603,50.24389270403712,4.474836098870355,0.1923583416118013,1.1378854934925082,7571.188585069444,11.598333333333334,7.638888888888889,178.38582488458738,-10.394003724824554,56.62717153631987,1553.0,1613.0,1350.0,1528.0,1471.0,998.74,108.0,293.1,1649411096.194728,1649411097.407709,f4809d14-d15f-4708-aba4-088e90fa288d
0.0259731200552925,0.1175406401864833,-0.2371980510622556,-0.9170121607349864,-0.397362345008895,1.076382943464984,-0.1876669070313128,-0.2123075662108397,-13.849656063752116,12.378226516337586,47.60778970491905,4.558194232957464,0.2150033464302966,1.190309541241892,7565.248046875,11.601666666666668,7.593333333333334,178.40231447906365,-10.394171918232864,56.680344179553465,1553.0,1613.0,1350.0,1528.0,1471.0,998.74,108.0,293.1,1649411097.516393,1649411098.6307948,f4809d14-d15f-4708-aba4-088e90fa288d
0.0203586266996521,0.1142008714031687,-0.2360409655810524,-1.2033646641903113,-0.4316804492822029,1.3969218581296865,-0.1137975258632502,-0.1386880095303022,-14.477438353673984,12.977760299602744,55.50505825714245,5.929403921974763,0.1722668227209361,1.1378389858944875,7570.260375976562,11.59275,7.629999999999999,178.47258005015013,-10.27961249923102,56.77906545708711,1553.0,1710.0,1350.0,1528.0,1471.0,998.74,108.0,293.1,1649411100.4771297,1649411101.6161766,8cb654fc-c34f-4b05-976e-45d9a0adeb28
0.0190043109392061,0.1187371715119921,-0.256197919510635,-1.2355132536035942,-0.455190323662452,1.404061600551732,-0.1269988177833626,-0.1470374324112765,-14.126963729979758,12.638442556691796,52.81888603463544,6.0144623863454765,0.2132821910453815,1.2129950180750786,7565.248046875,11.575,7.610000000000001,178.4808343337621,-10.285692861696212,56.79960042082675,1553.0,1710.0,1350.0,1528.0,1471.0,998.74,108.0,293.1,1649411101.724722,1649411102.9426572,8cb654fc-c34f-4b05-976e-45d9a0adeb28
0.0191969899268706,0.1148158257832985,-0.2562049996307055,-1.226060850350559,-0.4481633553745254,1.4011248896659498,-0.1244398790836813,-0.155630106189625,-14.346699941607428,12.196106455615071,53.10871706996314,5.983543838113004,0.1963894904073214,1.1998353543162932,7565.248046875,11.553250000000002,7.59125,178.51150188313545,-10.295628439061057,56.83684288104989,1553.0,1710.0,1350.0,1528.0,1471.0,998.74,108.0,293.1,1649411103.0556996,1649411104.2713835,8cb654fc-c34f-4b05-976e-45d9a0adeb28
0.0505389305111739,0.1261439331015505,-0.2681526144907863,-1.4051108623011386,-0.4916678502186608,1.5697190050195915,-0.1054754121325752,-0.135376055238399,-14.563664622738676,13.235253336937172,55.22948254509208,6.772812852383284,0.2429212090866003,1.2505883169732028,7565.248046875,11.563888888888888,7.585555555555555,178.54670012465826,-10.202514343665108,56.87003522882268,1553.0,1814.0,1350.0,1528.0,1471.0,998.74,108.0,293.1,1649411104.928528,1649411106.0082948,7f2a0b38-b4ea-40f7-baf8-4decebc838a0
0.0523974481506647,0.1331481422820072,-0.2719455080777024,-1.4137839523001317,-0.4981916279970092,1.5666973326118436,-0.1089648740387538,-0.1404964616224621,-14.368151109227425,13.162336333034888,54.61236294928252,6.784914924825421,0.2741031280234087,1.2696800444451624,7565.248046875,11.518222222222224,7.599999999999999,178.56993339257502,-10.19016621541937,56.88128834493523,1553.0,1814.0,1350.0,1528.0,1471.0,998.74,108.0,293.1,1649411106.1173527,1649411107.2350538,7f2a0b38-b4ea-40f7-baf8-4decebc838a0
0.0477321895713093,0.1332745720408302,-0.2853597087296568,-1.416691840075814,-0.5113276847634142,1.5638400193925543,-0.1207987014011648,-0.1468053072011041,-14.184006014241351,13.009626855736997,53.74729592242336,6.783328172945511,0.2804460945879237,1.321666861927928,7571.93115234375,11.522111111111112,7.588888888888889,178.57562521688337,-10.196892433932016,56.90827062779642,1553.0,1814.0,1350.0,1528.0,1471.0,998.74,108.0,293.1,1649411107.3433268,1649411108.583012,7f2a0b38-b4ea-40f7-baf8-4decebc838a0
-0.0332880550808474,0.1336346440363557,-0.1161248453519216,0.189319370741107,-0.1710863996891811,0.0057372762528342,-0.3749306648234162,-0.387119509232088,-14.353602405203562,15.223701378126115,42.18972602420617,-0.319528128921708,0.1984631775953119,0.986186942865682,7568.218315972223,11.579777777777776,7.593333333333334,178.61697062865915,-10.715554042478074,56.96863318349632,1553.0,1349.0,1350.0,1528.0,1471.0,998.74,108.0,293.1,1649411109.4898918,1649411110.7183456,fbb5aa55-7ace-4205-afe7-0371c9ccc68c
-0.037535084091022,0.1287827752321397,-0.1130349016696495,0.1946708898585671,-0.1690352029727855,0.0116804870042656,-0.3725113042975143,-0.3976647651093842,-14.327159532250873,15.502378991259675,43.07650456550069,-0.316088742382663,0.1717607932709479,0.9763512381388024,7566.733181423611,11.634333333333334,7.633333333333334,178.63161000078023,-10.733782204689286,57.13124936289561,1553.0,1349.0,1350.0,1528.0,1471.0,998.74,108.0,293.1,1649411110.8269598,1649411112.0631876,fbb5aa55-7ace-4205-afe7-0371c9ccc68c
-0.0363056809590919,0.1335400745647779,-0.1048685493244158,0.2009144974143194,-0.161686092575079,0.0090699650175045,-0.3679815775772794,-0.3902711505184815,-14.470435231510653,15.652371688889684,44.23250410779273,-0.3345258815880101,0.1801235588250908,0.9508595389867232,7571.93115234375,11.633333333333333,7.649999999999999,178.65821889996676,-10.726252015993085,57.2404527040755,1553.0,1349.0,1350.0,1528.0,1471.0,998.74,108.0,293.1,1649411112.1722076,1649411113.288658,fbb5aa55-7ace-4205-afe7-0371c9ccc68c
-0.0514519680903701,0.13308492740158,-0.090657842222563,0.4737878549568531,-0.1234157979227104,-0.272944303311373,-0.4332572817481374,-0.4461404787966306,-14.329573978836626,16.509326098616622,39.59409984031245,-1.5780650677853814,0.1858484244703402,0.9678441940104132,7571.93115234375,11.625888888888888,7.632222222222222,178.70247397232902,-10.841692932568748,57.51040682410136,1553.0,1264.0,1350.0,1528.0,1471.0,998.74,108.0,293.1,1649411115.5462325,1649411116.6584594,a7111f28-6f10-4bda-b0ff-c34d29b3a9d9
-0.0420582357423314,0.1365111741306756,-0.0801388846702005,0.4841550953208522,-0.1157162243420516,-0.2731213050206691,-0.4287816668660399,-0.4433716661765573,-14.474479844584314,16.97078711968642,41.45512874176419,-1.598042196965129,0.1826285314464011,0.9394858434466996,7571.93115234375,11.619888888888887,7.648888888888889,178.70377777955056,-10.852409119921544,57.6738767771469,1553.0,1264.0,1350.0,1528.0,1471.0,998.74,108.0,293.1,1649411116.767166,1649411117.999499,a7111f28-6f10-4bda-b0ff-c34d29b3a9d9
-0.0385308450204434,0.1295954657867426,-0.0797848813053954,0.4943074050731973,-0.1099004544664514,-0.2717937922293508,-0.4271127934869636,-0.4547629907965351,-14.713047070969589,16.791155341412793,42.02042539577874,-1.6191633728091537,0.1521381594986628,0.9286622934598164,7571.93115234375,11.618666666666668,7.646666666666666,178.7287428798769,-10.835718604047234,57.76787991178388,1553.0,1264.0,1350.0,1528.0,1471.0,998.74,108.0,293.1,1649411118.1081307,1649411119.3173115,a7111f28-6f10-4bda-b0ff-c34d29b3a9d9
-0.0377849093162297,0.1334010018242703,-0.0537909191548252,0.8099772288089256,-0.0615410644265247,-0.5957827966606013,-0.4996329276665834,-0.522579937274499,-14.71233204419087,18.38179480607385,37.61996233772938,-3.0481459406548126,0.1682165085726958,0.926985142910782,7571.93115234375,11.619,7.63,178.74658333398895,-10.969897670292132,57.98778695903133,1553.0,1178.0,1350.0,1528.0,1471.0,998.74,108.0,293.1,1649411120.9280307,1649411121.8964093,b3b2d31d-33af-4743-b54f-223f73bf84b8
-0.05576322346597,0.1379524734938669,-0.0426650988440118,0.8074739195688415,-0.0541828514064469,-0.5897268087421276,-0.4895944012419848,-0.5068647129705369,-14.661208672742124,18.62493604085893,38.86468304760103,-3.026500520785509,0.1749111798474689,0.8897248605376473,7571.93115234375,11.614333333333336,7.640000000000001,178.7699516878693,-10.968758736248033,58.06684639867423,1553.0,1178.0,1350.0,1528.0,1471.0,998.74,108.0,293.1,1649411122.005843,1649411123.1194742,b3b2d31d-33af-4743-b54f-223f73bf84b8
-0.0340112333841145,0.1352256362344168,-0.0542602265536786,0.7912797844714343,-0.0619390654008428,-0.5861382249768545,-0.4930322805048341,-0.5266009114551458,-14.582308307692028,17.99478924290306,36.82563194534382,-2.986946492023607,0.1834455918126112,0.917955307151929,7571.93115234375,11.608,7.61,178.80025496048694,-10.969404616011424,58.13557005455561,1553.0,1178.0,1350.0,1528.0,1471.0,998.74,108.0,293.1,1649411123.2285736,1649411124.3481205,b3b2d31d-33af-4743-b54f-223f73bf84b8
-0.0589113249154309,0.1308597634675539,-0.01047607809944,0.99287052153181,-0.0103370053303003,-0.7633528794634769,-0.5148803621987111,-0.5422144866964947,-14.84402021698238,19.99525261647758,37.4756208329929,-3.824497450984663,0.1411518854703244,0.8202478336564034,7571.93115234375,11.598666666666666,7.613333333333333,178.89644375565828,-11.031134015887098,58.225910879705125,1553.0,1088.0,1350.0,1528.0,1471.0,998.74,108.0,293.1,1649411125.9284642,1649411127.011015,b74e1f96-6671-421f-853c-33d1b717a8bf
-0.0483301640734565,0.1340159562118183,-0.0199158308182812,0.978175337389998,-0.0197317490360348,-0.7575315445035313,-0.5200923044631282,-0.5506893291618045,-14.7847497545933,19.70700974725107,36.76629559859512,-3.780731467740567,0.1600627304107944,0.852744291207212,7571.93115234375,11.585666666666668,7.623333333333333,178.88102422415204,-11.039932532766676,58.27141663559538,1553.0,1088.0,1350.0,1528.0,1471.0,998.74,108.0,293.1,1649411127.11951,1649411128.242694,b74e1f96-6671-421f-853c-33d1b717a8bf
-0.0689210232006176,0.1326616405404553,-0.0037955288878289,0.9935856082912836,-0.0061228481506827,-0.7545073430822568,-0.5098757648411483,-0.5336880601510225,-14.932819550167066,20.295654784218872,39.11853220155204,-3.803692170928815,0.1343180012025737,0.8006322837472524,7565.248046875,11.582555555555556,7.61888888888889,178.90521371855257,-11.052362528418712,58.31620901617233,1553.0,1088.0,1350.0,1528.0,1471.0,998.74,108.0,293.1,1649411128.3510857,1649411129.4702313,b74e1f96-6671-421f-853c-33d1b717a8bf
-0.010738040451817,0.1319779083479954,-0.1428035519079099,-0.1522048704883156,-0.2299531186548963,0.3485632221065007,-0.3042958567958883,-0.336628506493342,-14.303463209786823,14.301368698538973,46.164895659815,1.2144587881598314,0.1970047245618098,1.004987890306342,7569.703450520833,11.618,7.626666666666665,178.91524802535324,-10.694565630068531,58.34876017993679,1553.0,1435.0,1350.0,1528.0,1471.0,998.74,108.0,293.1,1649411130.583148,1649411131.81835,5b43f858-c5dc-4884-9857-e74b72516fed
-0.0218223916475537,0.1260215490888589,-0.152651926047178,-0.1713756711474555,-0.2404457793781545,0.358411594886782,-0.308003789625651,-0.3382852419105803,-14.139497281017036,14.146608574037772,44.175703138784336,1.2780831668240955,0.1928677853510931,1.034466787472975,7573.418891059027,11.638666666666667,7.592222222222222,178.94245039208772,-10.674637699391376,58.33944380190888,1553.0,1435.0,1350.0,1528.0,1471.0,998.74,108.0,293.1,1649411131.9274094,1649411133.0414517,5b43f858-c5dc-4884-9857-e74b72516fed
