raw_voltage_G-,raw_voltage_G0,raw_voltage_G1,raw_voltage_G2,raw_voltage_G3,raw_voltage_G4,raw_voltage_G5,raw_voltage_G6,load_x,load_y,load_z,load_l,load_m,load_n,rpm,voltage,current,roll,pitch,yaw,aileron1_pwm,elevator_pwm,throttle_pwm,rudder_pwm,aileron2_pwm,pbaro,pdiff,Tt,sample_start_time,sample_end_time,uid
0.0375702701960925,0.1522269000390571,0.1967878300425299,-0.0326043228456973,-0.0230978152019305,-0.1027920664117046,-0.1598311146316085,-0.1851292088959418,-11.213297380685669,26.99139202022612,2.198904556596024,0.0259938147159305,0.6477669004370071,-0.0069025059934208,4597.58447265625,11.966666666666663,0.1477777777777777,178.56566224761406,5.764665477361861,77.75758130197612,1553.0,1435.0,1200.0,1528.0,1471.0,999.0,107.0,293.85,1649417427.418748,1649417428.3992832,fda59485-3312-4b25-91b1-8e9f99ed59f2
0.0415806225541339,0.1535417696233226,0.1958016778684282,-0.0294091895741725,-0.0255829188575363,-0.1063290659091209,-0.1630393967752516,-0.1928474938159016,-11.148206566987088,27.140516422598647,2.2791586350016138,0.0118232846368997,0.6510730971304494,0.0026790611976529,4607.192979600694,11.963666666666668,0.15,178.56112548418534,5.777115963581409,77.19069685034248,1553.0,1435.0,1200.0,1528.0,1471.0,999.0,107.0,293.85,1649417428.5076587,1649417429.6280146,fda59485-3312-4b25-91b1-8e9f99ed59f2
0.0320346690591318,0.1576967575075828,0.1924487604441269,-0.0329724863573621,-0.0293302974015284,-0.1066446346370462,-0.1671549390674498,-0.1860890633827926,-11.226352676574548,27.104274480355112,2.31866876583281,0.0187118403655162,0.6670852959455122,0.0187006381991791,4608.844672309027,11.960444444444445,0.15,178.57937574964757,5.805652114478768,76.65371496689515,1553.0,1435.0,1200.0,1528.0,1471.0,999.0,107.0,293.85,1649417429.7361386,1649417430.8643138,fda59485-3312-4b25-91b1-8e9f99ed59f2
0.2164653588547588,0.5184807752549012,0.2176032267335011,-0.1658203462633128,-0.0854868640885449,-0.3343638953901605,-0.2365451674936675,-0.2590623125319934,-11.13104735615715,26.60203520511198,2.644771483611734,-0.1953084435012341,2.034622485960658,0.2029193034475885,4613.25439453125,11.948555555555554,0.14,178.33974539280683,5.831014314414317,75.61292998225869,1658.0,1435.0,1200.0,1528.0,1551.0,999.0,107.0,293.85,1649417432.996173,1649417434.132867,31138e20-2265-4cb8-aae7-23338b58ecae
0.2523334832875478,0.5261929906102882,0.218273304496159,-0.1667179977078756,-0.0855880079128718,-0.3410899603648719,-0.2360900202751259,-0.2670147466617492,-10.992494166726887,26.42869331421896,2.651010239250489,-0.2094429281436487,2.0626621028811494,0.2025977862645556,4614.08251953125,11.933666666666666,0.14,178.39275221422562,5.857458672446492,75.36250413197982,1658.0,1435.0,1200.0,1528.0,1551.0,999.0,107.0,293.85,1649417434.2415743,1649417435.5666034,31138e20-2265-4cb8-aae7-23338b58ecae
0.2235980205194039,0.5276484500056938,0.2214021883489479,-0.1754517670739069,-0.0832531027609131,-0.3342485914202614,-0.2308603785852454,-0.2529238935130332,-11.019240450246077,26.37469675662728,2.71593850472744,-0.1745734803808617,2.069007559318631,0.1879012171537221,4615.73876953125,11.929222222222222,0.14,178.42816750398202,5.8706260913695445,75.15891364774961,1658.0,1435.0,1200.0,1528.0,1551.0,999.0,107.0,293.85,1649417435.6751664,1649417436.8025963,31138e20-2265-4cb8-aae7-23338b58ecae
0.4760529706182867,0.9216753937400888,0.2458061673791922,-0.308516588825704,-0.1502983090960797,-0.5941720808120593,-0.3176417854090201,-0.3421904052817932,-10.952614362654742,26.31685493939821,2.9909478162776844,-0.4575855390026591,3.561868429891728,0.4164809197800164,4609.395453559027,11.922111111111112,0.1355555555555555,178.15920072574622,5.902259543328029,74.66958447632165,1767.0,1435.0,1200.0,1528.0,1630.0,999.0,107.0,293.85,1649417438.936376,1649417440.075474,eb30ec57-df68-4baf-b197-b8e719aed882
0.4459227357852808,0.9240674448315732,0.2475544381600108,-0.3174728752445037,-0.1475891717558763,-0.5889682298011892,-0.3120363942115481,-0.3360327686816421,-10.95982631715844,26.034354482322232,2.9232761591823686,-0.427488698109784,3.572699643050735,0.4026533724622446,4608.29345703125,11.903444444444444,0.1322222222222222,178.2234712880162,5.928142118300968,74.60194966643047,1767.0,1435.0,1200.0,1528.0,1630.0,999.0,107.0,293.85,1649417440.1845968,1649417441.5034382,eb30ec57-df68-4baf-b197-b8e719aed882
0.4592489382851086,0.9196767920719816,0.2434262534694438,-0.317036945297305,-0.1494304950841079,-0.5841659198076138,-0.313092335812543,-0.3304617663386654,-10.94734400970105,25.88383097692304,3.033173126963932,-0.4188602105492656,3.5548517349676634,0.411989987037327,4608.844455295139,11.90688888888889,0.13,178.24911181816043,5.933833990041182,74.55860528595755,1767.0,1435.0,1200.0,1528.0,1630.0,999.0,107.0,293.85,1649417441.6153717,1649417442.66354,eb30ec57-df68-4baf-b197-b8e719aed882
0.5653103582437234,1.1390486157027708,0.2881636784796788,-0.4097539823195216,-0.1664777811558692,-0.7189001530245415,-0.3316709408977535,-0.3501423336110554,-10.665074982955494,26.56755042511508,2.3901913572527755,-0.50567942693277,4.39559351234967,0.4254199260728087,4608.29345703125,11.909,0.13,178.26195409161988,5.963257164325126,74.47287882277482,1886.0,1435.0,1200.0,1528.0,1710.0,999.0,107.0,293.85,1649417444.299493,1649417445.4007175,d23d12ed-2778-44bc-b39e-ad9296569e2b
0.5698031661808682,1.1239286270026565,0.2963760501970435,-0.4133248656305648,-0.1558470594578208,-0.7046869124172005,-0.3182992204992146,-0.3432817475402938,-10.760782257540695,26.595410233519623,1.9207679233797543,-0.4652147377216631,4.344682987687192,0.3781063764945143,4598.131890190973,11.843666666666667,0.1111111111111111,178.2904602655759,5.946972333228394,74.47588941837898,1886.0,1435.0,1200.0,1528.0,1710.0,999.0,107.0,293.85,1649417445.5088518,1649417446.633252,d23d12ed-2778-44bc-b39e-ad9296569e2b
0.5583567214611331,1.110753633961638,0.2851799360238342,-0.4119032890802652,-0.1621159536912156,-0.6940693359257218,-0.3241736543330416,-0.3466149425130632,-10.829939213455946,26.41464827418289,1.7180308933419093,-0.44638526798361,4.29666721652791,0.4084284864474818,4595.93896484375,11.850222222222222,0.12,178.2817191412581,5.949303419873876,74.4786996617675,1886.0,1435.0,1200.0,1528.0,1710.0,999.0,107.0,293.85,1649417446.7477417,1649417447.8561294,d23d12ed-2778-44bc-b39e-ad9296569e2b
-0.218947658508802,-0.3149988970616471,0.1675056845945067,0.1428255824793481,0.0469847367665559,0.1926065448121567,-0.0711431529582457,-0.0882233102099995,-11.132591587524782,28.22905232340689,2.290242938548389,0.3008687799987673,-1.1294291733463424,-0.2440343265983862,4599.502332899306,11.868666666666668,0.1266666666666666,179.32435207151997,5.992554217268774,74.49630105925861,1449.0,1435.0,1200.0,1528.0,1386.0,999.0,107.0,293.85,1649417448.8001814,1649417449.910982,c18eab87-72e4-4d73-9799-c34a089105db
-0.2194736063961517,-0.3109228005973215,0.1687548106813024,0.1374740632492084,0.0478394020187366,0.1944736596004756,-0.070038662431337,-0.0884468381469725,-11.24904882884954,28.18020171685782,2.433073275264217,0.3168386604220854,-1.1138457332847482,-0.2478873241825974,4607.468098958333,11.957,0.14,179.351105163589,6.027173078508852,74.39530608764125,1449.0,1435.0,1200.0,1528.0,1386.0,999.0,107.0,293.85,1649417450.0198843,1649417451.131857,c18eab87-72e4-4d73-9799-c34a089105db
-0.2026619850618204,-0.3098238728527193,0.173782669670266,0.1410120738729887,0.0516894414273682,0.1910403328486923,-0.066522397471029,-0.095082884304188,-11.178299556619484,28.28233913078532,2.592403500098633,0.3021310782442225,-1.111752105021412,-0.2645948835858304,4612.978678385417,11.956777777777775,0.1488888888888888,179.35950933190773,6.031331809939745,74.31487605670492,1449.0,1435.0,1200.0,1528.0,1386.0,999.0,107.0,293.85,1649417451.2404337,1649417452.3575747,c18eab87-72e4-4d73-9799-c34a089105db
-0.4540802697267674,-0.7159669808567724,0.1520620356037268,0.30483976433438,0.1143227496898126,0.4413206925009568,0.0081343847664986,-0.0141678273532494,-11.175855510856609,29.77481795534048,3.231357075034811,0.5039046957400491,-2.6622383769192024,-0.4740079947183443,4614.80712890625,11.93125,0.1375,179.50163684107176,6.059138292676709,74.08468758261809,1342.0,1435.0,1200.0,1528.0,1293.0,999.0,107.0,293.85,1649417454.4988203,1649417455.6453187,5fb73328-237b-49ca-9bad-338670c4d5ff
-0.4370881046153739,-0.7131602388176136,0.1557664277911293,0.3050167660021036,0.1171421335416319,0.437831231095687,0.0111307703934692,-0.0078336957853181,-11.11603543236762,29.769706321217768,3.17499872721499,0.495835834061849,-2.6514223176549057,-0.4868581953596327,4613.530436197917,11.904111111111114,0.1311111111111111,179.51618324672913,6.083584274910157,74.04383441878119,1342.0,1435.0,1200.0,1528.0,1293.0,999.0,107.0,293.85,1649417455.7591178,1649417456.711297,5fb73328-237b-49ca-9bad-338670c4d5ff
-0.4482215127604519,-0.7138121109856767,0.1559611296400833,0.3083939578368815,0.1178693575706947,0.4349370009949795,0.0105891452331274,-0.0100017134366232,-11.123867406243226,29.77329200500096,3.113552363346657,0.4817337226803832,-2.6536706049919325,-0.4874858204702223,4621.268663194444,11.90877777777778,0.1322222222222222,179.5125723533879,6.101725494505057,73.97394640537382,1342.0,1435.0,1200.0,1528.0,1293.0,999.0,107.0,293.85,1649417456.8192575,1649417457.8912532,5fb73328-237b-49ca-9bad-338670c4d5ff
-0.623296452636099,-1.0586237067070907,0.1478615329821496,0.4696627048018117,0.178090384688807,0.6442379284509644,0.077963065010267,0.0554656458149843,-10.976506602266705,31.626629023783625,6.152679043413695,0.6007193921229378,-3.995240093673095,-0.6910738907876456,4623.20703125,11.895111111111111,0.1277777777777777,179.64981513893048,6.156359418766082,73.84841663534787,1227.0,1435.0,1200.0,1528.0,1189.0,999.0,107.0,293.85,1649417459.8254948,1649417460.8705084,a8fe45cd-0712-4c11-9804-651befc7e8f0
-0.6108405873505225,-1.0601722196242878,0.1494702253578054,0.4710822581484123,0.1793835083527672,0.6451507513129868,0.0794534191517361,0.0567466322661257,-10.952908849816762,31.696929046463367,6.263470808684347,0.600144131258459,-4.002268524951889,-0.6971809548848574,4614.358561197917,11.807111111111112,0.1044444444444444,179.648889268843,6.172874484156088,73.80593892998967,1227.0,1435.0,1200.0,1528.0,1189.0,999.0,107.0,293.85,1649417460.9795558,1649417462.1979475,a8fe45cd-0712-4c11-9804-651befc7e8f0
-0.6400610460554119,-1.0597413466676393,0.1473881799403592,0.4674800214216026,0.1763153107695897,0.6458026231518383,0.0791990424543196,0.0653140190794467,-10.757894407171973,31.636307347763303,5.935496435118829,0.6092750815876964,-3.998815431320805,-0.6900824930069399,4613.25439453125,11.8115,0.1025,179.64115028505847,6.174423881738591,73.75942116773739,1227.0,1435.0,1200.0,1528.0,1189.0,999.0,107.0,293.85,1649417462.306264,1649417463.4211168,a8fe45cd-0712-4c11-9804-651befc7e8f0
0.0430927226671914,0.1522006026391943,0.1740931811709065,-0.0355627795902974,-0.046423603053502,-0.1020162932998048,-0.1840247178058897,-0.2042737119756733,-11.23254454613582,27.09556241445524,1.7368504153473103,0.0338878075669444,0.6508269663877384,0.0895128786865159,4615.73876953125,11.863333333333332,0.12,179.12329558747186,6.198521038147709,73.69452184860879,1553.0,1435.0,1200.0,1528.0,1471.0,999.0,107.0,293.85,1649417465.3551917,1649417466.4981017,d395ebc1-f653-4865-9b2f-dd195073eab0
0.0471506126323796,0.1555262112572845,0.1805340192285032,-0.0372918332119002,-0.0403893627152463,-0.1022261667469256,-0.1771358118099537,-0.208149038117288,-11.219899809229874,27.023361763252083,1.995863958475412,0.0372062524478599,0.661534867643118,0.0634971491472671,4620.71484375,11.957,0.14,179.1073812467057,6.178418368464285,73.7095368811342,1553.0,1435.0,1200.0,1528.0,1471.0,999.0,107.0,293.85,1649417466.62873,1649417467.7224095,d395ebc1-f653-4865-9b2f-dd195073eab0
0.043939296427463,0.1511011693772796,0.1750090384081193,-0.0347885236549147,-0.0450040495271221,-0.1001274324046527,-0.1833940860479663,-0.2113350684370276,-11.328424550493883,27.12959688259347,1.959502935377524,0.0366442492310028,0.6453719848285506,0.0855398653726791,4619.884928385417,11.957666666666666,0.14,179.10577387552104,6.177820869207516,73.70175957239927,1553.0,1435.0,1200.0,1528.0,1471.0,999.0,107.0,293.85,1649417467.8311665,1649417468.9531896,d395ebc1-f653-4865-9b2f-dd195073eab0
0.0415543251528116,0.1508331382702948,0.1592746009952388,-0.2829555196357582,-0.0855146786305323,0.1420498094218399,-0.1286161074361945,-0.1500484839173207,-11.07969279238054,26.448604463547568,4.01928161755062,1.1358084842290883,0.6538961168302587,0.0853225961192096,4611.60009765625,11.96,0.1433333333333333,179.12382378876762,6.260190104685716,73.74732148762271,1553.0,1522.0,1200.0,1528.0,1471.0,999.0,107.0,293.85,1649417469.8608208,1649417471.004743,39ed6d17-d77e-4450-81d3-5ca8b57e2154
0.0464850862635232,0.149886432171179,0.1660461793448244,-0.2854406235797289,-0.0779015831385721,0.1439037755414137,-0.1196355473228735,-0.143487284088362,-11.072776781988004,26.31466543544714,3.887960769489193,1.1450122087232022,0.6521933168351381,0.0526747240250699,4617.120496961806,11.962777777777776,0.1477777777777777,179.1237600403354,6.264021319059531,73.72075812303062,1553.0,1522.0,1200.0,1528.0,1471.0,999.0,107.0,293.85,1649417471.1184795,1649417472.2272022,39ed6d17-d77e-4450-81d3-5ca8b57e2154
0.0412519051679724,0.1508068408823997,0.1702932080725975,-0.2828108839760287,-0.0756794533992787,0.1406428989477543,-0.1184521646133376,-0.1358084452866008,-11.075942297923536,26.547302388398226,3.914959027876737,1.1335088977448853,0.6553779360797123,0.0422488642718615,4611.600748697917,11.962666666666667,0.15,179.10958056761845,6.266415537522968,73.69363392401668,1553.0,1522.0,1200.0,1528.0,1471.0,999.0,107.0,293.85,1649417472.3353856,1649417473.452499,39ed6d17-d77e-4450-81d3-5ca8b57e2154
0.0702447803869649,0.1496892017368253,0.159327195774754,-0.5890440876471682,-0.1204376178463368,0.4390919886725399,-0.0468049152534276,-0.0718663313167936,-10.8947375679016,26.13153747830881,6.334999050548475,2.4921257240502626,0.6654564577359963,0.0170388629228532,4612.42724609375,11.958666666666668,0.1466666666666666,179.11276798923114,6.382593924801514,73.68508708063526,1553.0,1613.0,1200.0,1528.0,1471.0,999.0,107.0,293.85,1649417474.364415,1649417475.510908,d58f988c-749b-44d6-a9a4-89e858b9b637
0.0649195584308946,0.1430359616174156,0.153778446123571,-0.5841922172931713,-0.1247109444139416,0.441853214639205,-0.0517882713443995,-0.0770863640480378,-10.886011605629133,26.208475207942467,6.394374436183204,2.487633532703152,0.6389669339750755,0.0368138502723984,4613.25439453125,11.941222222222224,0.14,179.1079504291365,6.390398601724985,73.65417288554188,1553.0,1613.0,1200.0,1528.0,1471.0,999.0,107.0,293.85,1649417475.6245222,1649417476.7410145,d58f988c-749b-44d6-a9a4-89e858b9b637
0.0579477151227083,0.1464232679650008,0.1590030298555318,-0.5870464966311594,-0.1210642038332386,0.4394368890591016,-0.0464074200432588,-0.0676223365793135,-10.763307966726698,26.18382483627932,6.189650701254939,2.488768152212334,0.6532996029236097,0.0172560089238255,4620.71484375,11.947444444444445,0.14,179.10893397637702,6.384294547041108,73.63864862446836,1553.0,1613.0,1200.0,1528.0,1471.0,999.0,107.0,293.85,1649417476.85473,1649417477.961499,d58f988c-749b-44d6-a9a4-89e858b9b637
0.0851685505139701,0.1446926972998764,0.152647658297343,-0.8895708160637257,-0.1656822849311714,0.7346352063611528,0.0230409607568685,0.0006092846232513,-10.668995052323504,26.36908178544784,8.550255215596673,3.835874336829983,0.6620668729833568,-0.011731791091177,4623.20703125,11.928666666666668,0.1244444444444444,179.07751662401475,6.495274116860153,73.515352326301,1553.0,1710.0,1200.0,1528.0,1471.0,999.0,107.0,293.85,1649417479.8961468,1649417480.950899,dc76a11f-f2b0-4f8b-9630-0780d17eca1c
0.0555839841186449,0.1424442703012054,0.149031766930969,-0.8903860356625318,-0.1668262216055786,0.7365417671321594,0.0221599980985447,0.0023975073630681,-10.684462599102153,26.14677807674554,8.386931663671184,3.840310023054706,0.6550582853447934,-0.004419687462327,4623.20703125,11.931333333333331,0.1366666666666666,179.08249659082966,6.5025229397080455,73.48722788402861,1553.0,1710.0,1200.0,1528.0,1471.0,999.0,107.0,293.85,1649417481.0641918,1649417482.2632332,dc76a11f-f2b0-4f8b-9630-0780d17eca1c
0.0788703250667594,0.1356463945147555,0.1491106590954646,-0.8831411003000156,-0.1639598056004913,0.736646956697982,0.0235537598926208,-0.0043740717582834,-10.6955601188899,26.08455255827565,8.409870212386574,3.823793097047135,0.6285492992352554,-0.0111246970674287,4617.672580295139,11.927888888888887,0.13,179.06479274050096,6.509703081209281,73.42326543918118,1553.0,1710.0,1200.0,1528.0,1471.0,999.0,107.0,293.85,1649417482.3712337,1649417483.4913528,dc76a11f-f2b0-4f8b-9630-0780d17eca1c
0.0737261505475108,0.1448176099105327,0.1359169541947754,-0.971203532280594,-0.196466925664499,0.8146298439551541,0.0207773620810036,-0.0017144946875422,-10.75142772017508,26.93230428590201,9.173567772285711,4.202734833977493,0.6665940550023932,0.0561163504909936,4618.22509765625,11.918555555555557,0.1277777777777777,179.06460908430324,6.574616440171176,73.33538215404052,1553.0,1814.0,1200.0,1528.0,1471.0,999.0,107.0,293.85,1649417485.4252024,1649417486.5651846,3f50a729-fdf4-4210-8890-758daa498a3c
0.0910849580210201,0.1585984545975698,0.1401776373931556,-0.9610385726995054,-0.1941026887119946,0.7918092722973822,0.0172626143672898,-0.0028270766303729,-10.743131482591618,26.97305000050052,9.181950205173372,4.129012078190121,0.7171668607620225,0.0538501585246457,4611.32470703125,11.891333333333334,0.1188888888888888,179.06569887893085,6.550760913561913,73.28871147144183,1553.0,1814.0,1200.0,1528.0,1471.0,999.0,107.0,293.85,1649417486.6731226,1649417487.8005917,3f50a729-fdf4-4210-8890-758daa498a3c
0.0681379546795044,0.1486357889103909,0.130809191549688,-0.9738332730561954,-0.2016884757454091,0.81203803386697,0.0142409428164656,-0.0037373710124518,-10.851610155074518,26.89947717778159,8.94894395305042,4.202284558578137,0.6836138653091091,0.0795627445125792,4611.875813802083,11.89488888888889,0.12,179.06442542810558,6.548805107865828,73.26556168361493,1553.0,1814.0,1200.0,1528.0,1471.0,999.0,107.0,293.85,1649417487.9140787,1649417488.9606493,3f50a729-fdf4-4210-8890-758daa498a3c
0.0022134256257794,0.1534234313609302,0.2094631726899699,0.3095115969567206,0.018701890945752,-0.4349413265537838,-0.2491633659125978,-0.272042100280496,-11.486555857902456,28.46521229129473,-0.3773297392880264,-1.4822665562349189,0.6357285280712439,0.0447919413912648,4616.567545572917,11.922,0.1266666666666666,179.10412552320133,6.142306162253172,73.25135640796111,1553.0,1349.0,1200.0,1528.0,1471.0,999.0,107.0,293.85,1649417490.9568532,1649417491.891288,6146f796-07ee-43ff-88a9-5cb4d0b23fc0
-0.0067843285295174,0.1376237560949201,0.1919759131273892,0.3157127239840791,0.0073631631651258,-0.4230038249475086,-0.2625391316836362,-0.2891778882023652,-11.681105085397151,28.36620782458988,-0.1860096123450212,-1.4710241144332246,0.5742776763250066,0.1014340289163373,4615.73876953125,11.962666666666664,0.14,179.107954982596,6.119850919287502,73.42647335136137,1553.0,1349.0,1200.0,1528.0,1471.0,999.0,107.0,293.85,1649417491.9995592,1649417493.1140273,6146f796-07ee-43ff-88a9-5cb4d0b23fc0
0.0231987451017215,0.1475459643093902,0.1960778004759195,0.309156582179786,0.0101157921857242,-0.4265919026305545,-0.25880136144821,-0.2824558695018543,-11.678094950091342,28.203502713963925,-0.1401515278459629,-1.4651634743906203,0.6121287255342793,0.08804840069936,4625.7021484375,11.964444444444446,0.14,179.10576628642195,6.114276868310473,73.58173189920473,1553.0,1349.0,1200.0,1528.0,1471.0,999.0,107.0,293.85,1649417493.2232397,1649417494.3473485,6146f796-07ee-43ff-88a9-5cb4d0b23fc0
0.0113077721031321,0.1477381375534589,0.2212064750659453,0.6204210903954436,0.0616015355069846,-0.7268905175956534,-0.3241357252353163,-0.3472723772492903,-11.80481611364874,29.47008861016216,-2.225302053997244,-2.832859611135899,0.5955182109770193,0.075895099311235,4624.315972222223,11.952555555555556,0.1344444444444444,179.13620160936355,6.011283402314726,73.7993675290982,1553.0,1264.0,1200.0,1528.0,1471.0,999.0,107.0,293.85,1649417495.4593012,1649417496.6001084,71b21933-b605-4e23-a5ec-1ebb5885d2ea
-0.0243707101617137,0.1392294141573521,0.2150493454636074,0.6180189249689944,0.0575052109139709,-0.71667498786726,-0.3266896070364046,-0.3446552806699612,-11.84923089104743,29.43088654114678,-2.3054993726167337,-2.8050868555518025,0.5645352326222445,0.0923247692881435,4618.22509765625,11.946555555555555,0.13,179.1330096342914,5.999690721450314,73.95443710837455,1553.0,1264.0,1200.0,1528.0,1471.0,999.0,107.0,293.85,1649417496.7091625,1649417497.8276956,71b21933-b605-4e23-a5ec-1ebb5885d2ea
-0.0229420537142014,0.1398615629956411,0.2138988345986066,0.6181074258005581,0.0560639115249215,-0.7148543984305399,-0.3286745547533389,-0.344339206358511,-11.920623042660168,29.500994059907995,-1.9597939914712748,-2.8007687502932708,0.5642648495139573,0.0991684400671913,4615.73876953125,11.931444444444445,0.1244444444444444,179.1369013242985,5.9931513845024575,74.07861753658446,1553.0,1264.0,1200.0,1528.0,1471.0,999.0,107.0,293.85,1649417497.9368598,1649417499.0552132,71b21933-b605-4e23-a5ec-1ebb5885d2ea
-0.0279992447045743,0.1448428958676551,0.2430788244628095,0.8204456128975792,0.0973811605572129,-0.9192029365450428,-0.3633795330210929,-0.3870598336063243,-11.902051591046549,30.67609957807777,-3.86303583344121,-3.707443731675118,0.5766424397768414,0.0517530188174681,4616.567545572917,11.928333333333336,0.1266666666666666,179.14963279691142,5.902591993299506,74.31084169163516,1553.0,1178.0,1200.0,1528.0,1471.0,999.0,107.0,293.85,1649417499.966872,1649417501.1046054,c85ced3f-6707-43a4-8e5f-c22cc52baca7
-0.0049384538184969,0.1459428348466876,0.2427880360104663,0.8154137084480738,0.097507590333551,-0.9149928227961612,-0.3617359456737858,-0.3904355094439443,-11.9299104453153,30.555828534855003,-3.763280235946225,-3.687442192742087,0.5806799874686954,0.0498966234805576,4610.77294921875,11.912777777777778,0.12,179.1605990450788,5.910811604215054,74.48847897483913,1553.0,1178.0,1200.0,1528.0,1471.0,999.0,107.0,293.85,1649417501.213899,1649417502.3345754,c85ced3f-6707-43a4-8e5f-c22cc52baca7
-0.023373937828972,0.1524767252601352,0.2474234569178728,0.8286615244359274,0.1013020005863497,-0.9334348911854612,-0.3637805683219806,-0.3891707055653332,-11.934455198341166,30.681206101872394,-3.732187004831288,-3.7577031851916063,0.6036075347984965,0.0422169958206641,4610.77294921875,11.9085,0.12,179.13158743712424,5.916480827237707,74.59821279404456,1553.0,1178.0,1200.0,1528.0,1471.0,999.0,107.0,293.85,1649417502.444709,1649417503.5643234,c85ced3f-6707-43a4-8e5f-c22cc52baca7
-0.0138805789054935,0.148584711275078,0.2441494317048348,0.9257514893735268,0.1034189406111182,-1.019821878889634,-0.4001498690689513,-0.4199912557746204,-12.2006464365795,31.64856608354948,-4.008044869770218,-4.164765700496111,0.5811940707317795,0.0949867488570626,4612.151529947917,11.90488888888889,0.12,179.13325096764208,5.877386555691782,74.8235240387453,1553.0,1088.0,1200.0,1528.0,1471.0,999.0,107.0,293.85,1649417505.4949942,1649417506.4422562,23f24755-2da3-4900-9bc5-c1bb7a81d282
-0.0118293822378888,0.1457182955802503,0.247739025576461,0.9329175282440584,0.1067061146062404,-1.027829439966551,-0.3993215010720874,-0.4289455202591948,-12.171147623489542,31.80585344517678,-4.59226559367626,-4.197781451902561,0.5747603531334327,0.083285147598312,4610.77294921875,11.896333333333336,0.1133333333333333,179.12993453134513,5.875121541640145,74.91989649011437,1553.0,1088.0,1200.0,1528.0,1471.0,999.0,107.0,293.85,1649417506.551199,1649417507.6584525,23f24755-2da3-4900-9bc5-c1bb7a81d282
-0.016497169548488,0.1467438938580349,0.2362865117560883,0.9048319152392256,0.0947145038493092,-0.999112668557646,-0.4017014155307056,-0.430589107264235,-12.234085021641029,31.538487390483223,-4.0936381103071975,-4.072191627883037,0.5773604803046581,0.119264511720441,4610.77294921875,11.890555555555556,0.11,179.11324610247303,5.868993344134828,74.96652695048795,1553.0,1088.0,1200.0,1528.0,1471.0,999.0,107.0,293.85,1649417507.7673807,1649417508.8866718,23f24755-2da3-4900-9bc5-c1bb7a81d282
0.0347170030899924,0.157972880127036,0.1853879108361038,-0.0320783749902114,-0.0371669205940697,-0.1091823331572402,-0.1747022913548485,-0.1985014338743954,-11.098395306483845,27.139919159162623,2.056222202623577,0.0108996814590892,0.6689842301574527,0.0494908862688035,4605.8173828125,11.962,0.13,179.07649513127888,6.142507795129296,75.09273898052099,1553.0,1435.0,1200.0,1528.0,1471.0,999.0,107.0,293.85,1649417510.8201678,1649417511.9580815,b3ce7336-30e9-4ecd-9940-a8170c0156df
0.0333889847807611,0.147887830401222,0.1830079969064702,-0.0238078448202762,-0.0369302440557795,-0.1071837312131804,-0.1766614472649494,-0.1997374115224771,-11.169688514015496,27.222529106523783,2.000958935753028,-0.0028810518589776,0.6309858026356805,0.0538925485485618,4608.29345703125,11.962222222222222,0.1355555555555555,179.05806120961898,6.147118172819055,74.99730454179794,1553.0,1435.0,1200.0,1528.0,1471.0,999.0,107.0,293.85,1649417512.0669396,1649417513.1568253,b3ce7336-30e9-4ecd-9940-a8170c0156df
0.0370837684266976,0.1543964348529646,0.1825477925589453,-0.0286202677738187,-0.0392181172634549,-0.1097345784372151,-0.1779763169810818,-0.1988564489313348,-11.121407120368962,27.194976362268378,1.9082453868702405,0.0020464599402608,0.656439891029782,0.0601677723094441,4620.991753472223,11.963666666666668,0.1388888888888889,179.0311214257126,6.12243628818396,74.89217427009311,1553.0,1435.0,1200.0,1528.0,1471.0,999.0,107.0,293.85,1649417513.2766435,1649417514.4131324,b3ce7336-30e9-4ecd-9940-a8170c0156df
0.1036687658729602,0.1857955204078774,0.3663271094433832,-0.0497107772293454,0.125206329926814,-0.1301676537075815,0.0122590296877331,-0.0090024125302992,-9.740245503983838,27.04729266889096,2.0505667696896577,0.0125955320746474,0.7774134563593266,-0.6803087148243521,4627.644694010417,11.960888888888888,0.13,178.988935141759,6.13386509194016,74.70786085643039,1553.0,1435.0,1200.0,1424.0,1471.0,999.0,107.0,293.85,1649417515.3407142,1649417516.462206,b46541e6-ea5f-40e0-b55d-e7faba0f365f
0.0798696259698046,0.1894245604433764,0.3644205486362386,-0.0512491747401605,0.1228658620475013,-0.1317717947563416,0.0089455581899988,-0.011027311776597,-9.821376710226676,27.05193790915473,2.10687630958653,0.0123650573674426,0.7911683422851135,-0.669357981761582,4622.377278645833,11.963,0.14,178.9834360805672,6.128566525259654,74.62366207889201,1553.0,1435.0,1200.0,1424.0,1471.0,999.0,107.0,293.85,1649417516.5716674,1649417517.6935885,b46541e6-ea5f-40e0-b55d-e7faba0f365f
0.1053588790527556,0.1848073453690191,0.3685097928599096,-0.0492520899993987,0.1277243051978595,-0.1259823222623657,0.0146960899960513,-0.0191238748678131,-9.822531847180112,27.08559180136225,2.5853885781504493,0.0213722501328837,0.7696320352742412,-0.6896178724939499,4625.7021484375,11.961,0.13,178.98409633218697,6.124972991982581,74.58360984959907,1553.0,1435.0,1200.0,1424.0,1471.0,999.0,107.0,293.85,1649417517.8015063,1649417518.9220564,b46541e6-ea5f-40e0-b55d-e7faba0f365f
0.1816010864681019,0.2184437318305744,0.593720642375038,-0.0549965533075576,0.3294450191287279,-0.1684435113765391,0.2397051726288202,0.2165766170437542,-8.219788017713352,27.30235405556577,2.204888701485652,-0.0476885430407528,0.9028055787296458,-1.5872060952160134,4619.331651475694,11.949222222222224,0.1255555555555555,178.9317209238115,6.127650947887787,74.41051160655353,1553.0,1435.0,1200.0,1304.0,1471.0,999.0,107.0,293.85,1649417520.8569229,1649417521.9941018,ee72e7da-d228-47c6-9962-0fdf543cc85e
0.1494656738965674,0.2063469318231018,0.5804273117462138,-0.0469626996227411,0.317900464601969,-0.1654061623032794,0.2262935031150919,0.2020736056918732,-8.216252637744427,27.50703541363057,1.898264369787476,-0.0583377794621675,0.8582994107140227,-1.5361736336512368,4618.22509765625,11.947666666666668,0.13,178.91473803789523,6.125358897670686,74.38797501793212,1553.0,1435.0,1200.0,1304.0,1471.0,999.0,107.0,293.85,1649417522.1029005,1649417523.2227514,ee72e7da-d228-47c6-9962-0fdf543cc85e
0.1483576434180162,0.2165665026729726,0.5885228621049211,-0.0539047057614317,0.3247903809748879,-0.1679822955324043,0.233798879715539,0.2137471188806821,-8.293799827063047,27.35424580445349,2.1089796661893727,-0.0490824322137607,0.8966756434897748,-1.5657977587931042,4611.32470703125,11.948,0.13,178.9104122514209,6.12404773850939,74.35682783749705,1553.0,1435.0,1200.0,1304.0,1471.0,999.0,107.0,293.85,1649417523.3309717,1649417524.4503577,ee72e7da-d228-47c6-9962-0fdf543cc85e
0.2230523496547772,0.2512967592107331,0.810558805663483,-0.0282268183348335,0.525055122762436,-0.2369623858167142,0.446327311014595,0.4244676053433978,-6.66332799114041,27.78263472216525,2.1610773814408977,-0.2472881361854493,1.025855064245861,-2.4383548116974145,4613.25439453125,11.918111111111113,0.1188888888888888,178.90247101814586,6.127413930837214,74.24629488615872,1553.0,1435.0,1200.0,1166.0,1471.0,999.0,107.0,293.85,1649417526.3865137,1649417527.338342,012714ea-fcde-432b-985d-0174f5ecc5f0
0.2282000639832989,0.2509078612563344,0.8116208156552547,-0.0280943199080844,0.5254263205310855,-0.2356070584780787,0.4465998935653771,0.4252858587313523,-6.693894540367353,27.886892090465857,2.3208733759804105,-0.2437873169963487,1.0232493156369995,-2.440580814325492,4612.151529947917,11.927444444444443,0.12,178.9005418691603,6.1164136740195625,74.23624160661036,1553.0,1435.0,1200.0,1166.0,1471.0,999.0,107.0,293.85,1649417527.4467208,1649417528.5440743,012714ea-fcde-432b-985d-0174f5ecc5f0
0.2461763537358341,0.2505761095516013,0.809522081629303,-0.0238776340698528,0.5244356169412151,-0.2405656347285579,0.443722857946085,0.4187150512167347,-6.698930761626652,27.833942238391,2.103385254079694,-0.2649344279476723,1.023315171092832,-2.4325660568825915,4610.77294921875,11.914333333333332,0.1133333333333333,178.90113230106851,6.099615914688908,74.25210889496222,1553.0,1435.0,1200.0,1166.0,1471.0,999.0,107.0,293.85,1649417528.6522,1649417529.776694,012714ea-fcde-432b-985d-0174f5ecc5f0
-0.0437412689367411,0.1126361765802667,-0.0061885914422149,0.0005698385545972,-0.2086653769430948,-0.0838579428231262,-0.3739839584179846,-0.400504883922148,-12.473785115990989,27.68289077480661,2.1110718230567627,-0.0124628022025764,0.4920371533938592,0.821645665300111,4610.77294921875,11.956888888888887,0.13,179.07846070794005,6.137054268531995,74.38526191501181,1553.0,1435.0,1200.0,1623.0,1471.0,999.0,107.0,293.85,1649417531.9164553,1649417533.0642326,661d84ea-9bb9-4804-a320-5aaca840bce1
-0.0489613015126062,0.1078369025365488,-0.0050578035675651,0.0050140979534174,-0.2060487861477791,-0.0858565447687533,-0.3721431406405153,-0.3880267687227262,-12.437778927587576,27.65012867829744,1.752098480860086,-0.0271790640238746,0.4764876333617184,0.8129100343551272,4611.048665364583,11.952333333333334,0.1211111111111111,179.0660388705695,6.12403654458825,74.29999762796291,1553.0,1435.0,1200.0,1623.0,1471.0,999.0,107.0,293.85,1649417533.174106,1649417534.281414,661d84ea-9bb9-4804-a320-5aaca840bce1
-0.0517680425287783,0.1102011392231429,-0.0069992591688191,0.003001335971469,-0.2060503032943205,-0.0856765087477937,-0.3720146879581615,-0.3890953536802866,-12.470004894978093,27.381011128131952,1.839904013391989,-0.0241171104478215,0.4849249997269543,0.8158558104098769,4617.396321614583,11.959333333333332,0.13,179.0705801874577,6.1244712576698,74.24978663064442,1553.0,1435.0,1200.0,1623.0,1471.0,999.0,107.0,293.85,1649417534.399513,1649417535.5083778,661d84ea-9bb9-4804-a320-5aaca840bce1
-0.102713174223163,0.08405091134005,-0.1538484573737536,0.0540587353513447,-0.3386008106036211,-0.1018979550187736,-0.5392499600636984,-0.5633120811867273,-13.665491450504064,28.16874373073603,1.3630200183940493,-0.1785097806302959,0.3839513613504165,1.4301249695852594,4617.672580295139,11.958444444444446,0.1222222222222222,179.13711078343306,6.106034537529559,74.18260185432854,1553.0,1435.0,1200.0,1712.0,1471.0,999.0,107.0,293.85,1649417537.4316828,1649417538.377416,2cb248f4-fb46-4b57-88d2-a60439f02588
-0.0723887391243098,0.0897321594988383,-0.1523935034405836,0.053598530978403,-0.3394084441116993,-0.103098532189912,-0.5406467565761566,-0.5673866612563899,-13.708987095318692,28.323305842990447,1.9217052641969787,-0.1790053085552314,0.4007672529610203,1.4326079939361849,4613.25439453125,11.95888888888889,0.13,179.15217059164303,6.105122090661062,74.13525346518219,1553.0,1435.0,1200.0,1712.0,1471.0,999.0,107.0,293.85,1649417538.4862287,1649417539.6046455,2cb248f4-fb46-4b57-88d2-a60439f02588
-0.0838179910103452,0.0791373447459077,-0.1594356423050336,0.056696060378769,-0.3413681059437039,-0.0958793918502507,-0.5426696335603286,-0.5720519213163164,-13.75841180775181,28.07075286857421,1.8461409519580665,-0.1718319839358506,0.3612177072470778,1.4464641779348535,4615.186686197917,11.959666666666667,0.13,179.1560213005151,6.111563480798946,74.11163163539265,1553.0,1435.0,1200.0,1712.0,1471.0,999.0,107.0,293.85,1649417539.715942,1649417540.8362916,2cb248f4-fb46-4b57-88d2-a60439f02588
-0.1494856184636966,0.0631945506332553,-0.2992922713686493,0.1014269132116773,-0.4690242722535572,-0.1173218823522497,-0.7032228548439049,-0.7252595730033445,-14.857822113079992,28.71154270452241,1.274623468922139,-0.3242785395158992,0.2999066145505474,2.0361952627353825,4622.099392361111,11.931666666666665,0.1155555555555555,179.21973178727316,6.1103564820224925,74.10858309429312,1553.0,1435.0,1200.0,1801.0,1471.0,999.0,107.0,293.85,1649417541.9516938,1649417543.2953784,af559a6d-3b63-4fbf-a68b-585511f5c463
-0.1541003054831763,0.0641174879550734,-0.3002657807828058,0.1020084901457232,-0.4704782150019323,-0.1179413882696839,-0.7049802294074383,-0.72080924350693,-14.857348854445426,28.75760006178563,1.3801082045855837,-0.3267086484864955,0.3022973937176838,2.04225169266017,4624.315972222223,11.942444444444444,0.12,179.20886571521356,6.09634999333265,74.07951305027564,1553.0,1435.0,1200.0,1801.0,1471.0,999.0,107.0,293.85,1649417543.4034252,1649417544.7343895,af559a6d-3b63-4fbf-a68b-585511f5c463
-0.1459202986418747,0.0685551729277163,-0.3003289956546358,0.1024130654141084,-0.4728550952795741,-0.1203309111054419,-0.7068261048224245,-0.7295834729462135,-14.753161552605045,28.870710749846666,1.702042303354362,-0.3321404079069699,0.315298803472169,2.0492243969531936,4628.755479600694,11.938111111111112,0.1222222222222222,179.22330473511897,6.100408121768892,74.07725377548017,1553.0,1435.0,1200.0,1801.0,1471.0,999.0,107.0,293.85,1649417544.8475027,1649417545.957093,af559a6d-3b63-4fbf-a68b-585511f5c463
0.0235406112002488,0.1385522563190135,0.1410768059076833,-0.0608871694837022,-0.0506574834170824,-0.070183298093626,-0.1753202801280546,-0.1903360930160526,-11.034756365917524,23.78929149338338,0.9915826037633296,0.1389655143671249,0.6058116033675289,0.1264619065490885,7499.790201822917,11.657888888888888,7.615555555555555,178.31461485012068,5.796811240939963,64.90101301551366,1553.0,1435.0,1350.0,1528.0,1471.0,999.0,107.0,293.85,1649417550.340741,1649417551.482742,d43c9032-6d04-4c9f-a1ed-86f62104eed9
0.0367024562540415,0.1413266311569435,0.1383813232385229,-0.0638719236502854,-0.0534318584274133,-0.069907175467278,-0.177292584747786,-0.1978965938176997,-11.0098111406405,23.69198777090357,1.0096150576783216,0.1455550490027057,0.6160757761473081,0.137115429005273,7505.62744140625,11.658333333333337,7.586666666666665,178.13075981804226,5.627046367368735,60.715928438074506,1553.0,1435.0,1350.0,1528.0,1471.0,999.0,107.0,293.85,1649417551.5917575,1649417552.7145803,d43c9032-6d04-4c9f-a1ed-86f62104eed9
0.0308118402852869,0.1390782041529508,0.1407086424208297,-0.0585467014701355,-0.0498291155272135,-0.0725237661308397,-0.1756095514582655,-0.2029982884272716,-11.0596580894023,23.692390168523456,1.0372447004596532,0.1277606889975082,0.6072426290920288,0.126418266907535,7512.20556640625,11.654999999999998,7.610000000000001,178.0266677350913,5.526677022106613,57.45445846788006,1553.0,1435.0,1350.0,1528.0,1471.0,999.0,107.0,293.85,1649417552.8230293,1649417553.9439871,d43c9032-6d04-4c9f-a1ed-86f62104eed9
0.2198283906314561,0.5223368829321504,0.1638705759042032,-0.2060123743642037,-0.1141105659722247,-0.309469869450684,-0.2535373308449521,-0.267356106978856,-11.09510227404724,23.281024793541096,1.2277760572573109,-0.0736035649844089,2.0628754317276097,0.338846334445298,7515.866319444444,11.627777777777778,7.628888888888889,177.83709962922708,5.456042099054364,52.6693235580175,1658.0,1435.0,1350.0,1528.0,1551.0,999.0,107.0,293.85,1649417555.0594995,1649417556.2037897,c0fae2e4-1e2e-416a-a71b-e0b645e26131
0.2171607225607275,0.5199347174956078,0.1653371612041283,-0.2075674607316126,-0.1120624035592249,-0.3041598182504103,-0.2489605725605277,-0.2714650747557172,-10.992193499224724,23.183697088366845,1.468220421001918,-0.0586453181631314,2.0512892229869006,0.3276879572248837,7518.794921875,11.61911111111111,7.637777777777777,177.88051838287095,5.451195700383286,50.54324276374345,1658.0,1435.0,1350.0,1528.0,1551.0,999.0,107.0,293.85,1649417556.317975,1649417557.4262676,c0fae2e4-1e2e-416a-a71b-e0b645e26131
0.2198410335944956,0.5247769772979598,0.1678278276278692,-0.2080352509422459,-0.1099763121915019,-0.3083446443286272,-0.2477215606366251,-0.2631459949917766,-11.024280463575408,23.131593890354843,1.5016943870894983,-0.0672261566740241,2.0695956723654194,0.3203154532068203,7518.794921875,11.614,7.636666666666667,177.9752364106411,5.46955586548658,48.97182910995265,1658.0,1435.0,1350.0,1528.0,1551.0,999.0,107.0,293.85,1649417557.535021,1649417558.654296,c0fae2e4-1e2e-416a-a71b-e0b645e26131
0.4634302233261625,0.9225695050124788,0.1879650551981737,-0.3606380293371268,-0.1832094985918342,-0.5534637047968216,-0.3333676286771148,-0.3543792488409261,-10.871013261106745,22.90463923665125,1.837646148344959,-0.2741780410770211,3.577558599732212,0.5620232564108252,7525.396484375,11.590666666666667,7.633333333333334,177.91574090951084,5.587592633401802,45.9549083711662,1767.0,1435.0,1350.0,1528.0,1630.0,999.0,107.0,293.85,1649417560.9987462,1649417562.1361074,112757bc-8458-4ade-9a51-10205923943e
0.4337981217123992,0.9173793104455712,0.182746540148166,-0.3612681554232163,-0.1874904110391828,-0.5495600580409016,-0.3375246402355084,-0.3549593089755776,-10.907750354363795,22.93500612393173,1.5510586715528776,-0.2641073331873558,3.560639519169399,0.5798102233695858,7525.396484375,11.589,7.63,178.04696705730456,5.622862307319672,45.09736218376303,1767.0,1435.0,1350.0,1528.0,1630.0,999.0,107.0,293.85,1649417562.2439632,1649417563.3605597,112757bc-8458-4ade-9a51-10205923943e
0.4417743224803938,0.9110249506374472,0.1826398334265096,-0.3501716652769074,-0.1848662344539816,-0.5501107862826728,-0.3394817734260549,-0.3676594344759546,-11.118666731161708,23.04620675096778,2.0318052463092533,-0.2896735432343149,3.532667681779914,0.5789813234846716,7528.702880859375,11.5965,7.635,178.14452264921982,5.677422925626791,44.45794719442311,1767.0,1435.0,1350.0,1528.0,1630.0,999.0,107.0,293.85,1649417563.4699535,1649417564.5891097,112757bc-8458-4ade-9a51-10205923943e
0.6107997857003835,1.1887228714600715,0.2107886622962969,-0.4663818895549695,-0.2276697966098432,-0.7184197196352311,-0.3870471907987245,-0.4057335146766362,-10.92356198126106,23.29845983180952,1.4949070509781155,-0.4026579291622903,4.593678065154517,0.698492589188445,7518.794921875,11.53488888888889,7.648888888888889,178.2358612511706,5.769678029870873,43.41691632297655,1886.0,1435.0,1350.0,1528.0,1710.0,999.0,107.0,293.85,1649417566.335717,1649417567.46095,b2bb3985-46d0-4153-8d9a-cb4d4f03dd96
0.6138775917645204,1.208264362219539,0.2187593004752854,-0.4777929379242164,-0.2231289444047599,-0.7249885073836134,-0.3818205829837147,-0.404252263277545,-11.007251206168023,23.141314016201896,1.8422141414639828,-0.3923099612097253,4.666392269573575,0.6767616361899207,7518.794921875,11.534333333333333,7.632222222222223,178.33348893952714,5.797936467173853,43.09923511776035,1886.0,1435.0,1350.0,1528.0,1710.0,999.0,107.0,293.85,1649417567.570265,1649417568.68986,b2bb3985-46d0-4153-8d9a-cb4d4f03dd96
0.5932998841281745,1.191381436594498,0.2172997952657499,-0.462540446512719,-0.2206043944779744,-0.724607195029394,-0.3834378728773973,-0.395613568416662,-11.104301278189828,23.31978396430991,1.5281364974152862,-0.4248474782728267,4.604574186263218,0.6751220542653706,7518.794921875,11.54011111111111,7.648888888888889,178.384108230376,5.819094733107131,42.82009325493597,1886.0,1435.0,1350.0,1528.0,1710.0,999.0,107.0,293.85,1649417568.7974298,1649417569.925218,b2bb3985-46d0-4153-8d9a-cb4d4f03dd96
-0.2407613479880147,-0.3271482942882915,0.125140586430777,0.1105718312962049,0.0339938247854188,0.2296858665930484,-0.0715639112810482,-0.0956128778862143,-11.138392139447102,24.877627989778727,1.5230011394291754,0.4324958089034736,-1.16692713228029,-0.1694564512945945,7518.794921875,11.639666666666669,7.693333333333332,179.50621420618054,5.89798147331414,42.464405082628296,1449.0,1435.0,1350.0,1528.0,1386.0,999.0,107.0,293.85,1649417571.034324,1649417572.1778405,269a6fd8-b15f-4599-943e-2d3c88550a10
-0.2364945955722159,-0.3321893029620382,0.1234004071107577,0.112805592464409,0.0322445424770104,0.2311944265544961,-0.0732105326842015,-0.0906451991918661,-11.097630160156628,24.994856644669312,1.313161488073734,0.43152446913505,-1.184646033227184,-0.1632633156111147,7525.396484375,11.647444444444444,7.690000000000001,179.55116140437866,5.956939002183519,42.21597971886632,1449.0,1435.0,1350.0,1528.0,1386.0,999.0,107.0,293.85,1649417572.2900193,1649417573.407504,269a6fd8-b15f-4599-943e-2d3c88550a10
-0.2147269265476275,-0.3222306811086705,0.131899016154456,0.108652121673985,0.0385038276354542,0.2263066518199902,-0.0653182802940169,-0.0906821169659009,-10.98854755236218,24.89030845792832,1.525406905681329,0.4297290531608893,-1.1488999575672076,-0.1930229913746604,7537.161295572917,11.645222222222223,7.693333333333332,179.5806875532507,6.003895082339411,42.03137981671343,1449.0,1435.0,1350.0,1528.0,1386.0,999.0,107.0,293.85,1649417573.5188208,1649417574.8402526,269a6fd8-b15f-4599-943e-2d3c88550a10
-0.4632464303011808,-0.748901950045801,0.1234383360233551,0.2720438835628854,0.1167249152915,0.4986186599480878,0.0314480349024724,0.008463102180292,-10.833537917951364,26.42734358548752,2.5145162226490805,0.6830823153286366,-2.779667519063638,-0.4751267243743169,7538.63330078125,11.593222222222222,7.642222222222222,179.78920108605269,6.115723824913391,41.79522526725033,1342.0,1435.0,1350.0,1528.0,1293.0,999.0,107.0,293.85,1649417575.9492576,1649417577.2921588,99e30f37-d0bd-44fe-89bb-98b51ea364cd
-0.4482083640511163,-0.7585045482004081,0.1237862707462051,0.2775208209396368,0.1195786880325107,0.5041780293590267,0.0332837951974338,0.0105234017425779,-10.923986758843885,26.48000657178068,2.692385688925592,0.6835695897332065,-2.81727075628872,-0.4830495616356734,7537.161295572917,11.591888888888889,7.649999999999999,179.79459389985738,6.165257400275446,41.73301780156462,1342.0,1435.0,1350.0,1528.0,1293.0,999.0,107.0,293.85,1649417577.4006531,1649417578.515239,99e30f37-d0bd-44fe-89bb-98b51ea364cd
-0.4495495313819653,-0.7410430720974839,0.1253904116714543,0.2635700550406825,0.1176063836563353,0.4962230688568316,0.0344934752744663,0.0164403151297604,-10.766053705488204,26.214843584239723,2.181001488207507,0.6954833011371625,-2.74655019559838,-0.4827836284569282,7533.481282552083,11.588555555555557,7.652222222222223,179.80681083155278,6.209996562295107,41.68086930725157,1342.0,1435.0,1350.0,1528.0,1293.0,999.0,107.0,293.85,1649417578.6238642,1649417579.7023172,99e30f37-d0bd-44fe-89bb-98b51ea364cd
-0.6103318337793332,-1.0749412500643378,0.1383024310645072,0.4041559056228795,0.1927117343596251,0.7143204726206627,0.126218779506423,0.0976729604295706,-10.37806288396673,28.0386292695099,5.456837107386418,0.8819005729053286,-4.047110767377361,-0.7683035750243534,7530.539767795139,11.489555555555556,7.610000000000001,179.94249026268537,6.27729522252902,41.64992247903216,1227.0,1435.0,1350.0,1528.0,1189.0,999.0,107.0,293.85,1649417580.3165214,1649417581.3882663,76c3f9a5-6c60-48fc-b5b1-9524bedfb4b2
-0.6265178842770309,-1.0735869334039845,0.1409453189379801,0.4057337490426442,0.1950259048006893,0.7113357188620765,0.1273364186653324,0.1135828825868177,-10.421430631074712,28.085676466880244,5.441873549563598,0.8720534687279184,-4.041617612004033,-0.7765424207363679,7525.396484375,11.493333333333332,7.62,179.94584616229758,6.297050216610943,41.69763552438919,1227.0,1435.0,1350.0,1528.0,1189.0,999.0,107.0,293.85,1649417581.4973724,1649417582.6123445,76c3f9a5-6c60-48fc-b5b1-9524bedfb4b2
-0.6372264895649302,-1.0707291128424397,0.1372571097540095,0.4025573277095784,0.1918368403862428,0.7093138541506311,0.1229831888755104,0.1091011999866338,-10.537616480470174,28.00099194582185,5.107587301576627,0.8738184927833305,-4.026958105431217,-0.7611733242608303,7525.396484375,11.498,7.62,179.94372425019543,6.301450565983724,41.74758469778949,1227.0,1435.0,1350.0,1528.0,1189.0,999.0,107.0,293.85,1649417582.7199929,1649417583.8455522,76c3f9a5-6c60-48fc-b5b1-9524bedfb4b2
0.0302858924395878,0.1402221406968796,0.1357515840616959,-0.0676718970228887,-0.0546678359162643,-0.0628594739757889,-0.1788835771244543,-0.206877154130241,-11.223236881029663,23.64523942479735,1.3454718589676684,0.1694692447541426,0.6107675037595519,0.1448254002071447,7525.396484375,11.651,7.71,179.4306131189874,6.296309141085997,41.8803260092141,1553.0,1435.0,1350.0,1528.0,1471.0,999.0,107.0,293.85,1649417585.8218195,1649417586.769585,06e703d4-193b-4bc5-979f-2c108734c801
0.0227779868172437,0.1483348860613971,0.1484006295202331,-0.0736940001567205,-0.0456478299641647,-0.0660151612043001,-0.1671286416652692,-0.1917561519504546,-11.089309401152288,23.680238042618715,1.3313980988891243,0.1768894037689835,0.6419159863647969,0.0995495467467747,7529.805013020833,11.65,7.703333333333333,179.36252068642182,6.291059713822019,41.85656605782136,1553.0,1435.0,1350.0,1528.0,1471.0,999.0,107.0,293.85,1649417586.8780406,1649417587.9424665,06e703d4-193b-4bc5-979f-2c108734c801
0.0377063086600411,0.136245671624613,0.1355882368017525,-0.0651316699349297,-0.0542839951184033,-0.0608457004884774,-0.1783495377343977,-0.2099190550860751,-11.194396742794178,23.687455186510554,1.411116865531825,0.1685610340788483,0.5947449979009338,0.1434014459024463,7525.396484375,11.64911111111111,7.699999999999999,179.33800334294108,6.295849810864314,41.82485538677975,1553.0,1435.0,1350.0,1528.0,1471.0,999.0,107.0,293.85,1649417588.0508544,1649417589.379285,06e703d4-193b-4bc5-979f-2c108734c801
0.0235143138270816,0.1331218449025829,0.1231814307393474,-0.3610324903089113,-0.0959152979252337,0.2261357187743353,-0.1078543147869338,-0.1363869875012209,-11.035430680848089,22.95425081283608,3.2683494498034094,1.4758241527908516,0.6010757846013913,0.1167055337446819,7525.396484375,11.651777777777776,7.704444444444444,179.30884450646442,6.394305043043408,41.82688888587764,1553.0,1522.0,1350.0,1528.0,1471.0,999.0,107.0,293.85,1649417591.5147583,1649417592.6478364,63534d22-3ad3-43c4-813d-2a8af10a9e18
0.0208845745245456,0.1305447004967406,0.1231814307261706,-0.3548920480624244,-0.0952710117886257,0.224807700517842,-0.1095241993124588,-0.1381752103179109,-11.11118971426953,23.068390041091995,3.5168557190867467,1.4597467060595946,0.5889895410640686,0.1181982289535787,7532.00927734375,11.654111111111112,7.687777777777778,179.265916008621,6.394683881382998,41.81484195000155,1553.0,1522.0,1350.0,1528.0,1471.0,999.0,107.0,293.85,1649417592.7557309,1649417593.9007535,63534d22-3ad3-43c4-813d-2a8af10a9e18
0.0266305548471465,0.1288353700249086,0.1227738211662092,-0.3559570926280188,-0.0955339857111849,0.2262935031207654,-0.1092480766700173,-0.134099114273348,-11.103243358012405,23.06845522981533,3.350113466293751,1.465445538721731,0.5841053931691303,0.1182730733365407,7538.63330078125,11.652444444444445,7.690000000000001,179.2479981456983,6.3767994104962735,41.80752454067075,1553.0,1522.0,1350.0,1528.0,1471.0,999.0,107.0,293.85,1649417594.0108812,1649417595.1102955,63534d22-3ad3-43c4-813d-2a8af10a9e18
0.0685046010256796,0.1276484473564549,0.1203913785921101,-0.7244630650045132,-0.1403573883224488,0.5829473097153346,-0.0121828799182683,-0.0437144661773277,-10.726889828708927,22.63521512392484,6.0128926280796895,3.0957767309783746,0.5986024202901791,0.0451934469111727,7538.63330078125,11.632111111111112,7.677777777777777,179.21749755650464,6.489288926440583,41.842142975024,1553.0,1613.0,1350.0,1528.0,1471.0,999.0,107.0,293.85,1649417596.8394706,1649417597.984761,8722a6b9-043f-47d2-bf2f-b45e89fce43b
0.0538746536020723,0.1191710784930908,0.1150292392160285,-0.72022867736903,-0.1440132318747091,0.5881192983137602,-0.0156556529753511,-0.0350631292621882,-10.690365730553594,22.67748718026144,6.086857096176645,3.0978905423509047,0.5650325211649568,0.0615503913913523,7538.63330078125,11.633,7.699999999999999,179.19964647765386,6.484004020138417,41.836276980891824,1553.0,1613.0,1350.0,1528.0,1471.0,999.0,107.0,293.85,1649417598.117471,1649417599.2125733,8722a6b9-043f-47d2-bf2f-b45e89fce43b
0.062171480918956,0.1234969994583756,0.1239572037972215,-0.7198736624724316,-0.1341911550577021,0.5855684514875763,-0.0069249184648536,-0.0347212631566832,-10.799128399138812,22.53211561423379,6.443367831097366,3.090840571181543,0.5793872147133008,0.024584843027481,7538.63330078125,11.636,7.7,179.20539446129538,6.484749791418418,41.833395779426944,1553.0,1613.0,1350.0,1528.0,1471.0,999.0,107.0,293.85,1649417599.342841,1649417600.4322312,8722a6b9-043f-47d2-bf2f-b45e89fce43b
0.0586177929125581,0.1158399069346178,0.1041830821779697,-1.0733462110081122,-0.1952279137828562,0.9331703876791204,0.0659633626114264,0.0405256925391586,-10.621813646532804,22.474011709394865,8.722804728704343,4.668378816713032,0.5714763574960531,0.0302330405120734,7530.539767795139,11.604,7.687777777777778,179.20635220559902,6.608432422160693,41.818150038289566,1553.0,1710.0,1350.0,1528.0,1471.0,999.0,107.0,293.85,1649417601.3445046,1649417602.4884615,a7d9e5a1-908c-441a-b3db-67abe1d92c6f
0.0702493318502296,0.112072299808714,0.0995936815184828,-1.0689843808667956,-0.1985150882043625,0.9349656902918084,0.0608682428159481,0.0402349040715723,-10.714476669532091,22.53932633651892,8.986478901501911,4.662773725275927,0.5548375781573434,0.0480831595917753,7525.396484375,11.605333333333332,7.695555555555554,179.17766085762548,6.597057263848599,41.84359894368208,1553.0,1710.0,1350.0,1528.0,1471.0,999.0,107.0,293.85,1649417602.5974753,1649417603.7123668,a7d9e5a1-908c-441a-b3db-67abe1d92c6f
0.0702872607844357,0.105118662485784,0.1009464800789307,-1.0654696307441662,-0.1968209290587583,0.939618305529526,0.0639531292424861,0.0400199733385696,-10.60298583260976,22.62922682745405,9.15471746925454,4.666046619185471,0.5261315554018301,0.0390072031578986,7525.396484375,11.611333333333333,7.690000000000001,179.1678830623737,6.593672241068688,41.86701397052175,1553.0,1710.0,1350.0,1528.0,1471.0,999.0,107.0,293.85,1649417603.820977,1649417604.9394965,a7d9e5a1-908c-441a-b3db-67abe1d92c6f
0.0851028070327881,0.1070348320782182,0.103826550207014,-1.2870035931722077,-0.2264687136070322,1.1486087288704343,0.1170409896983423,0.0950432212601029,-10.502516565240542,23.15445623807829,10.339319374974668,5.639266971949213,0.5495752239291778,-0.0003081973404689,7532.00927734375,11.56988888888889,7.66,179.17565733546897,6.665251722364906,41.87077247184003,1553.0,1814.0,1350.0,1528.0,1471.0,999.0,107.0,293.85,1649417605.8511636,1649417606.9889867,5df2ac72-531a-4a66-b006-af1c2d570e49
0.0826773783130117,0.0989615326989107,0.0956617156527491,-1.29988325864865,-0.233586710570097,1.1695181895778644,0.1158651927942793,0.093828483995085,-10.503727302885643,23.059645251430013,10.466333765018064,5.714291261452464,0.5192448342916018,0.0213178322840894,7536.42529296875,11.559666666666663,7.646666666666666,179.16375307465557,6.657732442998629,41.92656638989509,1553.0,1814.0,1350.0,1528.0,1471.0,999.0,107.0,293.85,1649417607.0979111,1649417608.216507,5df2ac72-531a-4a66-b006-af1c2d570e49
0.063219836578829,0.1138928884883004,0.1006051196754801,-1.300780910800427,-0.2326637731149714,1.1532340354734052,0.1142848207249169,0.0888850800094505,-10.494314391285068,23.155800276762328,10.125639495260232,5.680557477592972,0.5786249755075312,0.0168578918935772,7538.63330078125,11.551,7.639999999999999,179.15465981614054,6.665341700620847,41.98383752608565,1553.0,1814.0,1350.0,1528.0,1471.0,999.0,107.0,293.85,1649417608.3248088,1649417609.4438546,5df2ac72-531a-4a66-b006-af1c2d570e49
0.0184915117784256,0.1489002799836357,0.1733700028991942,0.3276173504721381,0.0174527647672272,-0.4509827395807615,-0.2585646849046534,-0.2874129283055087,-11.63065750325233,25.09042224373055,-1.0510103265153978,-1.583504912721858,0.6211801358977851,0.1090233217251308,7538.63330078125,11.650666666666666,7.693333333333334,179.13731568910816,6.096257738346985,42.052869109662105,1553.0,1349.0,1350.0,1528.0,1471.0,999.0,107.0,293.85,1649417611.380401,1649417612.5241787,a0749c69-d8c3-4a0f-a5a2-2a1274d640e5
0.0083801642474681,0.1492026999903995,0.1707008176611632,0.3275647556907931,0.0148230254873473,-0.4526131782811976,-0.2598927033853961,-0.2811409997810104,-11.472160175977768,24.99082840805508,-1.2624607852951095,-1.5877971353230151,0.6229022441412165,0.118023945955927,7538.63330078125,11.654333333333334,7.693333333333332,179.12131483261254,6.101589270176612,42.102884308224375,1553.0,1349.0,1350.0,1528.0,1471.0,999.0,107.0,293.85,1649417612.6361427,1649417613.7475178,a0749c69-d8c3-4a0f-a5a2-2a1274d640e5
-0.0055311566368227,0.1444954668611348,0.1634558862524996,0.3218976679875632,0.0094846547208491,-0.4403980367073668,-0.2645999372711979,-0.2848883783132146,-11.6909344068644,24.95414038538549,-0.9680859558329068,-1.5482316786758776,0.6044244790419623,0.1415307248646271,7538.63330078125,11.653,7.687500000000001,179.11399286982223,6.085885526909891,42.13962048067529,1553.0,1349.0,1350.0,1528.0,1471.0,999.0,107.0,293.85,1649417613.8568294,1649417614.9764414,a0749c69-d8c3-4a0f-a5a2-2a1274d640e5
0.0088171055599056,0.15381940939214,0.1838591220999108,0.6843060477590631,0.059667160002171,-0.7996761690402516,-0.3541501580272796,-0.3811176332154082,-11.971448100211662,26.43959556062331,-3.583620854239376,-3.16277705591593,0.6212601794001817,0.1726799345952955,7532.00927734375,11.625666666666667,7.690000000000001,179.1244612730902,6.036559465975742,42.18927823267101,1553.0,1264.0,1350.0,1528.0,1471.0,999.0,107.0,293.85,1649417615.8856127,1649417617.0195837,df0515ea-6b9a-45f5-8048-4ac24ae7e6f6
0.0096641850477622,0.1500138733805977,0.186387717428798,0.6880610116098451,0.0666966552604252,-0.7993095225144576,-0.348511389244833,-0.3733042718578369,-12.070707912843034,26.119210365984504,-3.5342279637936462,-3.1724634870406416,0.6069444237376276,0.1513345440765194,7532.00927734375,11.618111111111112,7.695555555555556,179.12898437614055,5.930360364529538,42.270294900966064,1553.0,1264.0,1350.0,1528.0,1471.0,999.0,107.0,293.85,1649417617.1281545,1649417618.258026,df0515ea-6b9a-45f5-8048-4ac24ae7e6f6
-0.0193767340717557,0.1542492706016864,0.182202892142741,0.6791350706048859,0.0589465102825691,-0.7959970609610125,-0.3535938669564661,-0.3693596626018798,-12.009453809718764,26.28124201165113,-3.679704953503432,-3.144011812726155,0.6245219825528517,0.1750366377737482,7525.396484375,11.615666666666666,7.686666666666667,179.11121070610037,5.922383130465786,42.32689212515852,1553.0,1264.0,1350.0,1528.0,1471.0,999.0,107.0,293.85,1649417618.3720963,1649417619.4827814,df0515ea-6b9a-45f5-8048-4ac24ae7e6f6
-3.500146989746766e-05,0.1677686585136131,0.2045718578873774,0.9770708468657844,0.0997636031417289,-1.0968732910105254,-0.4266313487520528,-0.4526526245214246,-12.056380816060049,27.929412251938874,-5.780707609030272,-4.480509780888989,0.6589449322591912,0.1935163710810725,7525.396484375,11.596111111111112,7.685555555555556,179.11867079049384,5.811743504853557,42.45208645700522,1553.0,1178.0,1350.0,1528.0,1471.0,999.0,107.0,293.85,1649417621.4157534,1649417622.5594702,059dfa38-93e9-4e72-8f8c-838db4827b3f
-0.0025489311029572,0.1746297491243035,0.2085002835749887,0.9753852852594214,0.1036647201048844,-1.1010849225403545,-0.4251910605059551,-0.4537768383733983,-12.269333414439467,27.879341926272875,-5.622077170657444,-4.486389886434985,0.6852352029179808,0.181708143207269,7525.396484375,11.592999999999998,7.644444444444444,179.10693045422047,5.7986116124005616,42.52294132163512,1553.0,1178.0,1350.0,1528.0,1471.0,999.0,107.0,293.85,1649417622.6728077,1649417623.781811,059dfa38-93e9-4e72-8f8c-838db4827b3f
0.0022528717186179,0.1733700029205485,0.2073462326724516,0.9745725947514378,0.1029981823697823,-1.097688510728531,-0.4242382855479149,-0.4541910229131559,-12.189753198860371,27.79946798107792,-5.421465054345906,-4.477439385600008,0.6781946637195726,0.1830443662257923,7518.794921875,11.588,7.690000000000001,179.0926189311796,5.777992883979847,42.57858080152395,1553.0,1178.0,1350.0,1528.0,1471.0,999.0,107.0,293.85,1649417623.8943765,1649417625.0115547,059dfa38-93e9-4e72-8f8c-838db4827b3f
-0.0241497109216563,0.1885567465215226,0.2196928578585462,1.0962506226875306,0.1173960044572679,-1.2332911221346206,-0.4582802678286971,-0.4802517445914544,-12.16724726921425,28.841271298541933,-6.750239517087019,-5.049311844978529,0.7325909976592166,0.1956912583414454,7532.00927734375,11.557777777777778,7.650000000000001,179.0851209012907,5.738251191134783,42.71111644836356,1553.0,1088.0,1350.0,1528.0,1471.0,999.0,107.0,293.85,1649417626.94547,1649417627.8926957,5733a619-67be-4bd3-8074-c9a89787abf4
-0.0281509604506977,0.1836189055539016,0.2187537375707888,1.1138258772386858,0.1177110674482682,-1.242673736203768,-0.4652819502285469,-0.4826281193429679,-12.34715238513017,29.15747744773187,-6.504725267236718,-5.108043316300372,0.7109503668461984,0.2061584689188752,7532.00927734375,11.543111111111113,7.645555555555556,179.08006504348512,5.722264801359283,42.77729946360117,1553.0,1088.0,1350.0,1528.0,1471.0,999.0,107.0,293.85,1649417628.0034668,1649417629.1137884,5733a619-67be-4bd3-8074-c9a89787abf4
-0.0240040638203647,0.1911667626341327,0.2177928713519324,1.0968337167601334,0.114891683602659,-1.2351890874866491,-0.4622349919851378,-0.483930345986073,-12.245646406743283,28.915111039498168,-6.603271482636303,-5.05451329456754,0.7414414726989225,0.2077658878811613,7532.00927734375,11.55,7.649999999999999,179.0843771695811,5.742792745182279,42.85224485263399,1553.0,1088.0,1350.0,1528.0,1471.0,999.0,107.0,293.85,1649417629.2270968,1649417630.3400009,5733a619-67be-4bd3-8074-c9a89787abf4
0.0274063279431146,0.1452580912247532,0.150136257373446,-0.0591383928020626,-0.0417821131382357,-0.0769548769580352,-0.1692455819370981,-0.1932551036523727,-11.199153551844129,23.764295690705,1.2512180577822611,0.1200480948020829,0.63018356692946,0.0944634508278179,7532.00927734375,11.65,7.66,179.06905022508357,6.100989636485728,42.92122293306196,1553.0,1435.0,1350.0,1528.0,1471.0,999.0,107.0,293.85,1649417632.4752436,1649417633.6138906,81299866-c4de-4b15-ae74-b3def7b46f90
0.0275378148694837,0.1448504816506215,0.1483743321143756,-0.0562193821580137,-0.0438727559285236,-0.0784143823467975,-0.1718621727426191,-0.1929789810566412,-11.156850852668445,23.83118534460933,1.351125343808231,0.1105767258488218,0.6269999443908489,0.1035574620595649,7538.63330078125,11.653777777777776,7.683333333333334,179.0518320770959,6.095474638185896,42.85217541237743,1553.0,1435.0,1350.0,1528.0,1471.0,999.0,107.0,293.85,1649417633.7220142,1649417634.8471997,81299866-c4de-4b15-ae74-b3def7b46f90
