raw_voltage_G-,raw_voltage_G0,raw_voltage_G1,raw_voltage_G2,raw_voltage_G3,raw_voltage_G4,raw_voltage_G5,raw_voltage_G6,load_x,load_y,load_z,load_l,load_m,load_n,rpm,voltage,current,roll,pitch,yaw,aileron1_pwm,elevator_pwm,throttle_pwm,rudder_pwm,aileron2_pwm,pbaro,pdiff,Tt,sample_start_time,sample_end_time,uid
-0.0457398708272862,0.085549862693039,-0.1095373480120776,-0.1410942210433051,-0.2326091554197636,0.3433300413986225,-0.3282527850040747,-0.3452277546981739,-15.847552945226209,20.2017178539196,40.38499674952657,1.2167081868757883,0.0858681183595448,0.9801957230839798,4503.116373697917,11.948666666666666,0.14,-179.85814046207537,-9.278672063448075,109.29289634355467,1553.0,1435.0,1200.0,1528.0,1471.0,997.6,110.0,292.15,1649406407.025957,1649406408.0412312,ac48aa8a-5376-413a-b051-a9c7ac1fb1b3
-0.0347475604313338,0.0870225166607485,-0.1063027685502576,-0.136163459605015,-0.2272707841467872,0.3398982319175567,-0.3226908856031913,-0.3531564199659403,-15.71124776067061,19.91710192857714,40.78404825669566,1.1962803937697954,0.0864830939955052,0.9615930056829238,4519.470811631944,11.948444444444442,0.1477777777777777,-179.8347205023213,-9.273568014863306,108.76608688851124,1553.0,1435.0,1200.0,1528.0,1471.0,997.6,110.0,292.15,1649406408.1501906,1649406409.2772129,ac48aa8a-5376-413a-b051-a9c7ac1fb1b3
-0.0386001285480613,0.0800537077153826,-0.1101421880569661,-0.1389378347223339,-0.2303738767781441,0.3481687612717888,-0.3263988185044094,-0.3458325950971812,-15.9309908950932,20.08346632901252,40.59613176676597,1.221894792246622,0.063667618112467,0.974977844920299,4527.693305121527,11.947666666666668,0.1322222222222222,-179.8500975348727,-9.274046412696425,108.2141286769438,1553.0,1435.0,1200.0,1528.0,1471.0,997.6,110.0,292.15,1649406409.3907182,1649406410.5937126,ac48aa8a-5376-413a-b051-a9c7ac1fb1b3
0.1579536627845423,0.4237343127452707,-0.0722117374632987,-0.3487642488188713,-0.2795692241872269,0.211003592966434,-0.3480815279472168,-0.3696630938631687,-15.088800244015752,19.07514940702585,41.57060073568293,1.382767028731727,1.3663029413597054,1.0632746751609805,4531.950032552083,11.946333333333332,0.14,-59.93693170285621,-9.258699926268788,107.57738960393873,1658.0,1435.0,1200.0,1528.0,1551.0,997.6,110.0,292.15,1649406411.706125,1649406412.7503674,4f080364-cd2b-4fd6-a3fb-9b69db2d55b8
0.1345388697453214,0.4183231189695081,-0.0730335310163096,-0.3466402282943567,-0.2775463475718402,0.2146068413010809,-0.3459701504011611,-0.3634553911798566,-15.108275694847212,18.91503129882613,41.61412031272694,1.384967510647058,1.3454434790458842,1.0581108323300723,4528.491102430556,11.945666666666666,0.1488888888888888,179.8798528745369,-9.237226570428176,107.31214679662033,1658.0,1435.0,1200.0,1528.0,1551.0,997.6,110.0,292.15,1649406412.8586867,1649406413.980092,4f080364-cd2b-4fd6-a3fb-9b69db2d55b8
0.1674106094167547,0.420548282763287,-0.072995602089253,-0.3488527496784487,-0.2794554373837669,0.2138735486488713,-0.3476390236747061,-0.3707503900240103,-15.106020153417925,19.053011371285,41.52229373149938,1.389213683190906,1.354864241948192,1.0631007802467378,4529.555338541667,11.941666666666668,0.14,179.82032549919052,-9.220681954983636,107.06548741621376,1658.0,1435.0,1200.0,1528.0,1551.0,997.6,110.0,292.15,1649406414.088548,1649406415.2046323,4f080364-cd2b-4fd6-a3fb-9b69db2d55b8
0.3187596812784514,0.6881242264884254,-0.0256476509144345,-0.51786410545723,-0.3102158052187735,0.1001373295502731,-0.3602946460081063,-0.379777477413073,-14.771654321141837,19.45736693750253,40.62749579485967,1.519945232233238,2.387818108744636,1.0881766044150751,4531.416937934027,11.92377777777778,0.1411111111111111,179.5211753561025,-9.183623625276873,106.75517750293184,1767.0,1435.0,1200.0,1528.0,1630.0,997.6,110.0,292.15,1649406416.1221378,1649406417.2561133,eb4dfbee-ee36-4ff8-b0ab-556071eaca81
0.3212377046325737,0.6870875024622151,-0.0266085172088176,-0.5224408644412603,-0.3071941332228348,0.1031969299655603,-0.3536697248041169,-0.3773879542429351,-14.597317741421165,18.867606794014083,40.34706072098151,1.5332302274956886,2.3856739221002274,1.075741132403555,4532.748046875,11.905,0.13,179.480855990522,-9.174789629359106,106.58418902942992,1767.0,1435.0,1200.0,1528.0,1630.0,997.6,110.0,292.15,1649406417.364622,1649406418.3780775,eb4dfbee-ee36-4ff8-b0ab-556071eaca81
0.2975725815178183,0.688023082681411,-0.0277918998891985,-0.5177781332058611,-0.309147726344595,0.0964895778256013,-0.3591916724670927,-0.3757853303497901,-14.7126176067728,19.06610534871273,40.10680365893613,1.5088005413296397,2.391482637370118,1.0875302823156547,4535.14599609375,11.904666666666666,0.1266666666666666,179.38554297738423,-9.150857500281028,106.37832940457548,1767.0,1435.0,1200.0,1528.0,1630.0,997.6,110.0,292.15,1649406418.4869523,1649406419.7135684,eb4dfbee-ee36-4ff8-b0ab-556071eaca81
0.4444698049777119,0.9439098373668372,0.02020084229176,-0.6815583465377043,-0.3403495875556587,-0.0161947495155179,-0.3706310403288519,-0.3946668615964212,-14.131592386908371,19.754931707796697,38.42103699100812,1.632011630485411,3.3852611148479665,1.1081684532454283,4530.35205078125,11.89,0.1277777777777777,179.08869233131674,-9.09935417425333,106.01667847712235,1886.0,1435.0,1200.0,1528.0,1710.0,997.6,110.0,292.15,1649406421.522484,1649406422.5882473,0fffac6d-a111-48df-a5c8-985702ddf1f1
0.4610766068916995,0.939491875765152,0.0225281615680899,-0.6815714952292654,-0.3338935765987205,-0.0090944533650667,-0.363202025566417,-0.3840427135119608,-14.195055512361728,19.4220854420114,38.85494732788489,1.645943233156882,3.3654380264387744,1.0857949346420113,4523.446343315973,11.845444444444446,0.12,179.05950465626358,-9.079999030829068,105.83586439704442,1886.0,1435.0,1200.0,1528.0,1710.0,997.6,110.0,292.15,1649406422.727465,1649406423.695041,0fffac6d-a111-48df-a5c8-985702ddf1f1
0.4461629523315095,0.9401493105244134,0.0168833250583064,-0.6810217783844492,-0.342088755764559,-0.0117024467580858,-0.3724066203526758,-0.399854529088624,-14.18756457298008,19.71034418934289,38.58721531308301,1.6404336168656817,3.3698030438033006,1.117350669280032,4518.4111328125,11.848,0.11,179.0193036806287,-9.079730281857977,105.6433539974678,1886.0,1435.0,1200.0,1528.0,1710.0,997.6,110.0,292.15,1649406423.802941,1649406425.0392692,0fffac6d-a111-48df-a5c8-985702ddf1f1
-0.2837970363144475,-0.326924766425212,-0.1617771218424403,0.08871869845551,-0.1839063795294469,0.5325003184691194,-0.304401046291135,-0.3269773616193185,-16.87665012033619,21.555055281167725,39.78735454985359,1.1291543723875648,-1.480165599428534,0.9010970696585844,4517.618326822917,11.877,0.1266666666666666,179.66965152610004,-9.079678391393031,105.24287192676336,1449.0,1435.0,1200.0,1528.0,1386.0,997.6,110.0,292.15,1649406427.0658848,1649406428.203448,6eba6791-3182-4a72-9550-968aea6dc844
-0.283205344927414,-0.3339067252739842,-0.1633023707556402,0.0929262812041421,-0.1834198777438585,0.5379701755925015,-0.3039276931984992,-0.3278057294463653,-16.888035709020855,21.551188033658203,40.139059169605474,1.1319033447446043,-1.5100035566096943,0.9015213129252924,4528.758192274306,11.939666666666666,0.14,179.61385039840084,-9.077999682677024,105.16183097335129,1449.0,1435.0,1200.0,1528.0,1386.0,997.6,110.0,292.15,1649406428.3127491,1649406429.5441675,6eba6791-3182-4a72-9550-968aea6dc844
-0.2832973858530486,-0.3380091191645333,-0.1649065118216033,0.0966999569758625,-0.1844323274308141,0.5386933538210517,-0.3052294142887495,-0.3247157855370545,-16.847007386551027,21.604401282669205,40.152379127675765,1.125311592231643,-1.5263638825536154,0.906502637194084,4524.241753472223,11.944333333333333,0.14,179.56175730451108,-9.070286027510615,105.08379833881358,1449.0,1435.0,1200.0,1528.0,1386.0,997.6,110.0,292.15,1649406429.652172,1649406430.6579423,6eba6791-3182-4a72-9550-968aea6dc844
-0.5024649551654187,-0.7062950994613792,-0.2047986484447485,0.3018686648831585,-0.139510308772883,0.7025751479776606,-0.2844999859754912,-0.3024656591397328,-17.86785778050177,23.43888462623591,38.9188365371335,1.0402296728756115,-2.917260536149793,0.82420999066844,4520.79443359375,11.944,0.14,179.63390686944365,-9.057073311152443,104.9610537681492,1342.0,1435.0,1200.0,1528.0,1293.0,997.6,110.0,292.15,1649406431.5712185,1649406432.6176176,0d8aea32-5e78-4cf6-ad5c-583202305091
-0.505168530104577,-0.6949831704932431,-0.2032086674735724,0.2917740068434097,-0.1390693217033885,0.7038672601170367,-0.2789320180703357,-0.3020079832260459,-17.625818926253874,23.04782172046872,39.38740991232797,1.063587593397899,-2.879362937821635,0.8157853095031665,4515.23779296875,11.910666666666666,0.13,179.63436676884774,-9.041050825724456,104.79726355512256,1342.0,1435.0,1200.0,1528.0,1293.0,997.6,110.0,292.15,1649406432.7264814,1649406433.8437395,0d8aea32-5e78-4cf6-ad5c-583202305091
-0.5070417140894009,-0.7015413381970407,-0.2179726320045735,0.2912106358042963,-0.1499154797454622,0.7060519663609445,-0.2897847511765277,-0.3069286309498531,-17.608390413162315,22.764972963105983,38.615897627729495,1.067043351170334,-2.898116905382376,0.8643767030456188,4520.79443359375,11.908333333333337,0.13,179.59663073259333,-9.042799069560765,104.59807095380796,1342.0,1435.0,1200.0,1528.0,1293.0,997.6,110.0,292.15,1649406433.96004,1649406435.079552,0d8aea32-5e78-4cf6-ad5c-583202305091
-0.669124732384184,-1.0252649363407975,-0.2407426364388118,0.472068410276005,-0.1047041904186021,0.8373619148311326,-0.267785967906995,-0.28989853794812,-18.484603847205065,25.050320505628555,35.84222446113121,0.9672763570730954,-4.105164804113563,0.7594661964844924,4517.81591796875,11.88175,0.12,179.66713573975574,-9.02130553145979,104.25097364165632,1227.0,1435.0,1200.0,1528.0,1189.0,997.6,110.0,292.15,1649406437.101513,1649406438.4514906,8eb96808-a18a-4938-9edd-3b87b90afe8b
-0.6846088452597902,-1.0250945088740584,-0.2400907644618314,0.4677692927030801,-0.1074861512879495,0.8356697789024103,-0.2702538774253619,-0.2860980585550717,-18.489197922717285,25.36356782510041,35.05237688710022,0.9751524520467107,-4.09691673156814,0.7646176728619032,4508.90380859375,11.79988888888889,0.0988888888888888,179.68116267158126,-9.01001188481498,103.8350674859862,1227.0,1435.0,1200.0,1528.0,1189.0,997.6,110.0,292.15,1649406438.5647705,1649406439.580412,8eb96808-a18a-4938-9edd-3b87b90afe8b
-0.6948532006580914,-1.0252017213788505,-0.248416924463655,0.4731809921773023,-0.109723452625899,0.8372354850539913,-0.2737155249823412,-0.2964981729630418,-18.51913354656705,24.81113037218953,35.92933311762818,0.9625112959482074,-4.106082906765503,0.7854202221870923,4504.1650390625,11.802555555555552,0.1044444444444444,179.68749653367158,-9.00336525697891,103.51111464929213,1227.0,1435.0,1200.0,1528.0,1189.0,997.6,110.0,292.15,1649406439.6883352,1649406440.8104546,8eb96808-a18a-4938-9edd-3b87b90afe8b
-0.0572581291416052,0.0788703250657796,-0.1085643444233416,-0.1364790283457975,-0.228335828644062,0.3523237489893542,-0.3224805064149127,-0.349356445987228,-15.795601855335985,20.01568309555188,41.36462231704381,1.2255050157231326,0.0512559966071866,0.9655570916908336,4508.90380859375,11.804,0.1,179.30880352532938,-8.97195207862116,103.01761223228128,1553.0,1435.0,1200.0,1528.0,1471.0,997.6,110.0,292.15,1649406442.522618,1649406443.4729383,13019298-4683-4190-9064-925827381948
-0.0541322793486769,0.0869507045507995,-0.1103050296391341,-0.1426584103057989,-0.2313741892684361,0.3469914473210164,-0.3263103176906968,-0.3504963369951115,-15.883564657646378,19.956232087650672,40.90321509629838,1.2268631820083296,0.0869238079243641,0.9777566859315304,4516.0302734375,11.951666666666666,0.14,179.2419906148683,-8.965176530964506,103.23826377014828,1553.0,1435.0,1200.0,1528.0,1471.0,997.6,110.0,292.15,1649406443.581312,1649406444.7008855,13019298-4683-4190-9064-925827381948
-0.0435834845851536,0.0859048774901132,-0.1119698569550541,-0.1386617120643136,-0.2320174640064969,0.3519687342156118,-0.327371822206749,-0.3539190449973105,-15.92848979820488,19.963331353885,41.97729922925601,1.2291450038608749,0.0732022092445702,0.983802616830976,4541.561848958333,11.952666666666666,0.14,179.1681987688953,-8.9528837082783,103.43480701697484,1553.0,1435.0,1200.0,1528.0,1471.0,997.6,110.0,292.15,1649406444.8125088,1649406445.930894,13019298-4683-4190-9064-925827381948
-0.037784909340595,0.0691665872968294,-0.1439211909794351,-0.3967706533921311,-0.2846648504152527,0.6227398121817934,-0.2820351108178964,-0.3018764964043792,-16.015174480976427,19.290323298017693,44.409011831053775,2.414125883937688,0.0192265469142218,1.0338704811496948,4644.081705729167,11.945,0.13,179.07282959642436,-8.830013632887908,103.7970210555795,1553.0,1522.0,1200.0,1528.0,1471.0,997.6,110.0,292.15,1649406448.0691566,1649406449.2065403,b4e7e713-c2e1-4fce-bd88-8ad695ef70f4
-0.0590200545134636,0.0607645704158191,-0.1526387772675049,-0.3931284638159991,-0.2906080619723772,0.6261190267889155,-0.2890039208050348,-0.3108439085220417,-16.057061406437377,19.25520524040535,44.13627379989325,2.4127721027437614,-0.0105740646814185,1.062386218186507,4650.80078125,11.933777777777776,0.1222222222222222,179.04385441614534,-8.828435479734683,103.9054055329689,1553.0,1522.0,1200.0,1528.0,1471.0,997.6,110.0,292.15,1649406449.3146489,1649406450.3658016,b4e7e713-c2e1-4fce-bd88-8ad695ef70f4
-0.0347475604420362,0.0732689805021134,-0.1411205184720945,-0.3944959285329607,-0.2818510290107137,0.6156263682024745,-0.2804704157312661,-0.307162272965803,-15.987296293034609,19.206392519043096,44.284717431858965,2.3925870909843927,0.0354133758048721,1.0243875086947944,4639.059353298611,11.938333333333333,0.13,179.03793491886464,-8.813719362849197,103.96617600274423,1553.0,1522.0,1200.0,1528.0,1471.0,997.6,110.0,292.15,1649406450.476972,1649406451.5602653,b4e7e713-c2e1-4fce-bd88-8ad695ef70f4
-0.010908973483143,0.0664579558795129,-0.1601335347157088,-0.7213594657299562,-0.3350638107943116,0.9381507088520128,-0.2077055220778717,-0.2304790663909307,-15.66821883668969,18.617275684258097,46.60833364171264,3.850345371851426,0.0260439714814455,1.0192324449847243,4625.7021484375,11.932,0.1266666666666666,178.99776126398646,-8.661962520184055,104.091427252834,1553.0,1613.0,1200.0,1528.0,1471.0,997.6,110.0,292.15,1649406453.599147,1649406454.7324011,5c5e0261-47a0-4a28-857f-9badcec9e3f3
-0.0297566185883458,0.066861013995847,-0.167501862376569,-0.7216436799593475,-0.342505974057772,0.9379241467195713,-0.2160003273517053,-0.2364819526309897,-15.707141432448292,18.65709261954876,46.534531288007805,3.8503430747421343,0.0280538328792175,1.0511214426140791,4625.7021484375,11.931,0.12,178.99123615659937,-8.63957951595523,104.10892392075786,1553.0,1613.0,1200.0,1528.0,1471.0,997.6,110.0,292.15,1649406454.840544,1649406455.9662216,5c5e0261-47a0-4a28-857f-9badcec9e3f3
-0.0268487337681037,0.070274617803465,-0.1648847658943404,-0.7209230299595595,-0.3394463730898455,0.9348392605268958,-0.2143188112239328,-0.2397311981696214,-15.788143365592068,18.5865788109852,46.683549008786976,3.841431163079518,0.0401854807360086,1.0415944792928538,4622.377278645833,11.925666666666666,0.1266666666666666,178.99472865999496,-8.615370953943243,104.11411258779734,1553.0,1613.0,1200.0,1528.0,1471.0,997.6,110.0,292.15,1649406456.0744815,1649406457.189284,5c5e0261-47a0-4a28-857f-9badcec9e3f3
-0.0204387441698384,0.0648634236099407,-0.1768323803313092,-0.9828097921106018,-0.3813072779157439,1.192338762651035,-0.1574506947210371,-0.1839883061622342,-15.719986881360636,18.49410520900345,48.42583417843594,5.00992340749619,0.0354508706857255,1.0335203310893897,4624.038736979167,11.916,0.1233333333333333,178.98967432000916,-8.489188900851566,104.06201873499764,1553.0,1710.0,1200.0,1528.0,1471.0,997.6,110.0,292.15,1649406458.1035678,1649406459.2422836,8fa64b3d-b4a9-45cf-956c-e3a124cd191b
-0.0285934646654008,0.0555961213665182,-0.1873260523118738,-0.976968733046555,-0.3894999286760475,1.196586802879038,-0.1660605628598434,-0.1942038325493729,-15.66768226535658,18.5136295646089,48.42943980668736,5.005927140990703,-0.0010933741258626,1.0702051858785997,4628.19970703125,11.902666666666669,0.1133333333333333,178.9884266721208,-8.471061294203135,103.96818787290974,1553.0,1710.0,1200.0,1528.0,1471.0,997.6,110.0,292.15,1649406459.350747,1649406460.359946,8fa64b3d-b4a9-45cf-956c-e3a124cd191b
-0.0047027887193857,0.0614088565435244,-0.1829333759448532,-0.981638040293624,-0.3875928616565625,1.1962859000366977,-0.1637888725402293,-0.190401836121419,-15.731442220549216,18.631413232126835,48.6095579391579,5.016779930142835,0.0204181731823333,1.059209099162978,4623.20703125,11.907,0.12,178.9867616237831,-8.452360425983118,103.89754626196392,1553.0,1710.0,1200.0,1528.0,1471.0,997.6,110.0,292.15,1649406460.473507,1649406461.594163,8fa64b3d-b4a9-45cf-956c-e3a124cd191b
-0.0060636788302336,0.0559627676957624,-0.164872123094398,-1.084623755601828,-0.3889057088434013,1.2967444675534274,-0.1242755204542929,-0.1526210776076665,-15.582808803396366,19.37292070461044,48.86242895035483,5.48076428670464,0.0105361570875298,0.9787134756669624,4617.120062934027,11.882,0.1111111111111111,178.99852928081313,-8.415668080579376,103.7199696915526,1553.0,1814.0,1200.0,1528.0,1471.0,997.6,110.0,292.15,1649406463.6337554,1649406464.7691574,4212826a-838d-4792-a7ce-353722f7310e
-0.028317847745689,0.052007538734322,-0.1646566866468279,-1.051036904735028,-0.3838060365069505,1.2687746619453903,-0.1310223190772133,-0.1550186914627964,-15.59602872048256,19.373649115758223,48.70706441056044,5.342132827630077,-0.0069493873151139,0.9806671152611924,4610.77294921875,11.861,0.1,179.00965338224134,-8.410973748481073,103.59136861312987,1553.0,1814.0,1200.0,1528.0,1471.0,997.6,110.0,292.15,1649406464.8785973,1649406466.007754,4212826a-838d-4792-a7ce-353722f7310e
-0.0035224403590685,0.0616141784793092,-0.1690190198425807,-1.0643444052444275,-0.3916745212717836,1.27416411002316,-0.1361346337298189,-0.1554783902123381,-15.648439171530292,19.42840701638081,49.03225631519052,5.3844333349187545,0.0279329512998168,1.0060547150268282,4603.34375,11.86288888888889,0.1,179.0283438154501,-8.415515729415393,103.45634184451798,1553.0,1814.0,1200.0,1528.0,1471.0,997.6,110.0,292.15,1649406466.1229084,1649406467.235207,4212826a-838d-4792-a7ce-353722f7310e
-0.0561010438594957,0.0949774777950529,-0.0846863107865223,0.2005483570200306,-0.1758067819784155,0.0175185082690925,-0.4023194043959159,-0.4248957207711399,-16.306619415773483,21.276622108391702,39.904446227492265,-0.2780403833250611,0.0882658127683352,0.9771055475731292,4603.34375,11.864,0.1,179.03600576987907,-8.801504707883492,103.32801700930167,1553.0,1349.0,1200.0,1528.0,1471.0,997.6,110.0,292.15,1649406468.028,1649406469.0782535,8f582a92-cde1-43b5-a2c7-e853f6913d70
-0.0538131706149725,0.0968051465554327,-0.0833582923499615,0.1954203656940018,-0.1772268412339911,0.0175974004439474,-0.400070976819038,-0.4188473191334207,-16.06203880430202,21.32262913714383,39.51110600946063,-0.2658640824584758,0.0975920998467789,0.973801775180746,4595.118001302083,11.946666666666667,0.13,178.9932123579992,-8.836688435254304,103.53320044542832,1553.0,1349.0,1200.0,1528.0,1471.0,997.6,110.0,292.15,1649406469.207444,1649406470.299857,8f582a92-cde1-43b5-a2c7-e853f6913d70
-0.054983404628924,0.0983303952954199,-0.0828586418772249,0.1914889056662306,-0.1761092019585396,0.0212395893441338,-0.396967883904612,-0.4180846945370426,-16.023775496729424,21.14616943364787,39.74232778677846,-0.2498999616509576,0.1015053083146446,0.9677556709286336,4597.857150607639,11.946,0.1311111111111111,178.94207549059325,-8.826139018353743,103.73240215366182,1553.0,1349.0,1200.0,1528.0,1471.0,997.6,110.0,292.15,1649406470.4089248,1649406471.5315049,8f582a92-cde1-43b5-a2c7-e853f6913d70
-0.0719083059629764,0.1085322662679496,-0.061730708947855,0.4544946735705253,-0.1355024847268684,-0.2456860410589723,-0.4572536577318426,-0.4708575048486904,-16.102029838647084,22.292858058438927,37.48368496985485,-1.4347399338011544,0.129317892424537,0.969311775064608,4589.17724609375,11.951,0.13125,178.91889022372817,-8.903280289488794,103.98117775434623,1553.0,1264.0,1200.0,1528.0,1471.0,997.6,110.0,292.15,1649406472.5339289,1649406473.5739748,236e31d7-de27-4b67-9072-f5bc0fb9058a
-0.061439414712181,0.1079946868844752,-0.0529059105734435,0.4467971240180377,-0.1295891110661113,-0.2419841768843086,-0.4493785983432556,-0.4754130231091639,-16.156871428037128,22.525145785219635,36.98950059545428,-1.4071846670976516,0.1335808595367726,0.9370527374493588,4565.75,11.954666666666666,0.14,178.9046293579236,-8.902181411658265,104.10130598310356,1553.0,1264.0,1200.0,1528.0,1471.0,997.6,110.0,292.15,1649406473.6829555,1649406474.7004192,236e31d7-de27-4b67-9072-f5bc0fb9058a
-0.0653718864993887,0.1092402729767538,-0.0549920018707169,0.4478191822053682,-0.131052156471354,-0.2394404095870319,-0.4501862318861427,-0.4716413692301613,-16.115927211436656,22.43309386240943,37.647758075682646,-1.4043625516089668,0.1318690067097231,0.94419343310778,4561.156629774306,11.953555555555557,0.1377777777777778,178.89458897984366,-8.902607919026435,104.23560192147426,1553.0,1264.0,1200.0,1528.0,1471.0,997.6,110.0,292.15,1649406474.8280318,1649406475.922191,236e31d7-de27-4b67-9072-f5bc0fb9058a
-0.0697493910998779,0.1138984514023827,-0.0360361326946591,0.7020001454321957,-0.0939692907720687,-0.4911914624059123,-0.5107830249296381,-0.5328333945570113,-16.29338874200228,23.79616618404344,35.60714557161071,-2.5338855282049333,0.1386116349706895,0.9533539000995844,4556.8466796875,11.944,0.13,178.88675247613597,-8.97323999616653,104.4125349362838,1553.0,1178.0,1200.0,1528.0,1471.0,997.6,110.0,292.15,1649406476.5231817,1649406477.7621765,b7ec5fb5-c9f9-4ad3-8b9d-11f4df761465
-0.0533357717550859,0.1129067362792853,-0.0356229602128689,0.6978087460512532,-0.0918462819562288,-0.4859658657689923,-0.5083818700847286,-0.5326563928036215,-16.444192070852093,23.65701332158269,35.67646899033535,-2.5136548926315507,0.1358849214469344,0.9463730297719348,4546.37890625,11.916,0.12,178.90278976030717,-8.977630242551164,104.46247500276522,1553.0,1178.0,1200.0,1528.0,1471.0,997.6,110.0,292.15,1649406477.8711035,1649406478.9056804,b7ec5fb5-c9f9-4ad3-8b9d-11f4df761465
-0.073194349658551,0.1129517452841188,-0.0288437956816494,0.6977662656518863,-0.0884731354998655,-0.4883776406984826,-0.5049450023216105,-0.5218805278170154,-16.41478320741714,23.995581784674,35.36961078374625,-2.5164307904682537,0.1390059954456991,0.9270984562025332,4538.882595486111,11.925888888888888,0.1277777777777777,178.89111165464624,-8.98108631827119,104.49917892154504,1553.0,1178.0,1200.0,1528.0,1471.0,997.6,110.0,292.15,1649406479.0151043,1649406480.5467358,b7ec5fb5-c9f9-4ad3-8b9d-11f4df761465
-0.0544357108127575,0.1060542427829902,-0.008238270990137,0.7984594776775633,-0.0638926581535233,-0.5830639578775227,-0.5175101021738052,-0.5413041916747264,-16.4698810430771,25.027310800782143,34.14924133560778,-2.948699599177746,0.1132685281897562,0.8812864775012836,4533.548882378473,11.921666666666669,0.1222222222222222,178.9171847634379,-9.051098318584758,104.60140939849228,1553.0,1088.0,1200.0,1528.0,1471.0,997.6,110.0,292.15,1649406481.5436163,1649406482.6026504,b91b75c6-b5f3-488e-ba15-75989018384a
-0.0788113718158932,0.1125400899579271,-0.0130426024039537,0.8067911988939621,-0.0672936191395247,-0.594404712312592,-0.5252855352847282,-0.5483716179404522,-16.513741964270327,24.89033484080263,34.48438585513797,-2.9940940187302827,0.133601752625412,0.9048941796517672,4524.241102430556,11.900666666666666,0.1144444444444444,178.9302577455093,-9.02422892357236,104.60230643000324,1553.0,1088.0,1200.0,1528.0,1471.0,997.6,110.0,292.15,1649406482.7347577,1649406483.7117183,b91b75c6-b5f3-488e-ba15-75989018384a
-0.0765604160644092,0.1143192096690488,-0.0164840208615643,0.790043807135918,-0.0706435025295848,-0.583981838307146,-0.5218805275388092,-0.5481779275264396,-16.367395257483,24.532044885765995,34.02524720892912,-2.9354404456975165,0.1451457799044606,0.9089701176053347,4523.1796875,11.90911111111111,0.1277777777777777,178.94419133141614,-9.05362453994028,104.60311315123522,1553.0,1088.0,1200.0,1528.0,1471.0,997.6,110.0,292.15,1649406483.827533,1649406484.9367468,b91b75c6-b5f3-488e-ba15-75989018384a
-0.0440305402486646,0.0875616132023674,-0.1030813377632441,-0.1380305746199768,-0.2236417435594971,0.3452891969999087,-0.3171815809832407,-0.3461481639666536,-15.68659985927282,19.81819456795006,41.41538523811901,1.2122241489451873,0.083167484221796,0.945412015679209,4520.79443359375,11.906,0.12,178.95763617934233,-8.761798256917267,104.59166347745656,1553.0,1435.0,1200.0,1528.0,1471.0,997.6,110.0,292.15,1649406485.5242665,1649406486.572696,3c6cdf97-302c-4d1e-b776-d91e9eacf5e4
-0.0349316421600737,0.0798959233595375,-0.1101027419766624,-0.1385039277243216,-0.2322541405713881,0.3496940099203091,-0.3276347961584709,-0.3450042268456142,-15.878998283930883,20.280010133960086,40.84038342416929,1.2257134253983633,0.0604954543349143,0.9795297341558508,4529.022569444444,11.948777777777778,0.13,178.9693567839581,-8.746868222301527,104.64881925934117,1553.0,1435.0,1200.0,1528.0,1471.0,997.6,110.0,292.15,1649406486.6812356,1649406487.7993042,3c6cdf97-302c-4d1e-b776-d91e9eacf5e4
-0.0428208601832651,0.0845637104912371,-0.1093532662713746,-0.1377938980760453,-0.231202244775285,0.3462622004503161,-0.3244922573109087,-0.3546159254198816,-15.630455008011218,20.011332198123466,41.11237368621953,1.2148247259319085,0.0737882593459331,0.9738398197525424,4525.56787109375,11.947,0.13,178.96681595358683,-8.74880552956861,104.67948604980458,1553.0,1435.0,1200.0,1528.0,1471.0,997.6,110.0,292.15,1649406487.9087336,1649406489.0295503,3c6cdf97-302c-4d1e-b776-d91e9eacf5e4
0.0167695382892229,0.1098218499155445,0.0502987139292819,-0.1513567792358986,-0.0873580247944268,0.3249926686021785,-0.1609022277490012,-0.1800436969182879,-14.530281351121848,19.93489259564892,41.07108974814943,1.2056138787625266,0.1728904476491916,0.3310580631808779,4537.813910590277,11.949333333333335,0.13,178.9570244979567,-8.755505091370749,104.69287549730753,1553.0,1435.0,1200.0,1424.0,1471.0,997.6,110.0,292.15,1649406490.0531435,1649406491.080718,2ce91116-e626-4b94-9664-af59388851c8
0.0094871833524867,0.1077610446737334,0.0494769204055143,-0.1481075338699353,-0.0878005290267363,0.3264213249189373,-0.1639997574118493,-0.1871869795904353,-14.731031847964625,20.10530734667886,41.39621183474317,1.2025343125842485,0.163251229992816,0.3372185442678282,4542.3564453125,11.950111111111111,0.13,178.9569774455424,-8.75876337619606,104.74856734198002,1553.0,1435.0,1200.0,1424.0,1471.0,997.6,110.0,292.15,1649406491.1897287,1649406492.3073266,2ce91116-e626-4b94-9664-af59388851c8
0.0212198663160271,0.1065599618613397,0.0483011235093564,-0.1444157842515262,-0.0870672363390598,0.3261305364688999,-0.1626090298440935,-0.1906385127963176,-14.60253722217787,19.89865831097177,41.673304075157,1.1922335922217828,0.1548485470029335,0.3362949386005726,4542.3564453125,11.951,0.13,178.9707638029271,-8.766973832760845,104.76593575412944,1553.0,1435.0,1200.0,1424.0,1471.0,997.6,110.0,292.15,1649406492.4163277,1649406493.5348575,2ce91116-e626-4b94-9664-af59388851c8
0.0534275979354893,0.13093916137868,0.2449777995453512,-0.1567148733753914,0.0887186984443011,0.3011621753714991,0.0380436232745787,0.0149545124715729,-13.1210390917971,20.08981708838617,41.429321383270775,1.1756373389831656,0.2519478760532849,-0.4534549206046886,4539.9501953125,11.945666666666666,0.13,178.9811244409881,-8.767299025656328,104.76069396339642,1553.0,1435.0,1200.0,1304.0,1471.0,997.6,110.0,292.15,1649406495.6749651,1649406496.8159409,2463d8b7-3c0f-4e2b-810d-6b0e7d1194dc
0.0832488408767341,0.1352913797255502,0.2475023490984311,-0.160278170348191,0.092308292480089,0.2996632240957685,0.0413439460521583,0.0208188310547896,-13.212771385925697,19.87532318893883,41.38152790063789,1.1789569257619636,0.2699393154685585,-0.4660324240769548,4539.9501953125,11.945333333333334,0.13,178.98110622715032,-8.763553330942747,104.78237222491212,1553.0,1435.0,1200.0,1304.0,1471.0,997.6,110.0,292.15,1649406496.9243443,1649406498.160997,2463d8b7-3c0f-4e2b-810d-6b0e7d1194dc
0.0814080234192815,0.1333190753422164,0.243386807382904,-0.1538879034886632,0.0888896314983143,0.2973884997796704,0.036347441446253,0.0185967013575912,-13.180025230635913,19.9219092595288,41.584011976449176,1.1595830989892355,0.2594687024301823,-0.4485454421643687,4541.554361979167,11.942333333333332,0.13,178.9734275767034,-8.77107906104324,104.79968371881849,1553.0,1435.0,1200.0,1304.0,1471.0,997.6,110.0,292.15,1649406498.2697544,1649406499.3885255,2463d8b7-3c0f-4e2b-810d-6b0e7d1194dc
0.1335689005577823,0.1588932888352589,0.4339902949492581,-0.1508505544165893,0.2596254463758602,0.2603880707230127,0.224584172666188,0.2051504004050757,-11.857956270518944,20.299300617334843,41.730831110169,1.0822681329003334,0.3564447010216762,-1.2048184701066087,4537.013346354167,11.937333333333337,0.1277777777777777,178.94636029593255,-8.792661320455617,104.7576393510176,1553.0,1435.0,1200.0,1166.0,1471.0,997.6,110.0,292.15,1649406500.0207226,1649406501.1139276,9cd74491-ad52-432a-8bc5-7a23a2bbafbb
0.1357515840883687,0.1539493791999549,0.4403411147039924,-0.1517446658135562,0.2631624454732713,0.261334776812017,0.2271876144050908,0.2072278943719502,-11.985912293971712,20.755806070890014,41.08978330959198,1.089588265842638,0.3450097001706508,-1.223786639122967,4532.748046875,11.925000000000002,0.12,178.96026807890252,-8.791911138011777,104.7326545190337,1553.0,1435.0,1200.0,1166.0,1471.0,997.6,110.0,292.15,1649406501.2234583,1649406502.4594529,9cd74491-ad52-432a-8bc5-7a23a2bbafbb
0.1346905854613239,0.1615695541572252,0.4346325581404346,-0.154466951876339,0.2576308904193914,0.2570366705273129,0.2226604173627854,0.1966664573606442,-11.852133153021285,20.4757905136298,41.14703938183966,1.084006620517883,0.3721042050469327,-1.2008379003378478,4527.961263020833,11.928666666666668,0.12,178.9591433744192,-8.788101315410987,104.7124030081446,1553.0,1435.0,1200.0,1166.0,1471.0,997.6,110.0,292.15,1649406502.5682633,1649406503.6843312,9cd74491-ad52-432a-8bc5-7a23a2bbafbb
-0.1050404936084611,0.0515999291547349,-0.3202452277538444,-0.1083276678521233,-0.4224106163976308,0.3611596722204031,-0.5512021284622608,-0.5670200147695605,-17.497204429595055,20.6347849990338,40.813741335737234,1.1744773924168772,-0.0509735740766313,1.8388152506332065,4530.884494357639,11.93811111111111,0.12,179.00632783902543,-8.785234343506875,104.74970191229212,1553.0,1435.0,1200.0,1623.0,1471.0,997.6,110.0,292.15,1649406505.6183827,1649406506.6435382,2adf774c-abcb-4c82-8c10-f59b3cd9f2a7
-0.1097740245746155,0.0543480066732432,-0.3208369191383992,-0.1074992999604488,-0.4222133858739549,0.3612780104706236,-0.5466921242867777,-0.5761189152817721,-17.098116643658344,20.272481161194143,41.33877943730607,1.170728085794723,-0.0482903015862276,1.8344399597545693,4535.14599609375,11.945333333333334,0.1233333333333333,179.0249272030453,-8.784504367039329,104.75245523743756,1553.0,1435.0,1200.0,1623.0,1471.0,997.6,110.0,292.15,1649406506.7522156,1649406507.7925816,2adf774c-abcb-4c82-8c10-f59b3cd9f2a7
-0.1146916372178077,0.0529805422635863,-0.3165372947715726,-0.1019505498181148,-0.4166646348642102,0.3590295835815413,-0.5456139308793013,-0.5637591375269896,-17.393166299842964,20.40131779653372,41.57561891293373,1.1541163488000377,-0.0538383495614215,1.8194443988661275,4532.748046875,11.948333333333332,0.13,179.02308001632977,-8.779418057973654,104.764334454224,1553.0,1435.0,1200.0,1623.0,1471.0,997.6,110.0,292.15,1649406507.9005864,1649406509.008422,2adf774c-abcb-4c82-8c10-f59b3cd9f2a7
-0.1835837307028184,0.0265804886741548,-0.5016178755199199,-0.0672051182753707,-0.5863890616247108,0.3572449010590217,-0.7473974351684933,-0.7622529402092132,-18.69163932033606,21.023094366349905,40.703498171987626,1.06584216338787,-0.1519352279542353,2.5849140744875223,4538.882052951389,11.934,0.1255555555555555,179.0074145980134,-8.797538739569175,104.74133948401833,1553.0,1435.0,1200.0,1712.0,1471.0,997.6,110.0,292.15,1649406510.1240597,1649406511.266633,8588d983-9d30-4f70-b63c-6e3ca982ad87
-0.1530635812779887,0.0272505664588312,-0.4963457527146916,-0.0654856733424849,-0.5820019472157308,0.3578391209359872,-0.7432126080239061,-0.7691812943149121,-18.712805438827,21.13359949313984,41.1413191659944,1.0643530133583583,-0.1530282186046944,2.5664473884758303,4537.813910590277,11.92288888888889,0.12,179.0264753792572,-8.80083174452277,104.64433486069608,1553.0,1435.0,1200.0,1712.0,1471.0,997.6,110.0,292.15,1649406511.3759258,1649406512.4906113,8588d983-9d30-4f70-b63c-6e3ca982ad87
-0.1812574227084432,0.0274907830409046,-0.492047139422865,-0.0636903704766003,-0.5788032730384068,0.3543875884287119,-0.7403679369567866,-0.7584979745356457,-18.670752780962808,21.23616193404759,40.94529181359209,1.0534310569436445,-0.1506343049239925,2.5519366332628226,4536.74658203125,11.919666666666668,0.12,179.03740368192922,-8.795428400843118,104.58569161539224,1553.0,1435.0,1200.0,1712.0,1471.0,997.6,110.0,292.15,1649406512.599227,1649406513.7962277,8588d983-9d30-4f70-b63c-6e3ca982ad87
-0.2021173255435293,0.0125745984204701,-0.6402977227571026,-0.0100543082353757,-0.71483770979137,0.3247903809615414,-0.9137907279387272,-0.9372085692080758,-19.83306408353915,22.03783522959455,40.43974044777124,0.8631991985004666,-0.2098602714363348,3.183029957251053,4541.287000868056,11.910111111111112,0.1155555555555555,179.0409720763156,-8.818913911440468,104.50203469952804,1553.0,1435.0,1200.0,1801.0,1471.0,997.6,110.0,292.15,1649406514.629501,1649406515.7668178,0b88d5f1-880f-489a-ad8e-0cbbc8639910
-0.2338774990016138,0.0100434743588888,-0.6507797659677389,-0.0102611473284816,-0.7241090615526945,0.3267879712342481,-0.9221740379003384,-0.9457152748543788,-19.737228524730806,21.92595315579276,40.27237926975591,0.8669125761679847,-0.2191894449783385,3.2214509099203146,4542.089084201389,11.904777777777776,0.11,179.05269875221057,-8.814015242849491,104.42068486978349,1553.0,1435.0,1200.0,1801.0,1471.0,997.6,110.0,292.15,1649406515.8747723,1649406516.9968257,0b88d5f1-880f-489a-ad8e-0cbbc8639910
-0.213016584419763,0.0014715357093428,-0.6554955981338935,-0.0052418853030977,-0.7275479527606408,0.333020958537577,-0.928179455471609,-0.9577008250575813,-19.95453044436752,22.179509441449323,40.57815438418109,0.8709821018416067,-0.2534241312174766,3.2402954815149823,4547.178385416667,11.897666666666666,0.11,179.0603257967838,-8.81443254843503,104.33734366044088,1553.0,1435.0,1200.0,1801.0,1471.0,997.6,110.0,292.15,1649406517.105294,1649406518.2245347,0b88d5f1-880f-489a-ad8e-0cbbc8639910
-0.0521038400781985,0.080237789461867,-0.1965159807097794,-0.1265780597085146,-0.2826662485348255,0.3645388868933045,-0.3803084826446288,-0.4116681294416721,-15.865512041372506,16.693377180339397,44.06511920647563,1.2046118142916482,0.0260941607736472,1.24715530078298,7558.5771484375,11.646444444444445,7.522222222222221,-179.22797506669144,-8.890866159797014,92.0060002251344,1553.0,1435.0,1350.0,1528.0,1471.0,997.6,110.0,292.15,1649406522.047696,1649406523.0281565,f3681ba1-2c6b-4ce5-816b-15e91dbb5178
-0.0605058572668143,0.0802509381547522,-0.2012626604539246,-0.1332313003736438,-0.2884253782261,0.3687859154581083,-0.3845292148979423,-0.4038972482729848,-15.887563103317255,16.73910566338065,43.764981324735366,1.2291713784575284,0.0294786805072575,1.2669648620989424,7561.5419921875,11.643666666666666,7.59111111111111,-178.72345024218006,-8.789541536688475,86.66324032342304,1553.0,1435.0,1350.0,1528.0,1471.0,997.6,110.0,292.15,1649406523.135991,1649406524.2572055,f3681ba1-2c6b-4ce5-816b-15e91dbb5178
-0.0594276641470898,0.0689956542409576,-0.1938599436709528,-0.1119304111013728,-0.2760787507316033,0.3676419789559831,-0.3773763227688795,-0.4059615940567055,-16.005043547000646,16.776299586576457,44.87855046782104,1.179284754526994,-0.023926186682636,1.2301714437520368,7565.248046875,11.643222222222224,7.59,-178.48764175563488,-8.69138688026473,81.98927053685196,1553.0,1435.0,1350.0,1528.0,1471.0,997.6,110.0,292.15,1649406524.365792,1649406525.4853728,f3681ba1-2c6b-4ce5-816b-15e91dbb5178
0.1559055005628292,0.4315982438830341,-0.147045523863905,-0.3315192254000564,-0.3219358470845878,0.2187158086445766,-0.3979201532061522,-0.4185534961895175,-15.38174761487781,15.95268316264751,45.57649951181876,1.3372625315753153,1.3554464445526428,1.3017751810056573,7571.93115234375,11.640999999999998,7.569999999999999,-178.66822285037114,-8.556028847478094,75.0871792065366,1658.0,1435.0,1350.0,1528.0,1551.0,997.6,110.0,292.15,1649406526.600423,1649406527.7408535,cdcfb3f0-3da6-4762-a5eb-97d547cd9cad
0.164060220566257,0.4410931189301308,-0.1443399265562686,-0.3326065217036464,-0.3203554746433618,0.2105231598210358,-0.3977684374299032,-0.4253680624335666,-15.41315356665742,15.87283160581218,45.604171154914496,1.3208992069687726,1.3913390650059476,1.296907804097171,7578.6259765625,11.631666666666668,7.56,-178.80548688539113,-8.52841894612318,72.27292953262707,1658.0,1435.0,1350.0,1528.0,1551.0,997.6,110.0,292.15,1649406527.8488472,1649406528.8712533,cdcfb3f0-3da6-4762-a5eb-97d547cd9cad
0.162922352661874,0.4391081716857252,-0.1469823090597951,-0.3339087485840136,-0.3228967135796469,0.2079819215100009,-0.3992603090896975,-0.4198051511845254,-15.282382500934755,15.8065657727299,44.780641800090585,1.317489904228196,1.3902593556561875,1.3048005646448693,7578.6259765625,11.630333333333333,7.563333333333333,-179.02242280034963,-8.510292382975873,69.66391034725847,1658.0,1435.0,1350.0,1528.0,1551.0,997.6,110.0,292.15,1649406528.9794247,1649406530.099397,cdcfb3f0-3da6-4762-a5eb-97d547cd9cad
0.3211744897380138,0.7223234763883506,-0.1087246575354962,-0.525234963591118,-0.3687780853795783,0.1024762802638773,-0.4174029849554755,-0.4492759376294745,-14.556510351449674,16.050390305190504,44.25666305835321,1.5157928850985694,2.4779812259029423,1.3732346049921478,7578.6259765625,11.621555555555556,7.588888888888889,-179.7706563635462,-8.536026828221189,64.77352753465536,1767.0,1435.0,1350.0,1528.0,1630.0,997.6,110.0,292.15,1649406532.04327,1649406533.1766045,09e960a4-ba48-4630-89d2-a7c4d9ed86a5
0.3004389971145516,0.7167792785795163,-0.1132584294479513,-0.5223933273048068,-0.3687507766326393,0.0985013283058186,-0.4205172037796745,-0.4351648549046752,-14.717577854145148,15.792362501276529,43.26644216172326,1.498275428772219,2.4664617530931827,1.3817621327009304,7578.6259765625,11.588333333333336,7.556666666666666,59.98348627223902,-8.523458805829673,63.32235139264859,1767.0,1435.0,1350.0,1528.0,1630.0,997.6,110.0,292.15,1649406533.284525,1649406534.4046192,09e960a4-ba48-4630-89d2-a7c4d9ed86a5
0.3194651593534262,0.7216442957205067,-0.121976015473195,-0.5348977407975103,-0.3803742260432768,0.0977912986810538,-0.4274991628732696,-0.4568470597727491,-14.454780322740977,15.701035479098673,42.14619303513368,1.5238010065894736,2.4937626123286365,1.4185378204626398,7578.6259765625,11.59366666666667,7.587777777777777,179.72343395344453,-8.524687765561582,62.07303617919221,1767.0,1435.0,1350.0,1528.0,1630.0,997.6,110.0,292.15,1649406534.5132186,1649406535.6387217,09e960a4-ba48-4630-89d2-a7c4d9ed86a5
0.4962099201484342,0.9984506254810788,-0.0420450872639913,-0.7085000366861155,-0.3841216054541961,-0.0138016868081221,-0.409038389595128,-0.4322458433585297,-14.023687848845212,16.331407427880137,42.482067575813474,1.6730702944910265,3.5523786753593947,1.320890937075518,7575.650499131944,11.558222222222222,7.593333333333334,179.27082767354412,-8.541448860057317,60.3582375025202,1886.0,1435.0,1350.0,1528.0,1710.0,997.6,110.0,292.15,1649406536.7485569,1649406537.77406,1252eff6-0431-4df1-b752-6aa475e7646b
0.4977462946017705,1.0004563072399444,-0.0392641379378734,-0.7350958140782633,-0.3847588115842467,-0.0003111241531344,-0.3994499537648125,-0.4288195959694491,-13.807203173137726,16.15745458415723,41.24702104449648,1.762276365465694,3.5727630190140256,1.30280656083893,7571.93115234375,11.520666666666669,7.575555555555557,179.00311157883627,-8.542663685092196,59.45136900130056,1886.0,1435.0,1350.0,1528.0,1710.0,997.6,110.0,292.15,1649406537.8816216,1649406539.0334702,1252eff6-0431-4df1-b752-6aa475e7646b
0.5034356338064395,1.0002287336750666,-0.0283153192952041,-0.7218080392683649,-0.375124861061923,-0.0049005249793504,-0.3937985418072398,-0.4255829934334774,-13.89935101986643,16.52634124988963,42.36162866914294,1.725111266943409,3.561747283637909,1.2681591091335374,7571.93115234375,11.523777777777775,7.559999999999999,178.87859571244715,-8.579533235959401,58.76436277164381,1886.0,1435.0,1350.0,1528.0,1710.0,997.6,110.0,292.15,1649406539.1484995,1649406540.237332,1252eff6-0431-4df1-b752-6aa475e7646b
-0.2930537197737558,-0.346647814058921,-0.2521349717770705,0.0885609139730734,-0.2388679356391382,0.5792570778906679,-0.351525981274907,-0.3790856536761168,-16.65602578261672,18.189422646629783,43.17428045361824,1.2084195262096742,-1.591484641371642,1.1701449502134973,7574.162760416667,11.556666666666665,7.566666666666666,179.2255389658875,-8.637457793580555,57.25043047208803,1449.0,1435.0,1350.0,1528.0,1386.0,997.6,110.0,292.15,1649406542.5778646,1649406543.7123222,87a3aa34-fd71-4940-8063-987792877933
-0.3099629456624343,-0.3540242339414044,-0.2491107714070756,0.0919401287558157,-0.2330825087727289,0.5729851503802503,-0.3473709926166621,-0.3733528216020534,-16.659050979753566,18.057946336489746,41.72768245777794,1.1857498807650475,-1.6065346928583788,1.149375480641167,7578.6259765625,11.636777777777777,7.607777777777778,179.0624871722011,-8.668095555740033,56.91088051896927,1449.0,1435.0,1350.0,1528.0,1386.0,997.6,110.0,292.15,1649406543.8213215,1649406544.937597,87a3aa34-fd71-4940-8063-987792877933
-0.3045456820341424,-0.3557204160483455,-0.2487163103241053,0.0956875071814715,-0.2308340813059991,0.5757858224126368,-0.3459509331002112,-0.3755092075317059,-16.724123836021434,17.982847127713224,42.38794782246351,1.183184491056956,-1.6187254020155777,1.1444976654279428,7578.6259765625,11.633666666666668,7.623333333333333,178.92171090212787,-8.658043699147761,56.56078968668643,1449.0,1435.0,1350.0,1528.0,1386.0,997.6,110.0,292.15,1649406545.045009,1649406546.3884003,87a3aa34-fd71-4940-8063-987792877933
-0.5034131786992223,-0.7303546947685675,-0.2781784966466971,0.3194044729541737,-0.1741647120376324,0.7386202723855846,-0.3159304318352601,-0.3399520922846565,-17.667346926892723,19.99920831977824,42.62175776869098,1.055906736291896,-3.048605969700292,1.0202027241960805,7578.6259765625,11.633,7.58,178.94117542344262,-8.609463694084827,56.1437929774788,1342.0,1435.0,1350.0,1528.0,1293.0,997.6,110.0,292.15,1649406547.0176516,1649406548.0182142,bab3df38-4a63-4485-b24e-78e43f67e7e3
-0.527460127708981,-0.7255503614635489,-0.2958154523867969,0.2957747501464965,-0.1898546482110421,0.7417683733931626,-0.3261712450052364,-0.3530881478116389,-17.58022746974443,19.33211522517531,40.5467196990209,1.110696442215652,-3.011032476600989,1.077977023561052,7575.650499131944,11.586666666666666,7.566666666666666,178.86833525049397,-8.595859664805454,55.90041284678374,1342.0,1435.0,1350.0,1528.0,1293.0,997.6,110.0,292.15,1649406548.1267471,1649406549.2383783,bab3df38-4a63-4485-b24e-78e43f67e7e3
-0.5263854743647364,-0.7285973202222199,-0.3033633107886525,0.2798572429062513,-0.1998552439967511,0.7414522989951954,-0.3309123621650215,-0.3471459479180128,-17.32876283516819,19.2964924183614,37.94703913716433,1.1449923732936376,-2.9997186383925865,1.104652705821796,7571.93115234375,11.583555555555556,7.594444444444444,178.8044077155023,-8.611016803211097,55.68906023201677,1342.0,1435.0,1350.0,1528.0,1293.0,997.6,110.0,292.15,1649406549.347181,1649406550.4801302,bab3df38-4a63-4485-b24e-78e43f67e7e3
-0.7102619616009227,-1.0754934957063802,-0.329646547323769,0.4794058877725732,-0.1509557441728359,0.8764570311141421,-0.3077145183778268,-0.3315268110493686,-18.145126695469216,21.494912296014665,34.90960150162948,1.0106029187425554,-4.294289094317881,0.9948659521134524,7563.765625,11.568444444444443,7.607777777777778,178.85339838568905,-8.601678985978303,55.25896321998106,1227.0,1435.0,1350.0,1528.0,1189.0,997.6,110.0,292.15,1649406552.6105678,1649406553.656494,1b41a415-1956-44a0-867b-97fd2a2340ca
-0.6993288163804453,-1.0596159282739428,-0.3108858833426824,0.4810196372610419,-0.1382333681234905,0.8739001156150935,-0.2966372458134469,-0.3186107434709048,-18.30834508647277,21.92276229870101,37.078242371326205,1.0052509238262373,-4.251806057621086,0.9408973634401012,7554.137369791667,11.482,7.566666666666666,178.8075313886827,-8.621691440246444,55.10465141224765,1227.0,1435.0,1350.0,1528.0,1189.0,997.6,110.0,292.15,1649406553.764908,1649406554.881131,1b41a415-1956-44a0-867b-97fd2a2340ca
-0.7066460687649618,-1.0618056934029705,-0.307924897560809,0.4951054297340606,-0.1372285041700087,0.8735380207812358,-0.2977741024792723,-0.3153013171748635,-18.240846712072468,22.35045516811209,38.56627049207185,0.9759169938848636,-4.275224399258024,0.9389401408598675,7551.91748046875,11.489,7.567777777777778,178.82083204372643,-8.644301832856387,54.97670717035011,1227.0,1435.0,1350.0,1528.0,1189.0,997.6,110.0,292.15,1649406554.989331,1649406555.9976325,1b41a415-1956-44a0-867b-97fd2a2340ca
-0.0543917132527689,0.0751229466612297,-0.1990010844271488,-0.113994756483924,-0.2765521038507757,0.3549666367238799,-0.3811894454215615,-0.4117864680467176,-16.139353135413838,16.1741963816196,43.63412739761845,1.1509448398704798,0.010952818696323,1.2423745247931064,7566.734483506944,11.51477777777778,7.575555555555557,178.44179904374556,-8.559282863435175,54.83570474512437,1553.0,1435.0,1350.0,1528.0,1471.0,997.6,110.0,292.15,1649406558.0481813,1649406559.0743415,b88acb3c-30a1-488b-abf7-f72098e24772
-0.0455426403660572,0.0776474963203251,-0.2070217899183816,-0.1224888148404279,-0.2888198391303087,0.3650648346944626,-0.3892758951431904,-0.4150604938000438,-16.020666135244127,16.441774861984083,44.24316173803589,1.1943286137386686,0.0147253898145641,1.2825932744230903,7594.299153645833,11.643666666666668,7.606666666666666,178.382684515389,-8.522850918993543,54.93340377101222,1553.0,1435.0,1350.0,1528.0,1471.0,997.6,110.0,292.15,1649406559.1831276,1649406560.42265,b88acb3c-30a1-488b-abf7-f72098e24772
-0.0643715741149438,0.0776211989283216,-0.2102826669290856,-0.1270119666195142,-0.2920675675876317,0.3637236677751796,-0.3899990735679817,-0.4172300289868941,-15.833935528885045,16.268937814344362,43.44296581307183,1.2001762668286553,0.0207444849520351,1.291521457820628,7598.7822265625,11.645222222222223,7.571111111111112,178.3729810933081,-8.515851587777835,54.96953243608196,1553.0,1435.0,1350.0,1528.0,1471.0,997.6,110.0,292.15,1649406560.557312,1649406561.6424572,b88acb3c-30a1-488b-abf7-f72098e24772
-0.0466076848414075,0.0667077811131494,-0.2437461025884733,-0.4240673526913789,-0.3483439964056808,0.6643948778306128,-0.3385219185254151,-0.3624394011467459,-16.238250134660138,15.369075658327713,45.86054385103525,2.538459097701353,-0.0043155491943712,1.3400650540979588,7598.7822265625,11.636666666666668,7.565555555555556,178.4155832598912,-8.436622816361762,55.12155005916416,1553.0,1522.0,1350.0,1528.0,1471.0,997.6,110.0,292.15,1649406562.5561135,1649406563.7828517,e3bd1b2d-ffdd-4d5e-a361-3368c9f49668
-0.0402174182016324,0.0684828551011352,-0.2402616976533054,-0.4289718174880728,-0.3529986356066738,0.6715477678909683,-0.3372990895152569,-0.3680801931287347,-15.888388711523923,15.967217137115286,46.49129173356605,2.570011176139873,-0.0048895968473738,1.3409747392705504,7598.7822265625,11.630333333333333,7.557777777777777,178.43386539956964,-8.442408460907457,55.19121002014427,1553.0,1522.0,1350.0,1528.0,1471.0,997.6,110.0,292.15,1649406563.8916557,1649406565.0117767,e3bd1b2d-ffdd-4d5e-a361-3368c9f49668
-0.0531294383831637,0.0679174611608068,-0.2427730990388504,-0.4307468920326089,-0.351447089271211,0.6699304784108251,-0.3380617140559229,-0.3625445910054707,-16.113199305583578,15.633135623453652,45.94320831065462,2.567840794676508,-0.0005076898011546,1.3424935061692875,7598.7822265625,11.625888888888888,7.562222222222222,178.45245110321113,-8.461937774155551,55.23396093306928,1553.0,1522.0,1350.0,1528.0,1471.0,997.6,110.0,292.15,1649406565.1213214,1649406566.1482296,e3bd1b2d-ffdd-4d5e-a361-3368c9f49668
-0.0393399955589008,0.076621392301771,-0.2744108889833359,-0.8295768246599855,-0.4294391019079157,1.045831949435168,-0.2680893994798154,-0.2958660241919856,-15.896509718092982,15.194463211582812,48.53435461360377,4.3082429619616125,0.0547297984524127,1.3937639278059708,7598.7822265625,11.616,7.646666666666667,178.51395619777722,-8.338147805093195,55.30990998045515,1553.0,1613.0,1350.0,1528.0,1471.0,997.6,110.0,292.15,1649406568.08347,1649406569.220847,ca9717c9-916a-4189-85b3-429f805b372a
-0.0408571528703567,0.0732077884955682,-0.2764716946082496,-0.8206508785633775,-0.4256082790806364,1.038574880967811,-0.2676216092788132,-0.2892916750536164,-15.935266742040174,14.753814223493109,48.19525471623608,4.268703319084907,0.0439693630272546,1.3900299733801371,7598.7822265625,11.621,7.639999999999999,178.52700944819102,-8.364304583702191,55.33998102664098,1553.0,1613.0,1350.0,1528.0,1471.0,997.6,110.0,292.15,1649406569.3299894,1649406570.2842057,ca9717c9-916a-4189-85b3-429f805b372a
-0.0245047257312604,0.0706786873536016,-0.2806150515363287,-0.825602376407751,-0.4277358396102192,1.0401977334164298,-0.2685313979815312,-0.2920281214144857,-15.928861027673154,14.51308696192053,47.40938485318616,4.281595281895189,0.0417463888157435,1.398516426335091,7598.7822265625,11.614555555555556,7.649999999999999,178.54170346182545,-8.37004630633697,55.37481195576842,1553.0,1613.0,1350.0,1528.0,1471.0,997.6,110.0,292.15,1649406570.3923862,1649406571.4808836,ca9717c9-916a-4189-85b3-429f805b372a
-0.0295037590484064,0.0780626916896661,-0.318029166441689,-1.1886502496622162,-0.5105311768706107,1.3818696345972965,-0.2174036980087697,-0.2363428799903951,-15.726237772218497,14.5016569768176,49.53513744705707,5.866826828209918,0.0914931999483312,1.4903460796544634,7598.7822265625,11.597111111111111,7.69888888888889,178.64851092442643,-8.298291469420187,55.40256377327609,1553.0,1710.0,1350.0,1528.0,1471.0,997.6,110.0,292.15,1649406573.6127975,1649406574.8427544,b38e6479-e7e3-4658-87e1-ebb2fccbd0ae
-0.0301106219617857,0.0824118757984084,-0.307029774688316,-1.172758014809132,-0.4971801895786976,1.370124308378723,-0.211802858543343,-0.2343832183538205,-16.019749738509816,14.51626747492626,50.61626556252948,5.805253666383143,0.0990415552724897,1.451172944377633,7598.7822265625,11.584111111111111,7.720000000000001,178.69786435354916,-8.305862544387669,55.38991653966296,1553.0,1710.0,1350.0,1528.0,1471.0,997.6,110.0,292.15,1649406574.9509983,1649406576.1851213,b38e6479-e7e3-4658-87e1-ebb2fccbd0ae
-0.0287451803885009,0.0745985159705116,-0.3157660732637707,-1.1911156322914442,-0.5109483953399716,1.385498169184919,-0.21514060490192,-0.2286306630515399,-15.58114547802622,14.746169247599584,49.259582147093234,5.882304628080963,0.0803669030598056,1.4837790241737194,7598.7822265625,11.574555555555555,7.727777777777778,178.72287650628974,-8.307518960125135,55.37804225579089,1553.0,1710.0,1350.0,1528.0,1471.0,997.6,110.0,292.15,1649406576.2945127,1649406577.4134388,b38e6479-e7e3-4658-87e1-ebb2fccbd0ae
0.0083113864697672,0.0913883894837502,-0.3198623984679486,-1.3834913483577105,-0.5414938365275108,1.5687834240802403,-0.1809539913017898,-0.2160256136128501,-16.164915195214363,15.122879639553457,52.58322112550215,6.7306527931269295,0.141445858867447,1.4867619627426811,7598.7822265625,11.559,7.703333333333333,178.75232524635123,-8.257623005282115,55.39846490086418,1553.0,1814.0,1350.0,1528.0,1471.0,997.6,110.0,292.15,1649406578.6202018,1649406579.7586486,51bd2674-fc65-4a60-8175-a5cc432ffe88
-0.0204286297825814,0.0932549986034839,-0.3267669823137878,-1.3969925462512105,-0.5498083665624276,1.5792942917393884,-0.1847084501552861,-0.1994086943149007,-16.13231126429717,15.057550566983709,52.52965864160895,6.78395850815146,0.1499142029939583,1.512925458426415,7598.7822265625,11.531,7.66,178.7744793443791,-8.26784741901467,55.394085611241344,1553.0,1814.0,1350.0,1528.0,1471.0,997.6,110.0,292.15,1649406579.8670113,1649406580.9825916,51bd2674-fc65-4a60-8175-a5cc432ffe88
-0.0234604157951598,0.0887207213238754,-0.3333271713593697,-1.4132908763272516,-0.5616593910290998,1.59645890495808,-0.1898672910519371,-0.2142682393721978,-16.040111242332742,15.484593380095632,52.15411073335426,6.8617855368694896,0.1371818435671042,1.544022313083097,7598.7822265625,11.53133333333333,7.610000000000001,178.78493864072814,-8.264890800877701,55.40928923287883,1553.0,1814.0,1350.0,1528.0,1471.0,997.6,110.0,292.15,1649406581.0914147,1649406582.119794,51bd2674-fc65-4a60-8175-a5cc432ffe88
-0.061636645175329,0.0875616131988233,-0.1541508776042434,0.2636752444536958,-0.2022356640273007,-0.0205995629473742,-0.4476298214168661,-0.4733092312332356,-16.093159876791013,17.575126302760026,41.31697563743637,-0.5337594899547926,0.0341830559802565,1.1756197409841724,7598.7822265625,11.573,7.603333333333334,178.80262275939918,-8.750549504536687,55.51267439125073,1553.0,1349.0,1350.0,1528.0,1471.0,997.6,110.0,292.15,1649406584.0561905,1649406585.4003763,0d6667ea-f89e-45bb-8eb3-5763c5e7142e
-0.0551816464971392,0.0856864068484174,-0.1613194462336002,0.2460246378809291,-0.2117775727216887,-0.0147367613636861,-0.4528033288253436,-0.4856624347941586,-16.062805939196956,17.621259508574898,39.53151462975756,-0.4810900056506942,0.0444790510312701,1.2028560815832916,7598.7822265625,11.642,7.63,178.78846605397948,-8.795085183837326,55.7247881926552,1553.0,1349.0,1350.0,1528.0,1471.0,997.6,110.0,292.15,1649406585.5092404,1649406586.4687078,0d6667ea-f89e-45bb-8eb3-5763c5e7142e
-0.0756400072849391,0.0864176766375511,-0.1575432414869605,0.2514206602786896,-0.209585785949443,-0.0161158573654382,-0.4512983084797528,-0.4683653202343123,-16.015243713017522,17.825318763803367,40.1609325783799,-0.4946960852861405,0.0408850943084008,1.1935536245017029,7598.7822265625,11.637666666666666,7.673333333333334,178.82098686134765,-8.801864146588564,55.83375475394386,1553.0,1349.0,1350.0,1528.0,1471.0,997.6,110.0,292.15,1649406586.5815318,1649406587.6596606,0d6667ea-f89e-45bb-8eb3-5763c5e7142e
-0.0772835944271522,0.0888896315101656,-0.1161248454377959,0.5681595793013772,-0.1414097899838754,-0.3193116701385361,-0.5021443293372368,-0.5167393866625624,-16.286315531262115,19.1189397961841,38.81659727358421,-1.880215775543028,0.0276401216175424,1.1170912638206478,7598.7822265625,11.634666666666668,7.699999999999999,178.85577984497968,-8.911101354123083,56.08863692320123,1553.0,1264.0,1350.0,1528.0,1471.0,997.6,110.0,292.15,1649406589.587753,1649406590.7250948,aa4f8750-65c5-4ade-9f2e-eec35a17a472
-0.0786642075767044,0.0928342403318466,-0.1164798602575211,0.5608357561784026,-0.14464436952125,-0.3177469750825875,-0.5020259910429153,-0.5217227433371499,-16.128517132617826,19.163381904887355,38.62757732322261,-1.85985271065023,0.0438731908257524,1.1220509123286253,7598.7822265625,11.620333333333331,7.717777777777777,178.8682623951428,-8.909546537449522,56.20591392743503,1553.0,1264.0,1350.0,1528.0,1471.0,997.6,110.0,292.15,1649406590.832899,1649406592.3717473,aa4f8750-65c5-4ade-9f2e-eec35a17a472
-0.090221912148804,0.0779762137249914,-0.127906078010513,0.5582323145760446,-0.1482076664176176,-0.3122376705144368,-0.5059706009280724,-0.5300195730286348,-16.2690485200725,18.659146157386104,36.949043960290886,-1.845849738160424,0.003605629505959,1.1440163255088305,7598.7822265625,11.618444444444444,7.676666666666667,178.92836957765874,-8.92757245017031,56.306757117070816,1553.0,1264.0,1350.0,1528.0,1471.0,997.6,110.0,292.15,1649406592.4956768,1649406593.592229,aa4f8750-65c5-4ade-9f2e-eec35a17a472
-0.0994260000011585,0.0831830973939008,-0.0806628096748281,0.8989281511462984,-0.0800711182678214,-0.6388908117291568,-0.565389575940478,-0.5867693627970668,-16.48012760503356,20.82766878685653,35.7655594628364,-3.3319764065016413,-0.003797433563575,1.0723245396701937,7598.7822265625,11.624111111111112,7.681111111111111,178.9706180922248,-9.070358218815596,56.44063034262288,1553.0,1178.0,1350.0,1528.0,1471.0,997.6,110.0,292.15,1649406595.5296085,1649406596.481181,b7994f7d-5018-4e1d-83b8-2a38e4e168d5
-0.0823721400874272,0.0829201234725594,-0.073680851642066,0.9040429935690132,-0.0716822496843708,-0.6391800832234149,-0.5587100362560506,-0.5876634750623235,-16.582744741101987,20.793121494218266,36.4105378740171,-3.3439944743800543,-0.0099615877488139,1.0427363077074114,7598.7822265625,11.60475,7.7225,178.9837684831068,-9.071688635315802,56.48545270014118,1553.0,1178.0,1350.0,1528.0,1471.0,997.6,110.0,292.15,1649406596.590731,1649406597.6845186,b7994f7d-5018-4e1d-83b8-2a38e4e168d5
-0.0971512754282779,0.0852342939882291,-0.0815700697521226,0.8930638331076566,-0.0813991366278057,-0.6422042843908321,-0.5660207135436831,-0.5848890990466226,-16.463184186325762,20.732027403889607,34.808282081096564,-3.327017017707995,0.0129230903161463,1.0751663722133535,7598.7822265625,11.5965,7.69,178.98829689852653,-9.067811649188172,56.54688854417815,1553.0,1178.0,1350.0,1528.0,1471.0,997.6,110.0,292.15,1649406597.7937164,1649406598.8035345,b7994f7d-5018-4e1d-83b8-2a38e4e168d5
-0.0959810414374095,0.0831173539094692,-0.044845759637081,1.093897006176782,-0.0322361595090645,-0.827219666730087,-0.5919499505389821,-0.62359887275759,-16.748023962602296,22.180030275361148,34.52786047980549,-4.184562189988075,-0.0128895061909683,0.9953788331225508,7598.7822265625,11.60277777777778,7.676666666666667,179.00437288710302,-9.152263665476404,56.69443675708597,1553.0,1088.0,1350.0,1528.0,1471.0,997.6,110.0,292.15,1649406600.534112,1649406601.585129,f84314b3-83e3-4baf-a6a9-1ef6a912ad4b
-0.1075387460559273,0.0853920783436356,-0.0465419415048113,1.071820346263907,-0.0386921695637138,-0.8098107845339045,-0.5882288683821243,-0.6189047866454931,-16.48792625804653,22.21410292220004,34.43562960823561,-4.095384933684814,-0.0027702159401829,1.0013057033692945,7598.7822265625,11.571,7.644444444444446,179.01673249386113,-9.13784912041552,56.729607298397134,1553.0,1088.0,1350.0,1528.0,1471.0,997.6,110.0,292.15,1649406601.694648,1649406602.9036567,f84314b3-83e3-4baf-a6a9-1ef6a912ad4b
-0.1149677598562246,0.080763737298385,-0.0489613016425759,1.0722279557824923,-0.039809808715023,-0.8088903752558904,-0.589267615638246,-0.6138556858141747,-16.47738926263691,22.167407970881573,33.96262665198648,-4.094736228158997,-0.0162160257672502,1.0064077257418012,7598.7822265625,11.567333333333332,7.649999999999999,179.05037952353243,-9.157253972438744,56.75749382241343,1553.0,1088.0,1350.0,1528.0,1471.0,997.6,110.0,292.15,1649406603.0119913,1649406604.13218,f84314b3-83e3-4baf-a6a9-1ef6a912ad4b
-0.0623335261343892,0.0748073779459707,-0.1905727692475484,-0.1034363526795057,-0.2737645798272775,0.3439348813580326,-0.3805846052737434,-0.4049491444569443,-15.969466921030502,16.828997030722807,43.43017994517072,1.1071512728525068,0.0096198621429362,1.225844737955124,7598.7822265625,11.601111111111113,7.707777777777778,179.02695349249908,-8.789355224306114,56.731813828954,1553.0,1435.0,1350.0,1528.0,1471.0,997.6,110.0,292.15,1649406605.1506832,1649406606.295943,7ce151de-bfb6-4365-8e05-47475a5d0fca
-0.0585072553668748,0.0757014892977711,-0.194333296829753,-0.1028315127661622,-0.2755659515056631,0.341370885783794,-0.3838191851436692,-0.4070792335321307,-16.037569819950193,16.64788625261201,43.24512789941576,1.098573627760854,0.0147795128611478,1.237908833370753,7598.7822265625,11.641,7.711111111111112,179.02880978613354,-8.753816421962203,56.74233611482536,1553.0,1435.0,1350.0,1528.0,1471.0,997.6,110.0,292.15,1649406606.4042976,1649406607.413109,7ce151de-bfb6-4365-8e05-47475a5d0fca
