raw_voltage_G-,raw_voltage_G0,raw_voltage_G1,raw_voltage_G2,raw_voltage_G3,raw_voltage_G4,raw_voltage_G5,raw_voltage_G6,load_x,load_y,load_z,load_l,load_m,load_n,rpm,voltage,current,roll,pitch,yaw,aileron1_pwm,elevator_pwm,throttle_pwm,rudder_pwm,aileron2_pwm,pbaro,pdiff,Tt,sample_start_time,sample_end_time,uid
-0.1945831219066937,-0.0970197884428274,-0.3768372260774059,-0.1071574339256176,-0.4206749880910368,0.5090430465130101,-0.5531218386529985,-0.5813783961967327,-20.152964543356337,19.01411604147052,41.096727101162685,1.4892980726772942,-0.595858350831314,1.897559945332208,4160.88623046875,11.938,0.15,179.99529217842905,-11.280807881311114,110.7948071307163,1553.0,1435.0,1200.0,1528.0,1471.0,998.74,108.0,293.1,1649413485.882468,1649413486.8535404,632c68a4-aa87-43f6-ab93-113f67938274
-0.203984440660998,-0.101779616778356,-0.3786254494027198,-0.1025948361271726,-0.4180583972462859,0.5125931941529356,-0.5502948683313755,-0.5826143738729396,-20.1209414773218,18.676246517231085,41.54330341660918,1.484742112619509,-0.6185760943627645,1.8926635803612504,4208.78662109375,11.937777777777775,0.1522222222222222,-179.83292188583988,-11.3129601430553,110.49003270630172,1553.0,1435.0,1200.0,1528.0,1471.0,998.74,108.0,293.1,1649413486.9627218,1649413487.9831622,632c68a4-aa87-43f6-ab93-113f67938274
-0.203984440621884,-0.0913789974682909,-0.3785728547392445,-0.1228175324104347,-0.4258161298176137,0.5204298163642186,-0.5530560957964922,-0.5719770750473372,-20.13702626683844,19.06195226110956,41.44387083756039,1.5505050593564096,-0.576072613504687,1.9078609711844112,4226.078721788194,11.931111111111113,0.1577777777777777,-179.69069306220314,-11.29143707861573,110.1636862677585,1553.0,1435.0,1200.0,1528.0,1471.0,998.74,108.0,293.1,1649413488.0973043,1649413489.237415,632c68a4-aa87-43f6-ab93-113f67938274
-0.0242680491955038,0.2099628231323573,-0.3395475170753673,-0.3210998933548536,-0.462053944611581,0.4154637834317301,-0.5585654005929335,-0.5845077862628919,-19.35744074944676,17.81938105458673,42.678987109133,1.7562041496897445,0.5645436368173694,1.9493874429967968,4244.682834201389,11.939,0.16,-179.64498088281798,-11.2708242317468,109.61627847999812,1658.0,1435.0,1200.0,1528.0,1551.0,998.74,108.0,293.1,1649413491.3800328,1649413492.4803257,e5eaff95-119e-4933-aabf-ee3fbc3905bf
-0.0273418098900863,0.2212823329319517,-0.3306089308220444,-0.3325433066538673,-0.4561284327655255,0.4144543682214711,-0.5506347117569821,-0.5727093563075569,-19.41284830983299,17.766039791184003,42.680073175352575,1.7798131542933786,0.6093558992675889,1.919094794710884,4255.129760742188,11.931,0.15375,-179.6480641440458,-11.23971767670773,109.4429837741502,1658.0,1435.0,1200.0,1528.0,1551.0,998.74,108.0,293.1,1649413492.588663,1649413493.612872,e5eaff95-119e-4933-aabf-ee3fbc3905bf
-0.0319564966782235,0.2136965469827305,-0.3348696148242346,-0.3173843749247492,-0.4566341519641253,0.4083225247199845,-0.5577400669150049,-0.572102493488383,-19.620226795883227,17.84868252347997,42.69248060405008,1.732072530993983,0.5801273050191118,1.9347614863839075,4263.920084635417,11.93411111111111,0.15,-179.65487858583523,-11.247661637315211,109.27274349095362,1658.0,1435.0,1200.0,1528.0,1551.0,998.74,108.0,293.1,1649413493.721722,1649413494.9366915,e5eaff95-119e-4933-aabf-ee3fbc3905bf
0.1229842003040427,0.4573029314148812,-0.3001277194339622,-0.5019339502872341,-0.4899423359907,0.338504470135758,-0.5593280252116962,-0.5814441391210822,-19.0374794706713,17.32603690706424,42.671631156264745,1.990035917348124,1.5147751939025498,1.9634831998278963,4264.39111328125,11.926,0.1566666666666666,-179.80896461787108,-11.1983811584074,109.01470956884924,1767.0,1435.0,1200.0,1528.0,1630.0,998.74,108.0,293.1,1649413495.9601002,1649413497.0968473,c5dcfdcf-e927-4bf5-a5f4-e136c69ce3a8
0.1302422804536513,0.4595250608877941,-0.2992467567182725,-0.5079823519541076,-0.4907970015575267,0.3437639483242771,-0.5586968875884306,-0.5802081612688323,-19.09948706220071,17.427875197685694,42.94182745959302,2.0162292015936725,1.5219559250937271,1.9630596038584909,4267.694769965277,11.891555555555556,0.1422222222222222,-179.8443692828888,-11.173243595804552,108.85663622415792,1767.0,1435.0,1200.0,1528.0,1630.0,998.74,108.0,293.1,1649413497.2070253,1649413498.2948985,c5dcfdcf-e927-4bf5-a5f4-e136c69ce3a8
0.1435224633582429,0.4568821731713912,-0.3001408681516233,-0.4970426340823718,-0.4910599754820039,0.3345993076184962,-0.5635487578866055,-0.5864800910949733,-19.156353489971387,17.595602738641897,42.67925564350317,1.9719545917488928,1.513372392501443,1.9708417754877976,4271.238335503473,11.909777777777778,0.1422222222222222,-179.89936900172538,-11.119287283227436,108.6955500071327,1767.0,1435.0,1200.0,1528.0,1630.0,998.74,108.0,293.1,1649413498.404227,1649413499.450461,c5dcfdcf-e927-4bf5-a5f4-e136c69ce3a8
0.2879082903736916,0.7457064075388077,-0.2465993702102674,-0.7245414516693457,-0.5252728925262645,0.2572323837603714,-0.5558041739437929,-0.5730421202054065,-18.34577285816356,17.538461742303117,42.3630772771232,2.313927218149102,2.6251073156939184,1.9665288124097955,4271.711534288194,11.885333333333334,0.14,179.81000432444475,-11.04161370793988,108.3393913106822,1886.0,1435.0,1200.0,1528.0,1710.0,998.74,108.0,293.1,1649413501.4895563,1649413502.7208593,6e73aab5-5479-4e65-9c75-f40eae7e9716
0.2796675983540257,0.7478370018484235,-0.2519316726385749,-0.7174462101582425,-0.5287623548248581,0.2474153653431655,-0.5659959333512213,-0.5803710031001966,-18.64304704340321,17.571849082966914,42.134635844214095,2.27563170098609,2.636015994597074,1.9928372187914545,4270.76513671875,11.856,0.13,179.76875757095692,-10.995276661109394,108.09863321371851,1886.0,1435.0,1200.0,1528.0,1710.0,998.74,108.0,293.1,1649413502.8293388,1649413504.0637076,6e73aab5-5479-4e65-9c75-f40eae7e9716
0.2909719364054663,0.7548316018674991,-0.2401302108752416,-0.720767774586206,-0.522866680358689,0.2434919968423199,-0.5589598620939592,-0.5834164441334481,-18.57180230395937,17.96268976167763,42.18377960785853,2.2775302643437154,2.662473918484689,1.959478490684176,4261.093912760417,11.847111111111111,0.1322222222222222,179.7320657947356,-10.98297065236354,107.91065274738142,1886.0,1435.0,1200.0,1528.0,1710.0,998.74,108.0,293.1,1649413504.181352,1649413505.3428466,6e73aab5-5479-4e65-9c75-f40eae7e9716
-0.4007021143697442,-0.4669715579999097,-0.4144951001651689,0.1369612639725315,-0.3614138031199526,0.6484060647539949,-0.5271400081199158,-0.5441412770191552,-20.9543450841726,19.94159100606668,41.28207108877396,1.2556927929091772,-2.011800955945992,1.7878798930283364,4268.638671875,11.881666666666668,0.1366666666666666,-179.8623129487483,-10.992379807127662,107.54076612960912,1449.0,1435.0,1200.0,1528.0,1386.0,998.74,108.0,293.1,1649413507.4689846,1649413508.6641035,0c3a5a4d-e916-4d40-bc6c-0b6d72dfb403
-0.413587839349983,-0.4568470594932165,-0.416125539216569,0.1033137505612899,-0.3711306917659937,0.6674848211553502,-0.5274818746244165,-0.5480201439514115,-20.997418087007613,20.19937906175379,40.9895983204572,1.3760252720330512,-1.966887152144673,1.8042054703831776,4271.948784722223,11.935444444444446,0.1522222222222222,-179.93593935236143,-10.958257984445307,107.4952467133405,1449.0,1435.0,1200.0,1528.0,1386.0,998.74,108.0,293.1,1649413508.7727785,1649413509.8079643,0c3a5a4d-e916-4d40-bc6c-0b6d72dfb403
-0.4090120921475123,-0.4565183420211401,-0.4195704978088628,0.1096908684159174,-0.3738656205277133,0.6593852250510993,-0.5329648823253079,-0.556645690720178,-20.979258621378545,20.195719239016626,40.68451632743109,1.3432038944667852,-1.9640824697690635,1.820112634854648,4264.39111328125,11.930555555555555,0.15,-139.99941194612686,-10.94706681435398,107.43506136310408,1449.0,1435.0,1200.0,1528.0,1386.0,998.74,108.0,293.1,1649413509.920914,1649413510.9077284,0c3a5a4d-e916-4d40-bc6c-0b6d72dfb403
-0.5936198354554724,-0.7800815684100441,-0.4300763088179637,0.3199253629572716,-0.3101996229760071,0.7658633571718336,-0.4985547349253927,-0.516305480039408,-21.55077973365061,21.9746691924102,38.347902770605856,1.1188465586300245,-3.1794070692838483,1.6569918953997351,4264.39111328125,11.911333333333332,0.1466666666666666,-179.97707834064235,-10.94394266685487,107.29105896701287,1342.0,1435.0,1200.0,1528.0,1293.0,998.74,108.0,293.1,1649413511.934185,1649413513.0724132,e01aa837-9c3f-4797-bf4e-8f821a07d270
-0.579471833849236,-0.7862351610817652,-0.4391094653029209,0.3246851912710011,-0.319298522293806,0.7710833889345943,-0.5075352971527429,-0.5295593686988783,-21.484031127882727,22.17079868321931,38.78358753727547,1.1207930859046429,-3.207976040943454,1.6943623468743363,4264.39111328125,11.879555555555555,0.14,100.0011032021198,-10.954598805461211,107.07098951304516,1342.0,1435.0,1200.0,1528.0,1293.0,998.74,108.0,293.1,1649413513.1807137,1649413514.3120167,e01aa837-9c3f-4797-bf4e-8f821a07d270
-0.5860477011314609,-0.7811415560776976,-0.4345215807085019,0.321958353539535,-0.3142236306082774,0.7684324099106578,-0.5004420790489439,-0.525222321036312,-21.34041405200048,21.872777541008915,38.80704111054431,1.119315919594201,-3.1894747548126583,1.6719453830488251,4255.923828125,11.883333333333333,0.14,179.9538556974643,-10.945619762887324,106.91041024783834,1342.0,1435.0,1200.0,1528.0,1293.0,998.74,108.0,293.1,1649413514.4241543,1649413515.470849,e01aa837-9c3f-4797-bf4e-8f821a07d270
-0.7746117082936227,-1.0850526046947868,-0.4361641564123581,0.520916317981385,-0.2515695781529119,0.8542488852685607,-0.4682601314031396,-0.4907707044202171,-21.89369115534266,24.12840120007069,34.815119008632024,0.8773127467078075,-4.314591559849435,1.501055363575021,4243.2802734375,11.835,0.1233333333333333,179.96140077976742,-10.967544385531848,106.49885036921006,1227.0,1435.0,1200.0,1528.0,1189.0,998.74,108.0,293.1,1649413517.464222,1649413518.602328,ffd6b68d-569e-4b24-983d-133a9aed0ce7
-0.7902824328356857,-1.1022227915255487,-0.4570893003240096,0.5260539175967842,-0.2675836810267147,0.8690957849922595,-0.4850302870965138,-0.4994938559445099,-22.012884689652683,24.14914240412068,35.06173181768692,0.8981614227648715,-4.382291039685242,1.573490964299552,4230.021809895833,11.750333333333334,0.09,179.97183427317958,-10.896044257752864,106.0372183737764,1227.0,1435.0,1200.0,1528.0,1189.0,998.74,108.0,293.1,1649413518.711697,1649413520.047748,ffd6b68d-569e-4b24-983d-133a9aed0ce7
-0.7928358096725474,-1.1576334618305557,-0.4720601062016188,0.630852556961942,-0.2554221472353795,0.8395486441329452,-0.5074695542805541,-0.5372250610241696,-22.745404589547626,24.215370400905147,36.71994556968095,0.5949541816678117,-4.613477755296666,1.6052956089933217,4259.237413194444,11.746777777777778,0.09,179.9869016704886,-10.895278517655912,105.67668456170756,1227.0,1435.0,1200.0,1528.0,1189.0,998.74,108.0,293.1,1649413520.1769,1649413521.267215,ffd6b68d-569e-4b24-983d-133a9aed0ce7
-0.1878444144318484,-0.0893809012533139,-0.4029773454427286,-0.1357932739106288,-0.4440796729448311,0.5467251835103747,-0.5704336199034137,-0.5997274075443101,-20.6457581143816,18.5539202123372,43.60835289151243,1.6343703158612437,-0.5841197477025551,1.993778021812516,4339.236490885417,11.826,0.11,179.57471189663687,-10.862648616988515,105.14596064935978,1553.0,1435.0,1200.0,1528.0,1471.0,998.74,108.0,293.1,1649413522.9131565,1649413524.0157883,d0e81eb4-dde5-4bf9-a8f7-afc766a638ba
-0.19410268870873,-0.0873580248087163,-0.4000315310695779,-0.1291809965242099,-0.4419556522711781,0.5398979764653217,-0.5691187496709804,-0.5906876756669106,-20.496686286933297,18.59897915753313,43.800106575135686,1.6046639809684602,-0.5799139327270132,1.9856564180392733,4360.5703125,11.940666666666669,0.15,179.45684559885967,-10.838846261504669,105.38839138376024,1553.0,1435.0,1200.0,1528.0,1471.0,998.74,108.0,293.1,1649413524.1240463,1649413525.4646766,d0e81eb4-dde5-4bf9-a8f7-afc766a638ba
-0.2136234473850604,-0.0902532667322534,-0.4015739745513765,-0.131292373583977,-0.4441681736736293,0.5467883984121855,-0.5725449977167272,-0.5901819566351297,-20.74569013858125,18.861483457426125,44.07883927879123,1.626492887203694,-0.5913142381863297,1.995393139167721,4379.38330078125,11.938333333333333,0.15,179.34081586305928,-10.798218968229094,105.66736363022022,1553.0,1435.0,1200.0,1528.0,1471.0,998.74,108.0,293.1,1649413525.578129,1649413526.794315,d0e81eb4-dde5-4bf9-a8f7-afc766a638ba
-0.194001544906034,-0.1182953916844058,-0.4296413898497399,-0.4150261052566189,-0.4960170355536384,0.8522047687747055,-0.5146654316829571,-0.543529357238639,-20.808576921947363,18.399601040873826,46.56727889296067,2.9487436065827444,-0.6849525988449158,2.0196383782719063,4382.869086371527,11.934555555555557,0.1455555555555555,179.26436024331002,-10.701844904176475,105.98434587941136,1553.0,1522.0,1200.0,1528.0,1471.0,998.74,108.0,293.1,1649413528.003117,1649413529.140624,8bec95c6-9e20-4c75-9142-2ba3d563e1df
-0.2123207148754226,-0.105803118038139,-0.4304576204369315,-0.4213324231940891,-0.4959644406076234,0.8393514135381112,-0.5127684787806897,-0.527744848290549,-20.556343715047323,17.793387717779815,45.66524798439704,2.9300097840023245,-0.6311751278095944,2.018587728342345,4370.703884548611,11.925333333333334,0.1477777777777777,179.2334210041897,-10.699316880409924,106.08558218437936,1553.0,1522.0,1200.0,1528.0,1471.0,998.74,108.0,293.1,1649413529.2491596,1649413530.4858468,8bec95c6-9e20-4c75-9142-2ba3d563e1df
-0.1909803787731744,-0.1039491517656941,-0.4370188212216973,-0.4270389587028137,-0.4957277639041979,0.8458074228459581,-0.5103359692589121,-0.5260881116550238,-20.578126978594128,16.95242231264775,46.088333205670544,2.951544756756044,-0.627544854845298,2.024846563087631,4348.037434895833,11.920444444444444,0.14,179.20858340072786,-10.695426897950126,106.17265343591868,1553.0,1522.0,1200.0,1528.0,1471.0,998.74,108.0,293.1,1649413530.5980198,1649413531.575869,8bec95c6-9e20-4c75-9142-2ba3d563e1df
-0.1542646642023428,-0.0913658487692591,-0.4245083397754222,-0.7385220624940856,-0.5309495905759261,1.118339419996064,-0.426430072785567,-0.4518171764138284,-19.869371952256003,17.325261435172525,46.17190611399924,4.270054737056055,-0.5469572584776332,1.9355546520624607,4321.030924479167,11.922,0.1466666666666666,179.15572532565105,-10.607473603370488,106.28776337291082,1553.0,1613.0,1200.0,1528.0,1471.0,998.74,108.0,293.1,1649413533.4390266,1649413534.6679926,85c10fa7-19ee-4ed1-86f9-61503fbf0268
-0.1620400957847163,-0.1046915474169583,-0.4298310343645176,-0.7119970849410378,-0.5277888454779335,1.1049378646974306,-0.4341675763761609,-0.4586443856310976,-20.150969965129526,17.19806482907214,45.83583331595514,4.178802244652132,-0.5955704242253123,1.9475230151709628,4264.39111328125,11.922,0.14,179.15195506122922,-10.598091200180612,106.31912760157952,1553.0,1613.0,1200.0,1528.0,1471.0,998.74,108.0,293.1,1649413534.776275,1649413535.9002202,85c10fa7-19ee-4ed1-86f9-61503fbf0268
-0.1578299840443205,-0.1017457335851303,-0.4265691454875142,-0.7086972666065365,-0.5254498940100981,1.098970379760249,-0.4320688417014657,-0.4551549230812867,-20.027634431037274,17.20164016225144,45.8497213922704,4.158199346914851,-0.5857172908464816,1.9373925630467963,4234.89453125,11.904555555555554,0.14,179.15247415560611,-10.585852639552812,106.32930610126265,1553.0,1613.0,1200.0,1528.0,1471.0,998.74,108.0,293.1,1649413536.009029,1649413537.1271713,85c10fa7-19ee-4ed1-86f9-61503fbf0268
-0.1646172404822425,-0.1151649903613674,-0.4551903238239674,-0.9712637144258828,-0.5807341095030645,1.3698881384089412,-0.3902883452205994,-0.4198992153846492,-20.2683861104484,17.145003126977336,48.17368417351004,5.357721968759152,-0.6244287458191363,1.991425642494219,4227.004937065973,11.90222222222222,0.14,179.16536348147986,-10.502352438584545,106.28894727236694,1553.0,1710.0,1200.0,1528.0,1471.0,998.74,108.0,293.1,1649413537.9526694,1649413538.9655278,5f58247f-068f-4ab3-a24a-b5a785eb20cf
-0.1836469456210488,-0.1099257403031086,-0.4556606425936219,-0.9789536819813396,-0.5848971902421097,1.368708294991,-0.388614920418353,-0.4060622323575918,-19.841821305034166,17.086887933232873,47.7324014554749,5.37215309328226,-0.6029704175931838,1.9956206965135208,4228.859483506944,11.889222222222225,0.1344444444444444,179.1834680362398,-10.50746217899362,106.20446693925278,1553.0,1710.0,1200.0,1528.0,1471.0,998.74,108.0,293.1,1649413539.07479,1649413540.195763,5f58247f-068f-4ab3-a24a-b5a785eb20cf
-0.1537842310226008,-0.1056271277801468,-0.4530182595456595,-0.983530443498486,-0.5828363841806555,1.36926458622113,-0.3851381008308694,-0.4085276131320798,-19.82290413135098,16.980442279954996,47.83579359947149,5.383179142290658,-0.5871690551160242,1.984944440016965,4231.178059895833,11.879555555555555,0.1322222222222222,179.19078392775083,-10.512498020550428,106.11334918008518,1553.0,1710.0,1200.0,1528.0,1471.0,998.74,108.0,293.1,1649413540.3043673,1649413541.3355265,5f58247f-068f-4ab3-a24a-b5a785eb20cf
-0.1729535145761185,-0.1147705294174414,-0.4302998364533373,-1.0848685242275424,-0.5782358567127364,1.4774576281043756,-0.3410596177773182,-0.3632414719158173,-19.92512456744344,17.826567249099668,48.92394945768338,5.861759529345068,-0.616451713816703,1.8840733789109685,4250.064127604167,11.875777777777778,0.1244444444444444,179.18359856874395,-10.437671495781906,105.8958304223175,1553.0,1814.0,1200.0,1528.0,1471.0,998.74,108.0,293.1,1649413543.5699522,1649413544.8253012,31e6cf3a-c12f-494e-9e79-a5388104e1a7
-0.1529017511735532,-0.1199774135189715,-0.4416340151285212,-1.10300058892742,-0.5888468578987165,1.5021903276940836,-0.3448069968540442,-0.3679750036277305,-19.988075184699444,17.68410948866761,49.28482501838584,5.956755805049061,-0.6372220741703528,1.9190455590672155,4260.858072916667,11.865666666666664,0.1266666666666666,179.1880275669658,-10.436853770356274,105.76592325994348,1553.0,1814.0,1200.0,1528.0,1471.0,998.74,108.0,293.1,1649413544.9401896,1649413546.0417778,31e6cf3a-c12f-494e-9e79-a5388104e1a7
-0.1763898760689361,-0.1071316421686437,-0.43525487269189,-1.090313100139984,-0.5841006824270915,1.4772988325531315,-0.3442380623709523,-0.3664517770472275,-19.756134988829945,17.61070879522218,49.22287500959692,5.872139359885581,-0.5912941184119395,1.904846117761985,4268.166558159723,11.862111111111112,0.1222222222222222,179.17129967477848,-10.430680986893876,105.6908913551812,1553.0,1814.0,1200.0,1528.0,1471.0,998.74,108.0,293.1,1649413546.149831,1649413547.36638,31e6cf3a-c12f-494e-9e79-a5388104e1a7
-0.1972507903312458,-0.0553207192663973,-0.3539984424181765,0.1441348889053618,-0.3804601984202825,0.2338241654598975,-0.6125726758679523,-0.6296912726776489,-20.232230055462164,19.583401272922373,40.52876667914776,0.3087712288999845,-0.4633485996844528,1.902458307306503,4269.583767361111,11.902111111111113,0.1366666666666666,179.1495447633621,-10.817989425100386,105.5519926282198,1553.0,1349.0,1200.0,1528.0,1471.0,998.74,108.0,293.1,1649413548.6862855,1649413549.736581,4266ec49-cc90-4167-85c9-c000e2714bd1
-0.2057069200043006,-0.0637930314714567,-0.3568906504649737,0.1501757032258052,-0.3809790663892001,0.235497589883856,-0.6144210798220668,-0.6413890649993695,-20.25807293455032,19.601878396039154,40.35908673526917,0.2988434577393603,-0.4943649337174418,1.9085019968283787,4275.499728732639,11.937444444444443,0.15,179.1041209697419,-10.843751665421074,105.7244731186004,1553.0,1349.0,1200.0,1528.0,1471.0,998.74,108.0,293.1,1649413549.8438718,1649413550.9564965,4266ec49-cc90-4167-85c9-c000e2714bd1
-0.1905070256853172,-0.0600456528788989,-0.3587709144973814,0.1493473354253013,-0.3832274939351254,0.2312111151485296,-0.6177739988066154,-0.6507640887920503,-20.29347070799059,19.575954006694527,40.1437479320514,0.290762146383451,-0.4781685550571836,1.9190296244270468,4284.28515625,11.936,0.15,179.0769049426291,-10.832970591271163,105.85279188253745,1553.0,1349.0,1200.0,1528.0,1471.0,998.74,108.0,293.1,1649413551.0651464,1649413552.0799391,4266ec49-cc90-4167-85c9-c000e2714bd1
-0.2143946690677342,-0.0544862827538724,-0.3304698578684887,0.4134682159685025,-0.3357925521314716,-0.0264947308113149,-0.6702752438916675,-0.6843974550605328,-20.45120658577671,20.91129789733336,38.75031085185005,-0.8741694579482372,-0.474553274556951,1.8909594921617707,4283.809244791667,11.937333333333331,0.15,179.00623221637707,-10.890896002665963,106.11863954105232,1553.0,1264.0,1200.0,1528.0,1471.0,998.74,108.0,293.1,1649413553.8867404,1649413554.838699,3d76cd9d-2cd6-4e41-b441-f42a2befa4f7
-0.1953164146235194,-0.0494164487143195,-0.3275493296666954,0.4029871887047083,-0.3356787653014392,-0.0227903384359726,-0.6667984238672979,-0.6911614499691529,-20.405976964867666,20.938037741394584,38.63521659475365,-0.8418754588090436,-0.4533623229199323,1.8822531352131808,4284.9990234375,11.933333333333334,0.15,178.9867919801794,-10.860879882584696,106.22752338116102,1553.0,1264.0,1200.0,1528.0,1471.0,998.74,108.0,293.1,1649413554.946432,1649413556.0793989,3d76cd9d-2cd6-4e41-b441-f42a2befa4f7
-0.2003988919322858,-0.0619835684909151,-0.3278021894529136,0.4296132965955074,-0.3261586021404976,-0.0334610111223765,-0.6695798800617146,-0.6953968494211498,-20.895368271687023,20.765740859608027,38.84618438372682,-0.9272833462845198,-0.5021998694450397,1.872330065121902,4282.858072916667,11.925333333333334,0.1466666666666666,178.9554049842135,-10.88746582474654,106.31117953811535,1553.0,1264.0,1200.0,1528.0,1471.0,998.74,108.0,293.1,1649413556.1884823,1649413557.204429,3d76cd9d-2cd6-4e41-b441-f42a2befa4f7
-0.213609287278796,-0.0367987571079875,-0.3118958044717373,0.6703643853531246,-0.3012190614885122,-0.2960516234284112,-0.7390576184107616,-0.7542312209118333,-20.79529011881792,22.367203296131564,36.31577272076164,-2.049379651395224,-0.4146289406671715,1.916602938512944,4279.29443359375,11.919111111111114,0.14,178.9334026681671,-10.971111736417104,106.44519316200036,1553.0,1178.0,1200.0,1528.0,1471.0,998.74,108.0,293.1,1649413558.8783264,1649413559.9731245,ffed483c-2772-4649-a5f1-c1f1b989194b
-0.2013547011048643,-0.0342479099351258,-0.3083456559898449,0.655913969572418,-0.2999830839165164,-0.28657141228956,-0.7318784274937713,-0.7514042493856528,-20.68919605244616,22.30000790506282,36.16877872971521,-1.995718452832938,-0.4025067401815794,1.899935011512564,4268.638671875,11.927333333333332,0.14,178.91425081773443,-10.924566558544406,106.52151521360588,1553.0,1178.0,1200.0,1528.0,1471.0,998.74,108.0,293.1,1649413560.0827663,1649413561.209528,ffed483c-2772-4649-a5f1-c1f1b989194b
-0.1965422778115413,-0.0383897493929436,-0.3041512213367113,0.6627118448752202,-0.2949734299659307,-0.2870316163624772,-0.7290646053957117,-0.760818720543938,-20.778527738182405,22.433024791041817,36.44200868116706,-2.010997707036787,-0.4203993221017517,1.8832146662333016,4258.0361328125,11.917444444444444,0.14,178.89737266138542,-10.889634599535498,106.56114169444058,1553.0,1178.0,1200.0,1528.0,1471.0,998.74,108.0,293.1,1649413561.331817,1649413562.44016,ffed483c-2772-4649-a5f1-c1f1b989194b
-0.2231309672279009,-0.0476590748417619,-0.2792278640263632,0.8458832807382473,-0.2548901297739377,-0.4545986322931653,-0.7548567955511236,-0.7840873712639126,-20.78782449183712,23.34934390210251,35.29429258459716,-2.7936052732334384,-0.4658837255161844,1.82985221273704,4263.450086805556,11.912888888888888,0.13,178.92130412641734,-10.983787239424307,106.59473028804898,1553.0,1088.0,1200.0,1528.0,1471.0,998.74,108.0,293.1,1649413563.432413,1649413564.4826696,df68d2eb-1636-4852-9c4b-100ba0b9d1da
-0.2241044765798087,-0.0457752711874713,-0.270984641665727,0.8377412041307117,-0.2489100007307794,-0.4495287971118326,-0.7463859967863554,-0.762809231266184,-20.829916510300304,23.451592384483853,35.27492476137917,-2.762782147048977,-0.4568219686695771,1.7984678614909495,4251.69921875,11.871888888888892,0.1222222222222222,178.9383355825677,-11.029430168280394,106.5550180503947,1553.0,1088.0,1200.0,1528.0,1471.0,998.74,108.0,293.1,1649413564.5914094,1649413566.122968,df68d2eb-1636-4852-9c4b-100ba0b9d1da
-0.2212749779645613,-0.0361807683438314,-0.2637189748830953,0.8400614431544517,-0.2454817309069221,-0.4626061902711519,-0.7403330428978233,-0.7689183206973729,-20.357461889719065,23.40699762875009,35.10541244881783,-2.7971257283211624,-0.4225041067617365,1.7765673129587318,4254.513671875,11.880666666666668,0.13,178.92623096953858,-11.022843873781994,106.53055838406698,1553.0,1088.0,1200.0,1528.0,1471.0,998.74,108.0,293.1,1649413566.2348268,1649413567.2404754,df68d2eb-1636-4852-9c4b-100ba0b9d1da
-0.170941763892044,-0.0758635351599872,-0.3821230031742187,-0.1538747550904411,-0.4315095163765172,0.538193703361995,-0.5489668496304675,-0.5771971090031291,-20.10590622242741,18.548339906858114,42.07246877210645,1.6570146657591331,-0.5200816663349483,1.9173567982832345,4258.0361328125,11.90088888888889,0.1322222222222222,178.94798891659468,-10.666482074067424,106.50664361505304,1553.0,1435.0,1200.0,1528.0,1471.0,998.74,108.0,293.1,1649413567.8788846,1649413568.9889934,4dfe0232-2162-4cef-b79e-f3a85a3401e3
-0.1760434584759262,-0.0790586684721344,-0.38021644184006,-0.1403710429215594,-0.424659044125281,0.5301335533276166,-0.5470339907620039,-0.5669674201383552,-20.204636564336028,18.30177700403384,42.2674643312009,1.606883190031667,-0.5346407222357434,1.902714339151511,4263.688151041667,11.934333333333331,0.1433333333333333,178.94921683282544,-10.703015997027917,106.53392566732778,1553.0,1435.0,1200.0,1528.0,1471.0,998.74,108.0,293.1,1649413569.097253,1649413570.2173398,4dfe0232-2162-4cef-b79e-f3a85a3401e3
-0.1934654826265648,-0.0781645570804123,-0.3864883710181799,-0.1576747286445204,-0.4327060478166413,0.5450047273899391,-0.5494139053072282,-0.5781306665463717,-20.21475009059421,18.26931438499753,42.20809491720469,1.6787915258021155,-0.5289571935612657,1.925491452710483,4277.15869140625,11.941666666666666,0.15,178.93653544826643,-10.6944136583595,106.57363411043252,1553.0,1435.0,1200.0,1528.0,1471.0,998.74,108.0,293.1,1649413570.325573,1649413571.53309,4dfe0232-2162-4cef-b79e-f3a85a3401e3
-0.1380563662696095,-0.0478866484270611,-0.1855560355072009,-0.1755175108389473,-0.2551935612235204,0.521527732433205,-0.3450977850956786,-0.3673873575705811,-18.69980984990428,18.51445719394651,42.30151446299473,1.6786921726384796,-0.4120079524955722,1.1235152823820789,4270.76513671875,11.943,0.1466666666666666,178.91060349671764,-10.674397504405563,106.56829062577184,1553.0,1435.0,1200.0,1424.0,1471.0,998.74,108.0,293.1,1649413572.4437428,1649413573.587245,52de1664-6e24-4f5a-b33d-3170ba92d9d4
-0.1063730634667876,-0.0465464928078483,-0.1833308713487712,-0.1686903024837149,-0.2508696625173607,0.5167486875148766,-0.3436691283587718,-0.3672988566754065,-18.783297034598405,18.39182409575509,42.71825775323696,1.6518747658874382,-0.4107858293256994,1.1133604760980278,4265.099338107639,11.945222222222222,0.1411111111111111,178.9232605961596,-10.671354085947891,106.59965713117028,1553.0,1435.0,1200.0,1424.0,1471.0,998.74,108.0,293.1,1649413573.6966407,1649413575.0187235,52de1664-6e24-4f5a-b33d-3170ba92d9d4
-0.142848054985327,-0.0537909190053154,-0.1863272571924722,-0.1522165021334386,-0.2508443765001277,0.5083411084075664,-0.3494343268717697,-0.3636829650011552,-18.85770043516668,18.48400130981241,42.636081616546335,1.5962322572988985,-0.4389185671827462,1.1246809556219644,4269.347493489583,11.940333333333331,0.15,178.92055735906808,-10.69375796019918,106.61448319512866,1553.0,1435.0,1200.0,1424.0,1471.0,998.74,108.0,293.1,1649413575.1283982,1649413576.2429292,52de1664-6e24-4f5a-b33d-3170ba92d9d4
-0.0465717787409932,-0.0247373565494181,0.0359615775829504,-0.1575644820880792,-0.0490877314965392,0.4707408976847468,-0.1212917776897079,-0.1506487726852387,-17.04475042649643,18.358528505795583,42.36391360180241,1.5349092290988002,-0.3256211901255991,0.2264546411256134,4275.025390625,11.940333333333331,0.1466666666666666,178.93087094471477,-10.690760076335977,106.60554020077538,1553.0,1435.0,1200.0,1304.0,1471.0,998.74,108.0,293.1,1649413578.4965217,1649413579.6380222,09662d6a-2e29-4faf-9f2a-fdb5a2eb9186
-0.0737921096520487,-0.0207042467259325,0.0206888611486798,-0.1739371387241885,-0.068001625977434,0.4813862835552914,-0.1368173545308893,-0.1558197505916041,-17.117414992176066,18.54314610719217,42.17545499415044,1.5961602887804065,-0.307259223676933,0.2950916150831023,4272.89453125,11.943222222222222,0.1411111111111111,178.93084817741757,-10.717274680966488,106.61671590807732,1553.0,1435.0,1200.0,1304.0,1471.0,998.74,108.0,293.1,1649413579.7467792,1649413580.8665771,09662d6a-2e29-4faf-9f2a-fdb5a2eb9186
-0.0482027228475289,-0.027708456232913,0.0209037917371076,-0.1631273921465561,-0.0633110812654343,0.4799070553808775,-0.1376897200838227,-0.1690063773322437,-17.418159435079193,18.517685784860955,42.40384580984031,1.568179067965933,-0.3347426121662994,0.2890215397085811,4272.89453125,11.940888888888889,0.1444444444444444,178.936473217654,-10.69332443291436,106.62468597992884,1553.0,1435.0,1200.0,1304.0,1471.0,998.74,108.0,293.1,1649413580.9753845,1649413582.192788,09662d6a-2e29-4faf-9f2a-fdb5a2eb9186
-0.0147620473002212,-0.0027006468629499,0.2084749975478434,-0.1471845967252793,0.1044865135107816,0.4318005314369394,0.0457472420445029,0.0270862076617282,-15.82487287084741,18.92199173765833,42.550409501106,1.436959614673739,-0.243589031669158,-0.4520594602691841,4271.711859809027,11.935666666666666,0.14,178.94604762505057,-10.69672444416495,106.5986948334072,1553.0,1435.0,1200.0,1166.0,1471.0,998.74,108.0,293.1,1649413582.9001534,1649413584.0379755,37a4f244-e7ab-47bf-bcc5-c55beb34caaa
0.0083275694768567,0.0025684404132733,0.2088451838974125,-0.1551238812435494,0.1033137509903044,0.4331882244877315,0.0459065434406891,0.0233696780614608,-15.87227036752718,18.899949705488847,42.44494232344657,1.457818669727964,-0.221555940162135,-0.4507984354976145,4272.421332465277,11.928,0.14,178.95356538659703,-10.68551344755228,106.58241545697544,1553.0,1435.0,1200.0,1166.0,1471.0,998.74,108.0,293.1,1649413584.1557128,1649413585.3600123,37a4f244-e7ab-47bf-bcc5-c55beb34caaa
0.0113457010217492,0.0055425744144971,0.2010535701249816,-0.1761243736930122,0.0929561183576608,0.4491719806017079,0.0399314723575391,0.0119904926388991,-16.07502170002172,18.978726803636377,42.32956280276479,1.5411220702531283,-0.2058505001726882,-0.417724026932485,4267.224012586806,11.922666666666666,0.1311111111111111,178.95492838879144,-10.694672162046835,106.59115430456352,1553.0,1435.0,1200.0,1166.0,1471.0,998.74,108.0,293.1,1649413585.4678907,1649413586.7060423,37a4f244-e7ab-47bf-bcc5-c55beb34caaa
-0.2618564108599867,-0.1132255575105575,-0.6235847127177465,-0.1035410368278868,-0.6499326862610302,0.5425656444518627,-0.8105997065948167,-0.8321686361152045,-21.96160383532723,19.26360704302742,42.14303067464474,1.545094012819495,-0.6691955953350044,2.9109341334189267,4265.806477864583,11.928,0.14,178.9935811882144,-10.730564142089086,106.636312479716,1553.0,1435.0,1200.0,1623.0,1471.0,998.74,108.0,293.1,1649413588.9303095,1649413590.0661075,eecb2f56-2c2d-4e27-aaf6-a77965ba5f11
-0.2660594427503457,-0.1185310567845465,-0.6264784384009229,-0.1089062113990897,-0.6514083752222354,0.5546295720689237,-0.8106785990272783,-0.831979497919486,-22.12268897498885,19.251114611385912,42.40609057984835,1.5840397333894252,-0.6898089064285929,2.9165753586897627,4266.98974609375,11.93211111111111,0.14,178.98572950630853,-10.71427186418888,106.60515087999268,1553.0,1435.0,1200.0,1623.0,1471.0,998.74,108.0,293.1,1649413590.1784742,1649413591.2034528,eecb2f56-2c2d-4e27-aaf6-a77965ba5f11
-0.2585120901246837,-0.1162957783070144,-0.627490888566098,-0.0937194664271241,-0.6497121929120766,0.5397583979567573,-0.8130585145881889,-0.8396188935165951,-21.97725860253117,19.02704699192619,42.58015891714626,1.514929812509524,-0.6859351341511188,2.919876470981959,4279.296223958333,11.932333333333332,0.14,178.996604685287,-10.711538934747232,106.57522782123888,1553.0,1435.0,1200.0,1623.0,1471.0,998.74,108.0,293.1,1649413591.320325,1649413592.5424576,eecb2f56-2c2d-4e27-aaf6-a77965ba5f11
-0.3196095387076412,-0.1342887588407439,-0.8257207151260645,-0.0375699790138763,-0.8328892867194206,0.5113501367336375,-1.0402848037211967,-1.0623088844957131,-23.46037599741392,19.944729406516792,41.74501847040506,1.3197663854385,-0.7549851361589328,3.7588246547777167,4292.8740234375,11.914333333333332,0.13,179.0381140216029,-10.730064969097244,106.52341400619515,1553.0,1435.0,1200.0,1712.0,1471.0,998.74,108.0,293.1,1649413594.460227,1649413595.5965817,cf457535-c84c-48ce-a6a8-728864231188
-0.3202452276719901,-0.1377938980576073,-0.8285082396114702,-0.0341295720624323,-0.8366604352934202,0.5144471601190126,-1.045632786492784,-1.0693530504623243,-23.56738235178499,20.252249897359743,42.11274569897627,1.320869639281276,-0.7712284183834446,3.775298832341914,4292.1513671875,11.898111111111112,0.13,179.04038619786675,-10.73761972750171,106.42542204108288,1553.0,1435.0,1200.0,1712.0,1471.0,998.74,108.0,293.1,1649413595.7049258,1649413596.827299,cf457535-c84c-48ce-a6a8-728864231188
-0.3233351717991739,-0.140279001829139,-0.8133477856830507,-0.0177594446009916,-0.8164508794514573,0.5019296024567163,-1.0299858276685574,-1.0602147005395968,-23.57945133934106,19.92667179381522,42.25256430704551,1.2544268244729055,-0.7827627986550837,3.704994605723457,4282.144856770833,11.897333333333334,0.12,179.0459687391484,-10.744654253164391,106.35019813211392,1553.0,1435.0,1200.0,1712.0,1471.0,998.74,108.0,293.1,1649413596.9360745,1649413598.060277,cf457535-c84c-48ce-a6a8-728864231188
-0.3924204569869287,-0.1587655644338597,-0.9588639792710456,0.0544076814020573,-0.9479151545399614,0.4581611365947006,-1.207804375830962,-1.2327995623077408,-24.99793592074997,20.993170434592727,41.652784540858015,0.9922964584365004,-0.8548353115460348,4.331704279473687,4293.380161830357,11.889857142857144,0.12,179.08370000511195,-10.775161171124592,106.22601651133128,1553.0,1435.0,1200.0,1801.0,1471.0,998.74,108.0,293.1,1649413598.9657218,1649413600.3111775,0bdaa506-f4c5-4cf8-a611-346c9df04657
-0.3578110591279864,-0.1391350651979912,-0.9462285802544858,0.0367944967882338,-0.9441773823928208,0.4537133375629575,-1.1949889378403724,-1.2287942647394032,-24.46229347733794,20.97741831270625,41.54455935661744,1.0228098022045864,-0.7810716428347872,4.293592674792875,4285.713921440973,11.873333333333331,0.1188888888888888,179.09659561909635,-10.810191056615524,106.0774884102129,1553.0,1435.0,1200.0,1801.0,1471.0,998.74,108.0,293.1,1649413600.4202518,1649413601.444152,0bdaa506-f4c5-4cf8-a611-346c9df04657
-0.3600331891655091,-0.1524415467634828,-0.9471095436220908,0.0451044729534419,-0.941166329393394,0.4584994626095877,-1.1961460243910238,-1.223008832656335,-24.77033243737823,21.12073012079244,41.45143080764263,1.015555854965532,-0.8290499728022392,4.290396997024396,4281.431640625,11.877111111111113,0.12,179.09863253328885,-10.798753051076693,106.0008271258786,1553.0,1435.0,1200.0,1801.0,1471.0,998.74,108.0,293.1,1649413601.5527363,1649413602.5654256,0bdaa506-f4c5-4cf8-a611-346c9df04657
-0.1798434320641029,-0.0511176877960156,-0.4338762823981232,-0.163894062776278,-0.4497730596358354,0.547502979447201,-0.5658760779828081,-0.5980115023576285,-20.276439950328506,14.43000725260572,45.315289271670224,1.6710881449882922,-0.4569208687705699,2.0459040532016672,7487.417317708333,11.629666666666669,7.585555555555556,-178.87306325921944,-10.805937746037378,93.6153377453818,1553.0,1435.0,1350.0,1528.0,1471.0,998.74,108.0,293.1,1649413606.3960197,1649413607.376564,06a5f884-0886-4960-8afc-b1318fc5243e
-0.1578982561556177,-0.0392707120824092,-0.440450632220538,-0.1968184024399076,-0.4681023467068893,0.5663450592768183,-0.5737127035875186,-0.5911347315249189,-20.15461520326632,14.992573208795845,45.27117297227474,1.791154308018701,-0.4093122979547646,2.091925339309056,7499.060546875,11.631666666666668,7.651111111111111,-178.32027328239306,-10.639887404441644,88.5013444051813,1553.0,1435.0,1350.0,1528.0,1471.0,998.74,108.0,293.1,1649413607.4868572,1649413608.5995018,06a5f884-0886-4960-8afc-b1318fc5243e
-0.163907210816695,-0.0464367517999213,-0.4308915280079871,-0.164025549819734,-0.4508249559605243,0.5516711157220319,-0.5685058183713702,-0.5988135728027824,-20.49081984072695,14.913332757140802,46.538574584506726,1.6841908356745987,-0.4484755282350908,2.048954705381564,7492.50537109375,11.62955555555556,7.645555555555556,-178.03463325348332,-10.49481010732982,84.06881801122064,1553.0,1435.0,1350.0,1528.0,1471.0,998.74,108.0,293.1,1649413608.709552,1649413609.830078,06a5f884-0886-4960-8afc-b1318fc5243e
0.0122559953859031,0.2556712290570034,-0.4453313280596285,-0.4344204370722962,-0.5434914277912767,0.4541659560200212,-0.6090326415269895,-0.6455961439290726,-18.90554510797099,12.580467567548755,39.174496519867134,2.0584686007043,0.7709969612851956,2.278418326267041,7492.50537109375,11.627,7.699999999999999,-178.1266207234052,-10.351955657337877,77.22424294499602,1658.0,1435.0,1350.0,1528.0,1551.0,998.74,108.0,293.1,1649413610.9528344,1649413611.9962647,5cef7bfc-226f-4067-9772-f81f41a7a6c7
0.0255311215571391,0.2700589362704408,-0.3720526171408704,-0.3492699691822887,-0.4728677384725808,0.4289052897826177,-0.5689417479991596,-0.5943667830128541,-20.093358974009124,14.338931878364068,49.14980620325908,1.825923986982569,0.7391472042566709,2.040262911855457,7492.50537109375,11.625,7.685555555555556,-178.29995574634202,-10.17008251848364,74.09071683724417,1658.0,1435.0,1350.0,1528.0,1551.0,998.74,108.0,293.1,1649413612.1058648,1649413613.3238227,5cef7bfc-226f-4067-9772-f81f41a7a6c7
-0.0124483824424535,0.2656591804672678,-0.3935330396250567,-0.3823945769738417,-0.5008213683344723,0.4625861778177249,-0.584960405034982,-0.6074143395128895,-20.02461840269492,14.724994778823296,48.83959767346693,1.977805268345681,0.7276314378198433,2.1290533933123474,7492.50537109375,11.627888888888888,7.66,-178.47308889924332,-10.117144947593978,71.97867511735413,1658.0,1435.0,1350.0,1528.0,1551.0,998.74,108.0,293.1,1649413613.4374857,1649413614.4558945,5cef7bfc-226f-4067-9772-f81f41a7a6c7
0.15144252974178,0.5362441565096481,-0.3203175458527426,-0.5208225641508636,-0.5010868706157565,0.3525543566608936,-0.5732024324733436,-0.5956437238610391,-19.918008256227075,15.08527167066188,53.086279119108056,2.049573270782958,1.725787851431082,2.0503167130251034,7492.50537109375,11.615,7.699999999999999,-179.03764046182042,-10.050711017768112,68.35274928868742,1767.0,1435.0,1350.0,1528.0,1630.0,998.74,108.0,293.1,1649413615.453848,1649413616.5901103,ee09320d-d375-40f5-84d8-f6b79619c31b
0.1506885025886186,0.5291342525383067,-0.3354319747624524,-0.5389475408719613,-0.5102439286068572,0.3378075892151533,-0.5788538452977126,-0.5899644975436944,-19.62547498651701,14.1261609975177,47.56028925937958,2.049476543025203,1.7472847513849112,2.083223065386792,7493.962076822917,11.586333333333336,7.644444444444444,-179.3067180409028,-9.977724659798476,66.67109676114757,1767.0,1435.0,1350.0,1528.0,1630.0,998.74,108.0,293.1,1649413616.6983852,1649413617.8254635,ee09320d-d375-40f5-84d8-f6b79619c31b
0.1689783384928122,0.5200358613003337,-0.3272711843722327,-0.5162837337290612,-0.4987605622099555,0.3534772939804699,-0.5733541484771612,-0.5951380047318273,-20.071600270946185,14.544453627397992,51.53489236827771,2.037152737508838,1.6788250552927475,2.052847831318428,7491.7783203125,11.594333333333331,7.691111111111111,-179.56721538456782,-10.03091874223697,65.30321629388894,1767.0,1435.0,1350.0,1528.0,1630.0,998.74,108.0,293.1,1649413617.938824,1649413618.955803,ee09320d-d375-40f5-84d8-f6b79619c31b
0.3689143680836283,0.8293336250545974,-0.301327791344357,-0.8391475645300291,-0.5726714275555089,0.2709692303352516,-0.5742012281753942,-0.5990193999975857,-17.898847444365877,13.25560932753666,40.730424510901,2.57216711900997,2.960635499441712,2.140763298132706,7479.4296875,11.563,7.671250000000001,179.844836771392,-10.01846918093887,63.21026229654439,1886.0,1435.0,1350.0,1528.0,1710.0,998.74,108.0,293.1,1649413619.9584448,1649413621.0096705,e71cb153-ed7a-4d36-9989-af637ab95c9d
0.3601274996274219,0.8204961848047684,-0.2780267812062443,-0.805454013389322,-0.5577147812124681,0.2875821014185601,-0.565439642345071,-0.5941518524950044,-18.191482213269268,15.01056297468995,46.37223797893786,2.5470401294177814,2.8769161972540944,2.0824137974415207,7479.4296875,11.527,7.666666666666667,179.5830356205054,-10.032266091914492,62.30244022502562,1886.0,1435.0,1350.0,1528.0,1710.0,998.74,108.0,293.1,1649413621.117349,1649413622.3252575,e71cb153-ed7a-4d36-9989-af637ab95c9d
0.359153990446984,0.8287394051658569,-0.2525638218375318,-0.7810783423803136,-0.5330862546152126,0.2816904744157744,-0.5481187586811841,-0.5721277793689781,-18.453575195353267,15.385293942043424,50.033189765914514,2.4830189833463723,2.875860796019549,1.995536313562981,7480.155490451389,11.526222222222222,7.677777777777777,179.36953604960934,-10.06326708732858,61.45462705718973,1886.0,1435.0,1350.0,1528.0,1710.0,998.74,108.0,293.1,1649413622.4341033,1649413623.4624393,e71cb153-ed7a-4d36-9989-af637ab95c9d
-0.3968495456183312,-0.42149020750423,-0.4851956569062204,0.0235274609219485,-0.4184002645344656,0.7043406132336291,-0.5470076938448801,-0.5760005784460956,-20.36454747046856,15.743493296685685,40.41887636718632,1.6060732383161764,-1.8283293148354705,1.9955841328560493,7492.50537109375,11.54288888888889,7.6755555555555555,179.49221838966128,-10.156097895885516,59.89131894066895,1449.0,1435.0,1350.0,1528.0,1386.0,998.74,108.0,293.1,1649413625.396425,1649413626.343324,7854adc6-31df-45eb-8585-0be59fcb7942
-0.3757822958395983,-0.4164041896326277,-0.4833614129400427,0.0237611032307992,-0.4155697537591549,0.6849887684969007,-0.5445155091755164,-0.5752758820664696,-20.086139416708235,15.3328856545049,38.4281879865795,1.5592522012042729,-1.7935001871340648,1.983853243751964,7492.50537109375,11.618000000000002,7.720000000000001,179.37734219692072,-10.16543258261494,59.416835564856974,1449.0,1435.0,1350.0,1528.0,1386.0,998.74,108.0,293.1,1649413626.4526098,1649413627.5575054,7854adc6-31df-45eb-8585-0be59fcb7942
-0.3777444863347237,-0.4108923561249409,-0.4675895480708333,0.0384117854959783,-0.4070266395050073,0.6950970806458422,-0.5415509832874029,-0.5614844133219287,-20.54541285034136,16.500543294320497,42.60876641052634,1.557879677504687,-1.807413354678571,1.9523888910821368,7492.50537109375,11.618222222222222,7.721111111111112,179.20810984094544,-10.219490968574652,59.01867803520007,1449.0,1435.0,1350.0,1528.0,1386.0,998.74,108.0,293.1,1649413627.6654522,1649413628.67296,7854adc6-31df-45eb-8585-0be59fcb7942
-0.5577764785292372,-0.7573343139428954,-0.4412132578987163,0.3191232913435228,-0.3025339323596098,0.7936728476853719,-0.4823160927498609,-0.5149117186874499,-21.340916928359057,19.37149260835396,45.4103011721248,1.1665675829830848,-3.158821670184586,1.6525329005685818,7492.50537109375,11.590555555555556,7.711111111111112,179.04739700759487,-10.263213475909104,58.194696156288245,1342.0,1435.0,1350.0,1528.0,1293.0,998.74,108.0,293.1,1649413630.4109433,1649413631.6536934,1b816a86-a239-47e1-9494-c665cf602c04
-0.5832156734514269,-0.7467526433643253,-0.4645486586012678,0.2590721872098314,-0.3317215138549238,0.8116081735124594,-0.497610052048698,-0.5153860820952969,-21.333138667808605,18.99810222672761,41.4310192989368,1.338063630924626,-3.078012845861766,1.741171610059297,7492.50537109375,11.563444444444444,7.690000000000001,178.94308635859042,-10.24901208966857,57.89818094840003,1342.0,1435.0,1350.0,1528.0,1293.0,998.74,108.0,293.1,1649413631.7624853,1649413632.8825672,1b816a86-a239-47e1-9494-c665cf602c04
-0.5702808923768672,-0.7582415743195406,-0.4495758301504204,0.3025822335933283,-0.3132895675009022,0.8094249838315214,-0.4860897687187504,-0.5150957995323276,-21.215356680561825,19.38274077764617,45.310444643425406,1.238982761193887,-3.160721500353531,1.683642021348516,7492.50537109375,11.560333333333334,7.696666666666668,178.87993594734428,-10.292236467512302,57.620336442062985,1342.0,1435.0,1350.0,1528.0,1293.0,998.74,108.0,293.1,1649413632.9911587,1649413634.207196,1b816a86-a239-47e1-9494-c665cf602c04
-0.7329829181074526,-1.014838519471277,-0.4650649975743545,0.4831664140971625,-0.263903057224901,0.8328165124624681,-0.4794496742677759,-0.4977526644072804,-22.152616140014697,20.524952677204386,36.49619583204361,0.889116750257176,-4.061558234719078,1.5850143377918955,7492.50537109375,11.531666666666666,7.67,178.89333677849584,-10.403244591316628,57.31151475111022,1227.0,1435.0,1350.0,1528.0,1189.0,998.74,108.0,293.1,1649413634.8790166,1649413635.954196,392c46c1-c68a-4d4c-9ce2-84bbea606c4e
-0.7200885932203699,-1.0193733054220542,-0.4964721841609201,0.4551900361221918,-0.2903536862807628,0.830382992629667,-0.4961181812290932,-0.5193559783272801,-21.58830733354838,19.386058644133897,31.68485933642875,0.937159530189178,-4.03848359631644,1.6808669885915368,7485.9619140625,11.390888888888888,7.598888888888889,178.83467456044434,-10.46930238641945,57.06629919680319,1227.0,1435.0,1350.0,1528.0,1189.0,998.74,108.0,293.1,1649413636.0625026,1649413637.1796925,392c46c1-c68a-4d4c-9ce2-84bbea606c4e
-0.7253172249616372,-1.0015583276953692,-0.5009346504643468,0.407206401993508,-0.2991547169690058,0.8411396365147391,-0.4947942070498423,-0.5162923305462835,-21.70145999560795,18.89018045965654,29.41002307284525,1.0656414501377744,-3.945087409225904,1.6957029066229332,7485.9619140625,11.408,7.611111111111111,178.81632715451386,-10.566009706785325,56.8815922883533,1227.0,1435.0,1350.0,1528.0,1189.0,998.74,108.0,293.1,1649413637.2883408,1649413638.411604,392c46c1-c68a-4d4c-9ce2-84bbea606c4e
-0.1729009198477025,-0.0381793702946964,-0.4318645318896102,-0.1864966750160268,-0.456386855817726,0.5557603597806701,-0.5661784983850986,-0.5928835086375526,-20.23295085966075,14.78112146068787,45.33464049018424,1.743082262930726,-0.4059572718897977,2.053881585827236,7487.417317708333,11.435666666666668,7.639999999999999,178.43981677106643,-10.524804598478712,56.71593060349409,1553.0,1435.0,1350.0,1528.0,1471.0,998.74,108.0,293.1,1649413639.4170177,1649413640.55354,193d3976-6464-432c-813b-65a47a15a20f
-0.1628239604444988,-0.0400227164260884,-0.4476829221863784,-0.185960612785536,-0.4654842381250895,0.5490135620474124,-0.5776654050333578,-0.6005492007420956,-20.27776982316178,14.133127777005576,44.09260218286082,1.7214082550589846,-0.4026253607188148,2.1024541394421123,7504.897786458333,11.62611111111111,7.712222222222222,178.37134336572717,-10.533001204937682,56.737983007594345,1553.0,1435.0,1350.0,1528.0,1471.0,998.74,108.0,293.1,1649413640.6617754,1649413642.0029366,193d3976-6464-432c-813b-65a47a15a20f
-0.1900695786324309,-0.0424248821932069,-0.4353813035151803,-0.1667938582407153,-0.4574306606442898,0.5526420960922784,-0.57310128926128,-0.5987286117173143,-20.343902344438376,14.957773678874254,46.83655706173886,1.6928098818221904,-0.4370524712311205,2.0715808889960288,7510.012858072917,11.630333333333333,7.720000000000001,178.31107681213058,-10.602935227258229,56.810508232931255,1553.0,1435.0,1350.0,1528.0,1471.0,998.74,108.0,293.1,1649413642.1107194,1649413643.2192209,193d3976-6464-432c-813b-65a47a15a20f
-0.1740448564788956,-0.0588228241528757,-0.4900212289904099,-0.533214709124505,-0.5440623849871449,0.9078298182306912,-0.5226168550458046,-0.5507813710404185,-20.09680665879708,13.908058749461004,47.07416498751243,3.308002652044172,-0.4607769518096774,2.1879193674870656,7512.20556640625,11.618777777777776,7.705555555555555,178.3141519150769,-10.438179680828902,56.94608179613171,1553.0,1522.0,1350.0,1528.0,1471.0,998.74,108.0,293.1,1649413643.879009,1649413645.0593977,50829154-f784-4030-ad74-74665504d118
-0.1684829574979553,-0.0464104544224385,-0.4733749749520939,-0.5156217487199544,-0.5301642087906298,0.8905655813381386,-0.5186065015515525,-0.5312424027630382,-20.47068629512033,14.383209504948292,48.72664944724616,3.2335761163895724,-0.4273254465792864,2.1441193482398626,7512.20556640625,11.620777777777777,7.717777777777779,178.32238305193667,-10.456739296942336,56.94492977089169,1553.0,1522.0,1350.0,1528.0,1471.0,998.74,108.0,293.1,1649413645.167384,1649413646.2958558,50829154-f784-4030-ad74-74665504d118
-0.1630788429085191,-0.0580076049218122,-0.4782531428162084,-0.4936239749353887,-0.526640357593367,0.8851877651131972,-0.5218936765148626,-0.5464685966279079,-20.604219058422203,14.088049280237312,49.19894029702866,3.169678373019316,-0.4770852541207454,2.150132955321466,7512.20556640625,11.609666666666666,7.694444444444445,178.31219392751484,-10.495792611069175,57.02199327747712,1553.0,1522.0,1350.0,1528.0,1471.0,998.74,108.0,293.1,1649413646.4088027,1649413647.6353104,50829154-f784-4030-ad74-74665504d118
-0.1529877234096773,-0.0587975381502273,-0.5443005785676022,-0.937876627679716,-0.6404251644558594,1.2766547775414887,-0.4717930850570694,-0.4921609262342711,-19.828688694699263,13.094399791608,46.532278163710586,5.041571718555516,-0.411409334626157,2.3170075704112043,7512.20556640625,11.616111111111111,7.699999999999999,178.37212504293217,-10.406024383445084,57.06590797874573,1553.0,1613.0,1350.0,1528.0,1471.0,998.74,108.0,293.1,1649413648.4289458,1649413649.4789803,5e09649e-0b20-4fcf-96b0-30acc3ed8ce4
-0.1676151434697657,-0.0587965267024255,-0.512794776714777,-0.8679806476313233,-0.5990633981267206,1.2472765439596498,-0.4536782232754969,-0.4703113279656168,-20.39375247094788,13.247439017339516,51.69489448126667,4.821008504964558,-0.4597680926658155,2.1993701892030204,7512.20556640625,11.600666666666667,7.699999999999999,178.39950954804448,-10.383841541704436,57.127005538691314,1553.0,1613.0,1350.0,1528.0,1471.0,998.74,108.0,293.1,1649413649.6163433,1649413650.7977903,5e09649e-0b20-4fcf-96b0-30acc3ed8ce4
-0.1460381312380613,-0.0604269651377935,-0.5328465443030588,-0.8998662530380392,-0.618957382401225,1.2531671599811889,-0.4636449377312184,-0.4870496224135092,-20.065180032434085,12.649999085395764,48.02328669182305,4.900792793310021,-0.433022922668055,2.26280939996933,7512.20556640625,11.596444444444444,7.691111111111111,178.38516766860727,-10.444997537712917,57.29113726117643,1553.0,1613.0,1350.0,1528.0,1471.0,998.74,108.0,293.1,1649413650.905865,1649413652.1368284,5e09649e-0b20-4fcf-96b0-30acc3ed8ce4
-0.1550318401356586,-0.0634774627660782,-0.5557121332450091,-1.221286354036982,-0.6805327487174375,1.5923246509318978,-0.4060799326394161,-0.4322326950140864,-20.50568777879857,13.062857345306702,53.864333112437606,6.390277649817433,-0.4549842454906711,2.300458714528945,7512.20556640625,11.599333333333334,7.697777777777778,178.45726410984628,-10.321880247420063,57.37553335529084,1553.0,1710.0,1350.0,1528.0,1471.0,998.74,108.0,293.1,1649413652.9328158,1649413653.9812934,09a1bf2f-1ddf-488f-9367-897a68947ec5
-0.146892796539959,-0.0548782150922445,-0.5386845671096421,-1.2120954074144958,-0.6717362679180501,1.5946388216883214,-0.3988875947289576,-0.4254348180181074,-20.57715374107258,13.953466231627123,56.67545483688741,6.381909324651827,-0.4471779620346368,2.2596972219965763,7512.20556640625,11.570333333333332,7.690000000000001,178.51946133024822,-10.334709429683596,57.34227944095177,1553.0,1710.0,1350.0,1528.0,1471.0,998.74,108.0,293.1,1649413654.089136,1649413655.2079694,09a1bf2f-1ddf-488f-9367-897a68947ec5
-0.1412297538074541,-0.0570022353390887,-0.5364872166374883,-1.21115476996169,-0.6625250967143591,1.5880386813822986,-0.3925216011625319,-0.4140146665710136,-20.75723368895712,13.31226463656868,55.60676515216512,6.360553888048067,-0.4443853846988274,2.233473399985036,7512.20556640625,11.570222222222222,7.690000000000001,178.5753960260912,-10.3572016220754,57.31160582029915,1553.0,1710.0,1350.0,1528.0,1471.0,998.74,108.0,293.1,1649413655.3193693,1649413656.4339046,09a1bf2f-1ddf-488f-9367-897a68947ec5
-0.1134951057977722,-0.0412693139887773,-0.5505972884923207,-1.4240657387166746,-0.7078163035213981,1.7890291832185183,-0.3652269252936013,-0.3838191851839018,-21.219216733580527,13.914429922934234,58.5437402866591,7.296006223775911,-0.3828082917920026,2.279142430093476,7512.20556640625,11.550666666666666,7.674444444444443,178.63018173233377,-10.294243404763424,57.312209912585736,1553.0,1814.0,1350.0,1528.0,1471.0,998.74,108.0,293.1,1649413658.5738468,1649413659.6216724,2d34ae3b-8102-4b86-b98f-5c22ec5d9a6f
-0.1286120617461613,-0.0433983914425526,-0.5841259687674445,-1.449993481886649,-0.7379278421166771,1.763447378647219,-0.3842278068211136,-0.4085402563929629,-20.087828021023515,12.563558476401257,51.02896525758741,7.285754148628607,-0.3311542457013305,2.3831736698558417,7506.358344184027,11.523444444444443,7.653333333333334,178.6661510263229,-10.241055488467934,57.36548462920194,1553.0,1814.0,1350.0,1528.0,1471.0,998.74,108.0,293.1,1649413659.7302616,1649413660.8279068,2d34ae3b-8102-4b86-b98f-5c22ec5d9a6f
-0.1175115270568187,-0.0521220459923886,-0.5783607697934744,-1.4414468186733624,-0.7271939504521436,1.7713492404523925,-0.3755041512769617,-0.4003728916986225,-20.2970776317236,12.428675814482911,52.11382894887981,7.283692026491554,-0.3726964382437284,2.348732998320803,7512.20556640625,11.53,7.685555555555556,178.68344051184192,-10.234908887397353,57.37963374552257,1553.0,1814.0,1350.0,1528.0,1471.0,998.74,108.0,293.1,1649413660.9365084,1649413662.166357,2d34ae3b-8102-4b86-b98f-5c22ec5d9a6f
-0.1815922088311968,-0.0510650931216167,-0.4020038364254666,0.2032306901033738,-0.389446828979874,0.1965905987228951,-0.6442028873229272,-0.6601522616152314,-20.55626661493352,16.298116797253876,43.29740191812515,0.0679061128593329,-0.4800072676861571,2.031229480642853,7512.20556640625,11.555,7.681111111111111,178.71992586456832,-10.764499367797862,57.47750124940996,1553.0,1349.0,1350.0,1528.0,1471.0,998.74,108.0,293.1,1649413662.9669466,1649413664.0166333,050949d6-8df6-40f5-bcdf-19335140cf92
-0.1960497074176199,-0.0351678130749881,-0.3964156396403704,0.1849337737907857,-0.390018291610671,0.2074003434903907,-0.6380482845223082,-0.6546105905788668,-20.477817016055035,16.354764623661918,44.696536687705205,0.1343867130041128,-0.4307305805720041,2.0193957751051217,7512.20556640625,11.630333333333333,7.713333333333334,178.7356231571008,-10.816299807054456,57.64971991587239,1553.0,1349.0,1350.0,1528.0,1471.0,998.74,108.0,293.1,1649413664.1245768,1649413665.2376902,050949d6-8df6-40f5-bcdf-19335140cf92
-0.1840904613392427,-0.0446485290389307,-0.4035422341004447,0.1755000898737837,-0.3944959292550267,0.2128818323436188,-0.6392458271404585,-0.662650515064238,-20.4097834546826,16.08968342702923,42.892157629520845,0.1656189358100975,-0.4500731837004041,2.033295428839238,7512.20556640625,11.628333333333336,7.720000000000001,178.76295757415917,-10.802132856350989,57.80651601518892,1553.0,1349.0,1350.0,1528.0,1471.0,998.74,108.0,293.1,1649413665.3462317,1649413666.5712044,050949d6-8df6-40f5-bcdf-19335140cf92
-0.2148118874066044,-0.0420961647842568,-0.3896010731729373,0.4671123633614317,-0.350483694652392,-0.104185829601374,-0.7075973271031791,-0.7213276061387326,-20.17192881784898,16.382719018501657,36.1372318172377,-1.2030005789128957,-0.4173299530873232,2.0450483723024524,7512.20556640625,11.629888888888887,7.720000000000001,178.74645128366498,-10.934150452314793,58.06669158105304,1553.0,1264.0,1350.0,1528.0,1471.0,998.74,108.0,293.1,1649413667.477417,1649413668.6101978,6cb73dc8-88a0-431f-8203-225ab046c1d9
-0.213952164866018,-0.0359896066082954,-0.346223010402023,0.5269642118718577,-0.3157787164405177,-0.097017261382776,-0.6878869178452798,-0.7031849263684921,-20.75216708752663,18.3764215313088,46.05779202218009,-1.3052372051601826,-0.4828308319973696,1.9246181690206696,7512.20556640625,11.616666666666667,7.716666666666667,178.802681954372,-10.911639571766507,58.27152212407256,1553.0,1264.0,1350.0,1528.0,1471.0,998.74,108.0,293.1,1649413668.7186744,1649413669.955372,6cb73dc8-88a0-431f-8203-225ab046c1d9
-0.1857456800364637,-0.0469131391828021,-0.374631785112789,0.4845217413518071,-0.3342248230616776,-0.1005825803779805,-0.6961554280357093,-0.7184829344826393,-20.43434368348225,16.715699394958946,38.35521852995903,-1.23100068351802,-0.4543860350332598,1.98858548071361,7512.20556640625,11.612444444444444,7.71,178.79617961428215,-10.86227694086118,58.47118145498046,1553.0,1264.0,1350.0,1528.0,1471.0,998.74,108.0,293.1,1649413670.064577,1649413671.186999,6cb73dc8-88a0-431f-8203-225ab046c1d9
-0.2162911159576521,-0.028454392144779,-0.3196095400622812,0.8269314604929469,-0.26636995546375,-0.4127124449661593,-0.7558429483729616,-0.7715581757260097,-20.870485319111104,19.689478154687723,41.3244605975784,-2.68208355011924,-0.4470033401386205,1.914043779027768,7512.20556640625,11.612555555555556,7.711111111111112,178.8829017672639,-11.041707338449754,58.57055691285461,1553.0,1178.0,1350.0,1528.0,1471.0,998.74,108.0,293.1,1649413672.9100838,1649413674.1416051,fc1dbc26-0357-4217-ad66-784c4314d917
-0.211575284915243,-0.0322219992754451,-0.3469563032721861,0.8044648914809618,-0.2878250897920527,-0.4153168944621195,-0.770041017617097,-0.7985256578591466,-20.46033363714477,18.593727568525257,37.34189421749453,-2.646310953996325,-0.4277258316531537,1.9952247382267168,7505.62744140625,11.613111111111111,7.712222222222222,178.8608478453438,-10.987411698280122,58.68881253141449,1553.0,1178.0,1350.0,1528.0,1471.0,998.74,108.0,293.1,1649413674.2499382,1649413675.2726142,fc1dbc26-0357-4217-ad66-784c4314d917
-0.2181622766928475,-0.0370895456160414,-0.3477401680701643,0.7873336590809679,-0.3011255037747688,-0.3835956592060681,-0.7759832198429972,-0.8070217427247578,-20.556969495785445,19.943514097404183,38.888200329607656,-2.527278526915385,-0.45692057704919,2.0236894961077363,7505.62744140625,11.597333333333331,7.7155555555555555,178.8328987112601,-11.022414520501668,58.77228958563056,1553.0,1178.0,1350.0,1528.0,1471.0,998.74,108.0,293.1,1649413675.3808908,1649413676.512306,fc1dbc26-0357-4217-ad66-784c4314d917
-0.2431068733988716,-0.0648914533681535,-0.3061321233689013,1.0642780524691715,-0.227214649601615,-0.6317141504353911,-0.8050747231597769,-0.8206635217655028,-21.026938163072657,20.814363470318533,36.03894924253549,-3.702398594561231,-0.5640607566760816,1.9020835479032945,7512.20556640625,11.591555555555557,7.69888888888889,178.8979251477983,-11.088414258996549,58.865313726486505,1553.0,1088.0,1350.0,1528.0,1471.0,998.74,108.0,293.1,1649413678.43902,1649413679.477423,9addcd23-d100-4f36-915d-e7eaa2236d42
-0.2196288622187018,-0.0282773903217208,-0.2781026396603602,1.0360462867348443,-0.2214620949604577,-0.6051133202715158,-0.7861987501095602,-0.7994865251022649,-20.86978167937932,22.035672589551066,41.38659315171157,-3.568515589906696,-0.4699705400526621,1.840499527431061,7507.089246961806,11.568555555555555,7.695555555555554,178.94687483685004,-11.125079568234824,58.90666976300103,1553.0,1088.0,1350.0,1528.0,1471.0,998.74,108.0,293.1,1649413679.5860112,1649413680.814459,9addcd23-d100-4f36-915d-e7eaa2236d42
-0.2127763678402988,-0.037266547304375,-0.2601369663755361,1.0687789533701748,-0.2009046116881314,-0.6040892396715392,-0.7745798492249681,-0.7927857440825222,-21.201145578453108,22.565537594314524,44.67225157650883,-3.635287157915253,-0.5333429174241782,1.7748517110606312,7499.060546875,11.572222222222225,7.681111111111111,178.9110011655093,-11.123870719615468,58.94309364402488,1553.0,1088.0,1350.0,1528.0,1471.0,998.74,108.0,293.1,1649413680.9456892,1649413682.034661,9addcd23-d100-4f36-915d-e7eaa2236d42
-0.160370211267182,-0.0453322612758455,-0.4259213199892475,-0.1817631429971221,-0.4475640786272685,0.5581797197164086,-0.5565273528721305,-0.5825223328848118,-20.15214097096437,14.610292072115524,45.36353480053338,1.7370499664094732,-0.433821932379983,2.019365597729512,7495.42138671875,11.585333333333333,7.704444444444444,178.9821383446249,-10.727357273410028,58.98460373925069,1553.0,1435.0,1350.0,1528.0,1471.0,998.74,108.0,293.1,1649413683.8759248,1649413684.9949749,04498da9-e4aa-45a9-a340-645ae9de023b
