raw_voltage_G-,raw_voltage_G0,raw_voltage_G1,raw_voltage_G2,raw_voltage_G3,raw_voltage_G4,raw_voltage_G5,raw_voltage_G6,load_x,load_y,load_z,load_l,load_m,load_n,rpm,voltage,current,roll,pitch,yaw,aileron1_pwm,elevator_pwm,throttle_pwm,rudder_pwm,aileron2_pwm,pbaro,pdiff,Tt,sample_start_time,sample_end_time,uid
-0.3435973160759588,-0.2225241042704009,-0.7197553244124525,-0.0829112367754712,-0.7023858896111738,0.6141668630581152,-0.8968814955210723,-0.9201284033110402,-25.45931278248603,19.282151654149853,39.115877763145065,1.652546813576227,-1.0361824540840936,3.216547878912745,3739.71484375,11.931,0.17,179.84191345042723,-11.155194726059054,109.23783135846604,1553.0,1435.0,1200.0,1528.0,1471.0,998.74,108.0,293.1,1649414774.38856,1649414775.3752563,a5766b90-5443-4e32-b08d-c4e0d05e87b4
-0.3634781482556823,-0.2296244010408609,-0.721569845202295,-0.0732337959464452,-0.7030959195217631,0.6143246473930803,-0.8990115854381913,-0.928359491554438,-25.40145188151127,19.41628288307088,39.39885004948134,1.6319444947444273,-1.067034641651448,3.222631388167266,3849.460042317709,11.927333333333332,0.17,-179.93836482842667,-11.150575526041616,109.13813336388108,1553.0,1435.0,1200.0,1528.0,1471.0,998.74,108.0,293.1,1649414775.484202,1649414776.6004736,a5766b90-5443-4e32-b08d-c4e0d05e87b4
-0.3645957875992727,-0.226363524018057,-0.7198210678778666,-0.0787168026452769,-0.7022807000231556,0.6155737734125811,-0.8956323686408824,-0.9272418518845452,-25.29835252774208,19.30992412981005,39.33339121333974,1.646543242946262,-1.0541697872220552,3.2146958875337783,3868.942735460069,11.927,0.17,-179.7730575544944,-11.155841696755438,109.03885732320484,1553.0,1435.0,1200.0,1528.0,1471.0,998.74,108.0,293.1,1649414776.7092578,1649414777.8336468,a5766b90-5443-4e32-b08d-c4e0d05e87b4
-0.1888502897775457,0.0612247747786701,-0.7057651058485113,-0.3459509333387835,-0.7670249072518218,0.5912881337882919,-0.9083734622499658,-0.9362487147659186,-25.038238575346,18.20015270579589,40.97297364410765,2.188520272027938,0.0418630785596561,3.337265558578107,3873.7994791666665,11.923666666666668,0.1733333333333333,-179.6743780170057,-11.05860930559712,108.78673834492172,1658.0,1435.0,1200.0,1528.0,1551.0,998.74,108.0,293.1,1649414778.9423916,1649414780.0881824,56c6cd8c-73df-4381-8608-3dcabf0a1fa1
-0.2003103910953582,0.0541042500475825,-0.7016045534278544,-0.3416462518387331,-0.7626448724210207,0.5944271318558788,-0.9023371961391368,-0.9192029371308712,-24.876874961363075,18.27887855666804,41.02830922392654,2.186682811055988,0.0132593452825741,3.316368885572927,3876.718994140625,11.924777777777775,0.17,-179.60955345050303,-11.03603173584069,108.69640605750868,1658.0,1435.0,1200.0,1528.0,1551.0,998.74,108.0,293.1,1649414780.222894,1649414781.4935443,56c6cd8c-73df-4381-8608-3dcabf0a1fa1
-0.1684303626906574,0.0615140460834233,-0.704147815612478,-0.3409807253361958,-0.7656311448956247,0.5878168783186113,-0.9075713913968012,-0.936682621549669,-24.950264288947466,18.23277316962648,41.17875206938598,2.16988218749026,0.0399926942754968,3.3324376291709927,3879.058512369792,11.935666666666668,0.1733333333333333,-179.56993531767728,-11.028068968497056,108.59106936230891,1658.0,1435.0,1200.0,1528.0,1551.0,998.74,108.0,293.1,1649414781.626765,1649414782.7436342,56c6cd8c-73df-4381-8608-3dcabf0a1fa1
-0.0407686520610619,0.3207952004493576,-0.6824630789003925,-0.5966930921926487,-0.8203980188293089,0.5723524958406802,-0.9091391220466551,-0.9214786744772632,-24.538085955331216,17.492768295315116,41.70549854564141,2.708421724875715,1.0377146394162622,3.410171346553943,3881.791314019097,11.90522222222222,0.1688888888888889,-179.662056355743,-10.95628500841256,108.44870697052843,1767.0,1435.0,1200.0,1528.0,1630.0,998.74,108.0,293.1,1649414783.4013512,1649414784.5900671,6b5c2aed-6692-4393-85e2-5247b77894d7
-0.0516962304400826,0.3182423306838952,-0.6868309761123064,-0.5934620518097695,-0.8231567176645442,0.5734848007594509,-0.9143955690175986,-0.9280176260405436,-24.707383799911906,17.52604787199582,41.89716718839651,2.703626184803276,1.0269651726240698,3.4272244909524336,3886.093994140625,11.905,0.16,-179.65313612868698,-10.90307593750339,108.31570800919012,1767.0,1435.0,1200.0,1528.0,1630.0,998.74,108.0,293.1,1649414784.6991758,1649414785.8243866,6b5c2aed-6692-4393-85e2-5247b77894d7
-0.0503024686209082,0.3199516610741731,-0.6808877629515364,-0.5934094569537501,-0.8184494820239756,0.5705000469939102,-0.9093464664090876,-0.930568473860955,-24.65197033390895,17.57677836335206,41.75933668835091,2.697438557094058,1.0345767390326384,3.4055537895797143,3885.115397135417,11.909666666666666,0.16,-179.65120090842214,-10.901421134449478,108.19729909082888,1767.0,1435.0,1200.0,1528.0,1630.0,998.74,108.0,293.1,1649414785.937334,1649414787.065616,6b5c2aed-6692-4393-85e2-5247b77894d7
0.1295701798073724,0.5987889585707149,-0.6174528669673068,-0.8163522642157204,-0.8422198081196068,0.4929672496317036,-0.8928296723655726,-0.9120722942595626,-23.950368928186712,17.758012930021316,40.694930815206575,3.0306599169396566,2.116327715625879,3.358644264148224,3887.268310546875,11.842777777777776,0.14,-179.83324669928038,-10.78914999483113,107.7998951587104,1886.0,1435.0,1200.0,1528.0,1710.0,998.74,108.0,293.1,1649414788.9780943,1649414790.1348617,59728a87-fd8d-4441-a898-930e9a9ed11c
0.1346273705292658,0.5932260491518541,-0.6198550335233229,-0.8170855576412648,-0.843370319659807,0.5008185377091777,-0.893702038556721,-0.9153215412807258,-24.058419416680504,17.799759885465697,40.92753138882112,3.050096761647996,2.0941053524312405,3.36428360784764,3887.268310546875,11.837666666666667,0.1433333333333333,-179.8691021567833,-10.785798743542118,107.61576843688502,1886.0,1435.0,1200.0,1528.0,1710.0,998.74,108.0,293.1,1649414790.242995,1649414791.3565128,59728a87-fd8d-4441-a898-930e9a9ed11c
0.1204925224250779,0.6010267653107314,-0.6090579272725704,-0.8198543705873027,-0.8355948846800155,0.4957739903088589,-0.8844726596015526,-0.9089241904587152,-23.94253007292116,17.835126775022935,41.01052936365284,3.045850395015877,2.1228329144785603,3.326938071435374,3887.268310546875,11.841666666666669,0.1422222222222222,-179.89735637264994,-10.788344411964026,107.48725918656116,1886.0,1435.0,1200.0,1528.0,1710.0,998.74,108.0,293.1,1649414791.4646804,1649414792.5752687,59728a87-fd8d-4441-a898-930e9a9ed11c
-0.5452589159996777,-0.5637985831456466,-0.742489429721576,0.2160506690334377,-0.6360112465164297,0.6642107961013977,-0.8844428223652369,-0.9081630831478396,-25.694357508403773,20.82632978980673,37.77329466484994,1.0993896053984848,-2.3408300164695475,3.098057635193385,3881.988118489584,11.936666666666667,0.1766666666666666,-179.58222055126444,-10.888088510325874,107.1533031583726,1449.0,1435.0,1200.0,1528.0,1386.0,998.74,108.0,293.1,1649414793.4851382,1649414794.8287315,d3598f7c-3175-40ad-a72e-4f477a3c2c61
-0.5548048722116833,-0.5539896528128676,-0.7420029279684002,0.2128029412267555,-0.6370894400918273,0.656873824310931,-0.8866649532818767,-0.90327176525655,-25.73963784651734,20.7726505459874,37.66569886442648,1.089856962355745,-2.302336665916094,3.103023875468488,3869.524468315972,11.93477777777778,0.17,-179.65162438015065,-10.849077884881346,107.10840528931848,1449.0,1435.0,1200.0,1528.0,1386.0,998.74,108.0,293.1,1649414794.9377837,1649414796.0653267,d3598f7c-3175-40ad-a72e-4f477a3c2c61
-0.5377904543995551,-0.5652186427545804,-0.7374008821648413,0.2176811073551567,-0.6291344760613007,0.664828784764714,-0.8793411256256701,-0.9022067204487636,-25.87235704837742,20.769971102959666,37.91755414177094,1.0969136015574614,-2.346053945390492,3.0744358306991533,3880.4266221788193,11.932666666666668,0.17,-179.7048968200371,-10.83219147538709,107.08988181628943,1449.0,1435.0,1200.0,1528.0,1386.0,998.74,108.0,293.1,1649414796.1739724,1649414797.2881987,d3598f7c-3175-40ad-a72e-4f477a3c2c61
-0.768549145108695,-0.9135768085839092,-0.7764889388009121,0.5178612693158786,-0.5800928573284321,0.7188466580349169,-0.8884172709176794,-0.8992523079252899,-26.42790521689029,22.82347368765052,36.16271842996317,0.5522732872705409,-3.672525520517215,3.03061748286001,3881.0106065538193,11.87322222222222,0.1577777777777777,-179.6754146879397,-10.826068685114867,107.00386772625164,1342.0,1435.0,1200.0,1528.0,1293.0,998.74,108.0,293.1,1649414797.8917778,1649414799.1246846,c08fa907-8b70-42ca-92a4-74935d849f39
-0.7687261468990622,-0.9241589864149587,-0.7732902642166264,0.5248149061358285,-0.5717990618254997,0.7228544814026088,-0.8844473738950994,-0.9035509225976388,-26.79454743813444,22.77958803422465,36.19879948662226,0.5452832430092402,-3.710594010165957,3.007901624958308,3881.791314019097,11.884444444444444,0.1588888888888888,-179.71487041404512,-10.792012982458228,106.8035337244357,1342.0,1435.0,1200.0,1528.0,1293.0,998.74,108.0,293.1,1649414799.2361565,1649414800.3565383,c08fa907-8b70-42ca-92a4-74935d849f39
-0.7720638943579393,-0.9193293664540824,-0.7777532369341584,0.5316294701947657,-0.5763758208834637,0.7134986792108323,-0.8915906596712946,-0.9064461659824424,-26.7262846491658,22.758143695323845,36.388668313410015,0.5085877639173367,-3.6957682598374646,3.031357843689163,3882.768256293403,11.879666666666669,0.15,-179.74416737212508,-10.774083261568252,106.63681411916504,1342.0,1435.0,1200.0,1528.0,1293.0,998.74,108.0,293.1,1649414800.464537,1649414801.794701,c08fa907-8b70-42ca-92a4-74935d849f39
-0.9007188936465224,-1.1883341746451683,-0.7734419797551758,0.7084920607349593,-0.5116437592704769,0.7853739975234628,-0.8563546635949079,-0.8888092038277745,-27.414125828111,24.4662390335893,32.42657076553327,0.2817025476370388,-4.686188794292049,2.849376057977045,3882.3774142795137,11.693555555555555,0.07,-179.77387110591556,-10.79200871359,106.26109527875148,1227.0,1435.0,1200.0,1528.0,1189.0,998.74,108.0,293.1,1649414803.4399743,1649414804.657544,db262f88-77ee-4520-90b1-884eb45a6fd1
-0.9059015057456138,-1.166587730901138,-0.7627910255489145,0.701855509820365,-0.5056813298051924,0.7668758065708364,-0.8521627561556683,-0.8695584901876002,-27.44152154961364,24.417821309848268,32.01533543770743,0.2552351114197169,-4.599296245972389,2.822762041392749,3881.986572265625,11.713666666666668,0.08,-179.75628260989285,-10.78310224177604,105.67317991575344,1227.0,1435.0,1200.0,1528.0,1189.0,998.74,108.0,293.1,1649414804.7658298,1649414805.8941147,db262f88-77ee-4520-90b1-884eb45a6fd1
-0.8940307550871066,-1.1789025061123988,-0.7787267467312713,0.700969490052433,-0.519950197531601,0.7823523262545742,-0.8635611647722757,-0.8959524901529285,-27.36650826863956,24.487370822311355,32.27750107715028,0.2917586712192453,-4.64923860558164,2.879043620296741,3880.03466796875,11.723999999999998,0.08,-179.77285416663915,-10.782328817716277,105.25906706419536,1227.0,1435.0,1200.0,1528.0,1189.0,998.74,108.0,293.1,1649414806.0024383,1649414807.1180153,db262f88-77ee-4520-90b1-884eb45a6fd1
-0.3802821851242028,-0.2496893138497284,-0.7185193464585748,-0.0599930584208357,-0.6897762850672593,0.6265792311031756,-0.8885846636222702,-0.9042579186490276,-25.68049905502769,19.037830890408262,40.13686020846708,1.6272345890755406,-1.1482994533102189,3.184175001059724,3873.4103732638887,11.927,0.1622222222222222,179.8498531658824,-10.677012233629078,104.59397208139605,1553.0,1435.0,1200.0,1528.0,1471.0,998.74,108.0,293.1,1649414808.891544,1649414809.9832523,33df8d3a-ce21-401f-ad01-0bf0a716b950
-0.3757195866437362,-0.244837444337539,-0.716888907566856,-0.07027533946628,-0.6915382110530457,0.6298532561485747,-0.88728294230752,-0.9075976887855344,-25.64074761086448,19.143589688406777,39.94202737062301,1.6585572925777905,-1.1272854215412242,3.182705486413284,3878.47314453125,11.941,0.17,179.67969190417998,-10.6519461034213,104.86656948463067,1553.0,1435.0,1200.0,1528.0,1471.0,998.74,108.0,293.1,1649414810.092209,1649414811.2129414,33df8d3a-ce21-401f-ad01-0bf0a716b950
-0.3317594416642752,-0.2159876843614086,-0.7217701101593352,-0.0911888474994086,-0.7043733664924597,0.6207245218062775,-0.8960283471523124,-0.9208844537261972,-25.46172045534861,19.04398276331785,39.87292977630916,1.6843953034190178,-1.0174722120985622,3.2226687164581915,3876.718994140625,11.937,0.1733333333333333,179.53892625884544,-10.62945969771754,105.14276184409847,1553.0,1435.0,1200.0,1528.0,1471.0,998.74,108.0,293.1,1649414811.3218915,1649414812.647586,33df8d3a-ce21-401f-ad01-0bf0a716b950
-0.3527488102211304,-0.2426416118116937,-0.7515225880162778,-0.360006892211193,-0.7534291496454034,0.9076851821213596,-0.8415780504017657,-0.8608934949507099,-25.52390479024,18.253176623621577,41.86820252082595,2.929184802632187,-1.1034868769739097,3.250027829320577,3873.2158203125,11.922777777777776,0.17,179.41691175951237,-10.500501267591993,105.4267284766616,1553.0,1522.0,1200.0,1528.0,1471.0,998.74,108.0,293.1,1649414813.392285,1649414814.4943612,a82836a3-3c95-4fdc-a422-82e29008cdd0
-0.3261206729492356,-0.2277835833302327,-0.7523029127665845,-0.3704216727226963,-0.7578658251127595,0.9032950350809296,-0.8434335346356285,-0.8705274484911135,-25.39940595122098,18.13459713604515,41.9409083006442,2.9420620758022773,-1.0480549952921578,3.2617210069798004,3874.188585069444,11.919222222222224,0.1655555555555555,179.37439762647853,-10.49870919670851,105.5078582225329,1553.0,1522.0,1200.0,1528.0,1471.0,998.74,108.0,293.1,1649414814.601656,1649414815.72816,a82836a3-3c95-4fdc-a422-82e29008cdd0
-0.3441101153005492,-0.2370534152394596,-0.7590041991167752,-0.3685666948030269,-0.7626989843841662,0.9107619767718816,-0.8488492827452836,-0.8710048479110222,-25.507244196233763,18.23081516260841,41.906810552330974,2.9549013582677173,-1.082408622403038,3.2838810255347584,3873.2158203125,11.921555555555557,0.1677777777777778,179.33157537602222,-10.506742163218613,105.57740852103132,1553.0,1522.0,1200.0,1528.0,1471.0,998.74,108.0,293.1,1649414815.8378663,1649414816.94852,a82836a3-3c95-4fdc-a422-82e29008cdd0
-0.3332229929585277,-0.2649812494986526,-0.7665778516217487,-0.6531308553018128,-0.7952814683509817,1.215890605893719,-0.7681162499388239,-0.7985949417912734,-25.358770426117047,17.70738939369801,44.42804200107786,4.279102823609137,-1.1760045196071212,3.221636905568421,3880.03466796875,11.914666666666667,0.17,179.25979464130484,-10.371901991580298,105.68868444516936,1553.0,1613.0,1200.0,1528.0,1471.0,998.74,108.0,293.1,1649414819.0854828,1649414820.0413165,f13470a2-7030-45db-a039-28579daf3920
-0.3560466049220558,-0.2712375011344705,-0.7665009821443285,-0.6411963864414171,-0.7916858039717647,1.2107722231472198,-0.7692192234848592,-0.7894227105251996,-25.49355996330221,17.687865157466383,44.38829746477128,4.240480110309408,-1.1996278515439742,3.2174104292782744,3887.268310546875,11.916333333333334,0.1622222222222222,179.2438924430972,-10.370345562223184,105.66476967615544,1553.0,1613.0,1200.0,1528.0,1471.0,998.74,108.0,293.1,1649414820.1496584,1649414821.247453,f13470a2-7030-45db-a039-28579daf3920
-0.3663632761176405,-0.2805300906022021,-0.7672342751978841,-0.6391355804567878,-0.7909145819699349,1.2171063545556005,-0.7672974902980205,-0.7925581698046446,-25.45136747552708,17.72084615530641,44.26817517609547,4.250249288287328,-1.2340143559969106,3.2133636309586504,3888.836018880209,11.913222222222222,0.1611111111111111,179.22713419451364,-10.375727087242984,105.63877094053473,1553.0,1613.0,1200.0,1528.0,1471.0,998.74,108.0,293.1,1649414821.35592,1649414822.4907677,f13470a2-7030-45db-a039-28579daf3920
-0.3390478663394823,-0.2960647716576013,-0.7859721871162288,-0.8790255569160632,-0.8323608094552841,1.4651241500168033,-0.7164024053044831,-0.7475779777211258,-25.393400458735968,17.36406568340721,46.08599452579213,5.345732190348192,-1.2804587620544652,3.221660736247643,3887.268310546875,11.878444444444446,0.1411111111111111,179.21483681836798,-10.267569998234707,105.64130645853662,1553.0,1710.0,1200.0,1528.0,1471.0,998.74,108.0,293.1,1649414823.3864129,1649414824.529206,21242611-8a24-4736-aa11-7d2dad8504c3
-0.3687639250527437,-0.2979450354890632,-0.7791348622484917,-0.881497512745816,-0.8262992577822161,1.470120654777624,-0.7068695970690122,-0.721359466399006,-25.238073571343342,17.347583583350982,46.27307746697716,5.362875331408977,-1.2895308504417162,3.190642035491276,3885.505859375,11.881333333333332,0.15,179.23574326850746,-10.28132381735713,105.53332572121816,1553.0,1710.0,1200.0,1528.0,1471.0,998.74,108.0,293.1,1649414824.6379611,1649414825.773621,21242611-8a24-4736-aa11-7d2dad8504c3
-0.3386271080056869,-0.2955782698071556,-0.7835396772899276,-0.8780788511934113,-0.8306120320699196,1.4633885222695089,-0.7152190224792068,-0.7464734868875369,-25.4077634374258,17.44390722576741,46.0440171542785,5.340332947475762,-1.278121379833132,3.214243323946288,3894.33251953125,11.882777777777775,0.15,179.22595484851695,-10.289870471011062,105.4296275125093,1553.0,1710.0,1200.0,1528.0,1471.0,998.74,108.0,293.1,1649414825.8837888,1649414827.1862671,21242611-8a24-4736-aa11-7d2dad8504c3
-0.3209947034755558,-0.2890696642562641,-0.7438963406871726,-0.9952863960130118,-0.8132557445522682,1.569288131590246,-0.6483052818743273,-0.6764960970281305,-24.93420878672689,17.81715289893472,47.06466074930475,5.847544350666075,-1.2491575300311797,3.0426716564325544,3895.119194878472,11.858666666666668,0.1444444444444445,179.21620740966148,-10.22868924124815,105.3234840960776,1553.0,1814.0,1200.0,1528.0,1471.0,998.74,108.0,293.1,1649414827.8907557,1649414829.0386467,8dd8a4d7-fff5-45b7-9b4f-19ed5b1de803
-0.3308562272515815,-0.2905423184443982,-0.7522983610631089,-1.005213671683678,-0.8208819920751443,1.5807143517185551,-0.6548270373688595,-0.6769431529373346,-25.165763447961467,17.78833485955546,47.128421185449234,5.894898296942773,-1.252917970676933,3.073471939710515,3896.1025390625,11.852666666666666,0.1355555555555555,179.21273463792343,-10.235053080279831,105.20528767249051,1553.0,1814.0,1200.0,1528.0,1471.0,998.74,108.0,293.1,1649414829.1469586,1649414830.262783,8dd8a4d7-fff5-45b7-9b4f-19ed5b1de803
-0.3288707738043246,-0.2895167199980579,-0.747144070077299,-1.0001119704751738,-0.8171346118181781,1.575270789002078,-0.6502118434390535,-0.6753784573756605,-24.92269581853348,17.83606217675677,47.20096580083042,5.871864654196856,-1.2517352515955371,3.055192495919255,3897.87451171875,11.863222222222223,0.1377777777777778,179.21761442863047,-10.273477068365647,105.09716729574905,1553.0,1814.0,1200.0,1528.0,1471.0,998.74,108.0,293.1,1649414830.374892,1649414831.4851944,8dd8a4d7-fff5-45b7-9b4f-19ed5b1de803
-0.3463979888429137,-0.2120708896384283,-0.6879617641425269,0.1948418229437375,-0.6457675823835877,0.3418047926617614,-0.94395385435234,-0.964334346062566,-25.52017950317904,19.99997937908,38.14613059462442,0.4201264738685701,-1.0201205299297684,3.165109870967407,3888.6427951388887,11.931888888888889,0.16,179.18430587277803,-10.460479394695348,104.93377551042398,1553.0,1349.0,1200.0,1528.0,1471.0,998.74,108.0,293.1,1649414832.6079917,1649414833.7456963,7a443698-5e85-4da4-8c15-02ce1fb8e77b
-0.3229978570987978,-0.1862008272397178,-0.6873053406728824,0.1829867566034117,-0.6534727211883531,0.3255742454236755,-0.950570181223724,-0.982493718442831,-25.35138001050507,20.11988118978901,37.865263700388205,0.41126411889713,-0.9202942125684644,3.186829042342211,3888.248399522569,11.939444444444444,0.1655555555555555,179.1230102373465,-10.637395903214404,105.08669282120186,1553.0,1349.0,1200.0,1528.0,1471.0,998.74,108.0,293.1,1649414833.8534324,1649414834.976257,7a443698-5e85-4da4-8c15-02ce1fb8e77b
-0.350986884572213,-0.1942938505655127,-0.6867652324052673,0.1868737131485198,-0.6512242932017719,0.3305495094095761,-0.9483981167022768,-0.9673191018819024,-25.373854085636644,20.16647572156593,37.96402297019673,0.4140163842136677,-0.9518077428449264,3.1790970939105847,3883.745361328125,11.940555555555555,0.17,179.09838816429854,-10.633523755137436,105.24268371710625,1553.0,1349.0,1200.0,1528.0,1471.0,998.74,108.0,293.1,1649414835.0865028,1649414836.3990984,7a443698-5e85-4da4-8c15-02ce1fb8e77b
-0.3348797289596865,-0.180001216415368,-0.6586927555320411,0.4335826853575868,-0.6042045394641855,0.0764115188033077,-0.997035173580728,-1.029407285625854,-25.53091616359305,21.09308826051504,36.03417545934317,-0.7064268525003602,-0.9085656333006484,3.146717980644806,3885.7025553385415,11.941777777777778,0.1744444444444444,179.05808549473602,-10.719067700487354,105.37879269124664,1553.0,1264.0,1200.0,1528.0,1471.0,998.74,108.0,293.1,1649414837.519091,1649414838.8546822,54bed92f-e6a3-4c39-a308-beb4f8a53bfe
-0.3535938669112042,-0.1816999269437931,-0.6563679639576985,0.4301569444896307,-0.6035582302498972,0.0813372225299982,-0.9947953420770528,-1.016161987666114,-25.53254762663196,21.26481693925708,36.06484180164871,-0.6863722700344697,-0.914625004693039,3.139215743744207,3886.09334309896,11.933,0.1666666666666666,179.03195774443097,-10.733238161149147,105.53341223694764,1553.0,1264.0,1200.0,1528.0,1471.0,998.74,108.0,293.1,1649414838.9634843,1649414840.0873384,54bed92f-e6a3-4c39-a308-beb4f8a53bfe
-0.3439599166800081,-0.1856445362230782,-0.6638905380107214,0.4281467113446081,-0.6102463672458588,0.0877851409573947,-0.9997261062831476,-1.020877820557683,-25.47796256988496,21.21874221887916,36.12115310885899,-0.6679918987007595,-0.9305352828527652,3.165241262882584,3885.505859375,11.933,0.1625,178.998982729483,-10.734870647508584,105.67744157434058,1553.0,1264.0,1200.0,1528.0,1471.0,998.74,108.0,293.1,1649414840.1960192,1649414841.3197982,54bed92f-e6a3-4c39-a308-beb4f8a53bfe
-0.3531260767139096,-0.1717625460329826,-0.625683447664406,0.6963168748955577,-0.5557424758371027,-0.1858721098894759,-1.0472510884545732,-1.0694268860675111,-25.52945998018288,22.65160140540537,34.2052983383864,-1.8767927337054089,-0.8916957818439825,3.1072948045572213,3880.8154296875,11.928666666666668,0.16,178.95185328584506,-10.831773885210335,105.80033375298204,1553.0,1178.0,1200.0,1528.0,1471.0,998.74,108.0,293.1,1649414842.4306593,1649414843.571818,466ce3cd-cc3f-4109-a6a0-31b10fe0ec62
-0.333301885130325,-0.1663007794558972,-0.6214733347293494,0.6853554147686017,-0.5533908813145337,-0.1801701268198844,-1.041637602758008,-1.0742059348536694,-25.54913701755892,22.59524138919945,34.38024190404816,-1.8393992476772127,-0.8710065543873942,3.0911814691478536,3878.47314453125,11.92677777777778,0.16,178.9608676177297,-10.844600221561713,105.83313839265568,1553.0,1178.0,1200.0,1528.0,1471.0,998.74,108.0,293.1,1649414843.6799862,1649414844.7947176,466ce3cd-cc3f-4109-a6a0-31b10fe0ec62
-0.3381820751297217,-0.1705867490681126,-0.6223583437980912,0.6905263919186784,-0.552720803626803,-0.1808149185688667,-1.043597266033602,-1.066164995376584,-25.681129198183235,22.6628747556076,34.357445029029265,-1.852178431626564,-0.8866369057506346,3.0936398274152026,3881.791314019097,11.916,0.1611111111111111,178.9543212608652,-10.848903240738816,105.90193812925531,1553.0,1178.0,1200.0,1528.0,1471.0,998.74,108.0,293.1,1649414844.9035535,1649414845.996897,466ce3cd-cc3f-4109-a6a0-31b10fe0ec62
-0.3406600990682848,-0.1632158927628513,-0.5867557082834698,0.8777562233695991,-0.5094944524809369,-0.3715595409824723,-1.0687188783827524,-1.1031457307264712,-25.483456399753088,23.96609282210056,32.80210496563727,-2.692888158187257,-0.8673787336354167,3.0219447119566856,3880.229248046875,11.899,0.15,178.92910875590894,-10.975723821654151,105.98533398011126,1553.0,1088.0,1200.0,1528.0,1471.0,998.74,108.0,293.1,1649414846.9348977,1649414848.081349,93632630-2f97-4998-93d7-67ef4c6b16dd
-0.3524858362765102,-0.1630393968207634,-0.5806420684219182,0.8724203817396724,-0.5047872181079013,-0.3675805424180945,-1.0617399503565836,-1.0922712442715474,-25.467044294725227,24.018389618427747,32.743574215044106,-2.6712604341742368,-0.8652687554236508,2.997145250190029,3875.356174045138,11.864666666666666,0.1422222222222222,178.9422849497278,-10.96960160056436,105.98806605577929,1553.0,1088.0,1200.0,1528.0,1471.0,998.74,108.0,293.1,1649414848.2154217,1649414849.3022983,93632630-2f97-4998-93d7-67ef4c6b16dd
-0.3620580887647584,-0.1556498289106564,-0.5798531462528338,0.8640315142662076,-0.5050896380653092,-0.3683694644111259,-1.060359336136406,-1.0772685718485888,-25.46177637144009,23.861483713984352,32.57288869523278,-2.6551354391565307,-0.8349976849730738,2.995163997178163,3871.46630859375,11.901666666666667,0.1566666666666666,178.96461207921462,-10.987577899549926,105.97659361470338,1553.0,1088.0,1200.0,1528.0,1471.0,998.74,108.0,293.1,1649414849.4104223,1649414850.5318158,93632630-2f97-4998-93d7-67ef4c6b16dd
-0.3229275621473201,-0.2081131316743505,-0.7068170020253041,-0.1041200851125221,-0.694115356440152,0.6222664591550564,-0.8797355863198735,-0.9057700188368568,-25.23986840729112,19.047445694099093,39.61544290079336,1.717868097323097,-0.9846858482318176,3.1657467857469657,3862.5493435329854,11.942555555555556,0.1688888888888889,178.9616417058356,-10.68484219173885,105.96753830168376,1553.0,1435.0,1200.0,1528.0,1471.0,998.74,108.0,293.1,1649414851.442032,1649414852.398093,95cbf960-2620-40fc-91ef-1faf8f1a5405
-0.344346791890117,-0.204207968486505,-0.7106827203618801,-0.1081698837626133,-0.6989409299101108,0.6224505408809134,-0.8836144539982765,-0.9083340162886276,-25.20960927538019,19.01049814397491,39.62588284057392,1.7269965862131298,-0.9700928832178816,3.183599537622365,3865.06795247396,11.943666666666664,0.17,178.96517670818605,-10.674462391202676,106.0000962956374,1553.0,1435.0,1200.0,1528.0,1471.0,998.74,108.0,293.1,1649414852.510085,1649414853.609824,95cbf960-2620-40fc-91ef-1faf8f1a5405
-0.3300936028013088,-0.1957270585961523,-0.7047000614594526,-0.115980209748614,-0.696219148989131,0.6196893149436722,-0.8777369840623541,-0.8961057219271854,-25.043451942029733,18.9707724710384,39.43761661290918,1.7384981035613436,-0.9364515234600688,3.16419376447873,3867.97216796875,11.944,0.17,178.9796035855329,-10.686739751099514,106.03547971117769,1553.0,1435.0,1200.0,1528.0,1471.0,998.74,108.0,293.1,1649414853.7180986,1649414855.048233,95cbf960-2620-40fc-91ef-1faf8f1a5405
-0.2836392519373987,-0.1775292612936647,-0.488614317515721,-0.1425142806650481,-0.4972135669849825,0.6169149402973734,-0.6452021885012021,-0.6598498414569441,-23.531105457720347,18.60404210794368,39.827894293457454,1.80127009313361,-0.865402380802287,2.271240178111364,3869.136881510417,11.947333333333331,0.1766666666666667,178.95182596508835,-10.685597022505878,106.0314309268197,1553.0,1435.0,1200.0,1424.0,1471.0,998.74,108.0,293.1,1649414856.9710891,1649414858.1121976,1ce15992-0159-4d8a-8601-ce63b30bc0a6
-0.2535287335827371,-0.1801327033839005,-0.4866288637523143,-0.1373862888674953,-0.4953596002447425,0.6142983499947015,-0.6453599726446528,-0.6763251640519671,-23.582179846161985,18.7675446594934,39.76994721640328,1.7849705660855943,-0.8747945215444232,2.26577866203473,3876.718994140625,11.947444444444445,0.17,178.96419316094554,-10.6732487993964,106.0338526083354,1553.0,1435.0,1200.0,1424.0,1471.0,998.74,108.0,293.1,1649414858.2204044,1649414859.4417093,1ce15992-0159-4d8a-8601-ce63b30bc0a6
-0.2584428065758651,-0.1805114870134705,-0.4881278158632449,-0.1384609419610782,-0.4956630320253667,0.6162868372537746,-0.6448249222178799,-0.6801873426877812,-23.55791082182197,18.61828964682255,39.85709143916088,1.7908251569335678,-0.8771245617302388,2.267619268678206,3878.47314453125,11.946666666666667,0.1666666666666666,178.97613233161476,-10.676375413352712,106.06637645134316,1553.0,1435.0,1200.0,1424.0,1471.0,998.74,108.0,293.1,1649414859.5494874,1649414860.6726477,1ce15992-0159-4d8a-8601-ce63b30bc0a6
-0.1950959210902792,-0.1491806698627109,-0.2380395677991546,-0.1461433210471246,-0.2692940225563348,0.5814792073332087,-0.3893547876803606,-0.4052647131548614,-21.722979830144787,18.68126367170868,40.20301261949509,1.743786316818596,-0.7588668349444753,1.260132574749337,3879.253634982639,11.945222222222222,0.1755555555555555,178.94981030037331,-10.681250081417854,106.05393336449522,1553.0,1435.0,1200.0,1304.0,1471.0,998.74,108.0,293.1,1649414861.580241,1649414862.7234154,d5e36e8f-7fc4-454a-af34-26fb7a59cd97
-0.2070870275053943,-0.1495109044612064,-0.2382646126610895,-0.1460340858201794,-0.269467484102294,0.5791923458392139,-0.3903343654875831,-0.4111699959128511,-21.75404522285747,18.698498153215265,39.84175670300379,1.7384308457045845,-0.7567111637367275,1.26149298825943,3881.986572265625,11.949,0.17,178.95299165070674,-10.679901783102949,106.0946101766423,1553.0,1435.0,1200.0,1304.0,1471.0,998.74,108.0,293.1,1649414862.8318698,1649414864.152839,d5e36e8f-7fc4-454a-af34-26fb7a59cd97
-0.1892730709704906,-0.1477788164329309,-0.2400978445659851,-0.1502189115866548,-0.2731213049866129,0.5817335839971051,-0.3923951711735303,-0.4194132189827275,-21.71047246568385,18.788729353309325,39.88012832668436,1.7541162096903986,-0.7504627097679509,1.2721231180674553,3880.229248046875,11.94722222222222,0.16,178.96464850689023,-10.686996547239556,106.1449001005912,1553.0,1435.0,1200.0,1304.0,1471.0,998.74,108.0,293.1,1649414864.2603457,1649414865.385854,d5e36e8f-7fc4-454a-af34-26fb7a59cd97
-0.1357427013021683,-0.143184863932052,-0.0376665712473754,-0.1254604205401652,-0.0835686716283711,0.5457936490990128,-0.1897838476614363,-0.212859811605124,-20.490478668303787,19.152794622294493,40.200249751366194,1.6306635888532144,-0.7349137016630409,0.4514623250920802,3871.46630859375,11.943333333333335,0.1666666666666666,178.9675262932605,-10.678937303473898,106.0980730825515,1553.0,1435.0,1200.0,1166.0,1471.0,998.74,108.0,293.1,1649414867.522876,1649414868.668523,94819ba1-9c87-4ec1-bdcf-7f77c6e8cefc
-0.158474775947719,-0.1451237910547539,-0.039302066966873,-0.1205458420761792,-0.0838559202606235,0.5434380098206305,-0.1934452543049049,-0.2083260399468077,-20.663562050293667,19.217162202269897,40.21839066320042,1.6145450976251703,-0.7418292779221074,0.4589825999610475,3871.46630859375,11.937,0.16,178.96637882147996,-10.698079193214074,106.08382758467258,1553.0,1435.0,1200.0,1166.0,1471.0,998.74,108.0,293.1,1649414868.7768166,1649414869.88943,94819ba1-9c87-4ec1-bdcf-7f77c6e8cefc
-0.1474844879525634,-0.1484180454344868,-0.0397309165922287,-0.1197144406525633,-0.0836738611823699,0.5462012585763679,-0.1919402340275031,-0.2131885291432807,-20.572078270436283,19.178072534048493,40.26528322101967,1.6186520901850423,-0.7553780550224402,0.4569312124004237,3867.97216796875,11.933555555555555,0.1622222222222222,178.9678571779803,-10.669328365676552,106.06266462298424,1553.0,1435.0,1200.0,1166.0,1471.0,998.74,108.0,293.1,1649414870.0011947,1649414871.123991,94819ba1-9c87-4ec1-bdcf-7f77c6e8cefc
-0.4145871404600891,-0.2600110417124837,-0.9481745883956872,-0.0352998060079577,-0.9077949192120998,0.622227013067985,-1.1394225036910186,-1.165207117198381,-26.94608905908081,19.71325477576318,39.461992323564616,1.5540501715826818,-1.1896610672819086,4.148162751275411,3881.986572265625,11.910333333333334,0.15,178.9931713768642,-10.689394038501971,106.11019211486882,1553.0,1435.0,1200.0,1623.0,1471.0,998.74,108.0,293.1,1649414873.0485318,1649414874.186679,bdc138c0-4703-4552-957f-ad51b7ba2f28
-0.4049096981042484,-0.2372243483552167,-0.9387469678639024,-0.0455294921871499,-0.9042053232101877,0.6083945859455517,-1.1358066098108164,-1.1621960643602274,-26.94296263891201,19.712169851466275,39.3807105808707,1.5464933840833546,-1.1016417072020557,4.127829933095879,3871.46630859375,11.910777777777778,0.15,179.00329219939437,-10.711213172669318,106.00658269861916,1553.0,1435.0,1200.0,1623.0,1471.0,998.74,108.0,293.1,1649414874.2953875,1649414875.4295378,bdc138c0-4703-4552-957f-ad51b7ba2f28
-0.4112210735370365,-0.2504519383161372,-0.9469912053421412,-0.0412167193997715,-0.9102800243874812,0.6172962524528195,-1.1413422152752175,-1.168231320783529,-26.91664799624097,19.81746022847489,39.313823673001615,1.5570581171276072,-1.151898493137517,4.1535413478776135,3871.8550889756943,11.90688888888889,0.1522222222222222,179.0235262553555,-10.702070395282824,105.93417358649816,1553.0,1435.0,1200.0,1623.0,1471.0,998.74,108.0,293.1,1649414875.551843,1649414876.8525755,bdc138c0-4703-4552-957f-ad51b7ba2f28
-0.4760790552071995,-0.2599852500070462,-1.102854941449372,0.016263819101002,-1.0541668021088504,0.5821002303187804,-1.3258266724015888,-1.343817646278165,-28.169728649581472,20.664934542022905,39.19319799313292,1.3455129827247168,-1.194659750745951,4.822602530914849,3861.1968858506943,11.86288888888889,0.14,179.03821267989088,-10.698056615644315,105.7599513978792,1553.0,1435.0,1200.0,1712.0,1471.0,998.74,108.0,293.1,1649414877.964224,1649414879.1044648,c90a5ae3-060a-4827-a1a6-22158b295ca9
-0.4481507120514193,-0.2557245661423024,-1.0966472345694007,0.0141018698331611,-1.0496026837406254,0.5761074597064836,-1.3209591210701743,-1.3476105421389164,-28.10972015150008,20.66889691800576,38.69431311195786,1.3372093059009098,-1.174022932118575,4.800827185974082,3861.002685546875,11.87077777777778,0.14,179.0557495700399,-10.696945381811853,105.60804116054892,1553.0,1435.0,1200.0,1712.0,1471.0,998.74,108.0,293.1,1649414879.21293,1649414880.3382466,c90a5ae3-060a-4827-a1a6-22158b295ca9
-0.4693024177932268,-0.257444011282147,-1.096634591884275,0.0120157785711462,-1.049476254100712,0.5824542336315331,-1.317823660147069,-1.3311999431905843,-27.980729363536177,20.593167309523185,39.09607726623943,1.355804648141251,-1.1846893278180828,4.79663511861964,3862.74267578125,11.864666666666668,0.1333333333333333,179.03812768198122,-10.703159146409272,105.4858695668649,1553.0,1435.0,1200.0,1712.0,1471.0,998.74,108.0,293.1,1649414880.4505043,1649414881.566191,c90a5ae3-060a-4827-a1a6-22158b295ca9
-0.4833679861984368,-0.260379205221637,-1.1919384376847069,0.090125608687905,-1.1366875727110837,0.5170111556897313,-1.4496399782714258,-1.4727817088484216,-29.02221099929605,21.70864785726605,38.72685320169335,1.0346147224717408,-1.2006941448719406,5.231630880893001,3868.942735460069,11.84377777777778,0.1222222222222222,179.03944818522075,-10.739014793639685,105.29336599747744,1553.0,1435.0,1200.0,1801.0,1471.0,998.74,108.0,293.1,1649414882.4700167,1649414883.6136749,357bccf7-e198-4731-aad7-e71736adecda
-0.4820794136280902,-0.2537259640758042,-1.1909917310308478,0.0796066517411977,-1.137673725870319,0.5183128764933458,-1.4472600620800864,-1.469691761876872,-28.93339222481062,21.5818718709536,38.475661995247535,1.0604794467574787,-1.1727898067011886,5.228767771146554,3873.021430121528,11.856222222222222,0.13,179.04962364926428,-10.743775909809877,105.19585518124671,1553.0,1435.0,1200.0,1801.0,1471.0,998.74,108.0,293.1,1649414883.726968,1649414884.834614,357bccf7-e198-4731-aad7-e71736adecda
-0.5058128163937291,-0.2558297557336773,-1.1852063000343127,0.0848398330226154,-1.1310599268064458,0.515144041009829,-1.4417770496091336,-1.4571610418233945,-28.920252811910267,21.58006054571853,38.46054390307369,1.041834147961221,-1.1809168926479716,5.203846652346429,3873.7994791666665,11.851,0.1266666666666666,179.07116303026683,-10.736391147224753,105.07810955014487,1553.0,1435.0,1200.0,1801.0,1471.0,998.74,108.0,293.1,1649414884.9437926,1649414886.0728843,357bccf7-e198-4731-aad7-e71736adecda
-0.321231380125461,-0.1783707779703735,-0.7713245340154529,-0.1792385928953537,-0.7313656286761394,0.695807110115735,-0.8979596895542794,-0.9263871863194092,-25.983066735640254,15.023255393698925,44.11043014347921,2.0230262404815123,-0.9026217071404676,3.3407729408685487,7391.285807291667,11.626666666666669,7.786666666666666,-179.1635572758993,-10.963267548746558,93.19348932513375,1553.0,1435.0,1350.0,1528.0,1471.0,998.74,108.0,293.1,1649414891.040778,1649414892.013379,fe46cb1b-405a-428e-950c-3a6b633a9a43
-0.3103574066428365,-0.1595681407030008,-0.7527585661068035,-0.1659715573620606,-0.7168494615388415,0.6849725854592086,-0.8874670239021075,-0.9142377841622128,-26.023994223584324,15.26317283413622,47.03340030662296,1.971712674649624,-0.8581693254249858,3.2871415695347457,7395.5361328125,11.625,7.77,-178.64317882341442,-11.224277536054286,88.33269185637553,1553.0,1435.0,1350.0,1528.0,1471.0,998.74,108.0,293.1,1649414892.1211708,1649414893.2511346,fe46cb1b-405a-428e-950c-3a6b633a9a43
-0.3238611197316883,-0.1663528685206931,-0.7717189947462658,-0.1880745174267048,-0.7357178486365177,0.6866293210246002,-0.8988275037510672,-0.9176958935084788,-25.663296320569223,14.893453802131567,43.31851669149828,2.02148882063934,-0.8517311039434843,3.3490107637889115,7408.3203125,11.629555555555555,7.771111111111111,-178.44845013017732,-11.349043747849263,84.01743753373427,1553.0,1435.0,1350.0,1528.0,1471.0,998.74,108.0,293.1,1649414893.3641956,1649414894.4083097,fe46cb1b-405a-428e-950c-3a6b633a9a43
-0.1351864102698534,0.123640623634689,-0.7753004995054055,-0.4590616054523544,-0.8113582865756418,0.6607016117026352,-0.9258531471600302,-0.9590283384933944,-25.69921795939471,13.147153148885607,44.45504678184,2.5629145886306453,0.2592096595318177,3.5304042889358382,7414.72802734375,11.619999999999996,7.809999999999999,-178.53972422478594,-11.503893812434775,76.30980355853639,1658.0,1435.0,1350.0,1528.0,1551.0,998.74,108.0,293.1,1649414896.3976336,1649414897.5389855,8e0cabf2-2461-4dc7-834c-14b8a88def14
-0.1365265660055358,0.1325792082927102,-0.7519109815842028,-0.4400592065818534,-0.798550944723713,0.6596143157762303,-0.9174708496038868,-0.9393684976533632,-25.81077498452424,14.443208996101532,48.138139410589375,2.5278938372045947,0.2600463517142202,3.4749760550971773,7414.72802734375,11.615,7.818888888888889,-178.69248368230305,-11.764668063352405,73.35165090573359,1658.0,1435.0,1350.0,1528.0,1551.0,998.74,108.0,293.1,1649414897.647668,1649414898.9716237,8e0cabf2-2461-4dc7-834c-14b8a88def14
-0.1674260045101162,0.1200753041682729,-0.7735431245097703,-0.4551169955629672,-0.8122685812273605,0.6624589853563497,-0.9281162412769632,-0.9497863162649928,-25.768490577311624,13.614343513490956,44.71726833845238,2.561157064879212,0.2436374408953079,3.532203646880776,7414.72802734375,11.614888888888892,7.809999999999999,-178.96103154226978,-11.960890765606669,71.10056019472042,1658.0,1435.0,1350.0,1528.0,1551.0,998.74,108.0,293.1,1649414899.0867064,1649414900.196885,8e0cabf2-2461-4dc7-834c-14b8a88def14
0.0220153623666808,0.4428130693923988,-0.7039374369803866,-0.6777978190302005,-0.8338071671618372,0.580953259514256,-0.9087153291824466,-0.9343684496786868,-25.00438082786461,13.321585709881957,49.274110255493085,2.8829523887446182,1.440129367562351,3.483217354416417,7414.72802734375,11.574666666666666,7.809999999999999,-179.55854711560116,-12.116962770007444,68.50490313609806,1767.0,1435.0,1350.0,1528.0,1630.0,998.74,108.0,293.1,1649414900.9023864,1649414902.045952,68c55364-5440-42a0-bd11-3aa400a4a49b
0.0482338628873578,0.422853350149967,-0.7429101894152904,-0.7473150047429395,-0.8726615850138231,0.6280255875454074,-0.927517975731066,-0.9548015364999208,-25.014038468482525,12.838762723807603,43.872173581886656,3.1395366980495374,1.4192940683045867,3.6055813791073263,7414.72802734375,11.572777777777778,7.792222222222222,-179.897363961749,-12.350594797800824,67.13169284455711,1767.0,1435.0,1350.0,1528.0,1630.0,998.74,108.0,293.1,1649414902.1552172,1649414903.272991,68c55364-5440-42a0-bd11-3aa400a4a49b
0.0227516893947736,0.4248651005162345,-0.7281704935144039,-0.7214383587822039,-0.8587108100005135,0.5996901498795749,-0.9231526052100464,-0.942113035916017,-25.00940654900839,13.187264965386564,43.58117339118808,3.0204919591241253,1.4271400585852383,3.5601928218783168,7414.72802734375,11.578333333333337,7.792222222222222,179.8686225257216,-12.754824934812303,65.95711052535937,1767.0,1435.0,1350.0,1528.0,1630.0,998.74,108.0,293.1,1649414903.3806546,1649414904.4962485,68c55364-5440-42a0-bd11-3aa400a4a49b
0.2063732291780926,0.7160561003598817,-0.5676643012358241,-0.803893869162673,-0.7892988087788724,0.4728183915254234,-0.8579481853096863,-0.885613057260426,-25.46329337881537,16.0188540875005,56.141290166433066,2.9499303709868587,2.4315511487714456,3.2047729081878,7408.3203125,11.49,7.779999999999999,179.1550848056889,-12.821841327992392,63.77744537922675,1886.0,1435.0,1350.0,1528.0,1710.0,998.74,108.0,293.1,1649414906.4353533,1649414907.5822575,f6d9904f-a5c6-45ba-8183-7be090a59d79
0.1892273299322097,0.7123876144667478,-0.6055851538732442,-0.8523205419503976,-0.82331450283589,0.480589270336027,-0.8772636308786259,-0.9034558475895936,-24.95843919016613,14.740529061095977,50.1916282498382,3.0655746263529413,2.47048726640778,3.3219126231048444,7401.9228515625,11.494,7.779999999999999,178.92532938456822,-12.785880192284798,62.85907787508443,1886.0,1435.0,1350.0,1528.0,1710.0,998.74,108.0,293.1,1649414907.6962624,1649414909.006069,f6d9904f-a5c6-45ba-8183-7be090a59d79
0.1913690502501491,0.7248773575309932,-0.616213855469772,-0.8756984307866345,-0.8358351023201107,0.4777071775040881,-0.8846749474786845,-0.906294449966699,-24.82079443543055,14.296267320262512,48.39757242167336,3.108141969390933,2.5344548335050705,3.363060872842245,7401.9228515625,11.50122222222222,7.7844444444444445,178.74128310719303,-12.91477183833846,62.256002527768615,1886.0,1435.0,1350.0,1528.0,1710.0,998.74,108.0,293.1,1649414909.118539,1649414910.2366707,f6d9904f-a5c6-45ba-8183-7be090a59d79
-0.5312783078930624,-0.5211639234669947,-0.758283044868512,0.167208321246133,-0.6251524434246397,0.6799062921368481,-0.8641427422676023,-0.8853070966281049,-26.12563458464009,16.592674838239166,39.61890961175249,1.2160611318760244,-2.1892887791698,3.0846625893539144,7401.9228515625,11.616,7.849999999999999,178.9282952044878,-13.102519793652556,61.44324492639285,1449.0,1435.0,1350.0,1528.0,1386.0,998.74,108.0,293.1,1649414910.8903284,1649414912.0725,a810c4e8-657f-4c79-9d02-f770f4db1d0a
-0.507408360547344,-0.5223650065606441,-0.8023311963417186,0.1109091454485784,-0.6678857206899929,0.6873150760451541,-0.8934238923910238,-0.9186340024310125,-25.826212171162403,15.573922322277358,32.86740606957875,1.3498345613084,-2.1319524654366804,3.2350655958825665,7401.9228515625,11.613666666666669,7.855555555555556,178.7936888719648,-13.153416371208984,61.02945764718523,1449.0,1435.0,1350.0,1528.0,1386.0,998.74,108.0,293.1,1649414912.1824925,1649414913.303277,a810c4e8-657f-4c79-9d02-f770f4db1d0a
-0.5241026578667551,-0.5107435788586078,-0.7716795490199472,0.1573943370409137,-0.6415994449013805,0.664986569106993,-0.8770926974875496,-0.906769320704181,-25.658322761341573,16.318116041362302,37.56531591806825,1.2020932042960883,-2.1349583322346506,3.142480773112085,7401.9228515625,11.606666666666667,7.858888888888889,178.70197005615026,-13.28579482883394,60.64961716706249,1449.0,1435.0,1350.0,1528.0,1386.0,998.74,108.0,293.1,1649414913.4121523,1649414914.5357673,a810c4e8-657f-4c79-9d02-f770f4db1d0a
-0.7026412776683327,-0.8598567698810078,-0.7810530568024545,0.4759371605813503,-0.5670579448040091,0.70871963431453,-0.8656851861926815,-0.8991005925606825,-26.294289991121538,19.081701427762525,36.83154237013587,0.5992289805377863,-3.473107222923791,2.99542419699152,7401.9228515625,11.562111111111111,7.83,178.57919816472918,-13.58037092704405,60.00327181244472,1342.0,1435.0,1350.0,1528.0,1293.0,998.74,108.0,293.1,1649414916.4673884,1649414917.5508454,cb2c7bca-d320-40c0-aba0-7247ed5a56e0
-0.7173359630817651,-0.8624844876056548,-0.7764656763229564,0.4817989501596147,-0.563745989063446,0.712229830141376,-0.8680989842283602,-0.8908067948794611,-26.7797358403727,19.643891960651345,37.73551538764916,0.5977490854452724,-3.487960147611818,2.988535022532845,7395.5361328125,11.558,7.819999999999999,178.43570044372666,-13.63486672970186,59.76030984110886,1342.0,1435.0,1350.0,1528.0,1293.0,998.74,108.0,293.1,1649414917.6591165,1649414918.8351543,cb2c7bca-d320-40c0-aba0-7247ed5a56e0
-0.7035136434066946,-0.8585924714933698,-0.7683215725193311,0.4835482322760749,-0.552948377565632,0.7086690623987225,-0.856620166710157,-0.8854967416504835,-26.69087306163044,19.21550306093596,38.08045584204586,0.5834670099936748,-3.4767552148234886,2.9475943279959407,7395.5361328125,11.561666666666667,7.833333333333333,178.39075779898795,-13.6495482213228,59.57533238127685,1342.0,1435.0,1350.0,1528.0,1293.0,998.74,108.0,293.1,1649414918.9444582,1649414920.0774758,cb2c7bca-d320-40c0-aba0-7247ed5a56e0
-0.849940624888144,-1.10751059397607,-0.7381635071303961,0.7397894948555046,-0.4678393725515782,0.7076672329820703,-0.8289815931184004,-0.8612353614069386,-27.3681817911691,22.14511061925465,37.0009818458409,0.0236076350229431,-4.42557557884933,2.720141686140228,7395.5361328125,11.351125,7.7225,178.29458361283233,-13.78434734067829,59.25249039896029,1227.0,1435.0,1350.0,1528.0,1189.0,998.74,108.0,293.1,1649414921.995568,1649414923.14974,93373ed1-5d45-4caf-a037-16f0c04d44bc
-0.8531752058619737,-1.106064236398964,-0.7804628823792119,0.6707588461875844,-0.5078377173451811,0.7248131312522719,-0.855305296860913,-0.8858760313434833,-27.4645806255522,21.01517943048953,30.357343573836587,0.20714875265341,-4.354787740266459,2.860354734563195,7395.5361328125,11.362,7.726666666666666,178.32287634337678,-13.76709027484189,59.0695379004897,1227.0,1435.0,1350.0,1528.0,1189.0,998.74,108.0,293.1,1649414923.2581758,1649414924.3652952,93373ed1-5d45-4caf-a037-16f0c04d44bc
-0.886103604208982,-1.1211114132118811,-0.7824943576988315,0.6983144651292064,-0.5067762132541426,0.7222096896689443,-0.8588200471990629,-0.8758248597736695,-27.32005996402416,21.29943199085594,31.47226624295257,0.1411734104294582,-4.425644865580196,2.8666601123429176,7395.5361328125,11.37977777777778,7.712222222222222,178.35991570033582,-13.601503152881117,58.89005646620984,1227.0,1435.0,1350.0,1528.0,1189.0,998.74,108.0,293.1,1649414924.473552,1649414925.6006975,93373ed1-5d45-4caf-a037-16f0c04d44bc
-0.3280555545115326,-0.1710075074096548,-0.7318652787865509,-0.0994785954074215,-0.694707048189604,0.667734646358274,-0.8857182462650948,-0.906480048901649,-26.473740464950552,16.53519791273266,51.765160657507366,1.7929855258511174,-0.946668796035868,3.231049066531829,7410.456217447917,11.617,7.826666666666666,178.05808205181387,-13.509962775758618,58.741204635807925,1553.0,1435.0,1350.0,1528.0,1471.0,998.74,108.0,293.1,1649414927.5270796,1649414928.664048,787711cc-dc84-4a14-9609-d719250dffc1
-0.3288707737936522,-0.1649196605112937,-0.7398465411482943,-0.1491149273114848,-0.7057782551913112,0.6838680950809248,-0.8831936954158744,-0.9080184472563404,-26.36596311347657,15.992967212804617,48.395975093143335,1.936732201418912,-0.8891413542139682,3.249260755122416,7414.72802734375,11.611555555555556,7.837777777777777,178.04112193319483,-13.434667149803351,58.85685643447422,1553.0,1435.0,1350.0,1528.0,1471.0,998.74,108.0,293.1,1649414928.7717106,1649414929.8892012,787711cc-dc84-4a14-9609-d719250dffc1
-0.3295469203324357,-0.1622929553557172,-0.7331235085965943,-0.106423635833457,-0.7012252643448167,0.6708918503040014,-0.8893781375322175,-0.9086839743080568,-26.368139626535267,16.794844326228013,52.49562795531194,1.8175746678155893,-0.920425735935409,3.248844235801079,7417.581325954861,11.613111111111111,7.844444444444444,178.05819740611983,-13.414780674579909,58.97776368425188,1553.0,1435.0,1350.0,1528.0,1471.0,998.74,108.0,293.1,1649414929.9978578,1649414931.12793,787711cc-dc84-4a14-9609-d719250dffc1
-0.3279109188860619,-0.2053650538977345,-0.8061291486553581,-0.4823160915540827,-0.7860642285443084,1.015149468723882,-0.8360950415858508,-0.8594865840035371,-26.002862050021207,13.829361338578895,46.19055267270238,3.4149738558496137,-0.9870739688733766,3.372121115581076,7421.14794921875,11.596666666666668,7.83,177.9120010014853,-13.614241645410663,59.26247404852458,1553.0,1522.0,1350.0,1528.0,1471.0,998.74,108.0,293.1,1649414933.0587208,1649414934.210182,8be83459-08bc-4081-86eb-c5857903c0f7
-0.3261884394523456,-0.2119525513651075,-0.8091402013837405,-0.473598503975373,-0.7871818682278304,1.016293405231185,-0.8416437938613932,-0.8588160004607949,-26.25122458478355,14.035965069969704,46.54244509731371,3.39903043725279,-1.014402756700752,3.3851652005916093,7421.14794921875,11.60477777777778,7.812222222222222,177.9795880000523,-13.707287225471504,59.31236630368182,1553.0,1522.0,1350.0,1528.0,1471.0,998.74,108.0,293.1,1649414934.3394916,1649414935.423885,8be83459-08bc-4081-86eb-c5857903c0f7
-0.3350375133453518,-0.2084944438939189,-0.8075097621583005,-0.4753867269174142,-0.7887071175241236,1.008338444483654,-0.8429586642155408,-0.8675861849997473,-26.12476844120546,14.201167523243262,45.65826212842333,3.3862874140639936,-0.9941649539266773,3.3860685939602253,7417.581325954861,11.601777777777777,7.83,177.94049047942332,-13.953107536111292,59.41731974937813,1553.0,1522.0,1350.0,1528.0,1471.0,998.74,108.0,293.1,1649414935.532109,1649414936.652744,8be83459-08bc-4081-86eb-c5857903c0f7
-0.2952465180358368,-0.2059365164881272,-0.8108272807097763,-0.8073757470498036,-0.8310813398038206,1.3511724852228444,-0.7543763619729631,-0.7843402313532519,-25.859846548995183,13.917008082198128,51.61886661454102,4.9046017634166725,-0.9986150880382294,3.3282910320273422,7411.880154079861,11.600666666666664,7.835555555555555,178.06672451784368,-14.012234112162634,59.59784544369112,1553.0,1613.0,1350.0,1528.0,1471.0,998.74,108.0,293.1,1649414937.567303,1649414938.7048676,6e81efa7-e63d-456d-b292-6203dd81938c
-0.3225462498972727,-0.2031560726702364,-0.8108363840721401,-0.8130453668250444,-0.8277982100937272,1.338041994482755,-0.7512596140072335,-0.7701674474023595,-25.779494028952275,13.337263112847143,49.4172124344639,4.883730908931339,-0.9685546008115504,3.316869728223624,7414.016059027777,11.590444444444444,7.84,178.05532720884864,-14.017032414918305,59.69839872974214,1553.0,1613.0,1350.0,1528.0,1471.0,998.74,108.0,293.1,1649414938.8141873,1649414939.9257696,6e81efa7-e63d-456d-b292-6203dd81938c
-0.322782926461696,-0.2134909489860075,-0.8233408005537075,-0.824603076820048,-0.8436161000652099,1.355819032298542,-0.7637377324699122,-0.783145216619466,-25.88708251387931,13.86440329647512,48.89021766554987,4.952483324817523,-1.0012452162526937,3.3708386170839733,7411.168185763889,11.579777777777776,7.83,178.0886205865029,-14.06091657006311,59.78621674863072,1553.0,1613.0,1350.0,1528.0,1471.0,998.74,108.0,293.1,1649414940.0344973,1649414941.1639316,6e81efa7-e63d-456d-b292-6203dd81938c
-0.2991678644103944,-0.2217483311189763,-0.8473108849416161,-1.0969653341643788,-0.8974205926439521,1.6541235322735788,-0.7143380594364627,-0.7407932472456028,-26.226392930062985,14.005458926930382,54.58745523126371,6.237674787003328,-1.0482918966022927,3.4108145656513416,7416.154676649306,11.555555555555555,7.800000000000001,178.13877087102878,-14.006025185615876,60.00488221926904,1553.0,1710.0,1350.0,1528.0,1471.0,998.74,108.0,293.1,1649414942.890021,1649414944.0268157,2055a550-18de-45b6-ac7d-54d3ed84dc9e
-0.3136167666174405,-0.2248504123365229,-0.8502228171416925,-1.0854455506194602,-0.889947071917783,1.6350452764444736,-0.711251149132383,-0.7374094793482555,-26.133219716094736,12.99924524477419,52.9645014461992,6.161790475422701,-1.0478218434936042,3.398124290043216,7421.14794921875,11.565333333333331,7.800000000000001,178.15562626008054,-14.01236587789537,60.084106342361935,1553.0,1710.0,1350.0,1528.0,1471.0,998.74,108.0,293.1,1649414944.1344388,1649414945.2573748,2055a550-18de-45b6-ac7d-54d3ed84dc9e
-0.3264777106893647,-0.2278098807613317,-0.8538589391988021,-1.1100877422786464,-0.8981174741273996,1.6672327841354115,-0.7113796016707989,-0.728841077547051,-26.347544554654927,13.382085155474956,53.88369379584726,6.292102326293342,-1.0627415263138698,3.4148072685081776,7421.14794921875,11.567,7.809999999999999,178.18038797255156,-14.005859268937288,60.14374527746476,1553.0,1710.0,1350.0,1528.0,1471.0,998.74,108.0,293.1,1649414945.3645828,1649414946.6896677,2055a550-18de-45b6-ac7d-54d3ed84dc9e
-0.2836261032421292,-0.2137802203370259,-0.8783286758235603,-1.3437008285903322,-0.9488583216729292,1.8435042458536968,-0.6814531574116649,-0.7062384593044057,-26.006951896404388,12.665934061016062,50.34514263040887,7.20882322261714,-0.9539709362705232,3.4698547425641624,7421.14794921875,11.522333333333332,7.779999999999999,178.19685176409095,-13.987357235113109,60.25426077387519,1553.0,1814.0,1350.0,1528.0,1471.0,998.74,108.0,293.1,1649414948.0066974,1649414948.9557333,3c595cf8-3736-404f-b1d7-fc3cb034b8fe
-0.3063217677222389,-0.2144831699420108,-0.8723101101650204,-1.330049432474275,-0.948888665026928,1.841846497181015,-0.6824630791689542,-0.7019079851152183,-25.814160424980585,13.431198009827874,51.8067621147021,7.180006583454856,-0.9722125076435622,3.465046887547401,7421.14794921875,11.526000000000002,7.79,178.2218016862191,-13.937877447490765,60.28846560232871,1553.0,1814.0,1350.0,1528.0,1471.0,998.74,108.0,293.1,1649414949.064746,1649414950.1707351,3c595cf8-3736-404f-b1d7-fc3cb034b8fe
-0.302364515234527,-0.2124729363712874,-0.835531670782516,-1.2723215452906014,-0.9062818077127548,1.8056875731818232,-0.6562288917859544,-0.678392039021153,-25.870211575438507,13.483358850742595,54.74385194111596,6.971149758772581,-0.9950826432695404,3.3243611557560366,7421.14794921875,11.528,7.77,178.24125861843473,-13.902535866859134,60.3252347873606,1553.0,1814.0,1350.0,1528.0,1471.0,998.74,108.0,293.1,1649414950.2799065,1649414951.404348,3c595cf8-3736-404f-b1d7-fc3cb034b8fe
-0.3341171044734169,-0.1806323539139956,-0.7531661759126235,0.1627327072867364,-0.6748393606523154,0.3365321658187629,-0.9734858438414074,-0.9956545594420187,-25.963559301388567,15.29175525659975,37.26723681036857,0.4458870576951619,-0.891539300853417,3.339539939787934,7421.14794921875,11.616111111111111,7.821111111111112,178.24103094546237,-14.273444831140967,60.46445301539316,1553.0,1349.0,1350.0,1528.0,1471.0,998.74,108.0,293.1,1649414952.5185382,1649414953.6522627,04d8673d-995d-4e42-ab9e-5c442a5db846
-0.3429398811129938,-0.1643279691409913,-0.7298798253691071,0.184401758139528,-0.6618221468641012,0.3329425719339461,-0.9642291563592454,-0.9842677816255986,-25.93501153375808,16.363037235824503,41.97397619857826,0.3979665053281104,-0.8734792367699166,3.285270173875048,7414.72802734375,11.608888888888888,7.832222222222223,178.184622689837,-14.31992777840123,60.61378371794687,1553.0,1349.0,1350.0,1528.0,1471.0,998.74,108.0,293.1,1649414953.760543,1649414954.886772,04d8673d-995d-4e42-ab9e-5c442a5db846
-0.3084963600805102,-0.152052143040883,-0.7302535520105358,0.1472071317593726,-0.6668110675600454,0.349785544907357,-0.9587501927183664,-0.9902944400884056,-25.93624457342493,16.103977689873474,41.23251060306931,0.5178621181829426,-0.8163057383740008,3.2849927569321995,7419.007975260417,11.618666666666664,7.846666666666668,178.1658852042139,-14.320312925179426,60.77102757410901,1553.0,1349.0,1350.0,1528.0,1471.0,998.74,108.0,293.1,1649414954.994829,1649414956.3162062,04d8673d-995d-4e42-ab9e-5c442a5db846
-0.3269551095786736,-0.147399527102069,-0.6876467021078676,0.4701593207887892,-0.6011181356017289,0.0491734887961719,-1.010611717381389,-1.0372884163646043,-25.99200307383384,17.735152615382678,41.36712895700408,-0.8732261411272215,-0.8366876901290267,3.2141545946945183,7421.14794921875,11.608222222222222,7.83,178.16317893148278,-14.425395385560073,60.90948841005359,1553.0,1264.0,1350.0,1528.0,1471.0,998.74,108.0,293.1,1649414956.889208,1649414957.9476936,5b45b116-8f7e-4b69-9815-5df6a5af527b
-0.3202416876627729,-0.1479305322326817,-0.7010988350771957,0.4506512085319827,-0.6128508223389247,0.0574167098256061,-1.0180963642151395,-1.044823635331429,-26.03897468313602,17.336453988503372,39.83666286956698,-0.8142774583209427,-0.8232400353907432,3.256865115336802,7421.14794921875,11.606444444444444,7.838888888888889,178.20213833050855,-14.355054113210263,61.01143353687548,1553.0,1264.0,1350.0,1528.0,1471.0,998.74,108.0,293.1,1649414958.0558653,1649414959.1819646,5b45b116-8f7e-4b69-9815-5df6a5af527b
-0.3396360177731236,-0.138233368007989,-0.6861042578516982,0.457895633873624,-0.6074269829722951,0.0569109904948306,-1.0144551844517955,-1.0293486216270291,-26.09690682957065,18.31878164253283,42.122675805366526,-0.824161685202763,-0.8066453271505054,3.2278715451013573,7421.14794921875,11.605,7.83,178.26504133712473,-14.168750173723195,61.10979812675247,1553.0,1264.0,1350.0,1528.0,1471.0,998.74,108.0,293.1,1649414959.2904243,1649414960.4103117,5b45b116-8f7e-4b69-9815-5df6a5af527b
-0.3517227059739616,-0.125198457656314,-0.6451536398427566,0.7742608216688457,-0.5410134036221381,-0.2637275719094043,-1.0660764947608143,-1.0827778797263767,-25.993959632403,19.29572571854992,39.71877339728251,-2.250137728295317,-0.7735181036678134,3.1557230859136665,7421.14794921875,11.595444444444444,7.8066666666666675,178.35207160752904,-14.102678054195865,61.27017020955446,1553.0,1178.0,1350.0,1528.0,1471.0,998.74,108.0,293.1,1649414962.5482657,1649414963.6898034,cfd7698a-034c-4d60-9670-b76e918e9937
-0.3191144396309024,-0.1246714983397667,-0.6521972974540711,0.7554495906235467,-0.5518727124937326,-0.2415897163739439,-1.0712990590584135,-1.1044075004822032,-26.140473545288067,19.571171801009854,40.42657876626093,-2.1564431674189395,-0.774903751283385,3.1882325682935124,7421.14794921875,11.588,7.819999999999999,178.49549191972093,-14.0114859218573,61.29241006440192,1553.0,1178.0,1350.0,1528.0,1471.0,998.74,108.0,293.1,1649414963.7979076,1649414964.9161386,cfd7698a-034c-4d60-9670-b76e918e9937
-0.3581074105585747,-0.1419883325025211,-0.6633216049125534,0.7519586121331917,-0.556526341161037,-0.2497065086847396,-1.0771770363759,-1.0940174940476162,-26.13308792696745,19.145227640347755,36.34575386109006,-2.170832232235466,-0.8040190646907195,3.2104020102855766,7414.72802734375,11.592444444444444,7.825555555555557,178.54236978472446,-13.91244163329416,61.32783066652772,1553.0,1178.0,1350.0,1528.0,1471.0,998.74,108.0,293.1,1649414965.025069,1649414966.1395266,cfd7698a-034c-4d60-9670-b76e918e9937
-0.342821542811614,-0.1210950527177808,-0.5994973052242037,0.99045621889724,-0.4844198826458947,-0.4749659675078148,-1.0912587942976262,-1.1153998183865663,-26.208561285213943,20.91125471271137,38.623328692542046,-3.199802183877373,-0.770596558138491,3.05229427002859,7414.72802734375,11.58788888888889,7.817777777777778,178.62161515729477,-13.813431969995564,61.39670705302802,1553.0,1088.0,1350.0,1528.0,1471.0,998.74,108.0,293.1,1649414967.8804865,1649414969.2185612,4606f35c-392e-4af6-8812-e790de8a7c28
-0.3351558516760458,-0.1299309771925239,-0.6102003479580285,0.977346970075186,-0.4947810582092094,-0.4756365519063966,-1.0972414557204198,-1.1211063568582562,-25.97160614223455,20.735747192989887,35.51965855769017,-3.1738096894084684,-0.7769734704768174,3.084190222242388,7414.72802734375,11.560666666666668,7.809999999999999,178.6961993052115,-13.593071663805688,61.37555623389821,1553.0,1088.0,1350.0,1528.0,1471.0,998.74,108.0,293.1,1649414969.3266146,1649414970.6533172,4606f35c-392e-4af6-8812-e790de8a7c28
-0.341598713862022,-0.1394637826351794,-0.6091221546050173,0.9748092716839212,-0.4924668871054375,-0.458122483902567,-1.0957556517693694,-1.1214219257944016,-26.389892149179367,21.018875250893903,36.35759324267028,-3.12687522021036,-0.8168077568615033,3.077050466377701,7414.72802734375,11.563444444444444,7.811111111111111,178.74534479301946,-13.443610713339051,61.32339028465728,1553.0,1088.0,1350.0,1528.0,1471.0,998.74,108.0,293.1,1649414970.7616863,1649414971.878949,4606f35c-392e-4af6-8812-e790de8a7c28
-0.3094066545692523,-0.169297165303955,-0.7587887640677771,-0.1605229394816429,-0.7174082819902625,0.6616624778764754,-0.8911987275055808,-0.9198350873722868,-25.80483738445802,14.77111204440263,43.04735098365344,1.902953728109316,-0.8619434354332258,3.295039480016935,7409.744249131944,11.611777777777778,7.843333333333334,178.85038854899483,-13.01128241131074,61.23676754887346,1553.0,1435.0,1350.0,1528.0,1471.0,998.74,108.0,293.1,1649414972.9968815,1649414973.9454434,6a737ddf-5821-4e88-8e1a-2e7435e9033f
