raw_voltage_G-,raw_voltage_G0,raw_voltage_G1,raw_voltage_G2,raw_voltage_G3,raw_voltage_G4,raw_voltage_G5,raw_voltage_G6,load_x,load_y,load_z,load_l,load_m,load_n,rpm,voltage,current,roll,pitch,yaw,aileron1_pwm,elevator_pwm,throttle_pwm,rudder_pwm,aileron2_pwm,pbaro,pdiff,Tt,sample_start_time,sample_end_time,uid
0.2698419827946503,0.2907221112056006,0.7737262765834728,-0.1499695917721645,0.4559223184196111,-0.1361766084051456,0.4845996224148329,0.4620496103133015,-0.5099104504200028,25.43311765978306,6.042037744955016,0.2401197071916981,1.1083891831701185,-2.3340339677670965,4201.6796875,11.947,0.16,178.3764417224876,5.5973852748287,75.63181166076424,1553.0,1435.0,1200.0,1528.0,1471.0,999.7000000000002,108.0,293.9,1649422985.3105152,1649422986.4569566,4842b982-54d5-4c32-b0a5-5832346dadcf
0.26247104323045,0.2873165990791346,0.7762015184303186,-0.1476176185981282,0.4582496374360347,-0.1339758452346884,0.4863275800716973,0.4621942459017372,-0.5665457289056626,25.582141771732747,6.20301910021765,0.2408679426064758,1.0944603852964667,-2.343303294691727,4216.838216145833,11.955,0.16,178.45634127539844,5.642441186871121,74.47194308685853,1553.0,1435.0,1200.0,1528.0,1471.0,999.7000000000002,108.0,293.9,1649422986.573127,1649422987.6786034,4842b982-54d5-4c32-b0a5-5832346dadcf
0.2559175142497627,0.2788619879026771,0.7594073477280893,-0.1455253321502412,0.4456663362234127,-0.12728808913023,0.4704121804099573,0.4519514124566396,-0.8667116597671083,25.54478232468926,6.126147654420915,0.2499292904190913,1.0642333636710122,-2.281919606348473,4213.2979736328125,11.9405,0.16,178.5359488377222,5.677333973085022,73.5578674079722,1553.0,1435.0,1200.0,1528.0,1471.0,999.7000000000002,108.0,293.9,1649422987.787239,1649422988.9107037,4842b982-54d5-4c32-b0a5-5832346dadcf
0.4511098960110466,0.6373874583742721,0.8241383733397746,-0.2064432471642695,0.43334600888089,-0.4257635347612344,0.4239578405439605,0.3951096032453813,-0.3934914269075415,25.24569339466237,5.731731191892814,-0.281953186696666,2.420667055005916,-2.244488425362581,4212.0029296875,11.945,0.1633333333333333,178.38283477955076,5.742514984156032,71.91721555738253,1658.0,1435.0,1200.0,1528.0,1551.0,999.7000000000002,108.0,293.9,1649422990.8428624,1649422991.9801333,3c4d2138-c8ed-428a-ab89-c42d65d0d317
0.4572086990906962,0.6455911483074793,0.8332339831523253,-0.2033489203348693,0.4398140711603553,-0.4331498165080121,0.4282404801246695,0.4145165294854784,-0.4547522749254596,25.42356733000874,6.278830701766107,-0.3038427690997345,2.447219192049941,-2.270118473303975,4213.153374565973,11.932333333333332,0.16,178.4347214499456,5.7793537043082335,71.51677143217347,1658.0,1435.0,1200.0,1528.0,1551.0,999.7000000000002,108.0,293.9,1649422992.088938,1649422993.0522022,3c4d2138-c8ed-428a-ab89-c42d65d0d317
0.4515109312068046,0.6301825213957918,0.8163872176054209,-0.1960349574320105,0.4300621222662017,-0.4284518958648153,0.4171873582624652,0.3932868651724298,-0.4493655005747283,25.095674689539948,5.654719218099831,-0.3128936943107844,2.3929467695049724,-2.220676909909987,4221.91552734375,11.93388888888889,0.1577777777777777,178.48114548682432,5.784566514169161,71.13142278394008,1658.0,1435.0,1200.0,1528.0,1551.0,999.7000000000002,108.0,293.9,1649422993.183503,1649422994.1235936,3c4d2138-c8ed-428a-ab89-c42d65d0d317
0.6735726669156034,1.016674717267012,0.9003482102200034,-0.2603134617956102,0.4290200881479994,-0.753994543608685,0.3786342881501738,0.354572175847919,0.020280017129636,24.98800606397261,4.97040124624651,-0.8958406615215974,3.8585034596421184,-2.233204890547776,4203.748372395833,11.916666666666666,0.1466666666666666,178.44325007948925,5.792011942115037,70.48225428446537,1767.0,1435.0,1200.0,1528.0,1630.0,999.7000000000002,108.0,293.9,1649422995.9628563,1649422997.099851,19bb9914-cc4b-410f-9fb5-23fa5630fe61
0.665149832066123,1.0170417850345383,0.8947178293689136,-0.2647232064794318,0.4241452094303491,-0.7519510166038786,0.3760976857069836,0.3468692317656237,0.1427654060789939,24.776757850791217,4.705381396967045,-0.882962614848485,3.861544544913435,-2.2154743990127304,4207.86767578125,11.89,0.13,178.50321003348304,5.820837047959783,70.18306923152159,1767.0,1435.0,1200.0,1528.0,1630.0,999.7000000000002,108.0,293.9,1649422997.2073967,1649422998.329178,19bb9914-cc4b-410f-9fb5-23fa5630fe61
0.6676426054869993,1.0147813051312349,0.8959433973305871,-0.2659542534605791,0.4250623309100948,-0.7471572190853931,0.3766488351730237,0.3585167843455818,0.0042162246415878,24.923123084202427,4.916537044439244,-0.8684181561444216,3.8524072657511215,-2.219322312660566,4208.3851318359375,11.9,0.14625,178.5196964025922,5.836565639597001,70.01514561568224,1767.0,1435.0,1200.0,1528.0,1630.0,999.7000000000002,108.0,293.9,1649422998.4412658,1649422999.553764,19bb9914-cc4b-410f-9fb5-23fa5630fe61
0.8742217529299388,1.361262592498494,0.9869981119122696,-0.2977741026453435,0.4396705312098334,-1.064658962930781,0.3513507454184554,0.3371501545113307,0.67699107240362,25.0084746512812,4.126173532914146,-1.5047967922934753,5.163857524495719,-2.286351727259776,4210.625922309027,11.87822222222222,0.1411111111111111,178.38286361812726,5.9084135437702106,69.61802210077468,1886.0,1435.0,1200.0,1528.0,1710.0,999.7000000000002,108.0,293.9,1649423001.492842,1649423002.6293614,3b62b487-8968-4799-9ef7-3f90ab641dd9
0.8586799953059138,1.3474038662314591,0.982238284147528,-0.2901215602699987,0.4375141452305574,-1.0583081380814447,0.3478137464592499,0.3175585983112549,0.6127111188776706,25.16724381813304,4.066890947456349,-1.507014216130087,5.11161800588846,-2.273694085822498,4200.538194444444,11.853444444444444,0.13,178.40259072227005,5.984286036119126,69.57845785055241,1886.0,1435.0,1200.0,1528.0,1710.0,999.7000000000002,108.0,293.9,1649423002.7382872,1649423003.8582962,3b62b487-8968-4799-9ef7-3f90ab641dd9
0.8577201405565611,1.3441955842712576,0.9745857434852866,-0.2976952104569241,0.4306110802755832,-1.0472763747422378,0.3440269222033738,0.325276882603694,0.6116700905253484,25.07263547511041,4.153883763417784,-1.4661349440952578,5.099267094604923,-2.248762787860945,4176.659939236111,11.851444444444446,0.13,178.42387662736346,6.07005319584567,69.52203138108922,1886.0,1435.0,1200.0,1528.0,1710.0,999.7000000000002,108.0,293.9,1649423003.9666195,1649423005.0869906,3b62b487-8968-4799-9ef7-3f90ab641dd9
0.0079199598434454,-0.1529280485510012,0.683066024680095,-0.023781547500553,0.4615631086249718,0.1900688464862603,0.512527450712361,0.4971303287646813,-1.1971416315490586,26.485560047844345,6.891979563823324,0.6908395371438069,-0.5795035894726923,-2.310189359569226,4180.051378038194,11.873888888888889,0.1366666666666666,179.3783530649179,6.278501367531828,69.31158111020261,1449.0,1435.0,1200.0,1528.0,1386.0,999.7000000000002,108.0,293.9,1649423006.812004,1649423007.955761,403feff9-5fd8-4cea-9269-597762188e4e
-0.0032432834246268,-0.1678255225972065,0.6762155546037615,-0.0154452738636147,0.4585783548301467,0.196774681308941,0.5083987604663972,0.4851255701960834,-1.2283171565777815,26.5209370073024,6.818970267855466,0.6869699318365702,-0.6359704995015223,-2.292776494009416,4178.695909288194,11.941222222222224,0.16,179.3762857943291,6.295795121919084,69.15596511579267,1449.0,1435.0,1200.0,1528.0,1386.0,999.7000000000002,108.0,293.9,1649423008.0645115,1649423009.1841557,403feff9-5fd8-4cea-9269-597762188e4e
0.0061580345168124,-0.1538353086821502,0.6796210665994958,-0.0224009344134615,0.4581707452824154,0.1894114116459504,0.5088984108804372,0.4857041127771104,-1.1627500007973577,26.50698499038496,6.825239677505093,0.686225034169977,-0.5829462797946051,-2.295882547765034,4175.978461371527,11.943222222222222,0.16,179.35160300848852,6.3239295723158815,68.94764965847665,1449.0,1435.0,1200.0,1528.0,1386.0,999.7000000000002,108.0,293.9,1649423009.2940252,1649423010.4132955,403feff9-5fd8-4cea-9269-597762188e4e
-0.2077449682006334,-0.5494139051614834,0.6347577193784331,0.080987265068095,0.4928570029029786,0.4924493933508937,0.5736688825142696,0.5529465391730655,-1.3782667919909193,27.69704165198702,8.400891813708453,1.1397712101905473,-2.094599331305345,-2.419567507280578,4177.6182861328125,11.931625,0.15,179.6279680199603,6.41543671155601,68.57970964461776,1342.0,1435.0,1200.0,1528.0,1293.0,999.7000000000002,108.0,293.9,1649423012.5521157,1649423013.6868515,9914f477-ca02-4684-abb7-76c214d12eee
-0.2110052972961963,-0.5528988585593851,0.6308399561413583,0.086744202560475,0.4900256505741871,0.4891627674595143,0.5678357927014542,0.5463732873942143,-1.470465179373904,27.79108656968175,8.163825154557907,1.1197436390023787,-2.105871924626374,-2.402874321789884,4162.9072265625,11.914,0.15,179.6095230941067,6.408566288302918,68.46271533432463,1342.0,1435.0,1200.0,1528.0,1293.0,999.7000000000002,108.0,293.9,1649423013.8107626,1649423014.9172146,9914f477-ca02-4684-abb7-76c214d12eee
-0.2095534619714034,-0.5510224294746519,0.6294703004141265,0.0868948646993751,0.4890805881098843,0.4859166833699501,0.5668770336893686,0.5380868702077902,-1.4116585572630775,27.672823195173816,7.975716863855328,1.1112568320532568,-2.09769057875268,-2.3983023311353384,4161.560709635417,11.908666666666669,0.1466666666666666,179.58854075297643,6.412868311410772,68.37487454813882,1342.0,1435.0,1200.0,1528.0,1293.0,999.7000000000002,108.0,293.9,1649423015.0258894,1649423016.146808,9914f477-ca02-4684-abb7-76c214d12eee
-0.4313517317796776,-0.9484901570647524,0.6024119297411336,0.1923567194935312,0.5343279870458794,0.7954610694773825,0.6486164438703669,0.6358227636622984,-1.1688439091364151,29.4325524509466,10.60856242347021,1.579808341712878,-3.628159765914449,-2.583434849690687,4162.685167100694,11.887666666666668,0.1355555555555555,179.73050547596526,6.445179944235594,68.23836942302657,1227.0,1435.0,1200.0,1528.0,1189.0,999.7000000000002,108.0,293.9,1649423017.809705,1649423019.014262,c01df13d-de9f-40c9-9786-20283fd58b18
-0.4172037315779434,-0.9513434258095568,0.610695607581499,0.1910287012434445,0.5430455718516304,0.7993136371028803,0.6580835042491077,0.6314442482366831,-1.2338830743840492,29.44064014345693,10.65352500832874,1.591901773756515,-3.638110643875491,-2.620421433917562,4171.012369791667,11.808333333333334,0.12,179.72356448594869,6.452437731706771,68.20731407069034,1227.0,1435.0,1200.0,1528.0,1189.0,999.7000000000002,108.0,293.9,1649423019.1229432,1649423020.2394524,c01df13d-de9f-40c9-9786-20283fd58b18
-0.4364506877233083,-0.9687128639211134,0.6070627327314847,0.2022335814574449,0.5444283762791957,0.804525998957665,0.6574660634479687,0.6318671978726983,-1.2860605985353624,29.43978638039697,10.425949524106477,1.578090087961522,-3.702480181815757,-2.618834323200653,4181.18359375,11.812,0.12,179.69815618223623,6.431797611513032,68.16979128812002,1227.0,1435.0,1200.0,1528.0,1189.0,999.7000000000002,108.0,293.9,1649423020.3474944,1649423021.4745743,c01df13d-de9f-40c9-9786-20283fd58b18
0.2662407573961806,0.2810962546910527,0.7650440921335492,-0.1018342344486827,0.4550509644990871,-0.1739371383104025,0.4650262726052513,0.4449871555544787,-0.6754708648481571,25.537007208448323,5.525601010324845,0.0467759013848552,1.0715601953593203,-2.2947735809171017,4216.146484375,11.852666666666668,0.1333333333333333,178.89655152086522,6.348227401105771,68.15181423022455,1553.0,1435.0,1200.0,1528.0,1471.0,999.7000000000002,108.0,293.9,1649423022.380287,1649423023.516362,c502a432-f81d-4ab4-a1be-fedf6ff9a242
0.2589548629096401,0.2932992555054661,0.7737394252869588,-0.1097740246045787,0.4598800756393523,-0.1759382689339232,0.4729630272483374,0.4453639162299225,-0.5449461219330629,25.504868937047817,5.964983629172938,0.0605449790267884,1.1140390594893637,-2.322372821400357,4220.992784288194,11.945444444444444,0.1522222222222222,178.87476321741286,6.3554219144633874,68.21804733351607,1553.0,1435.0,1200.0,1528.0,1471.0,999.7000000000002,108.0,293.9,1649423023.6338072,1649423024.751994,c502a432-f81d-4ab4-a1be-fedf6ff9a242
0.2620185089729002,0.2910771259736576,0.7703733593563915,-0.1047775196980042,0.4569873627260158,-0.1797645398777325,0.4660862597310904,0.4505313534286149,-0.7320004858646888,25.6845546926779,5.725139899262383,0.0415671064983605,1.1083288564558385,-2.30482137625481,4228.395236545139,11.944333333333333,0.16,178.8606414218489,6.346008965149726,68.25087094593742,1553.0,1435.0,1200.0,1528.0,1471.0,999.7000000000002,108.0,293.9,1649423024.8612642,1649423025.9779413,c502a432-f81d-4ab4-a1be-fedf6ff9a242
0.2755748140305842,0.289157416446649,0.7660737360916059,-0.4118785085866712,0.4203025032961678,0.1178299114194485,0.548107819443008,0.525465766607171,-0.3868544791543442,24.996514624100456,7.8665469371326,1.3987860618854853,1.1172331464298038,-2.365156592243586,4220.298828125,11.948,0.16,178.8561517108345,6.434836998261819,68.4491612033717,1553.0,1522.0,1200.0,1528.0,1471.0,999.7000000000002,108.0,293.9,1649423027.9124095,1649423029.0502746,296a2a8f-a2da-4d95-a026-694e39439aa1
0.2692634401974036,0.2830038269771958,0.7621028302058112,-0.3979408876223846,0.4180803737988875,0.1126493252406769,0.5414677284550036,0.517050601787449,-0.4262594847443515,25.159078985806467,8.054740395072459,1.356594832701297,1.0907993929065665,-2.347714339583326,4224.458984375,11.943333333333335,0.1533333333333333,178.83849035946065,6.416269461026223,68.50909687224846,1553.0,1522.0,1200.0,1528.0,1471.0,999.7000000000002,108.0,293.9,1649423029.1590462,1649423030.2746618,296a2a8f-a2da-4d95-a026-694e39439aa1
0.2781782557378851,0.2865276773608649,0.7583686008229109,-0.3999657873508275,0.4131233157271816,0.1111503738534882,0.5364054808792118,0.5106077412222896,-0.4246035188763352,25.20338606721972,8.033024084391872,1.357899315643995,1.1042100546086326,-2.328303943249285,4231.412543402777,11.937666666666663,0.1544444444444444,178.81943716731595,6.380693424664958,68.51758755629669,1553.0,1522.0,1200.0,1528.0,1471.0,999.7000000000002,108.0,293.9,1649423030.383041,1649423031.503506,296a2a8f-a2da-4d95-a026-694e39439aa1
0.2918912493515311,0.2894121724187168,0.7604367809842025,-0.7228458171495777,0.3780836865545955,0.4193925039700868,0.624772381274533,0.6012827855402478,-0.134004663164705,24.7419249216357,10.338121203131676,2.7764564060981627,1.1324185880582631,-2.408051763210989,4232.338541666667,11.941222222222224,0.15,178.82145434985082,6.51459601054408,68.54757056893324,1553.0,1613.0,1200.0,1528.0,1471.0,999.7000000000002,108.0,293.9,1649423032.4165497,1649423033.3629334,1d4605b6-ee6a-4fd0-946c-2d46ded9e5fb
0.2925897738014835,0.2921514839684925,0.7679835840499932,-0.7186683651517053,0.3841786546658672,0.4142289017899316,0.6287443828810214,0.6111990930138095,-0.1987700691714821,24.9218938831204,10.574867090793058,2.757003748123736,1.1410199381235069,-2.431712897522554,4226.54150390625,11.942555555555554,0.1555555555555555,178.80542010131924,6.479007404737467,68.53114472288925,1553.0,1613.0,1200.0,1528.0,1471.0,999.7000000000002,108.0,293.9,1649423033.4722416,1649423034.5854948,1d4605b6-ee6a-4fd0-946c-2d46ded9e5fb
0.294685347137784,0.2916447113329939,0.764285513576105,-0.7170110807579552,0.3802751357764094,0.4165299234825348,0.6246628088161955,0.6007212266273936,-0.2017091549824356,24.9965303827996,11.01723164348556,2.7588156947095315,1.134782149538527,-2.414999554452182,4228.626953125,11.94,0.15,178.77557065682652,6.46645128774513,68.54194552869677,1553.0,1613.0,1200.0,1528.0,1471.0,999.7000000000002,108.0,293.9,1649423034.704667,1649423035.813531,1d4605b6-ee6a-4fd0-946c-2d46ded9e5fb
0.3128250681756321,0.294351151135818,0.7682695681632647,-1.0073306090062506,0.34707741952994,0.6911656207840448,0.7017503202311395,0.6862217114739083,0.0520359406250972,25.00037314333252,12.741329046623932,4.031474916902758,1.1638535480078165,-2.484580469702524,4226.54150390625,11.933666666666666,0.1477777777777777,178.75673603073517,6.571524783502491,68.52371727162183,1553.0,1710.0,1200.0,1528.0,1471.0,999.7000000000002,108.0,293.9,1649423036.9239223,1649423038.0607386,4dbe6457-ed67-44b3-a224-a28556035488
0.3068555604795978,0.2862252573633728,0.7612744624432137,-0.997153511688512,0.3431591082650996,0.6914811894618974,0.6944922406159408,0.6788978884165273,-0.0401383616380266,25.044932546253364,12.931529647699904,4.009158004692825,1.1306474345687685,-2.460083016920725,4216.607855902777,11.917666666666666,0.14,178.7433185035657,6.567042234700324,68.49992316928324,1553.0,1710.0,1200.0,1528.0,1471.0,999.7000000000002,108.0,293.9,1649423038.1682432,1649423039.2852943,4dbe6457-ed67-44b3-a224-a28556035488
0.3100112473667977,0.2956002772075585,0.7637727144852943,-1.0103679598788342,0.3427646474133745,0.6926251259228607,0.6980949830334366,0.6796473639956746,0.0530947036480725,24.92396305976128,12.694751409627049,4.04086880248217,1.1690314434906892,-2.467281270798539,4218.9140625,11.917333333333334,0.14,178.72298730713626,6.572924545395519,68.47072486949133,1553.0,1710.0,1200.0,1528.0,1471.0,999.7000000000002,108.0,293.9,1649423039.3947022,1649423040.5186975,4dbe6457-ed67-44b3-a224-a28556035488
0.3358221363667285,0.2890785242770959,0.7745283470093566,-1.2532903060686722,0.3197807279369675,0.9357050515750543,0.7684799473009738,0.752070375926362,0.1266862808952447,25.476606755273487,14.846434082071074,5.139654283983561,1.1555798950164191,-2.550910335409565,4207.86767578125,11.915,0.15,178.71075216160307,6.6847441336187385,68.42344857678623,1553.0,1814.0,1200.0,1528.0,1471.0,999.7000000000002,108.0,293.9,1649423042.3515384,1649423043.3828545,3a52ac4b-0014-4b25-a669-60ec1807b9a6
0.3190706984825501,0.2828197452350727,0.7733975592345543,-1.241929823233619,0.3211744896437847,0.9307742909663396,0.7668100630267567,0.7529118924071899,0.1390076417027981,25.47688362236521,14.750049967374585,5.102884108365604,1.1314023109010358,-2.549674883068791,4212.0029296875,11.886666666666663,0.13,178.6932031288956,6.657954471578524,68.39447415541713,1553.0,1814.0,1200.0,1528.0,1471.0,999.7000000000002,108.0,293.9,1649423043.491145,1649423044.8186257,3a52ac4b-0014-4b25-a669-60ec1807b9a6
0.3205827984603783,0.2945220841850416,0.7824044153172264,-1.2503318466120474,0.3262367373834827,0.9280656596474216,0.7773027216506208,0.7503741942684888,0.4831955883675636,25.328336836326955,14.970042392936485,5.115422428583667,1.1725102682397877,-2.581832234282798,4203.286241319444,11.874555555555554,0.13,178.66604022547634,6.643983035040048,68.32688184448077,1553.0,1814.0,1200.0,1528.0,1471.0,999.7000000000002,108.0,293.9,1649423044.926911,1649423046.0479572,3a52ac4b-0014-4b25-a669-60ec1807b9a6
0.2502635751442357,0.2935622294173777,0.7795511484850257,0.1678869967544648,0.4899774386798091,-0.4400167244935875,0.3939525181084627,0.3643022101482465,-1.0815913409167428,26.850224400970287,4.513651526569365,-1.150503383132196,1.0978919681254515,-2.259302452433447,4198.707465277777,11.899888888888889,0.1422222222222222,178.68619687262697,6.196171595368833,68.28759383746495,1553.0,1349.0,1200.0,1528.0,1471.0,999.7000000000002,108.0,293.9,1649423047.811369,1649423048.915223,c3f1b5dc-cf37-481c-9274-30fa54a53957
0.2424006552063194,0.2867512051747962,0.7776971824856738,0.172922947238741,0.4882155135432919,-0.4384783267104182,0.3927559868505315,0.3682205214475903,-0.9458485518203608,26.977925301868563,4.428914231607638,-1.1575972169613558,1.071401357434819,-2.253528857462155,4203.740234375,11.948333333333332,0.1555555555555555,178.69122996313536,6.167261396750676,68.43112343268359,1553.0,1349.0,1200.0,1528.0,1471.0,999.7000000000002,108.0,293.9,1649423049.0233366,1649423050.1438434,c3f1b5dc-cf37-481c-9274-30fa54a53957
0.2428871569384615,0.2954424928599627,0.7734370052965392,0.1550407209153789,0.4830612250842883,-0.4314043265687493,0.3916777938558601,0.3758993594722188,-1.005443899973925,26.69532117908509,4.287530952642258,-1.1035011540405075,1.10760066768414,-2.2383965681590365,4195.058213975694,11.948555555555556,0.1588888888888889,178.7058769243555,6.172144887143497,68.58624993020301,1553.0,1349.0,1200.0,1528.0,1471.0,999.7000000000002,108.0,293.9,1649423050.2515924,1649423051.3729374,c3f1b5dc-cf37-481c-9274-30fa54a53957
0.2231208324021742,0.2863578400364173,0.7892269444406361,0.4544967807154672,0.5272665899589457,-0.711600937870731,0.322311303982749,0.2965480787817469,-1.3425725502964865,27.91881458302923,2.172269265455878,-2.400249823630192,1.0588136179349652,-2.2235610787929807,4199.62109375,11.942333333333334,0.1488888888888889,178.7424594175501,6.07883226565886,68.89521960858781,1553.0,1264.0,1200.0,1528.0,1471.0,999.7000000000002,108.0,293.9,1649423053.5127344,1649423054.649273,18570fae-ba55-43fa-9058-5dc28123a6a7
0.2304074012494838,0.2936581053246521,0.7911444624472623,0.4445530800302282,0.5283349214484931,-0.7107380542184408,0.3254341191569028,0.3071903041775444,-1.367373016778045,27.730189068753315,2.0320037940263656,-2.377070041103274,1.0889553960699054,-2.231417811115556,4190.041449652777,11.93811111111111,0.1588888888888889,178.74828481000222,6.063308241744674,69.06374162488945,1553.0,1264.0,1200.0,1528.0,1471.0,999.7000000000002,108.0,293.9,1649423054.7577677,1649423055.8785932,18570fae-ba55-43fa-9058-5dc28123a6a7
0.2228332047064086,0.2826871625575736,0.7830634936398474,0.4420603065819806,0.5224317052357508,-0.6950691850706406,0.3232700630218617,0.2933156912108248,-1.2934867373748171,27.67015049437734,2.365681579241232,-2.3369469124400326,1.0441209689220623,-2.210083419965234,4192.092068142361,11.921333333333331,0.14,178.75657969529422,6.062385502160554,69.21025297713575,1553.0,1264.0,1200.0,1528.0,1471.0,999.7000000000002,108.0,293.9,1649423055.9883392,1649423057.1123364,18570fae-ba55-43fa-9058-5dc28123a6a7
0.1864792526041736,0.2721430045165965,0.7787096319996373,0.6639872682869065,0.5376940529873532,-0.8997873587888066,0.2509473072672707,0.2298830969764848,-1.802356822008165,29.01670850078981,0.5383775594036598,-3.2894265689890294,0.9967938382922498,-2.1247800390742406,4197.793836805556,11.91177777777778,0.14,178.75222203460373,5.990412383781544,69.40066574972727,1553.0,1178.0,1200.0,1528.0,1471.0,999.7000000000002,108.0,293.9,1649423058.0186455,1649423059.1631377,088517ef-898c-451d-8ecc-b73541971fe1
0.2015082117960964,0.2748384870848274,0.7854943586398272,0.6716792548469221,0.5443472926563235,-0.9077160274980394,0.2557597297582659,0.237838057719016,-1.7342999415239269,29.022509207285616,0.8376625751092831,-3.3241363298271067,1.0032524570319616,-2.1490812595588857,4193.45703125,11.893999999999998,0.1222222222222222,178.7379165828421,5.979925956403329,69.5324861239788,1553.0,1178.0,1200.0,1528.0,1471.0,999.7000000000002,108.0,293.9,1649423059.2755802,1649423060.384053,088517ef-898c-451d-8ecc-b73541971fe1
0.2030729065721999,0.2769948731428281,0.7894915619179186,0.6730598678127012,0.5486206185398061,-0.9134225643721292,0.2589417141179082,0.2427688186251037,-1.7376727158748897,28.95093300526591,0.5362269758071033,-3.3403992063315844,1.014117908081552,-2.1650058822150577,4194.826171875,11.905333333333331,0.14,178.7134478095955,5.981822329967261,69.66146362171578,1553.0,1178.0,1200.0,1528.0,1471.0,999.7000000000002,108.0,293.9,1649423060.492067,1649423061.6143951,088517ef-898c-451d-8ecc-b73541971fe1
0.1853090186537479,0.2693554810708555,0.7532011636876617,0.7816680883801232,0.5194831103858665,-1.0040302841267494,0.1846910299377163,0.1589590321647105,-2.150180211397587,30.1438791860844,0.3712161335153734,-3.783133171829056,0.9741952739327888,-1.971117478890308,4190.040690104167,11.881666666666668,0.1333333333333333,178.73463960986032,5.9181589904872185,69.8146488276911,1553.0,1088.0,1200.0,1528.0,1471.0,999.7000000000002,108.0,293.9,1649423062.5218897,1649423063.660839,5290bf29-0cf3-4bca-8654-999946934aeb
0.1759077011983184,0.2715776106116689,0.7619450458603584,0.7698211141829014,0.5271750969755624,-0.9984026386376188,0.1975373056650673,0.1812855176579662,-2.038121433001947,29.95624533439544,0.01492465817472,-3.744572077639099,0.9869040380778016,-2.011985617412343,4189.35791015625,11.887777777777778,0.13,178.72379630509798,5.915792567099156,69.89786178125928,1553.0,1088.0,1200.0,1528.0,1471.0,999.7000000000002,108.0,293.9,1649423063.7693918,1649423064.8894453,5290bf29-0cf3-4bca-8654-999946934aeb
0.1958148265432935,0.2748647844718045,0.7602488642219535,0.7884659637390016,0.5258602274548148,-1.0142994228040296,0.1886356385474444,0.1575126755818884,-2.114469143011378,30.15557485736748,0.6104876668280468,-3.821059061154745,0.9920951206144664,-1.9939425410893288,4198.025173611111,11.88422222222222,0.13,178.7189225856702,5.912167396765302,70.02017377327623,1553.0,1088.0,1200.0,1528.0,1471.0,999.7000000000002,108.0,293.9,1649423064.9981558,1649423066.120313,5290bf29-0cf3-4bca-8654-999946934aeb
0.2541424403187687,0.286830097336593,0.7639962422986741,-0.1511661233353355,0.4447327788432567,-0.1269067771439973,0.4722135516236839,0.4507417324739154,-0.730590408414701,25.828547462972505,6.572017493530661,0.2657595961785128,1.0901936787761264,-2.287945731102028,4201.6796875,11.893444444444444,0.1366666666666666,178.70205657187975,6.197175728040563,70.14086549264009,1553.0,1435.0,1200.0,1528.0,1471.0,999.7000000000002,108.0,293.9,1649423066.8071356,1649423067.9609585,1dcc03d0-9916-4877-b2a6-c81f0cd62479
0.2608482750564962,0.2819256339500541,0.7649692457115461,-0.145985536519021,0.4456400388377903,-0.1279586726635531,0.4720294699050019,0.4543707723077564,-0.715539330408578,25.99719151454948,6.418523299843755,0.2528592312226492,1.0724795487222198,-2.2910688654261304,4209.24560546875,11.948666666666668,0.1566666666666666,178.68030773174257,6.188118517746172,70.06780068235874,1553.0,1435.0,1200.0,1528.0,1471.0,999.7000000000002,108.0,293.9,1649423068.0687065,1649423069.191424,1dcc03d0-9916-4877-b2a6-c81f0cd62479
0.2575742498731676,0.281675808734338,0.769755370702876,-0.1396478646029711,0.4514649107565108,-0.133586315266131,0.4766578105717711,0.4554095192783342,-0.6449278422741079,25.91719200127204,6.45015620650741,0.2256655089003775,1.070284174862209,-2.3119641682499164,4220.298828125,11.948,0.15,178.6490072515061,6.205821941188022,69.96636781972458,1553.0,1435.0,1200.0,1528.0,1471.0,999.7000000000002,108.0,293.9,1649423069.299608,1649423070.4154856,1dcc03d0-9916-4877-b2a6-c81f0cd62479
0.3195440515129558,0.3171641376562434,0.9597934612575416,-0.1157961278988458,0.6243833990508848,-0.2017886083033665,0.6568606756158271,0.6339950950690594,0.6317767563296153,26.08416659233357,6.236906744005928,0.0297803659158668,1.2053543824124413,-3.058071963259149,4214.07373046875,11.94811111111111,0.15,178.6129848338235,6.154416751697775,69.77895653581834,1553.0,1435.0,1200.0,1435.5555555555557,1471.0,999.7000000000002,108.0,293.9,1649423072.3540933,1649423073.4916031,10104198-2c9b-4077-a60b-abeda8f0c5ec
0.3091352155252393,0.3094502363686635,0.9556812068110352,-0.1084865480579721,0.6221563388396817,-0.199239952366155,0.6536858136447924,0.6367568688780513,0.6573935318914635,26.13660381958784,6.452653992519172,0.0192090509343408,1.173169319475691,-3.0454814503824488,4203.740234375,11.930555555555555,0.1455555555555555,178.6052105607282,6.156759079696267,69.74402467167316,1553.0,1435.0,1200.0,1424.0,1471.0,999.7000000000002,108.0,293.9,1649423073.599706,1649423074.704608,10104198-2c9b-4077-a60b-abeda8f0c5ec
0.3106292360380768,0.3137191794677946,0.9507077128333644,-0.1150598009239896,0.6178090515652152,-0.1994481401753682,0.6486295925679945,0.633929351589593,0.4941221787090842,25.99294336434468,6.121394291871947,0.0322338924758549,1.1937635711996502,-3.025645410334966,4200.536458333333,11.930333333333332,0.14,178.60721104724513,6.15595340196542,69.68951444972711,1553.0,1435.0,1200.0,1424.0,1471.0,999.7000000000002,108.0,293.9,1649423074.8184764,1649423075.9502947,10104198-2c9b-4077-a60b-abeda8f0c5ec
0.3737824196598083,0.3391487562787142,1.1304766774027553,-0.0668435291809544,0.7813262223072894,-0.2764600629524598,0.810805596566308,0.7851130464959014,1.646046815503465,26.71842381488916,6.328885070029897,-0.2352127602390288,1.28462016272489,-3.7200104580751474,4202.137803819444,11.927,0.14,178.59859741979184,6.136618749108668,69.59204916809085,1553.0,1435.0,1200.0,1304.0,1471.0,999.7000000000002,108.0,293.9,1649423076.8603773,1649423077.99735,4517a688-4623-474b-a291-ab549e9ea039
0.3565050340746942,0.3253294774678413,1.1336060670221182,-0.0699597704506528,0.7868355255281113,-0.2641660306184935,0.820193764830461,0.8004312761862221,1.72030463520304,26.643353235841147,5.792785840952938,-0.2009468582878335,1.2375961099486994,-3.747519619710759,4203.740234375,11.916666666666666,0.1322222222222222,178.61270707279726,6.140959808644904,69.56713112017883,1553.0,1435.0,1200.0,1304.0,1471.0,999.7000000000002,108.0,293.9,1649423078.106271,1649423079.226691,4517a688-4623-474b-a291-ab549e9ea039
0.3587797583561483,0.3338498320653315,1.131791546938502,-0.0586913371820952,0.783324823943633,-0.280654497548734,0.810253351368545,0.7922264905098265,1.6303396192935264,26.867787406335392,6.063069776441614,-0.262022220757202,1.2662952406215195,-3.7247555444161,4207.408799913194,11.918333333333337,0.14,178.59904669445723,6.130174181035546,69.53539350783551,1553.0,1435.0,1200.0,1304.0,1471.0,999.7000000000002,108.0,293.9,1649423079.334912,1649423080.450528,4517a688-4623-474b-a291-ab549e9ea039
0.3853532714575122,0.3480241256216351,1.2285659488751557,0.0109310112988912,0.875562919850227,-0.3658054680348184,0.8844908838537602,0.8593900248623791,2.1938074196196187,27.399720348675395,5.695646962975068,-0.6018487486971239,1.3162978328982375,-4.086016696061946,4194.827473958333,11.892333333333331,0.1244444444444444,178.58994736466295,6.121448140052162,69.48400620015997,1553.0,1435.0,1200.0,1166.0,1471.0,999.7000000000002,108.0,293.9,1649423082.3895054,1649423083.7322032,dc6f9e85-b019-4f65-a2b7-838cc8dbb54a
0.3882065383260164,0.3435009744318165,1.2229383068819135,0.0090638963622258,0.8697380478894929,-0.3594414979274811,0.8797179075115118,0.8520267556821589,2.185118318522165,27.51422408897573,5.684523315508531,-0.5828636112002374,1.299368415038889,-4.064248645727536,4200.994140625,11.871222222222222,0.12,178.59567106318744,6.122884471916373,69.51207296527936,1553.0,1435.0,1200.0,1166.0,1471.0,999.7000000000002,108.0,293.9,1649423083.8404589,1649423084.9619458,dc6f9e85-b019-4f65-a2b7-838cc8dbb54a
0.3728751596794039,0.3395037710568293,1.2165217432771358,0.0131268434665167,0.8659643724140232,-0.3587972117650382,0.8737746973366192,0.8483451209761483,2.075878463094105,27.44240149010471,5.7050513785383385,-0.5914281663897573,1.2840594755079084,-4.042366417276113,4198.25,11.874666666666664,0.12,178.58405215249934,6.115390236577053,69.5603677150807,1553.0,1435.0,1200.0,1166.0,1471.0,999.7000000000002,108.0,293.9,1649423085.070029,1649423086.1894343,dc6f9e85-b019-4f65-a2b7-838cc8dbb54a
0.1662801165462836,0.238639032563027,0.4947235697477352,-0.114882841364673,0.2039730443603325,-0.1004740608976038,0.1915913559218896,0.1659924886734115,-2.7801509495691543,26.16148649897059,6.256729864725917,0.231028400755965,0.9052165041489548,-1.2009553873172658,4199.395182291667,11.896222222222224,0.1266666666666666,178.69366454611952,6.211958296974847,69.65000635883804,1553.0,1435.0,1200.0,1623.0,1471.0,999.7000000000002,108.0,293.9,1649423087.808675,1649423089.0607705,27409c68-d3df-4c8a-b2d1-f7a70b809762
0.1660987741259997,0.2416248821907458,0.4929753411525557,-0.1154542618819407,0.1992860821646997,-0.1009643977309568,0.1896217908344821,0.1588538424943451,-2.5128230188878304,26.27021216939093,6.510918451356473,0.2320243238039432,0.9122316768695996,-1.1885271920795808,4212.463107638889,11.945333333333332,0.1477777777777777,178.67672567697784,6.186972184330472,69.56219972359807,1553.0,1435.0,1200.0,1623.0,1471.0,999.7000000000002,108.0,293.9,1649423089.169082,1649423090.2889242,27409c68-d3df-4c8a-b2d1-f7a70b809762
0.1769332994311568,0.2497639247290095,0.5055454936024553,-0.1203324284097773,0.2100285664945055,-0.1067498243919546,0.2007455873640844,0.1784059533351128,-2.5373415645000104,26.209370676509508,6.27581532065087,0.2302004113965102,0.9464117397554288,-1.235512977038215,4223.074869791667,11.943,0.1366666666666666,178.66062312655464,6.181673238195011,69.47649982226211,1553.0,1435.0,1200.0,1623.0,1471.0,999.7000000000002,108.0,293.9,1649423090.396905,1649423091.5161798,27409c68-d3df-4c8a-b2d1-f7a70b809762
0.1177669072864249,0.2153000978372075,0.3450065000226935,-0.0759435230644066,0.0679525243122066,-0.1035146969669988,0.0284790423867942,0.0046744228390827,-3.715824988594981,26.6554761019856,6.465438979256064,0.1317402048163082,0.8081768465146012,-0.5824178016473976,4218.686903211806,11.949666666666666,0.14,178.68052326215644,6.186868782855536,69.35519566260268,1553.0,1435.0,1200.0,1712.0,1471.0,999.7000000000002,108.0,293.9,1649423093.4488287,1649423094.5863264,510ba9ac-0286-4d99-bb30-4148fb18abfb
0.1161731757769549,0.2243869422594524,0.3493126977479289,-0.0771652561749674,0.070810174297627,-0.1132584292773421,0.031061665504743,0.0020293435906536,-3.624984685171384,26.53842051870293,6.213664180731607,0.1120447045112435,0.8442679924872982,-0.5950116914993313,4216.839735243056,11.951666666666666,0.1477777777777777,178.6717259785054,6.170995897543119,69.28391049605507,1553.0,1435.0,1200.0,1712.0,1471.0,999.7000000000002,108.0,293.9,1649423094.6949272,1649423095.8225155,510ba9ac-0286-4d99-bb30-4148fb18abfb
0.1209719019568027,0.2172313125056789,0.3509508060046051,-0.0710675481587563,0.0729106784595444,-0.1103766734321052,0.0311498712951508,0.0152481664356107,-3.74703462677904,26.791631220093848,6.428961231794154,0.1064984732861447,0.8157430807200061,-0.6009291462123318,4215.466796875,11.952,0.1466666666666666,178.6806674550389,6.178250032760364,69.25802256128092,1553.0,1435.0,1200.0,1712.0,1471.0,999.7000000000002,108.0,293.9,1649423095.9411876,1649423097.0436077,510ba9ac-0286-4d99-bb30-4148fb18abfb
0.0578061137723925,0.1997199891937553,0.1967089378252406,-0.025793298102885,-0.0655155107982022,-0.1294576241765247,-0.1408443958984433,-0.1701922883191006,-4.879003808837225,27.131532632319768,5.9501132557858645,-0.0445796899791897,0.7469742119388735,0.0394157707035218,4195.509765625,11.954,0.15,178.72195367184187,6.1591273529272295,69.25479871199266,1553.0,1435.0,1200.0,1801.0,1471.0,999.7000000000002,108.0,293.9,1649423098.809024,1649423099.9119346,6b90264d-cc13-4ff9-b06d-35b0bf3c8d93
0.067023349797232,0.1878598656523691,0.195394068161796,-0.0194950725654309,-0.0636352473115493,-0.1253289334139024,-0.1398713923652585,-0.1569778474526209,-4.912301644577266,27.13228974107991,5.70850925247504,-0.0496249514254304,0.7040097525895684,0.0355175356430398,4204.427734375,11.955,0.1433333333333333,178.71131679057444,6.151278042614807,69.23823322652567,1553.0,1435.0,1200.0,1801.0,1471.0,999.7000000000002,108.0,293.9,1649423100.0194552,1649423101.140538,6b90264d-cc13-4ff9-b06d-35b0bf3c8d93
0.0590026450828313,0.1924750578500325,0.1959463134781112,-0.0212044029169559,-0.0640428567328648,-0.1266306542151553,-0.1402001097029632,-0.1627632744067522,-4.917749454614487,27.12283404927884,5.943411537418845,-0.0486947436894882,0.7195214587781177,0.0366627978354283,4205.802734375,11.952000000000002,0.14,178.7290570685787,6.159937157230699,69.2277784836361,1553.0,1435.0,1200.0,1801.0,1471.0,999.7000000000002,108.0,293.9,1649423101.2483704,1649423102.58122,6b90264d-cc13-4ff9-b06d-35b0bf3c8d93
0.2586524429083872,0.2879477364631889,0.7148990152104059,-0.2345420142935812,0.4166340173100808,-0.0547598768752198,0.4790903191517173,0.4483355211797886,-0.1619833470640762,22.1188470838364,5.949076432881596,0.5891090528499214,1.1029720951922588,-2.1920945749437024,7395.5361328125,11.635888888888887,7.727777777777779,177.9346529444127,5.940094143006714,60.63385081372837,1553.0,1435.0,1350.0,1528.0,1471.0,999.7000000000002,108.0,293.9,1649423106.508992,1649423107.4854352,61674451-2760-4569-b430-1d870bcce10e
0.2525251508003082,0.2810709687352586,0.7198692219174723,-0.2239573126352707,0.4226166735802312,-0.0488955581478237,0.4821671137897235,0.4599195217000326,-0.3553587926551634,22.411144672559725,7.2381779510055075,0.5807037754772943,1.066140263257234,-2.2105751222644145,7400.503580729167,11.633888888888889,7.79,177.75103317440573,5.850382881057573,57.08263852711767,1553.0,1435.0,1350.0,1528.0,1471.0,999.7000000000002,108.0,293.9,1649423107.5936985,1649423108.726363,61674451-2760-4569-b430-1d870bcce10e
0.2608482750501331,0.2836349643491305,0.7166083455657976,-0.2206043948561315,0.4178173998459839,-0.0505654427121836,0.4765657696827043,0.4606821459786169,-0.3152747628756978,22.56727728629743,7.7603137209442,0.5703640216835828,1.0702285344310178,-2.190578263111228,7408.3203125,11.633666666666668,7.75,177.63514307802836,5.778580659703422,53.86638934214311,1553.0,1435.0,1350.0,1528.0,1471.0,999.7000000000002,108.0,293.9,1649423108.8589163,1649423109.9467018,61674451-2760-4569-b430-1d870bcce10e
0.4579072235202421,0.6443721547122959,0.7699011020817522,-0.2742286195887289,0.3994229231503859,-0.3775143842971726,0.4169819098705986,0.4027100969247401,0.1599243820019991,21.71741160820324,4.494775349774905,-0.0466323733395811,2.458757719391222,-2.1140790737121,7404.055338541667,11.628,7.713333333333334,177.42260580489537,5.767751963956798,49.86549106095711,1658.0,1435.0,1350.0,1528.0,1551.0,999.7000000000002,108.0,293.9,1649423110.8578224,1649423111.9947932,6caaaaed-6537-463c-918e-bbb9face95c9
0.4613039697426509,0.6523435510339023,0.7643950860842161,-0.2787895740924019,0.393519706824445,-0.376500838616897,0.4089009408960751,0.3956700663264314,-0.1164947140937068,21.71698871983972,5.100947585658317,-0.0343858861331954,2.485451731238511,-2.085441427359204,7418.29736328125,11.611333333333334,7.785555555555555,177.4579573462195,5.814521162547899,47.96181526589197,1658.0,1435.0,1350.0,1528.0,1551.0,999.7000000000002,108.0,293.9,1649423112.1029098,1649423113.224324,6caaaaed-6537-463c-918e-bbb9face95c9
0.4579894028586413,0.6497275085983342,0.7680246737586961,-0.2716810593661043,0.3983956813193379,-0.3849516170800713,0.4130783909585723,0.3823296193060745,0.0693171182367281,21.602258209644173,4.496563877462445,-0.0699936238267574,2.479034429087581,-2.103907620217429,7421.14794921875,11.611333333333333,7.793333333333333,177.5558719025212,5.870596683610618,46.28855400520243,1658.0,1435.0,1350.0,1528.0,1551.0,999.7000000000002,108.0,293.9,1649423113.3331215,1649423114.44833,6caaaaed-6537-463c-918e-bbb9face95c9
0.670679954023382,1.0475084080792456,0.8323563078243545,-0.3354977182642031,0.3817899749613937,-0.73872890109895,0.3534019418743457,0.3312989851059821,0.5877899461293226,20.80413160550709,1.2840014804943225,-0.7233623776380768,4.007679830651208,-2.040283508510933,7421.14794921875,11.605,7.771111111111111,177.5159031533181,5.919295505505987,44.40603320327157,1767.0,1435.0,1350.0,1528.0,1630.0,999.7000000000002,108.0,293.9,1649423115.3633845,1649423116.4967554,eb9f3f74-96ea-4faa-abec-64dde6f4354c
0.6615021649385139,1.0375679943123104,0.8279251975473305,-0.3292652350965976,0.3788315185892706,-0.7348894798961502,0.3495493742270845,0.3314830668604134,0.5839454692275163,20.95032794372909,1.227469605223737,-0.7280560738453039,3.9698797047039776,-2.026019225007005,7416.154676649306,11.57811111111111,7.78888888888889,177.652254978629,5.994676651121486,43.34568048557295,1767.0,1435.0,1350.0,1528.0,1630.0,999.7000000000002,108.0,293.9,1649423116.604492,1649423117.7355807,eb9f3f74-96ea-4faa-abec-64dde6f4354c
0.6653415838673895,1.0403322546692413,0.8193836029608582,-0.340508383743602,0.3713797483946252,-0.7350958134817744,0.3474086654371572,0.3227548617304759,0.8999833278521183,20.44109514172336,0.0753975555717803,-0.706983585894156,3.989055453377854,-2.002137587543587,7416.3330078125,11.586,7.765000000000001,177.7700882638252,6.042761420037722,42.54514076453,1767.0,1435.0,1350.0,1528.0,1630.0,999.7000000000002,108.0,293.9,1649423117.848571,1649423118.9559946,eb9f3f74-96ea-4faa-abec-64dde6f4354c
0.8979025528752663,1.418446274922347,0.894220918272056,-0.3741022976688927,0.3651568755251621,-1.089247042406922,0.2867380564123696,0.2706440531462778,0.9146487441660024,20.76742761069322,-1.9483607034925032,-1.4214545656093818,5.433931591870078,-1.9668120170909429,7414.72802734375,11.556333333333336,7.773333333333334,177.6857912074537,6.0883120939081445,41.52468147422613,1886.0,1435.0,1350.0,1528.0,1710.0,999.7000000000002,108.0,293.9,1649423119.868872,1649423121.0055466,7705ca30-6915-481c-aad8-45791dba3d7a
0.8803227474673055,1.41460685543196,0.910446408142996,-0.3513681976352251,0.3740059474026005,-1.0719827921768244,0.2946009762435659,0.2809394816923341,0.909251737259084,22.00173695744871,3.022016833373948,-1.4241621529077235,5.373767790716238,-2.0059423379779697,7414.72802734375,11.532000000000002,7.760000000000001,177.80118801239098,6.1654515863481,41.06230422926303,1886.0,1435.0,1350.0,1528.0,1710.0,999.7000000000002,108.0,293.9,1649423121.114249,1649423122.157343,7705ca30-6915-481c-aad8-45791dba3d7a
0.8921828704798058,1.4180912601060935,0.9041481831465252,-0.3693556171273668,0.3727173752724941,-1.0836325450234363,0.2983746518113252,0.272077260951983,1.2368328908872517,20.90333655106082,-0.4995092437325678,-1.417756985792704,5.417525818951803,-2.0049980069391373,7414.72802734375,11.531,7.760000000000001,177.85771162232237,6.170975644134956,40.70157006497853,1886.0,1435.0,1350.0,1528.0,1710.0,999.7000000000002,108.0,293.9,1649423122.2665908,1649423123.2651775,7705ca30-6915-481c-aad8-45791dba3d7a
-0.0111850961494083,-0.1842219482623303,0.6307473674117374,-0.127261791976581,0.4322152210721326,0.3270256591367693,0.534170202719751,0.5065579431178392,-0.5906200061630469,22.982786016124905,8.376406071919785,1.206742362283686,-0.7049594812360114,-2.2304535324309382,7414.72802734375,11.572777777777778,7.786666666666666,179.04363736791169,6.456771012416453,39.95457276602175,1449.0,1435.0,1350.0,1528.0,1386.0,999.7000000000002,108.0,293.9,1649423125.399275,1649423126.5355778,67c2f4ee-9115-4dda-be85-722785c88422
-0.0054785618386618,-0.1890869663209844,0.6285383866589054,-0.1260784091328595,0.4297038203163197,0.3325086651255635,0.5319217758796504,0.5040596910583385,-0.6176977869886133,23.161686031288923,8.613807793618182,1.2174941573418692,-0.7254013957865467,-2.221156366654869,7414.72802734375,11.630333333333333,7.823333333333333,179.09677168619496,6.474640969151191,39.698623569434034,1449.0,1435.0,1350.0,1528.0,1386.0,999.7000000000002,108.0,293.9,1649423126.6431637,1649423127.764922,67c2f4ee-9115-4dda-be85-722785c88422
-0.0147615416151116,-0.1876011635070163,0.6168360481352264,-0.1499038484162253,0.4198948937277925,0.3369923702051868,0.530172999441934,0.4992472686818413,-0.3472785313562502,22.43976643222165,6.296149912522488,1.275712278609796,-0.6990220371723617,-2.19216736703562,7414.72802734375,11.627333333333333,7.823333333333333,179.18182120173995,6.506613796134058,39.410048077001,1449.0,1435.0,1350.0,1528.0,1386.0,999.7000000000002,108.0,293.9,1649423127.8741512,1649423128.9935071,67c2f4ee-9115-4dda-be85-722785c88422
-0.2332797390498557,-0.5931596308793883,0.5822549803152512,-0.0162604932914143,0.4664412744419386,0.6328117125230166,0.5999005290025777,0.5805982447483372,-0.5663074203427311,24.069352137056526,9.468502768308433,1.648467424928593,-2.265298094100848,-2.3519530426594257,7416.154676649306,11.618333333333332,7.821111111111112,179.55455069602684,6.57529428901443,39.1134865756084,1342.0,1435.0,1350.0,1528.0,1293.0,999.7000000000002,108.0,293.9,1649423129.9045556,1649423131.0377834,f9df7833-69a5-4fb8-8129-6e511b2d39f4
-0.2320021239107466,-0.5909616064836832,0.576341354757623,-0.0157745392702113,0.461071128239747,0.6313604253183817,0.591955430058625,0.5783136589952861,-0.7406170109553886,24.090101951047483,9.579223825749995,1.643882996108873,-2.2572361355009574,-2.3249696894353544,7421.14794921875,11.584,7.773333333333334,179.64411572552308,6.605471535155492,39.01794626895322,1342.0,1435.0,1350.0,1528.0,1293.0,999.7000000000002,108.0,293.9,1649423131.1462538,1649423132.1685238,f9df7833-69a5-4fb8-8129-6e511b2d39f4
-0.2351249396165378,-0.6042472725397509,0.5755606509777734,-0.0078031420168956,0.4633721498576137,0.6332779433340922,0.593996217090594,0.5794367766919009,-0.647580921855813,24.077111054092047,9.049578852113587,1.6300478073857552,-2.304060879752756,-2.332159521236508,7414.72802734375,11.57822222222222,7.797777777777778,179.70842575110834,6.609664607259712,38.93487599044771,1342.0,1435.0,1350.0,1528.0,1293.0,999.7000000000002,108.0,293.9,1649423132.2774107,1649423133.4979718,f9df7833-69a5-4fb8-8129-6e511b2d39f4
-0.4578726580634562,-0.9896193037981582,0.5412573492968367,0.0736897384902053,0.5017323720287007,0.9497873041885148,0.6744141833938494,0.6577284894826037,-0.4343607413994451,25.245536827097613,11.194293924332785,2.16394539949294,-3.7821463253351,-2.495367423995369,7418.294650607639,11.535444444444444,7.773333333333334,179.95550860324343,6.644398301055211,38.83340859741278,1227.0,1435.0,1350.0,1528.0,1189.0,999.7000000000002,108.0,293.9,1649423134.4098904,1649423135.549261,0ad35599-90c6-4b4c-a10d-20b28c3fa339
-0.4585300930199734,-0.9952995441433284,0.5496330680136412,0.090428028577642,0.5078728126189201,0.9514440398410416,0.6749269824999149,0.6529029184258869,-0.6917465308218914,25.99227276480381,12.855340683858062,2.135413300815155,-3.817867984082618,-2.514562326441725,7414.72802734375,11.482333333333337,7.739999999999999,179.98674078158814,6.658470482883946,38.86446698538863,1227.0,1435.0,1350.0,1528.0,1189.0,999.7000000000002,108.0,293.9,1649423135.6617515,1649423136.7767415,0ad35599-90c6-4b4c-a10d-20b28c3fa339
-0.4551738875548605,-1.0054196637218853,0.5523038966986981,0.087045526495565,0.5139672327797385,0.9633512790714728,0.6812569834020962,0.6599040506521608,-0.9549424742913692,25.923349210755195,12.73259548519276,2.169324587667207,-3.852289255894231,-2.5370994396802167,7414.72802734375,11.479888888888889,7.74888888888889,179.99145816557495,6.651865737388412,38.9269044007764,1227.0,1435.0,1350.0,1528.0,1189.0,999.7000000000002,108.0,293.9,1649423136.8856823,1649423138.0052445,0ad35599-90c6-4b4c-a10d-20b28c3fa339
0.2324339439672006,0.2661209019617626,0.7153986656195487,-0.1705341545620181,0.4297169689823028,-0.0723528333333271,0.4684398761347457,0.4448248197272537,-0.8973671828962579,22.51353167271132,8.745182348520565,0.4079061141371253,0.993688876242749,-2.1942435640036497,7421.14794921875,11.554222222222222,7.785555555555555,179.21640472623747,6.527821248915733,39.01478996264677,1553.0,1435.0,1350.0,1528.0,1471.0,999.7000000000002,108.0,293.9,1649423138.9159725,1649423140.0526507,ebf755f1-6006-4411-87de-cb21f7e5db24
0.2522227308021893,0.2715644619123981,0.6907054164612597,-0.2258770224678573,0.4033538351747293,-0.0594408129062988,0.4616288520714884,0.4330698862788856,-0.2161707863087122,21.44288386661261,3.985140330469642,0.5530182050753131,1.0567026411750993,-2.1206033678764946,7427.57958984375,11.629777777777775,7.811111111111111,179.2504084435654,6.519826749651581,38.953862019065575,1553.0,1435.0,1350.0,1528.0,1471.0,999.7000000000002,108.0,293.9,1649423140.16084,1649423141.482193,ebf755f1-6006-4411-87de-cb21f7e5db24
0.242637331732754,0.26509530371875,0.6961884222660014,-0.2064826934825059,0.4114271340118276,-0.0652393882829773,0.463338182440128,0.4361598295486555,-0.3777867776720822,21.64424769278748,4.824173186147295,0.4978994529427984,1.0241100672751324,-2.141132156501383,7422.577202690973,11.636555555555557,7.832222222222222,179.2581053078501,6.49786261625998,38.926145870323566,1553.0,1435.0,1350.0,1528.0,1471.0,999.7000000000002,108.0,293.9,1649423141.5907593,1649423142.7154915,ebf755f1-6006-4411-87de-cb21f7e5db24
0.2635963524188829,0.2660683071984151,0.6999095029469451,-0.4967665116485873,0.3819477593060414,0.2223488943868154,0.5456884595290203,0.5311460028085415,-0.2225332674296541,21.318491351911224,8.175568126446828,1.797596086591266,1.0329277702219763,-2.220760059049886,7421.14794921875,11.63,7.817777777777778,179.23647789329823,6.581490930707054,38.9958137998577,1553.0,1522.0,1350.0,1528.0,1471.0,999.7000000000002,108.0,293.9,1649423143.3072464,1649423144.5538387,1ccb74ee-0413-4039-8dce-bcaecedbe61b
0.268093206286787,0.2713277853885377,0.6998963542545742,-0.4981339764866922,0.3797782246090515,0.2215073778250659,0.5439922778846802,0.5235723545015197,-0.1844191440942268,21.412395934963538,8.601353011279933,1.7994986605211505,1.0487796512776868,-2.214159096673072,7421.14794921875,11.624333333333334,7.809999999999999,179.2255890539414,6.583505931375947,39.00419595978912,1553.0,1522.0,1350.0,1528.0,1471.0,999.7000000000002,108.0,293.9,1649423144.6631916,1649423145.793465,1ccb74ee-0413-4039-8dce-bcaecedbe61b
0.262860025477668,0.2643458280711237,0.6987129716975261,-0.4974765413025415,0.381119391562758,0.2218755413347649,0.5462144073564541,0.5235066110501707,-0.0980610671888646,21.22944019751869,7.773474768657649,1.797482702020708,1.0291602417847945,-2.2194077944137014,7422.577202690973,11.628555555555556,7.812222222222222,179.22641626574088,6.554820796977317,38.98877642828287,1553.0,1522.0,1350.0,1528.0,1471.0,999.7000000000002,108.0,293.9,1649423145.9268754,1649423147.022426,1ccb74ee-0413-4039-8dce-bcaecedbe61b
0.2810983618376684,0.2669224245403992,0.692077263640171,-0.8242962726893751,0.3349532266352979,0.541962995944519,0.6233479393146809,0.6023374204630398,-0.0275577337297499,21.160615939125968,11.122924555059546,3.253769946988743,1.048455619336606,-2.2550564852057264,7427.57958984375,11.621444444444444,7.804444444444444,179.20643416786905,6.651895002851731,39.11138818971339,1553.0,1613.0,1350.0,1528.0,1471.0,999.7000000000002,108.0,293.9,1649423148.951162,1649423150.088436,37fe65cf-8028-417e-ab89-4a129ab8387d
0.2773728981108703,0.2605946148077822,0.6914198289222563,-0.8221048227316649,0.3384047590160989,0.5430039343002014,0.6258818023998293,0.6117606518588045,-0.1009014933220709,20.904623696208784,10.68733293123384,3.2493296056946974,1.0287863985238623,-2.263776163791323,7421.14794921875,11.620888888888889,7.83,179.15596058772246,6.652937839928757,39.117390028719065,1553.0,1613.0,1350.0,1528.0,1471.0,999.7000000000002,108.0,293.9,1649423150.1967,1649423151.3168232,37fe65cf-8028-417e-ab89-4a129ab8387d
0.2809613962427854,0.2636626437632353,0.6943508921377489,-0.8312952167521973,0.3378158072626389,0.5469348462514335,0.6307440802406331,0.6002281506468877,0.1603218949596581,20.94321755643348,10.498681985165328,3.2793973788547848,1.0414345086220875,-2.2737007854217484,7427.57958984375,11.616666666666667,7.818888888888888,179.1666445214042,6.643681463215444,39.16255389569587,1553.0,1613.0,1350.0,1528.0,1471.0,999.7000000000002,108.0,293.9,1649423151.4249408,1649423152.5419912,37fe65cf-8028-417e-ab89-4a129ab8387d
0.2919871252551334,0.2544585569042586,0.6934469193703149,-1.1280039487615003,0.3015610190239475,0.8446569121093085,0.7089925118666383,0.6788189962136842,0.320801954985801,20.987017493854605,12.994497023024214,4.618444790892148,1.0201320341535,-2.3345982198366904,7421.14794921875,11.614666666666666,7.818888888888889,179.10738276452554,6.728001286884113,39.28424851450285,1553.0,1710.0,1350.0,1528.0,1471.0,999.7000000000002,108.0,293.9,1649423154.4186926,1649423155.3585289,8d43ec24-b975-4a44-86a6-e33b5a18076f
0.3002812127548264,0.2574559116236592,0.6946500249501492,-1.127509776447745,0.3029241004321978,0.8410870413344134,0.7081405859932411,0.6861954140842169,0.177860471116426,20.9924761244612,12.971266282087992,4.609328519267782,1.0326070547461637,-2.3366497448816044,7421.14794921875,11.600666666666664,7.791111111111111,179.06733205305238,6.7058854189428265,39.30341250749408,1553.0,1710.0,1350.0,1528.0,1471.0,999.7000000000002,108.0,293.9,1649423155.4674864,1649423156.6473558,8d43ec24-b975-4a44-86a6-e33b5a18076f
0.2946667198133951,0.2605458550814655,0.7092582250861932,-1.1209354237090123,0.3188471704774167,0.8359327528415185,0.7234588156617889,0.7004223020572475,0.2391880426002049,20.797938655547423,13.646382366696166,4.582492282357952,1.0378919623083531,-2.398553572514045,7421.862575954861,11.592444444444444,7.809999999999999,179.06082515950305,6.704406920146866,39.318818378622005,1553.0,1710.0,1350.0,1528.0,1471.0,999.7000000000002,108.0,293.9,1649423156.7607915,1649423157.8707669,8d43ec24-b975-4a44-86a6-e33b5a18076f
0.3000971310413909,0.2505265490847085,0.6948209579872423,-1.4154533329297436,0.2662129427666938,1.1130415069374306,0.7825621996388574,0.7584869390963616,0.6289562771191817,21.07729129843405,13.256955438784235,5.870820004287009,1.0363572207850604,-2.395520919930544,7421.14794921875,11.595666666666666,7.807777777777777,179.00161652631795,6.74846405931878,39.36923238434082,1553.0,1814.0,1350.0,1528.0,1471.0,999.7000000000002,108.0,293.9,1649423159.806791,1649423160.948847,54da507b-bed9-4275-beb3-6e6567f40ef3
0.31637521593063,0.2457535725716464,0.7095080502778488,-1.3441873271266496,0.2834114364021852,1.0900970331475786,0.7756196886972917,0.7556862670483483,0.0401189568323627,22.24036246674119,18.67514503153673,5.667510802744385,0.966778462625158,-2.422281276224767,7421.14794921875,11.571875,7.7925,179.0061766262263,6.76128616830481,39.42407429734845,1553.0,1814.0,1350.0,1528.0,1471.0,999.7000000000002,108.0,293.9,1649423161.062807,1649423162.1710413,54da507b-bed9-4275-beb3-6e6567f40ef3
0.2990715327939021,0.2440047960821618,0.7022368219677569,-1.3811614975123314,0.2789408798784089,1.102272725150684,0.7842978274353759,0.7593284556033693,0.3768936153387497,21.241211416516165,15.33998901529366,5.770928207043511,0.9914696926437764,-2.4232307064000604,7421.14794921875,11.571111111111112,7.800000000000001,179.0084482333078,6.756064210022103,39.45202034836064,1553.0,1814.0,1350.0,1528.0,1471.0,999.7000000000002,108.0,293.9,1649423162.2796547,1649423163.4064171,54da507b-bed9-4275-beb3-6e6567f40ef3
0.2262935031062394,0.265055857636,0.6962147196551574,0.099579521110714,0.4381321338760719,-0.3492381077698766,0.3712973162128478,0.3405425176452001,-0.9157679957794116,23.143246012266246,4.1419967881733335,-0.821126158830935,0.9961602110811224,-2.0457693763622813,7421.14794921875,11.608,7.796666666666667,178.99811188036384,6.242355769284774,39.57707352296449,1553.0,1349.0,1350.0,1528.0,1471.0,999.7000000000002,108.0,293.9,1649423164.515836,1649423165.6562908,965139f0-d0c7-4fb0-b45e-677d7bf59037
0.2269558686417448,0.2748527315106581,0.6959807824555012,0.0859634985300067,0.4380609117940608,-0.3499979932158981,0.3752621957021758,0.3538270830285192,-0.7981295736515426,22.65608525641621,3.636081486870927,-0.7953818375509778,1.0382090747970902,-2.0503639362850428,7427.57958984375,11.633111111111113,7.821111111111112,178.9288021563062,6.2221776354973946,39.57636280383585,1553.0,1349.0,1350.0,1528.0,1471.0,999.7000000000002,108.0,293.9,1649423165.7703335,1649423166.882193,965139f0-d0c7-4fb0-b45e-677d7bf59037
0.2270692761449983,0.2724980192826672,0.6996991238248566,0.0881007095525939,0.4407224267948125,-0.3457405539414633,0.3783844629371037,0.3503514446151952,-0.8000496018119597,22.850886928807867,4.216746107736424,-0.7890677202831975,1.0242205361941554,-2.0630314656427817,7423.291829427083,11.630666666666665,7.809999999999999,178.92319836554714,6.223141735671489,39.61758451329671,1553.0,1349.0,1350.0,1528.0,1471.0,999.7000000000002,108.0,293.9,1649423166.9907172,1649423168.1116707,965139f0-d0c7-4fb0-b45e-677d7bf59037
0.2175600298748717,0.2798519750958952,0.7109237264429318,0.3877808491807454,0.4801093429821219,-0.6417073731742526,0.3005063840748347,0.2773455046120843,-1.1969660776716915,23.80561828479773,2.131878675166928,-2.1237938519740864,1.0369204783998645,-2.021188929240798,7421.14794921875,11.614777777777778,7.825555555555557,178.84201321925255,6.101907253427971,39.7319738653314,1553.0,1264.0,1350.0,1528.0,1471.0,999.7000000000002,108.0,293.9,1649423169.841027,1649423171.19221,dcfd7295-6abf-4680-9af7-2448eb4c4bd2
0.2053837898441017,0.2707574607227404,0.7035823717339621,0.3884519805594095,0.4721516431960132,-0.6352015056685727,0.2924391116305543,0.2698534875771881,-1.2491879403567163,24.125838756805944,1.815110065392876,-2.1090077591309604,1.0054450431349506,-1.9905663740866248,7420.434624565973,11.598777777777777,7.806666666666666,178.85424532914618,6.1162170689215785,39.78141874309799,1553.0,1264.0,1350.0,1528.0,1471.0,999.7000000000002,108.0,293.9,1649423171.3228655,1649423172.4114811,dcfd7295-6abf-4680-9af7-2448eb4c4bd2
0.2093557916452236,0.2781399053650164,0.703609764865925,0.3815352189997116,0.4731104021562416,-0.6388858810287931,0.2963152374127618,0.2798793679397346,-1.0640423478774723,23.65634791464218,1.4341308257494303,-2.104763003288284,1.0360452691472497,-1.9968108988779487,7416.868001302083,11.606000000000002,7.803333333333332,178.86092980761384,6.089585639597137,39.80214760831906,1553.0,1264.0,1350.0,1528.0,1471.0,999.7000000000002,108.0,293.9,1649423172.5203264,1649423173.6361277,dcfd7295-6abf-4680-9af7-2448eb4c4bd2
0.1980632535165738,0.270814986268059,0.7045509922706773,0.6329431994653958,0.493027935902195,-0.8678097127907666,0.2186541107919625,0.2006666949447354,-1.5608316084170668,25.39629282015041,0.4679296911519122,-3.175123145563128,0.9897874111633062,-1.9157556107901168,7421.14794921875,11.605444444444444,7.80111111111111,178.8154331586425,5.981463033557797,39.87036526101943,1553.0,1178.0,1350.0,1528.0,1471.0,999.7000000000002,108.0,293.9,1649423175.3064754,1649423176.3033817,1e9ce0c4-46fd-4020-a699-b796ab48a5e1
0.1934677843657817,0.2676072524200221,0.7031440819095658,0.6381539177095455,0.4947098731639568,-0.8700838902944056,0.2162451602031534,0.1902216998330791,-1.8048188515158647,25.336355648017683,0.367333586974522,-3.1925938678559938,0.9796431633521976,-1.913329220913002,7421.14794921875,11.573888888888888,7.814444444444444,178.79028895557795,6.020680556815933,39.91716989121685,1553.0,1178.0,1350.0,1528.0,1471.0,999.7000000000002,108.0,293.9,1649423176.4121716,1649423177.528373,1e9ce0c4-46fd-4020-a699-b796ab48a5e1
0.1868660433648685,0.2726749788184019,0.6988844525996765,0.6290731002231594,0.4888203534887996,-0.8596881972726274,0.2132045243739048,0.1811545784747905,-1.862089448850768,25.34564110462991,1.3338286963313395,-3.1487745684822195,0.9913377066262176,-1.8933190525557904,7421.14794921875,11.592777777777776,7.808888888888889,178.78921585696833,5.996967136086902,39.93760278157389,1553.0,1178.0,1350.0,1528.0,1471.0,999.7000000000002,108.0,293.9,1649423177.6375086,1649423178.7638829,1e9ce0c4-46fd-4020-a699-b796ab48a5e1
0.1796550794742824,0.2689478715009233,0.6860639271423888,0.7570931774474947,0.4766578104911067,-0.9540520595709968,0.1547120032837987,0.1379211187475691,-2.060622530860264,27.285024716493137,3.860181782499615,-3.6370838853586407,0.9398310788921976,-1.7726966430808826,7414.72802734375,11.581777777777775,7.803333333333332,178.77503790207123,5.951044454066061,40.02686538547193,1553.0,1088.0,1350.0,1528.0,1471.0,999.7000000000002,108.0,293.9,1649423179.3053186,1649423180.3996067,90141ecb-0484-4473-a210-9bc1275ddbc7
0.1728440550733926,0.2641223002500601,0.6750453207566494,0.7641014318960422,0.473909733259624,-0.9778643628390394,0.1446663996694836,0.1242201774406375,-2.1748876077599744,26.61745769770325,0.6498165795390105,-3.711945519641568,0.9494216701840346,-1.7444875991243236,7414.72802734375,11.557333333333332,7.794444444444445,178.7161131011916,5.941990896025601,40.04720568882023,1553.0,1088.0,1350.0,1528.0,1471.0,999.7000000000002,108.0,293.9,1649423180.5077093,1649423181.6302,90141ecb-0484-4473-a210-9bc1275ddbc7
0.1835470934425418,0.2675672584780788,0.6648945282385261,0.7450489728254229,0.4636406024240371,-0.9762733696772296,0.1409847649318121,0.1214458026264551,-1.9009973111419964,26.143636459106173,-1.1861297723307915,-3.6691939167910665,0.9783699997567936,-1.713375811504482,7414.72802734375,11.56188888888889,7.798888888888888,178.73941922445954,5.934027749227012,40.0912695158857,1553.0,1088.0,1350.0,1528.0,1471.0,999.7000000000002,108.0,293.9,1649423181.7424366,1649423182.8570223,90141ecb-0484-4473-a210-9bc1275ddbc7
