raw_voltage_G-,raw_voltage_G0,raw_voltage_G1,raw_voltage_G2,raw_voltage_G3,raw_voltage_G4,raw_voltage_G5,raw_voltage_G6,load_x,load_y,load_z,load_l,load_m,load_n,rpm,voltage,current,roll,pitch,yaw,aileron1_pwm,elevator_pwm,throttle_pwm,rudder_pwm,aileron2_pwm,pbaro,pdiff,Tt,sample_start_time,sample_end_time,uid
-0.0985581859961831,0.0763326267093704,-0.1233171825187409,0.0915588167958461,-0.2672691229165329,-0.2503204513445701,-0.5401966664875658,-0.5564090136657084,-17.42311196006945,26.18635579972192,-15.734408514003366,-0.6128640986262207,0.5304175306030656,1.266165341995929,4386.126085069444,11.95588888888889,0.16,178.42953657745568,12.94772712162882,61.37395569290271,1553.0,1435.0,1200.0,1528.0,1471.0,999.7000000000002,108.0,294.1,1649426882.754393,1649426883.7333229,8435e887-9fe4-45c2-8ee7-eadc973a0564
-0.0893146520580707,0.0863782305460896,-0.1164798600403729,0.0871540035898321,-0.264192327599428,-0.2592878633151271,-0.536173164296491,-0.5646926947952744,-17.293867424546356,26.23225090196881,-16.145735348138817,-0.6224347035439632,0.5718020258927998,1.247594307219157,4411.439453125,11.955666666666666,0.16,178.2928219932089,12.884833980841432,60.96989080852364,1553.0,1435.0,1200.0,1528.0,1471.0,999.7000000000002,108.0,294.1,1649426883.8424475,1649426884.9665973,8435e887-9fe4-45c2-8ee7-eadc973a0564
-0.0828602854668582,0.0831420077240053,-0.1182248017011998,0.0907435976312466,-0.2655176067742378,-0.2594500305602504,-0.5397364619926925,-0.5625412389738241,-17.417334835653786,26.380656553369928,-16.17121577792234,-0.6300656592280994,0.5602138681011412,1.256308010142331,4410.935112847223,11.931333333333336,0.1288888888888889,178.21075499360143,12.82172227400061,60.6222926158329,1553.0,1435.0,1200.0,1528.0,1471.0,999.7000000000002,108.0,294.1,1649426885.074836,1649426886.1951096,8435e887-9fe4-45c2-8ee7-eadc973a0564
0.0913599427445514,0.4066820986943138,-0.1007890815871176,-0.0917904421405919,-0.3236321132276119,-0.3979085637556125,-0.5863321681907805,-0.6106161751670597,-17.43706215886679,25.450556069132176,-14.784690384741475,-0.5345348740635395,1.785100210567931,1.4179090357935735,4410.935112847223,11.950333333333331,0.1577777777777777,177.92526978231288,12.774117468169171,60.27089228450417,1658.0,1435.0,1200.0,1528.0,1551.0,999.7000000000002,108.0,294.1,1649426887.312863,1649426888.449034,09381026-5ba2-4078-be3e-363d0c9d7cb7
0.0882919136670566,0.4000803579839078,-0.1094590036778522,-0.0907221105005336,-0.3312200079071641,-0.392594297950585,-0.5932352359262326,-0.6125747833686225,-17.39610364883707,25.48495130418014,-14.86947125422308,-0.5251994948233866,1.7601206075209683,1.44899608523359,4406.90283203125,11.932555555555556,0.1577777777777777,177.91974491818422,12.759494697202348,60.163122524140086,1658.0,1435.0,1200.0,1528.0,1551.0,999.7000000000002,108.0,294.1,1649426888.5570333,1649426889.6793544,09381026-5ba2-4078-be3e-363d0c9d7cb7
0.0946882064541679,0.408376636784132,-0.1022266724942406,-0.0898405999419178,-0.3253074765701527,-0.4008730474764721,-0.5881631247565313,-0.6098058860526795,-17.358496728534714,25.426493021072226,-14.72758807126955,-0.5457772801015571,1.790061984509183,1.4251249199827742,4409.422092013889,11.93688888888889,0.15,177.9488491131476,12.748979336383895,60.06176024012737,1658.0,1435.0,1200.0,1528.0,1551.0,999.7000000000002,108.0,294.1,1649426889.7963915,1649426890.908327,09381026-5ba2-4078-be3e-363d0c9d7cb7
0.2856993095310903,0.7393424391626864,-0.0841866602719625,-0.2821534490806054,-0.3888682854088667,-0.5365150305026066,-0.6379046591353995,-0.6518422825085236,-17.372796747251787,24.879448029174192,-13.200942488151066,-0.4192642537375803,3.0427677507223025,1.5986562586173858,4410.935112847223,11.92911111111111,0.1477777777777777,177.78143206967172,12.741399154497522,59.89868643805369,1767.0,1435.0,1200.0,1528.0,1630.0,999.7000000000002,108.0,294.1,1649426892.834787,1649426893.976021,36a9c10d-db41-4bf8-82cd-ed9965bad439
0.2706889779201211,0.7303728377362201,-0.0931327049235164,-0.2796798503505921,-0.3959362589004098,-0.5311350208686693,-0.6474462330695226,-0.6774006185201144,-17.593856602616075,25.047554989414817,-13.43358292433044,-0.4122338985185079,3.0118839520386698,1.6324473664056736,4409.92724609375,11.896,0.14,177.82601043765465,12.745292931506858,59.91691469512863,1767.0,1435.0,1200.0,1528.0,1630.0,999.7000000000002,108.0,294.1,1649426894.0843868,1649426895.2068844,36a9c10d-db41-4bf8-82cd-ed9965bad439
0.2775734157380825,0.7318608317185697,-0.0908267522061858,-0.2829818170975781,-0.3944433337093682,-0.528638959257686,-0.6425461505423387,-0.6672788572047458,-17.396946722972267,24.940982223756368,-13.27584858572567,-0.3996438863098224,3.01522407946349,1.6208490165989016,4409.92724609375,11.904666666666666,0.14,177.89311932297974,12.74569961235369,59.93734606766586,1767.0,1435.0,1200.0,1528.0,1630.0,999.7000000000002,108.0,294.1,1649426895.3156905,1649426896.4332783,36a9c10d-db41-4bf8-82cd-ed9965bad439
0.4221160117910176,0.9807459071912616,-0.0890648268342862,-0.4776720710026556,-0.4692644888777855,-0.5655281431205176,-0.6899097947889016,-0.7210241745982716,-17.720890825804933,25.802560986955573,-9.525104733836049,-0.0371312276582055,3.9418413278236746,1.82091017523785,4414.215874565973,11.882888888888887,0.1277777777777777,177.70595999716286,12.76365134163099,59.923141550921954,1886.0,1435.0,1200.0,1528.0,1710.0,999.7000000000002,108.0,294.1,1649426897.3424008,1649426898.479965,0de2e3d1-440d-4aff-b6d6-8f7398840f45
0.4100798985141231,0.9879018317621284,-0.0682797714281976,-0.4663818896215183,-0.4517539614261129,-0.5866292783816033,-0.6744853567809254,-0.7025527773522353,-17.449451227822887,25.944581855737606,-9.913624532964397,-0.1079650451766976,3.9701326614387673,1.7473151964540157,4415.98486328125,11.845555555555556,0.1211111111111111,177.82887911710606,12.789833069403205,60.01145741471005,1886.0,1435.0,1200.0,1528.0,1710.0,999.7000000000002,108.0,294.1,1649426898.588629,1649426899.711573,0de2e3d1-440d-4aff-b6d6-8f7398840f45
0.4216987935876685,0.9816562014781222,-0.0782677238257737,-0.4585938140855004,-0.4577720199618265,-0.5869706390967898,-0.6843342397552236,-0.7078122574293148,-17.610296370597187,25.863905447349417,-9.887169153722644,-0.1274090138165203,3.946018269647733,1.7824199049874367,4407.406629774306,11.850666666666667,0.12,177.86372370661184,12.801998300361166,60.04430227660881,1886.0,1435.0,1200.0,1528.0,1710.0,999.7000000000002,108.0,294.1,1649426899.8208396,1649426900.9439266,0de2e3d1-440d-4aff-b6d6-8f7398840f45
-0.3054397934554902,-0.317207878362845,-0.1184653133228713,0.3283273799985109,-0.1754386184231208,-0.0882101615464372,-0.4623826619246641,-0.494965139943781,-17.135548012848332,27.851558463945647,-16.21426662179028,-0.7713238215381358,-0.9721964251985706,0.9769831207929794,4411.439453125,11.908222222222223,0.1422222222222222,178.85361695174254,12.73464400254464,60.041735643300704,1449.0,1435.0,1200.0,1528.0,1386.0,999.7000000000002,108.0,294.1,1649426901.84539,1649426903.186498,4233ebd7-c130-428c-8300-b0462cb313e5
-0.3146964770554623,-0.3248867181712609,-0.1253815279795724,0.3292083426067433,-0.1793306328353401,-0.0826877088032213,-0.4651701861860157,-0.4864710798053076,-17.083102268326957,27.67529934147352,-16.418865155043605,-0.7624204073326082,-1.0001044953463891,0.9945796199627882,4406.90283203125,11.958666666666666,0.1566666666666666,178.89312731936127,12.722519373266742,59.9613382454904,1449.0,1435.0,1200.0,1528.0,1386.0,999.7000000000002,108.0,294.1,1649426903.2946804,1649426904.4252522,4233ebd7-c130-428c-8300-b0462cb313e5
-0.3180099490120669,-0.3247289338047533,-0.1267226951013008,0.3349937685527793,-0.1802378929635823,-0.0854752325821786,-0.4689701603160021,-0.4850641692527768,-17.188264169204984,27.772758153286965,-16.056440066627655,-0.7811507270548844,-1.0027762421433928,1.0035212995250735,4410.935112847223,11.958444444444446,0.16,178.91653817219648,12.732087519656544,59.86992678818847,1449.0,1435.0,1200.0,1528.0,1386.0,999.7000000000002,108.0,294.1,1649426904.5573618,1649426905.6492538,4233ebd7-c130-428c-8300-b0462cb313e5
-0.5047965315562998,-0.6711960742517182,-0.1338388795822892,0.5368952697664041,-0.1141432270198676,0.0726367473116636,-0.4109887799249923,-0.4335744106630056,-16.85002358615579,29.525372578935816,-15.236650581222332,-0.8697274221899184,-2.337178227548479,0.8011661930373846,4406.90283203125,11.95111111111111,0.1577777777777777,179.07481945820254,12.721980926687174,59.76726221477403,1342.0,1435.0,1200.0,1528.0,1293.0,999.7000000000002,108.0,294.1,1649426906.2341118,1649426907.286113,6ffab092-f0ac-41b0-976d-c21f53b90ae3
-0.5142745525777994,-0.6734970969415892,-0.1413719873086767,0.538648429109312,-0.1200053544325682,0.0743488171615441,-0.4200969932042399,-0.4464902677173679,-17.107556965277368,29.586358655428427,-15.147762125459522,-0.8699211514014289,-2.345465895854689,0.8320444206528425,4407.658528645833,11.925,0.14,179.11482159944157,12.733441984114457,59.78340043396295,1342.0,1435.0,1200.0,1528.0,1293.0,999.7000000000002,108.0,294.1,1649426907.3946908,1649426908.5192254,6ffab092-f0ac-41b0-976d-c21f53b90ae3
-0.5053443940178223,-0.6729218412794792,-0.1390846618499631,0.5318549366760424,-0.1190465952736046,0.0775127221021094,-0.4156730038459259,-0.4419430096698548,-16.975995911069933,29.541738691718795,-15.481286240739324,-0.8476558188161641,-2.3403028065123106,0.8209718117524893,4409.169921875,11.92122222222222,0.1477777777777777,179.16871179199296,12.754141536440349,59.80624969346636,1342.0,1435.0,1200.0,1528.0,1293.0,999.7000000000002,108.0,294.1,1649426908.6281998,1649426909.9445324,6ffab092-f0ac-41b0-976d-c21f53b90ae3
-0.7118661031972009,-1.0592811420026396,-0.1621978802041368,0.651588048935575,-0.0766919030634099,0.3704163536490577,-0.3413620373702572,-0.3701182416083317,-16.597940264863254,31.9472263476235,-11.82111240172133,-0.443981675283866,-3.840667070211035,0.6477258630132918,4421.553439670139,11.878222222222222,0.1311111111111111,179.37241383597964,12.764450473763882,59.82967648340959,1227.0,1435.0,1200.0,1528.0,1189.0,999.7000000000002,108.0,294.1,1649426911.8835585,1649426913.0214102,13feae3f-b1dd-49f4-bf67-6156bf591249
-0.7184903095455976,-1.0628904616007644,-0.1615333230975343,0.6606299681726695,-0.075820254015539,0.3658663572200793,-0.3435332161711612,-0.3755283830615927,-16.631917174101645,32.142519082982744,-11.795027298952087,-0.4732877146508061,-3.855262736925751,0.6482995074575978,4418.26123046875,11.825,0.11,179.4435494972754,12.78599545172704,59.97210034689262,1227.0,1435.0,1200.0,1528.0,1189.0,999.7000000000002,108.0,294.1,1649426913.130418,1649426914.2240417,13feae3f-b1dd-49f4-bf67-6156bf591249
-0.715837011137807,-1.0592416958822295,-0.15320417124169,0.6531527436363959,-0.0692891867410309,0.3682731163397641,-0.33540567696951,-0.359323159696523,-16.703512996338976,32.180811950782555,-11.860134537728554,-0.4503904527113734,-3.839044585987957,0.6166968500569756,4419.780110677083,11.818,0.1166666666666666,179.4796538772281,12.807804530338109,60.07664549905856,1227.0,1435.0,1200.0,1528.0,1189.0,999.7000000000002,108.0,294.1,1649426914.332076,1649426915.477972,13feae3f-b1dd-49f4-bf67-6156bf591249
-0.0804261329364977,0.0878903305996697,-0.1229358703370801,0.091111761053112,-0.2706877844150701,-0.2659542532075201,-0.5450090907464678,-0.566283687745567,-17.287965631074165,26.27088770718543,-16.423910108785513,-0.6464494129379985,0.5790010988572459,1.2776356787590326,4424.089246961806,11.89988888888889,0.1366666666666666,179.10943333909634,12.815037510941671,60.25931890841053,1553.0,1435.0,1200.0,1528.0,1471.0,999.7000000000002,108.0,294.1,1649426917.4128487,1649426918.5564258,6e8904bc-9431-4d68-b4a4-34b16b648c80
-0.1042515717832706,0.0839457217692731,-0.1238694278016628,0.0911775046036814,-0.2704905539254089,-0.264152881535175,-0.5441018303677128,-0.5754351829521389,-17.249267030023997,26.20545328443793,-16.708018096666102,-0.6430558577992832,0.5663821734563942,1.2765243272888762,4427.392252604167,11.96,0.16,179.1010246173181,12.806899814864297,60.116506483054735,1553.0,1435.0,1200.0,1528.0,1471.0,999.7000000000002,108.0,294.1,1649426918.6641903,1649426919.9860954,6e8904bc-9431-4d68-b4a4-34b16b648c80
-0.0943111568774923,0.0816578486383411,-0.1283925796303852,0.0976203656611704,-0.2753292748102455,-0.264849762560601,-0.5527799724505487,-0.5690580632088995,-17.438717156118148,26.507066018618165,-16.336030955267365,-0.6574172215228193,0.5547703443198055,1.301684258440548,4431.96875,11.962,0.1588888888888888,179.07287816665843,12.805822257658988,60.00002671367906,1553.0,1435.0,1200.0,1528.0,1471.0,999.7000000000002,108.0,294.1,1649426920.095806,1649426921.221528,6e8904bc-9431-4d68-b4a4-34b16b648c80
-0.0790849658764638,0.0789229198538206,-0.132889434018425,-0.1585162449381171,-0.3061629718444894,-0.010830081332566,-0.4823686850134257,-0.4989097492192646,-17.043778815077275,25.82979208497151,-13.87724070740549,0.487057462370997,0.5511645625226658,1.2510052115630852,4408.923177083333,11.958555555555556,0.1577777777777777,179.04408360693748,12.87163302758683,59.765910596228274,1553.0,1522.0,1200.0,1528.0,1471.0,999.7000000000002,108.0,294.1,1649426922.331067,1649426923.4683373,cad73792-5bc8-4580-9689-4544e22afe12
-0.0882101615138108,0.0747284857798536,-0.1381752103164193,-0.15870032682643,-0.3059394440058402,-0.0053996697854349,-0.481829588396091,-0.5137546314654919,-17.10907935366725,25.35553597821946,-13.725914591026717,0.4962597200658654,0.5342333974744128,1.2569915631973063,4391.349663628473,11.964,0.151111111111111,179.04607195089585,12.87736735085001,59.607704442303074,1553.0,1522.0,1200.0,1528.0,1471.0,999.7000000000002,108.0,294.1,1649426923.5779808,1649426924.694934,cad73792-5bc8-4580-9689-4544e22afe12
-0.0808731886385858,0.0689825055553808,-0.1452360606893985,-0.1575169439977083,-0.3128819566511098,-0.0015208042659956,-0.4885222764213132,-0.5045505414823547,-17.085283812370843,25.48576143188753,-13.874507461992811,0.5028066156356394,0.5132399225010785,1.284669922929711,4388.8515625,11.96077777777778,0.1577777777777777,179.0400735269848,12.87783057048497,59.479436525329874,1553.0,1522.0,1200.0,1528.0,1471.0,999.7000000000002,108.0,294.1,1649426924.8034377,1649426925.9212224,cad73792-5bc8-4580-9689-4544e22afe12
-0.0777700962032263,0.0644725027615147,-0.1611985791781651,-0.444960635377741,-0.3620449400724095,0.2810972661136777,-0.4295898060366219,-0.4528630038270984,-17.018944062237214,25.410725583409604,-11.789333180932104,1.7853632332330986,0.511751546205591,1.2894351721570916,4400.1162109375,11.95811111111111,0.1555555555555555,179.064290342142,12.973378466239232,59.20567191865704,1553.0,1613.0,1200.0,1528.0,1471.0,999.7000000000002,108.0,294.1,1649426927.8571322,1649426928.9990036,d1ecde81-3219-4681-adc1-ed3c87a1948c
-0.0778884344674986,0.0597619823453964,-0.1680802786447897,-0.442326512665135,-0.3666667076341701,0.2822625692417241,-0.4365876533027505,-0.4550917085204166,-17.1760510878611,25.404331190813835,-11.987387529011215,1.7815441829055316,0.4961908578868499,1.3141406842402965,4408.4150390625,11.948,0.15,179.07462365944633,12.982556058617746,59.09684727352115,1553.0,1613.0,1200.0,1528.0,1471.0,999.7000000000002,108.0,294.1,1649426929.106847,1649426930.2299263,d1ecde81-3219-4681-adc1-ed3c87a1948c
-0.0728344041288655,0.0689112834474027,-0.1569449755926355,-0.4449973422079625,-0.3587500953490876,0.2742774760697884,-0.427506832948567,-0.4424360855841446,-17.037346982183788,25.417310651099783,-12.120732302435258,1.7703144197992406,0.5317413927903979,1.276237424361826,4415.98486328125,11.951666666666666,0.1522222222222222,179.08266355100935,12.988129777571691,59.04060673698535,1553.0,1613.0,1200.0,1528.0,1471.0,999.7000000000002,108.0,294.1,1649426930.3439827,1649426931.454291,d1ecde81-3219-4681-adc1-ed3c87a1948c
-0.0765209699558462,0.0625001983323744,-0.176674595964879,-0.7472887055020542,-0.416651486171067,0.5772058814750644,-0.3695134008920465,-0.3926025159472776,-16.825697701763215,25.670510720306165,-9.379957120357703,3.134169772940786,0.5178785812690063,1.2999080200769244,4420.53955078125,11.941444444444445,0.1444444444444445,179.1473742810259,13.10260156619512,58.84729341072629,1553.0,1710.0,1200.0,1528.0,1471.0,999.7000000000002,108.0,294.1,1649426933.3896725,1649426934.52514,15bcf7d8-d004-403e-89f5-eb4440d71639
-0.0581653892242122,0.0608697599955404,-0.1781341014399042,-0.7472361107415226,-0.4156784825315294,0.5771269893018598,-0.3702102820221046,-0.3984931330831585,-16.97929317543435,25.525366090325942,-9.616983346278625,3.1327238964821458,0.5148498527090642,1.300985461205204,4422.82080078125,11.940777777777775,0.1477777777777777,179.16114697803224,13.111374090410354,58.78440558230826,1553.0,1710.0,1200.0,1528.0,1471.0,999.7000000000002,108.0,294.1,1649426934.634688,1649426935.9643495,15bcf7d8-d004-403e-89f5-eb4440d71639
-0.0643584254465296,0.0583320616291023,-0.1942938505611314,-0.7488534011339877,-0.4296555495430699,0.5821629394842979,-0.3855942594292176,-0.3994398397065158,-17.143839788567764,25.45830299682975,-9.586049985825518,3.146361445253604,0.5053959436040817,1.3635885935393788,4422.060384114583,11.937,0.1466666666666667,179.15253335057892,13.106077468436489,58.73545133979706,1553.0,1710.0,1200.0,1528.0,1471.0,999.7000000000002,108.0,294.1,1649426936.0767803,1649426937.194725,15bcf7d8-d004-403e-89f5-eb4440d71639
-0.0576131439833816,0.051652523928373,-0.1690615001835577,-0.9305027310728228,-0.4328769808219739,0.7647851640335864,-0.3152092763055904,-0.3402706956452292,-16.831034597367537,26.06786481548055,-7.975853753045078,3.97220574622912,0.487833384033908,1.2332072829901728,4415.98486328125,11.912777777777778,0.1322222222222222,179.19729537475956,13.174812697693955,58.5866048217645,1553.0,1814.0,1200.0,1528.0,1471.0,999.7000000000002,108.0,294.1,1649426939.1221497,1649426940.2702515,3eb849aa-4157-464c-9477-9e6924e517af
-0.0594145154337001,0.0482864576980497,-0.1920059772276449,-0.934184368072389,-0.4517453642367464,0.7715172958773677,-0.3335911565514911,-0.3592574165617243,-16.86371082300386,25.71851136381776,-8.124273721836238,3.992140121041351,0.4757481118640772,1.3158260532574202,4413.71044921875,11.892666666666663,0.13,179.2027701508343,13.182959595553966,58.59964365289006,1553.0,1814.0,1200.0,1528.0,1471.0,999.7000000000002,108.0,294.1,1649426940.38223,1649426941.4840806,3eb849aa-4157-464c-9477-9e6924e517af
-0.0508830341029995,0.0573534951920006,-0.177312813522888,-0.935373314085748,-0.4420947246797632,0.7642349416950416,-0.3228714273381138,-0.3481826718422524,-16.72674099010449,25.951839309730744,-7.958006724988165,3.980831501397986,0.5083937661961349,1.268711740279509,4409.422092013889,11.898666666666667,0.1288888888888889,179.1925688838539,13.174690892653755,58.611664026919385,1553.0,1814.0,1200.0,1528.0,1471.0,999.7000000000002,108.0,294.1,1649426941.5927036,1649426942.719875,3eb849aa-4157-464c-9477-9e6924e517af
-0.1065525937783618,0.0920716159661132,-0.0950737813127225,0.4255356839701181,-0.211334562564998,-0.5912004745254893,-0.6130667634607998,-0.642769678921176,-17.581196950255013,27.284322200725807,-18.46429119940573,-2.124066863603108,0.5754514786543132,1.255654397795924,4409.423177083333,11.915111111111113,0.1333333333333333,179.22329259256043,12.739109902760704,58.6931846113932,1553.0,1349.0,1200.0,1528.0,1471.0,999.7000000000002,108.0,294.1,1649426943.8357162,1649426944.9662883,d2e2ee25-a353-448f-bdca-616bbaa392ff
-0.098347806858927,0.0968314439407432,-0.0877105110656471,0.4246021266116735,-0.2057069200152447,-0.5925679394044582,-0.6075180118892672,-0.6333683576501263,-17.61809848765307,27.36945932759028,-18.06925118344004,-2.1240584407268908,0.5906468546585169,1.231116332658235,4419.784016927083,11.947333333333331,0.15,179.25233607473118,12.71146072781806,58.80695659021793,1553.0,1349.0,1200.0,1528.0,1471.0,999.7000000000002,108.0,294.1,1649426945.0768414,1649426946.199961,d2e2ee25-a353-448f-bdca-616bbaa392ff
-0.09345649160272,0.1005130788327643,-0.0868426970569707,0.417383492951096,-0.2064169496748323,-0.5912136233965285,-0.6040336061739481,-0.6240196312036446,-17.39252602937306,27.231157578064984,-18.29151272335946,-2.105527132870577,0.6057700135167573,1.226222655486927,4422.06103515625,11.944666666666668,0.14,179.27167006354173,12.720081280324264,58.95711146893148,1553.0,1349.0,1200.0,1528.0,1471.0,999.7000000000002,108.0,294.1,1649426946.3078425,1649426947.428645,d2e2ee25-a353-448f-bdca-616bbaa392ff
-0.101845360290944,0.1119392956897046,-0.062162593061134,0.6947026197266191,-0.1574249030319112,-0.8691377313409399,-0.6639785330976722,-0.6846877382978788,-17.802771401749222,28.19708565948605,-20.050814395651635,-3.348478510458213,0.6345585843072106,1.2118502859615057,4422.25048828125,11.93325,0.1325,179.31183612932085,12.628284889687569,59.22209434960644,1553.0,1264.0,1200.0,1528.0,1471.0,999.7000000000002,108.0,294.1,1649426948.3391,1649426949.4753828,c8322df5-7501-41b7-a5af-37db60750149
-0.1071716782683326,0.106015260271801,-0.0687939191366942,0.6972682588358606,-0.1619579164196339,-0.8648654987612403,-0.6683197958806818,-0.6944665369588708,-17.779576381062796,28.13007789105989,-19.97439621181032,-3.345416227735011,0.6107609764072607,1.232701864706315,4414.216091579861,11.920777777777776,0.13,179.34187378347076,12.65633597857418,59.45181827596596,1553.0,1264.0,1200.0,1528.0,1471.0,999.7000000000002,108.0,294.1,1649426949.583861,1649426950.7038434,c8322df5-7501-41b7-a5af-37db60750149
-0.1038571109243773,0.1148769335225187,-0.0625756813183826,0.6869958408890359,-0.1600403981043225,-0.8643176360106452,-0.6629096533069159,-0.6831942648555472,-17.679370271507093,28.205722893188693,-19.96356110158964,-3.320149793881225,0.644852613960544,1.2149476087949902,4413.205783420139,11.920444444444446,0.1377777777777778,179.3336866633857,12.662384205947966,59.585359098978415,1553.0,1264.0,1200.0,1528.0,1471.0,999.7000000000002,108.0,294.1,1649426950.8132727,1649426951.928652,c8322df5-7501-41b7-a5af-37db60750149
-0.1067103781266807,0.1109925895815133,-0.0324465385084803,0.8520136069046785,-0.1175974992817599,-1.0209921131548114,-0.6812296290211145,-0.7042661541991276,-17.758963736736874,29.10409067566441,-21.1397245329989,-4.037229847934769,0.6228796560136186,1.1410468919180363,4413.71044921875,11.915,0.13,179.37011585677888,12.636202857630709,59.87343371087233,1553.0,1178.0,1200.0,1528.0,1471.0,999.7000000000002,108.0,294.1,1649426953.866933,1649426955.0040014,68309a8b-6ddc-435b-a470-3ae5c6e98234
-0.1053429136778095,0.1115579835060469,-0.029632717464478,0.8483977158146319,-0.1169532131593492,-1.0175734504738116,-0.678455253142934,-0.6976786548217591,-17.692642247619148,29.23959841283813,-21.02885500846243,-4.020301627566713,0.6241740589522485,1.132567528265736,4411.439453125,11.895,0.12,179.37691417173275,12.680700401708478,60.03580552128132,1553.0,1178.0,1200.0,1528.0,1471.0,999.7000000000002,108.0,294.1,1649426955.1154716,1649426956.2345965,68309a8b-6ddc-435b-a470-3ae5c6e98234
-0.0888281502468537,0.1201440819870361,-0.0273053981355333,0.8408109186888371,-0.114336622409002,-1.0201242986212498,-0.6742608173693513,-0.6947990887516207,-17.670622912760802,28.89962971806189,-21.15950660490409,-4.01106731964427,0.6584551340265828,1.1208023144315995,4411.439453125,11.890888888888888,0.1244444444444444,179.36485357547832,12.6887385857242,60.06635923416851,1553.0,1178.0,1200.0,1528.0,1471.0,999.7000000000002,108.0,294.1,1649426956.3431103,1649426957.462573,68309a8b-6ddc-435b-a470-3ae5c6e98234
-0.1143103249989861,0.1218271150754743,-0.0126840475441435,0.91610034699926,-0.1000176913616619,-1.094822092977528,-0.6892503367826734,-0.7072772070211468,-17.770351579156916,29.93381823989856,-21.70121837905709,-4.341310488183862,0.6619492788599376,1.102316346564722,4410.431315104167,11.892888888888889,0.1255555555555555,179.3781162850267,12.738783192045403,60.19504151595137,1553.0,1088.0,1200.0,1528.0,1471.0,999.7000000000002,108.0,294.1,1649426958.3731987,1649426959.516547,bc07ea51-531b-4255-8ef9-8e7491247433
-0.105960902399876,0.1121891209148353,-0.0203102915366678,0.9096837837459542,-0.1073678129803516,-1.0779128575727963,-0.6912883854816088,-0.7217013325262076,-17.639296020792948,29.96795817520373,-21.518301083679965,-4.288897274014286,0.6235593025713893,1.1247378030957282,4400.1162109375,11.864,0.11,179.38236466269043,12.78787973016432,60.33290508979853,1553.0,1088.0,1200.0,1528.0,1471.0,999.7000000000002,108.0,294.1,1649426959.6251602,1649426960.6588962,bc07ea51-531b-4255-8ef9-8e7491247433
-0.1122196822538068,0.1117815113365247,-0.021178105535512,0.9248179319410466,-0.1060003485083876,-1.0921397571283975,-0.6978890336155628,-0.7170072462415328,-17.853146841703243,30.05986356326961,-21.645053151214423,-4.35456775885423,0.6227507090460237,1.1331734430904838,4397.106608072917,11.867333333333333,0.12,179.36914596991676,12.798169694740157,60.42172486976537,1553.0,1088.0,1200.0,1528.0,1471.0,999.7000000000002,108.0,294.1,1649426960.7689126,1649426961.969174,bc07ea51-531b-4255-8ef9-8e7491247433
-0.0924440419355918,0.0810267112305851,-0.1269199255327255,0.0900598654319385,-0.2711874349154184,-0.25601383752569,-0.544009789485431,-0.5594200661285759,-17.32948321659148,26.0523667974843,-16.113360160525485,-0.6233575291293265,0.5506730451244249,1.281983066856046,4427.3896484375,11.867,0.12,179.3727340959607,13.074687057375971,60.534047330666255,1553.0,1435.0,1200.0,1528.0,1471.0,999.7000000000002,108.0,294.1,1649426962.732797,1649426963.8192208,046f15ce-a4ba-43ae-861a-603c89dc1e91
-0.0896948685693755,0.0829502558991251,-0.1209915067530924,0.095208675598287,-0.2670242284398278,-0.2653669447331785,-0.5422840226524995,-0.5659653795620843,-17.322424894625353,26.253150899722325,-16.47381124038925,-0.6544173514004238,0.5607775254645054,1.2654664579156591,4447.042209201389,11.954555555555556,0.1455555555555555,179.31631066213714,13.093170308179934,60.355536542158426,1553.0,1435.0,1200.0,1528.0,1471.0,999.7000000000002,108.0,294.1,1649426963.9358933,1649426965.043275,046f15ce-a4ba-43ae-861a-603c89dc1e91
-0.0967042197304427,0.084708346142497,-0.1180182576105981,0.0973836891457448,-0.263942502350426,-0.2713452193295841,-0.5400257333964128,-0.5695051193645383,-17.275330935753594,26.193005294378025,-16.773271208810616,-0.6730323246112235,0.5696118968576266,1.253867903737884,4462.738932291667,11.957777777777778,0.1388888888888889,179.25027032196218,13.095149924674375,60.1411634659585,1553.0,1435.0,1200.0,1528.0,1471.0,999.7000000000002,108.0,294.1,1649426965.1589365,1649426966.2685206,046f15ce-a4ba-43ae-861a-603c89dc1e91
-0.034668668249485,0.1104140469553168,0.0447889044589168,0.0773845223474664,-0.1193199785935248,-0.2816143524771754,-0.3706310403070257,-0.3954820816684944,-16.02637956211849,26.198431391467828,-15.998736673975852,-0.6421003819007047,0.6631029764539416,0.5986794107192308,4445.252712673611,11.959111111111111,0.1444444444444445,179.16614212304523,13.095397993350478,59.5874734219815,1553.0,1435.0,1200.0,1424.0,1471.0,999.7000000000002,108.0,294.1,1649426968.4088852,1649426969.5417826,c3cd1a1e-f5f9-4ad7-8c7f-7579e2772b5e
-0.0277316350813973,0.116862934478813,0.0503113568874567,0.0790193435646395,-0.1153074345524788,-0.2884182559056924,-0.3676391634715659,-0.3844722377658907,-16.003475762509343,26.22500994871864,-15.82146218472024,-0.6605864560121056,0.685706202076724,0.5824764642005673,4431.96875,11.958,0.15,179.16465921308543,13.102643021648833,59.45783491371484,1553.0,1435.0,1200.0,1424.0,1471.0,999.7000000000002,108.0,294.1,1649426969.6496065,1649426970.7021873,c3cd1a1e-f5f9-4ad7-8c7f-7579e2772b5e
-0.0424143463186064,0.1085628201323094,0.0368750328794945,0.0815806000244061,-0.1256072472594695,-0.2832820456688947,-0.3798291028812299,-0.4023051608617403,-16.150003358025838,26.209181676495906,-16.00972867505088,-0.6557000086609394,0.6561140090809366,0.6308328817839227,4423.581868489583,11.958000000000002,0.1466666666666666,179.14911825599393,13.102302650555194,59.32080765858604,1553.0,1435.0,1200.0,1424.0,1471.0,999.7000000000002,108.0,294.1,1649426970.8191774,1649426971.9999125,c3cd1a1e-f5f9-4ad7-8c7f-7579e2772b5e
0.0236326520683442,0.1460338642800174,0.2335121370027273,0.0734267648349312,0.0527570144166598,-0.3230984952316231,-0.1793437815390709,-0.2033401548359136,-14.623542863277876,25.8623408749334,-15.993007652119822,-0.718516820551655,0.7991648700083153,-0.1598961577881917,4418.009168836806,11.95777777777778,0.1444444444444445,179.07268995700133,13.078704631564015,59.09031837158452,1553.0,1435.0,1200.0,1304.0,1471.0,999.7000000000002,108.0,294.1,1649426972.9182053,1649426974.0508225,e7263928-9a0d-40fa-80f7-32c64194aca8
0.0215683067357254,0.1452843886182215,0.2382851134971289,0.0771741432221087,0.0520732822067006,-0.3236638892875482,-0.1818288853531218,-0.1940703232278977,-14.701233069324656,26.57585204051012,-15.686776150574296,-0.7232631821286,0.794042930159432,-0.1619058094211459,4415.98486328125,11.951333333333334,0.1311111111111111,179.1034576824825,13.091616914462447,59.010274625791226,1553.0,1435.0,1200.0,1304.0,1471.0,999.7000000000002,108.0,294.1,1649426974.1599324,1649426975.2843893,e7263928-9a0d-40fa-80f7-32c64194aca8
0.0273405844439571,0.1481639530159332,0.2295017848379422,0.0729534117454443,0.0472477106750048,-0.322743480429698,-0.1859181302618144,-0.2020384337802972,-14.707000231332374,26.04260895417831,-15.75042627688198,-0.7156592976175051,0.8054017981603238,-0.137101882627162,4421.806911892361,11.950444444444445,0.14,179.11240219465557,13.0778970565584,58.95793336836161,1553.0,1435.0,1200.0,1304.0,1471.0,999.7000000000002,108.0,294.1,1649426975.3925676,1649426976.5050232,e7263928-9a0d-40fa-80f7-32c64194aca8
0.0957628595099553,0.1785870008348349,0.4268571278385363,0.0817038690676253,0.2203593956388759,-0.3726341939377526,0.0025588317498515,-0.0183905821018599,-13.273134946321113,26.794209564789973,-15.990742723725656,-0.8320163870557357,0.9229347515852022,-0.906141109803102,4420.53955078125,11.944,0.14,179.06832622503157,13.066204057290554,58.85615823735907,1553.0,1435.0,1200.0,1166.0,1471.0,999.7000000000002,108.0,294.1,1649426977.419527,1649426978.562804,a424089f-8316-4ff2-a5eb-00b7b161cb52
0.0793436781309208,0.179339510811184,0.4293488055670383,0.0795672059113956,0.2251890126839333,-0.3715120031446007,0.0076438372330375,-0.0167995895689217,-13.33639041298444,26.517270695613416,-15.973265403888238,-0.8264157334238252,0.926466258464166,-0.9231892238412178,4420.286404079861,11.93277777777778,0.1388888888888889,179.09345373207813,13.067911604583054,58.87008271634699,1553.0,1435.0,1200.0,1166.0,1471.0,999.7000000000002,108.0,294.1,1649426978.6717026,1649426979.786414,a424089f-8316-4ff2-a5eb-00b7b161cb52
0.0943331916765053,0.1775907342701139,0.426298308286246,0.077292481483107,0.2204423335541928,-0.3685272485374808,0.0031469830069841,-0.026897788560402,-13.37678853917297,26.74440926043337,-16.12180471330008,-0.8132675491134074,0.9216002454709722,-0.9067258714268952,4418.26123046875,11.942333333333332,0.1333333333333333,179.1001503531044,13.077648513563602,58.85188102111882,1553.0,1435.0,1200.0,1166.0,1471.0,999.7000000000002,108.0,294.1,1649426979.8950684,1649426981.0148113,a424089f-8316-4ff2-a5eb-00b7b161cb52
-0.1617376757741569,0.0455120827819119,-0.3246237442545005,0.13722423800731,-0.4510879291929188,-0.252582027374034,-0.7597405262619911,-0.7744539243035049,-18.765763163172075,26.894432738381337,-15.992598992859984,-0.7270029727949106,0.4082408981662512,2.09859728026244,4420.53955078125,11.945666666666666,0.14,179.32774743444736,13.084066994108642,58.99652166044245,1553.0,1435.0,1200.0,1623.0,1471.0,999.7000000000002,108.0,294.1,1649426982.7443874,1649426983.8869495,1d36361b-f83e-4560-8898-867361837f3f
-0.164814470928012,0.0400553738191045,-0.3301593462760205,0.1376186988910452,-0.4543882527197445,-0.2475855221937954,-0.763474757578292,-0.7859984844872288,-18.85856210201289,26.836235842957603,-16.02520850083743,-0.7173783066620097,0.3883202660178804,2.1152110168866525,4420.53955078125,11.957333333333333,0.14,179.35330448450176,13.087909734426685,58.99700205041408,1553.0,1435.0,1200.0,1623.0,1471.0,999.7000000000002,108.0,294.1,1649426983.9959447,1649426985.1096058,1d36361b-f83e-4560-8898-867361837f3f
-0.1625660436877326,0.0475106846155302,-0.3273849710054214,0.1320042057173362,-0.4550062416460948,-0.2498470982290667,-0.7618837647700836,-0.7951499821035517,-18.72714178718953,26.895336305291224,-16.027827788730864,-0.7091997833615096,0.4162434154820957,2.110922546655585,4420.033257378473,11.957555555555556,0.14,179.33632008076563,13.092784307628088,58.96134998076642,1553.0,1435.0,1200.0,1623.0,1471.0,999.7000000000002,108.0,294.1,1649426985.2205226,1649426986.3444748,1d36361b-f83e-4560-8898-867361837f3f
-0.2210120040266988,0.0122853271049157,-0.4959512917119735,0.1878993117105689,-0.6017457323121763,-0.2588934023814158,-0.9465835950534852,-0.9792449777378136,-20.168147639003887,27.311322941210832,-16.260720192160214,-0.8620120431665944,0.2788290777111867,2.798255580615822,4416.49072265625,11.952333333333334,0.1377777777777778,179.38174691002547,13.085086115251052,58.89024543477687,1553.0,1435.0,1200.0,1712.0,1471.0,999.7000000000002,108.0,294.1,1649426988.2742436,1649426989.4122932,ae5c7ac7-b9ca-4f6c-b2fd-e40384a4867b
-0.2296189224096541,0.0129745379441848,-0.5057963806065866,0.1899340723863507,-0.6124926035726855,-0.2590802234569175,-0.9579884522131172,-0.9844228279770988,-20.12981569667588,27.43534263805064,-16.008582402789887,-0.8666303672324615,0.2780354970279414,2.8429839943300834,4420.53955078125,11.927333333333332,0.1277777777777777,179.39508854620425,13.098787095271144,58.93104898487853,1553.0,1435.0,1200.0,1712.0,1471.0,999.7000000000002,108.0,294.1,1649426989.520728,1649426990.6455991,ae5c7ac7-b9ca-4f6c-b2fd-e40384a4867b
-0.2267563413930385,0.0119335994672239,-0.5061935808960684,0.1912078522826455,-0.6120817066606499,-0.2592993683984134,-0.9579199693341072,-0.9797386013510831,-20.135198247323327,27.38858320199132,-16.018652017166282,-0.8703302170123003,0.2740758850035816,2.842754700018692,4418.26123046875,11.92388888888889,0.12,179.3863003694722,13.08240185090724,58.950251682275066,1553.0,1435.0,1200.0,1712.0,1471.0,999.7000000000002,108.0,294.1,1649426990.7539666,1649426991.873254,ae5c7ac7-b9ca-4f6c-b2fd-e40384a4867b
-0.2768309656994367,-0.014582938440643,-0.6464189908680325,0.2518973005774605,-0.7384051139105478,-0.2838573012046531,-1.1211693601724282,-1.155095762139722,-21.25008595979259,28.293548196188272,-16.43180692513265,-1.064025929722605,0.169829062884241,3.4339765914410965,4417.93603515625,11.928857142857144,0.1285714285714286,179.4239683206663,13.062682146136028,59.02717782616719,1553.0,1435.0,1200.0,1801.0,1471.0,999.7000000000002,108.0,294.1,1649426992.7799237,1649426993.8373785,0379c88b-a5d2-4928-b666-5c07ecbfe798
-0.2610497888031742,-0.0082134906955741,-0.6480291589474969,0.2486725829677091,-0.7379925734368489,-0.2854011775445063,-1.1201859466126196,-1.1509276220243807,-21.24291343304,27.891274525252083,-16.18397146059515,-1.0629248326469212,0.1917591730607941,3.435471457146322,4419.780110677083,11.905333333333331,0.1133333333333333,179.444136893544,13.0598831915324,59.11059720323029,1553.0,1435.0,1200.0,1801.0,1471.0,999.7000000000002,108.0,294.1,1649426993.9453845,1649426995.1479762,0379c88b-a5d2-4928-b666-5c07ecbfe798
-0.2741875295252901,-0.0129119582557285,-0.644063182019718,0.2509111484042614,-0.7359397323777578,-0.2846106120376966,-1.1174712866459016,-1.14116635151806,-21.15916546169868,28.17196977157233,-16.410964012731828,-1.0641337670234707,0.1755367116524186,3.422478577267368,4409.169921875,11.910111111111112,0.1188888888888888,179.4577335234518,13.054198197413225,59.19760774197698,1553.0,1435.0,1200.0,1801.0,1471.0,999.7000000000002,108.0,294.1,1649426995.260182,1649426996.584258,0379c88b-a5d2-4928-b666-5c07ecbfe798
-0.1024502003266765,0.0463404506490199,-0.1415149794245238,0.0471688184517773,-0.2519377412529698,-0.1874170817947473,-0.5095601958947455,-0.5306507110395536,-17.9709995478975,22.82813804956059,-16.688860009514368,-0.3949749653428035,0.4345204909274377,1.2220999221299231,7449.816786024306,11.651222222222222,7.668888888888889,178.18459233344066,12.876771227117448,53.171296168509066,1553.0,1435.0,1350.0,1528.0,1471.0,999.7000000000002,108.0,294.1,1649427001.9529836,1649427002.9332402,db5febbb-fe8c-4949-be7b-6687472452fb
-0.1038834083091684,0.0528096092101075,-0.1430402282916275,0.0397003589651566,-0.2546332242942386,-0.2005526306329618,-0.5113878651412357,-0.530650710613838,-17.7996986049625,22.599212573730764,-18.64264032698625,-0.4094640198480064,0.475706600590249,1.22862796111738,7453.4140625,11.648111111111112,7.645555555555556,177.9119736807286,12.800719632030296,50.71403885358374,1553.0,1435.0,1350.0,1528.0,1471.0,999.7000000000002,108.0,294.1,1649427003.045246,1649427004.1595936,db5febbb-fe8c-4949-be7b-6687472452fb
-0.1018059141835208,0.053098880522979,-0.1330603671238469,0.0437238600221413,-0.2453502435908441,-0.1996585191644307,-0.5006059313674462,-0.5220120149172768,-17.655677169970375,22.62097605368596,-17.87010898975922,-0.4156940187349693,0.4690629298031414,1.188281033277282,7453.4140625,11.651666666666667,7.67,177.769579414732,12.736462919866106,48.44007497740506,1553.0,1435.0,1350.0,1528.0,1471.0,999.7000000000002,108.0,294.1,1649427004.2675884,1649427005.3933933,db5febbb-fe8c-4949-be7b-6687472452fb
0.0756636867589308,0.3728652981768997,-0.1478915497599709,-0.1395503449750861,-0.3349043829374827,-0.3316856909885224,-0.58445573920766,-0.6092328224252894,-18.15043893137976,22.04470106125116,-16.461239721066747,-0.303538157327626,1.681011427984858,1.4888202085031146,7460.622938368056,11.645333333333332,7.69888888888889,177.52772848750112,12.711474957378831,45.84886247465762,1658.0,1435.0,1350.0,1528.0,1551.0,999.7000000000002,108.0,294.1,1649427006.2947514,1649427007.4383142,0417a486-a5c2-47cd-9bbb-5f8525aec1eb
0.0683513680992085,0.3698641084852263,-0.1435135814603149,-0.1358873370747982,-0.329712290674591,-0.3257150862548479,-0.58030020205518,-0.6084384218223539,-18.303179456753625,22.15589382837259,-15.519237329548735,-0.2973558808453064,1.6623156893204294,1.4707092729177338,7471.462185329861,11.615555555555556,7.677777777777777,177.60732144080916,12.74328808125798,44.46381091182557,1658.0,1435.0,1350.0,1528.0,1551.0,999.7000000000002,108.0,294.1,1649427007.545884,1649427008.6635487,0417a486-a5c2-47cd-9bbb-5f8525aec1eb
0.0669937651995184,0.3714956424221582,-0.1499597302243921,-0.140029724501019,-0.3374245500730348,-0.3319048359870731,-0.5869348170425731,-0.6131226460821247,-18.136031015667072,22.111819034239183,-16.764134717172094,-0.3026483217016411,1.6783860097277776,1.4979869944147692,7466.3994140625,11.612,7.646666666666666,177.7471809477138,12.766642679896242,43.29620714868482,1658.0,1435.0,1350.0,1528.0,1551.0,999.7000000000002,108.0,294.1,1649427008.771706,1649427009.89124,0417a486-a5c2-47cd-9bbb-5f8525aec1eb
0.2482781221278122,0.7064707017212212,-0.139516377462406,-0.3323288816187807,-0.4089200512838966,-0.461988200952544,-0.6469246679957863,-0.6666082740745952,-18.41625281093357,21.71277446880485,-13.956885066686626,-0.1630020969724139,2.936180330931636,1.7093168851981424,7472.90869140625,11.598444444444445,7.705555555555555,177.7292205858363,12.854090730204778,41.838809083799134,1767.0,1435.0,1350.0,1528.0,1630.0,999.7000000000002,108.0,294.1,1649427010.8075778,1649427012.139797,be5a601f-9582-4799-b5b5-09d8e396e056
0.2542941981798602,0.705267048269055,-0.1446454651072355,-0.3382189505899913,-0.4146046721421667,-0.456351791820641,-0.650062276750036,-0.6765788247920467,-18.35543948866412,21.697552486222605,-14.126187051242107,-0.1374024590644678,2.933135774742897,1.728131044905582,7472.90869140625,11.582777777777778,7.697777777777778,177.89420608196767,12.904682415705754,41.208788640207615,1767.0,1435.0,1350.0,1528.0,1630.0,999.7000000000002,108.0,294.1,1649427012.2476056,1649427013.377983,be5a601f-9582-4799-b5b5-09d8e396e056
0.2548919159895458,0.7070623929944126,-0.1333890845477419,-0.3337620897054992,-0.4045415345217057,-0.4628165690424565,-0.6411260908658934,-0.6638470465525015,-18.32309537789002,21.801120011568663,-14.135378321324245,-0.1607213925914728,2.93988856332591,1.6865812418390431,7475.082356770833,11.581333333333331,7.689999999999999,178.070499335725,12.928891262308955,40.615919113331614,1767.0,1435.0,1350.0,1528.0,1630.0,999.7000000000002,108.0,294.1,1649427013.4863312,1649427014.6089704,be5a601f-9582-4799-b5b5-09d8e396e056
0.4294489379396827,0.990658000591926,-0.1290798520050947,-0.5360447119664328,-0.4833866979894361,-0.5347424847059353,-0.6948784868457429,-0.7223011158113997,-18.42816396240565,22.406474552955864,-11.536611880908678,0.1385404164611848,4.006444133950041,1.900514075270079,7479.4296875,11.584,7.699999999999999,178.14599113989138,13.021317666748782,39.70948698530895,1886.0,1435.0,1350.0,1528.0,1710.0,999.7000000000002,108.0,294.1,1649427016.2291756,1649427017.472144,ccba3ae6-166f-4ba1-b922-1ebc4b662377
0.402288790891539,0.982869421494002,-0.1336389099576896,-0.5257593943224693,-0.4889824811425536,-0.5267455466090157,-0.7028855403475491,-0.7309580180550383,-18.55323578304017,22.932412818586908,-10.193110942907373,0.1367201489534145,3.964663596455604,1.926489902967328,7472.90869140625,11.536111111111111,7.652222222222223,178.286706697172,13.069019518184676,39.44325721565551,1886.0,1435.0,1350.0,1528.0,1710.0,999.7000000000002,108.0,294.1,1649427017.5846052,1649427018.7042456,ccba3ae6-166f-4ba1-b922-1ebc4b662377
0.4003033379106057,0.9848811718661034,-0.14590664436105,-0.5633515278607808,-0.5041429317430692,-0.5089816534257712,-0.7063962434955579,-0.7333247851227168,-18.40229963229572,22.62129754463924,-12.36510625975358,0.2584931087375639,3.994236345211165,1.965943393917121,7479.4296875,11.522444444444444,7.687777777777778,178.4196570882762,13.121846003636584,39.21772247198693,1886.0,1435.0,1350.0,1528.0,1710.0,999.7000000000002,108.0,294.1,1649427018.8351562,1649427019.9272106,ccba3ae6-166f-4ba1-b922-1ebc4b662377
-0.3283437301536565,-0.3688718539781188,-0.1284698284158341,0.2980683968780631,-0.147316294363505,-0.0218969009524457,-0.4191245375229057,-0.451242975149362,-17.54136940816088,24.51630971328848,-17.773352143599737,-0.5771129506592824,-1.1462425735322628,0.8830958367817462,7479.4296875,11.608666666666666,7.71,179.59188299221032,13.09924329498946,38.76437208092191,1449.0,1435.0,1350.0,1528.0,1386.0,999.7000000000002,108.0,294.1,1649427021.861678,1649427023.2028017,887ee49d-d074-4b80-b767-d323e4d5c5b1
-0.3270431047613837,-0.3669757020393547,-0.1272880891376194,0.2981116780038099,-0.1436976632020192,-0.0259116362879307,-0.4175587464971019,-0.4407399034116699,-17.682296683448048,24.2796393314016,-18.059945768798848,-0.5878589263417884,-1.1355277568702014,0.8741511159296163,7479.4296875,11.652666666666669,7.739999999999999,179.68396304914097,13.105831581626369,38.55229698392274,1449.0,1435.0,1350.0,1528.0,1386.0,999.7000000000002,108.0,294.1,1649427023.3117125,1649427024.4334023,887ee49d-d074-4b80-b767-d323e4d5c5b1
-0.331053457742416,-0.3727216833415239,-0.1319953226878554,0.3004389970730036,-0.1468796479205267,-0.0204812246078047,-0.420701285530861,-0.4414367844894001,-17.70409359618654,24.29263727054384,-17.814081001591234,-0.5810259314800685,-1.159688236180503,0.8890272123246892,7479.4296875,11.650555555555554,7.760000000000001,179.78510904382995,13.13134698649955,38.37433982019264,1449.0,1435.0,1350.0,1528.0,1386.0,999.7000000000002,108.0,294.1,1649427024.5419152,1649427025.866687,887ee49d-d074-4b80-b767-d323e4d5c5b1
-0.5203010400071509,-0.7193805860795646,-0.1374273782231426,0.5066669677287704,-0.0792170008107631,0.1312306241136816,-0.3625577394062098,-0.3875402679020694,-17.31425511641004,26.08146818542048,-17.357859444760745,-0.6934520708919001,-2.4923776526073183,0.6815330870706545,7479.4296875,11.641444444444444,7.707777777777778,-179.98009576643565,13.16112253214005,38.13475310067161,1342.0,1435.0,1350.0,1528.0,1293.0,999.7000000000002,108.0,294.1,1649427027.8007658,1649427028.9378138,51b3fee2-3596-472d-a5bb-e95f2b262264
-0.5244784914690995,-0.7169973839223448,-0.138043723364305,0.5030099869490701,-0.0805044773099905,0.1318058795527239,-0.3632288708859608,-0.3938817751515142,-17.33067434405126,26.066711776155227,-17.427492106357107,-0.6840580192003113,-2.4822949024097176,0.6852350372778105,7479.4296875,11.60877777777778,7.742222222222223,-179.90640257875066,13.187549008357522,38.1201626782396,1342.0,1435.0,1350.0,1528.0,1293.0,999.7000000000002,108.0,294.1,1649427029.0458062,1649427030.168499,51b3fee2-3596-472d-a5bb-e95f2b262264
-0.5228896902671458,-0.716298859144929,-0.1298942704794457,0.4999967443053929,-0.0727111351700197,0.1391883244415376,-0.3544219821275365,-0.3714742008996701,-17.46157111468176,26.11354083067562,-16.610243339367386,-0.6598909347745169,-2.4851033891214978,0.6520724888509505,7485.9619140625,11.608,7.746666666666666,-179.88214781809802,13.18974557822185,38.10913040491022,1342.0,1435.0,1350.0,1528.0,1293.0,999.7000000000002,108.0,294.1,1649427030.2784092,1649427031.3987408,51b3fee2-3596-472d-a5bb-e95f2b262264
-0.7406486111193255,-1.1081943266235776,-0.1411599647282535,0.6419763529079979,-0.0197711951353645,0.4186063215211756,-0.2755528027837701,-0.3008246008131039,-17.045124689413093,29.02722795556417,-12.669445529485705,-0.3326805565412503,-4.010969859064416,0.4415088976019634,7479.4296875,11.586333333333332,7.71111111111111,-179.7046296837496,13.216275550777995,38.134852517869525,1227.0,1435.0,1350.0,1528.0,1189.0,999.7000000000002,108.0,294.1,1649427032.3135474,1649427033.446687,675721fb-bfe0-4b65-a987-83627ef7cfd2
-0.733969070730365,-1.104236566211834,-0.1576352823583405,0.649024053414297,-0.0347870066352611,0.4030119691089462,-0.2947893480896044,-0.3194826035502522,-16.960294657642223,28.864145545533383,-13.547907210966992,-0.3856198186679178,-3.990855409451181,0.5112353362038529,7479.4296875,11.504333333333332,7.688888888888889,-179.6690185952369,13.218853188279766,38.22696634629109,1227.0,1435.0,1350.0,1528.0,1189.0,999.7000000000002,108.0,294.1,1649427033.554959,1649427034.8849995,675721fb-bfe0-4b65-a987-83627ef7cfd2
-0.7345974689961107,-1.1079658678196749,-0.1526031663963904,0.6349352267586802,-0.0307037885150207,0.4223783535162641,-0.2829670250568877,-0.3055937436019458,-16.859783083830436,28.78877312398774,-13.093583602443864,-0.3104460962428483,-4.00752824559754,0.4821492783205156,7479.4296875,11.508666666666665,7.693333333333332,-179.65902830521094,13.229699908136702,38.34328067330687,1227.0,1435.0,1350.0,1528.0,1189.0,999.7000000000002,108.0,294.1,1649427034.9928277,1649427036.1051357,675721fb-bfe0-4b65-a987-83627ef7cfd2
-0.1254892461104154,0.0440151542792168,-0.1635193242847177,0.0389579633365969,-0.2732730207698138,-0.1902212943890346,-0.5295335766292439,-0.5434408560774168,-17.831685703570336,22.649900417107435,-18.64526914349934,-0.3852736921535286,0.441765742511081,1.3066494070342327,7479.4296875,11.522777777777778,7.687777777777778,179.93799144475204,13.247562750091056,38.519146281331125,1553.0,1435.0,1350.0,1528.0,1471.0,999.7000000000002,108.0,294.1,1649427036.737336,1649427037.7506073,bdbc8f36-1b8a-4ad2-979e-82c1e767b8a5
-0.1138632693084513,0.0436712653024066,-0.1616982297177264,0.0351903561141941,-0.2724102639019257,-0.1857208998092759,-0.5257067992222333,-0.5456533775893458,-17.711442147369734,22.63832329026115,-18.52543061868661,-0.3665683431293511,0.4391418940471429,1.297726650007684,7479.4296875,11.648777777777775,7.754444444444443,179.8956761461141,13.23768677086991,38.46062559997741,1553.0,1435.0,1350.0,1528.0,1471.0,999.7000000000002,108.0,294.1,1649427037.8589218,1649427038.9781768,bdbc8f36-1b8a-4ad2-979e-82c1e767b8a5
-0.0958627031243951,0.0523231074485751,-0.1459986852259781,0.0409889311475171,-0.2595245399638629,-0.1914405832435177,-0.5153456237979617,-0.5317814986029213,-17.817535404772915,22.879838113338124,-17.277109481310063,-0.3899730517191836,0.4615640602600658,1.2467085621659884,7479.4296875,11.647,7.760000000000001,179.86700756543783,13.227749319946232,38.431218220505926,1553.0,1435.0,1350.0,1528.0,1471.0,999.7000000000002,108.0,294.1,1649427039.0876637,1649427040.2023137,bdbc8f36-1b8a-4ad2-979e-82c1e767b8a5
-0.0955339857285121,0.0353218431551296,-0.1757278898570778,-0.2403142923775551,-0.3127110237111298,0.0965947673942191,-0.4608048181063864,-0.4788842797414978,-17.731147075311878,22.08937747975915,-15.419188095390671,0.8854512670081336,0.4134572058262341,1.280501787828184,7479.4296875,11.647666666666668,7.771111111111111,179.80651333886897,13.300469964584403,38.4377664746452,1553.0,1522.0,1350.0,1528.0,1471.0,999.7000000000002,108.0,294.1,1649427041.296683,1649427042.2553833,edf06dde-1485-4112-a6e7-5ec9d70028b4
-0.0933118559665644,0.0417384069478159,-0.1660372999169624,-0.2364880213816072,-0.304650871735195,0.0897048506238552,-0.4539806432023524,-0.4723625255451344,-17.708113414804362,22.151261891822813,-14.941576417376728,0.8623180686912483,0.4332714198387488,1.2480723502656237,7479.4296875,11.649888888888889,7.764444444444444,179.78417103118394,13.31074228450489,38.41125016246739,1553.0,1522.0,1350.0,1528.0,1471.0,999.7000000000002,108.0,294.1,1649427042.373273,1649427043.5844734,edf06dde-1485-4112-a6e7-5ec9d70028b4
-0.10079346455667,0.039200708551674,-0.1704815595950659,-0.237855485891548,-0.3086875220507102,0.0871934496496181,-0.4585563905264458,-0.4890350759397522,-17.714449186087514,22.14644115501112,-15.865154469317128,0.8593556156223091,0.4318705399783399,1.2645191888244895,7479.4296875,11.650875,7.76,179.77637949288822,13.321305658232973,38.42023755305026,1553.0,1522.0,1350.0,1528.0,1471.0,999.7000000000002,108.0,294.1,1649427043.6928957,1649427044.812177,edf06dde-1485-4112-a6e7-5ec9d70028b4
-0.0971594933895795,0.0228086671134469,-0.2053623145873048,-0.5542959080999178,-0.3752681480809896,0.4131468738132676,-0.4063730386574857,-0.428657345183456,-17.833717671806443,21.93346170691889,-13.16691688627524,2.3028499286265816,0.3840658828958661,1.3275043545745815,7485.9619140625,11.653,7.760000000000001,179.74568822758027,13.37185654046844,38.418583129451314,1553.0,1613.0,1350.0,1528.0,1471.0,999.7000000000002,108.0,294.1,1649427045.928277,1649427047.059543,0a1bc24d-1285-4322-8f38-98e4ba04a195
-0.0868733773624024,0.0352588389795745,-0.1892688567435424,-0.5573639380708211,-0.3622838082489458,0.4055726775219996,-0.390306972296557,-0.4120160229161911,-17.567197804065703,21.774856596793736,-12.787010367930138,2.2926950751077904,0.4269034227723655,1.26727427870191,7479.4296875,11.653444444444444,7.762222222222222,179.70408175079618,13.367215237199936,38.40364512628153,1553.0,1613.0,1350.0,1528.0,1471.0,999.7000000000002,108.0,294.1,1649427047.1672754,1649427048.3004403,0a1bc24d-1285-4322-8f38-98e4ba04a195
-0.0876814743509933,0.0298213051796457,-0.1926929966468033,-0.5496253803166239,-0.3640917541964829,0.4061890225978445,-0.3943474578109598,-0.4107833319492013,-17.62274092099729,21.86186522102986,-12.47345113220824,2.277052109993478,0.4029550392649302,1.2799346418132749,7482.332899305556,11.649555555555557,7.765555555555555,179.68754206826603,13.361591050737124,38.37670040946078,1553.0,1613.0,1350.0,1528.0,1471.0,999.7000000000002,108.0,294.1,1649427048.4147866,1649427049.5229113,0a1bc24d-1285-4322-8f38-98e4ba04a195
-0.0885388789167607,0.0187413370438718,-0.2252458848190603,-0.8731349372986729,-0.4323247356770047,0.7289418214406288,-0.3432554499746698,-0.3706047437378664,-17.76191519779861,21.88213695705952,-10.4132280405723,3.730850865888489,0.3818913733451805,1.3431223422523249,7479.4296875,11.639666666666663,7.753333333333334,179.6462239772469,13.457423822298018,38.39650378404933,1553.0,1710.0,1350.0,1528.0,1471.0,999.7000000000002,108.0,294.1,1649427051.25323,1649427052.3885384,8d65d2f5-4604-46a0-b08a-ab21e40788a4
-0.0807679990952026,0.0201088014692069,-0.2252195873739774,-0.8729903015668283,-0.4320880590094767,0.7275743571652975,-0.3421378105716062,-0.3569826918766239,-17.659460191398647,21.77129902459228,-10.393037378811222,3.726773071440354,0.386098075301674,1.3414852012492766,7482.332899305556,11.618888888888888,7.739999999999999,179.63112015226227,13.442951600084148,38.39902867731251,1553.0,1710.0,1350.0,1528.0,1471.0,999.7000000000002,108.0,294.1,1649427052.4969876,1649427053.622709,8d65d2f5-4604-46a0-b08a-ab21e40788a4
-0.0841751551695094,0.0171656849232804,-0.2210311792971789,-0.8652490027458866,-0.4260686941444143,0.7282224782499199,-0.3388079026672674,-0.3614209252573842,-17.80273826116461,21.815342675540336,-9.668731009047908,3.7113108740803753,0.3689673268394629,1.323451323266845,7479.4296875,11.631444444444444,7.745555555555557,179.65047994400973,13.45663455599393,38.4323812499396,1553.0,1710.0,1350.0,1528.0,1471.0,999.7000000000002,108.0,294.1,1649427053.7306478,1649427054.8519895,8d65d2f5-4604-46a0-b08a-ab21e40788a4
-0.0755216690284599,0.0206347493194678,-0.2378686346027288,-1.144379566005603,-0.4837361499158071,0.9850126588617988,-0.2918834857490228,-0.3178127186653732,-17.42579149499358,22.339332318336503,-9.113109664564444,4.920916372883575,0.4076944614682364,1.3569419384733572,7479.4296875,11.599555555555556,7.741111111111111,179.6222059964855,13.535562135040353,38.48648355781022,1553.0,1814.0,1350.0,1528.0,1471.0,999.7000000000002,108.0,294.1,1649427055.7620828,1649427057.0975792,ada17e3b-f1bb-42bd-84cc-b1495325c0e5
-0.0674878152972214,0.01917524402213,-0.2264818623498947,-1.1257741468632303,-0.4687334838253439,0.9798978163994332,-0.2839285233473529,-0.308529738214259,-17.72015660091562,22.37835914383059,-7.533364169478816,4.868382715142595,0.3887344258071318,1.311652920991358,7479.4296875,11.578,7.73,179.6081585740925,13.517273449763996,38.5217823548958,1553.0,1814.0,1350.0,1528.0,1471.0,999.7000000000002,108.0,294.1,1649427057.2065818,1649427058.3330853,ada17e3b-f1bb-42bd-84cc-b1495325c0e5
-0.0627421471461621,0.0223703772459119,-0.2273157931974123,-1.1294557847058304,-0.4681519067425213,0.9676477838381422,-0.2816553157437145,-0.3010622888734408,-17.434805180162062,21.91417494089424,-9.301026580922535,4.845903334967546,0.414757767558694,1.3070122297004307,7479.4296875,11.584333333333332,7.739999999999999,179.60759242730128,13.516583505794086,38.55648730497854,1553.0,1814.0,1350.0,1528.0,1471.0,999.7000000000002,108.0,294.1,1649427058.4411218,1649427059.564251,ada17e3b-f1bb-42bd-84cc-b1495325c0e5
-0.1228405422671511,0.0561597874419369,-0.1252511367858516,0.3963548943172292,-0.2023353748805179,-0.5364355904578927,-0.5958923692216193,-0.616437214174165,-18.3214423937958,23.77504803407988,-19.50433927942748,-1.9604825883061068,0.4568376640262199,1.2549340670176574,7479.4296875,11.609555555555556,7.736666666666666,179.56394751850493,13.138735638497948,38.66099565001395,1553.0,1349.0,1350.0,1528.0,1471.0,999.7000000000002,108.0,294.1,1649427061.494028,1649427062.629218,e7466f71-91f5-4f6f-b324-5f970c5b736a
-0.1139947563036786,0.0552421180174041,-0.1211213502175035,0.3973317327933546,-0.1977914042137459,-0.5409987371808143,-0.5905298909630041,-0.6073996739837858,-18.175737328402764,23.655780921070328,-20.115403668783088,-1.9735491598299224,0.4579199434076877,1.2346671535365374,7479.4296875,11.636444444444445,7.741111111111111,179.55183379855694,13.001427586703276,38.68104642923244,1553.0,1349.0,1350.0,1528.0,1471.0,999.7000000000002,108.0,294.1,1649427062.7380075,1649427063.8640387,e7466f71-91f5-4f6f-b324-5f970c5b736a
-0.111983005641041,0.0548345084281616,-0.1201220492011191,0.405444477720639,-0.196673764884579,-0.5362783539167985,-0.5924364524499341,-0.6097006970375332,-18.38744140669648,23.90433176442501,-18.445504121187145,-1.9793851359892085,0.4421579845573364,1.2366242673523344,7473.633246527777,11.630777777777778,7.7555555555555555,179.53767861095704,12.99238441624218,38.67378631759967,1553.0,1349.0,1350.0,1528.0,1471.0,999.7000000000002,108.0,294.1,1649427063.9718995,1649427065.291258,e7466f71-91f5-4f6f-b324-5f970c5b736a
-0.1287163662970305,0.0765539630954574,-0.102336792880076,0.6602053748970428,-0.1613004816665442,-0.8113804107637547,-0.656842075724371,-0.6864540467785286,-18.362830098145125,24.8465953869519,-21.3679199799218,-3.1655758520654387,0.5191232013636505,1.2562717016661775,7483.784505208333,11.631666666666668,7.726666666666666,179.47964477030916,12.880954717984084,38.74406934361404,1553.0,1264.0,1350.0,1528.0,1471.0,999.7000000000002,108.0,294.1,1649427066.4069912,1649427067.4406052,a520ad5e-354e-4cc5-bda8-f261abc05316
-0.1212517413773639,0.07140405709697,-0.1090481070063438,0.6614243684945145,-0.1654368427278843,-0.8033405270256845,-0.6603346994298912,-0.6812904431059646,-18.390425630243403,24.727359919805068,-20.82077906884226,-3.151310189121626,0.4945763731673603,1.2762154681880984,7483.784505208333,11.608,7.743333333333333,179.46053845447094,12.885235254455171,38.807269084004176,1553.0,1264.0,1350.0,1528.0,1471.0,999.7000000000002,108.0,294.1,1649427067.5492115,1649427068.5745783,a520ad5e-354e-4cc5-bda8-f261abc05316
-0.1221863945966745,0.0702579290798204,-0.1052508728477913,0.6659858699215695,-0.1615009992963779,-0.809455769385449,-0.6590740677307046,-0.6871070990406882,-18.46616605068209,24.826642481417856,-21.233698886534256,-3.174598299469046,0.4941542559708243,1.263109000634781,7479.4296875,11.604888888888889,7.732222222222223,179.4691277968072,12.87457778775649,38.83780723923826,1553.0,1264.0,1350.0,1528.0,1471.0,999.7000000000002,108.0,294.1,1649427068.6945326,1649427069.8027494,a520ad5e-354e-4cc5-bda8-f261abc05316
-0.1293874977292182,0.0714999329791151,-0.0773816618967746,0.793596146234495,-0.1273741035799883,-0.9326771975926014,-0.6701414390534713,-0.7006299911973098,-18.34098038370732,25.677117702549467,-21.81866850344332,-3.732355448736504,0.4891806897943628,1.1945783391611025,7479.4296875,11.602,7.722222222222222,179.45704139761588,12.831213106443556,38.958539180827216,1553.0,1178.0,1350.0,1528.0,1471.0,999.7000000000002,108.0,294.1,1649427071.936786,1649427073.0735672,7a48b032-70e4-4802-a45b-ed12a8913274
-0.1293738011905222,0.0715136295615007,-0.085284576508506,0.8011977355385108,-0.1341128107968356,-0.9422921870165272,-0.6820711460089711,-0.7031364627145694,-18.474570427824613,25.7469531715506,-22.264739043035306,-3.7711778535298257,0.4926953531069141,1.230831686416134,7478.705132378473,11.576777777777778,7.73,179.45020665498643,12.846175110139162,39.007711989391865,1553.0,1178.0,1350.0,1528.0,1471.0,999.7000000000002,108.0,294.1,1649427073.181681,1649427074.303375,7a48b032-70e4-4802-a45b-ed12a8913274
-0.1202140900120629,0.0783312285215824,-0.0736414054406165,0.7898991714733279,-0.1266438029584572,-0.9329089432448676,-0.6713549545218275,-0.6958641340113516,-18.592245629801205,25.96089915251201,-21.376645826602942,-3.722525301098711,0.5133600610677292,1.1913384705655463,7479.4296875,11.575,7.707777777777778,179.47133926027846,12.837851860589332,39.04186369415184,1553.0,1178.0,1350.0,1528.0,1471.0,999.7000000000002,108.0,294.1,1649427074.411794,1649427075.4995964,7a48b032-70e4-4802-a45b-ed12a8913274
-0.1212791344811446,0.0813948747145171,-0.0616234965875769,0.8698169400680809,-0.1118383700752293,-1.0183229261093456,-0.6855687005770453,-0.7194529052437219,-18.406121972130432,26.51322624129736,-22.645896122212108,-4.090585612540217,0.5257142433980703,1.174213286699618,7479.4296875,11.594,7.75,179.43837221388452,12.762425322674972,39.11207424427002,1553.0,1088.0,1350.0,1528.0,1471.0,999.7000000000002,108.0,294.1,1649427077.228442,1649427078.206205,98cc4431-6910-4df5-a48a-3596197968c0
-0.112758778814775,0.0865491635907427,-0.0609134669549118,0.862558860392015,-0.1139553102989033,-1.013536797813525,-0.686646894101781,-0.7103145572703713,-18.519230725660044,26.691233658003068,-22.20091104219797,-4.062228709158768,0.5428442808215734,1.1786993900808964,7479.4296875,11.566333333333334,7.703333333333333,179.44428715770573,12.779782635767004,39.15386855125629,1553.0,1088.0,1350.0,1528.0,1471.0,999.7000000000002,108.0,294.1,1649427078.3268712,1649427079.4235446,98cc4431-6910-4df5-a48a-3596197968c0
