raw_voltage_G-,raw_voltage_G0,raw_voltage_G1,raw_voltage_G2,raw_voltage_G3,raw_voltage_G4,raw_voltage_G5,raw_voltage_G6,load_x,load_y,load_z,load_l,load_m,load_n,rpm,voltage,current,roll,pitch,yaw,aileron1_pwm,elevator_pwm,throttle_pwm,rudder_pwm,aileron2_pwm,pbaro,pdiff,Tt,sample_start_time,sample_end_time,uid
0.2888812938288631,0.4660731110415778,0.3091565821048334,-0.4441059704508053,0.0507058177287599,0.2393896037749776,0.1235495940663491,0.1050362299416948,-6.303227089761187,16.291645629388505,42.29287532737649,1.6666967321934214,1.492383666321902,-0.5653289943840673,4372.437174479167,11.939666666666666,0.15,179.5500458068142,-11.262331081241369,110.54818266016548,1553.0,1435.0,1200.0,1528.0,1471.0,998.74,108.0,293.1,1649412844.1239846,1649412845.1635644,807878ce-d0ac-48c8-9b19-b0b1818c1bfb
0.2878688442893188,0.4670855605651679,0.3182817766869629,-0.4393198438201764,0.054532088314683,0.2373778534301708,0.1242333262496777,0.099014127326398,-6.485972405786636,17.015664315657208,42.80415917350138,1.6566232248634916,1.492944391123732,-0.5834920032871366,4375.4091796875,11.942666666666668,0.15,179.555972893194,-11.254018835885198,109.92590309763332,1553.0,1435.0,1200.0,1528.0,1471.0,998.74,108.0,293.1,1649412845.2766626,1649412846.3281567,807878ce-d0ac-48c8-9b19-b0b1818c1bfb
0.2765741148813889,0.4674405753337101,0.3190838471569981,-0.4306154048758382,0.0533618544104606,0.2294491899115646,0.1196181340507263,0.0981331646089627,-6.498449609919679,17.35330325924778,42.84723569081736,1.6214501506702488,1.4929673072331144,-0.5763876275354863,4377.89208984375,11.943444444444443,0.15,179.51944352369296,-11.234849340797128,109.40303542065084,1553.0,1435.0,1200.0,1528.0,1471.0,998.74,108.0,293.1,1649412846.4366963,1649412847.4605825,807878ce-d0ac-48c8-9b19-b0b1818c1bfb
0.4646596263115521,0.7882818819664192,0.3692177993762636,-0.5517725805872031,0.0323204000815394,0.0300193781628808,0.0998465406481113,0.0721331352337145,-5.495252533010491,16.118545978653028,43.45266599194127,1.441518113964222,2.7019253073454976,-0.5480942183460585,4446.786566840277,11.939666666666668,0.15,179.10599699503393,-11.158453295475582,108.33412144028256,1658.0,1435.0,1200.0,1528.0,1551.0,998.74,108.0,293.1,1649412849.4893742,1649412850.6265457,34b84ae4-99ea-4765-8e00-716272639121
0.4588807748233889,0.7908195801001301,0.3631188277843638,-0.5551072937219952,0.0337439995498855,0.0270118665052698,0.1019068404668648,0.0877062486753314,-5.462746190040679,15.169295607983086,42.93808233207692,1.4356200813144309,2.715781721965775,-0.5446887003872001,4461.44482421875,11.936888888888888,0.1411111111111111,179.00249989745063,-11.130158383065158,108.02596000094958,1658.0,1435.0,1200.0,1528.0,1551.0,998.74,108.0,293.1,1649412850.7346232,1649412851.8522494,34b84ae4-99ea-4765-8e00-716272639121
0.4522821527505821,0.7893691778994737,0.3653996206635787,-0.5512162891487861,0.0282367185590174,0.0323456859224061,0.0974696612678202,0.0831957401099151,-5.348883719234298,16.064490219576662,43.98333676580649,1.4451005892769382,2.699952583698995,-0.5329338792260268,4469.716634114583,11.932333333333332,0.14,178.93459567454218,-11.12682980420964,107.81746847653493,1658.0,1435.0,1200.0,1528.0,1551.0,998.74,108.0,293.1,1649412851.9602673,1649412853.0838776,34b84ae4-99ea-4765-8e00-716272639121
0.6118921388303854,1.0225653328292783,0.4062596967537701,-0.6104238756065692,0.0029103062995022,-0.1546768259991758,0.0548082108248781,0.0335336203486743,-4.974863252244462,17.346956573986258,42.10469973039037,1.168818832622901,3.5984848163911063,-0.4686111734054894,4473.6044921875,11.922666666666666,0.1433333333333333,178.56449504417586,-11.082182280561344,107.364422028888,1767.0,1435.0,1200.0,1528.0,1630.0,998.74,108.0,293.1,1649412854.9247055,1649412856.061762,d702352f-5b5e-4aa8-9f9a-e53e09162002
0.6042658957448482,1.0329265048294385,0.4165682737665031,-0.607136700727076,0.0073151195785031,-0.1664843560511814,0.0577140725209346,0.0314955722505118,-4.885421676924081,17.7523222040905,42.34505586131419,1.1381545276820786,3.634837857087605,-0.4912820360927031,4467.387912326389,11.893111111111113,0.13,178.49599431807988,-11.0413654495363,107.13609032275428,1767.0,1435.0,1200.0,1528.0,1630.0,998.74,108.0,293.1,1649412856.170716,1649412857.3854563,d702352f-5b5e-4aa8-9f9a-e53e09162002
0.5956403518406977,1.0171217729228472,0.4223799970258299,-0.6135532674438167,0.011825122441044,-0.1496540241540992,0.0649064093307888,0.047813104031051,-5.04656783646931,18.21657002274509,41.741925242938215,1.1936384136399072,3.583212909904069,-0.5187097238061749,4460.159613715277,11.894666666666666,0.13,178.4551285373658,-11.02818346902939,106.93593466476668,1767.0,1435.0,1200.0,1528.0,1630.0,998.74,108.0,293.1,1649412857.4939868,1649412858.824334,d702352f-5b5e-4aa8-9f9a-e53e09162002
0.7240899529953458,1.2392295413949317,0.4381847284996054,-0.6565889673831038,-0.0073719746221814,-0.3511052254864017,0.0210949529690959,-0.0067276883182444,-4.8291491878742265,16.610892406357358,38.32024509315331,0.8277354079029235,4.451312831414664,-0.4292452038418439,4440.38671875,11.872333333333334,0.1266666666666666,178.2535074243463,-10.989393022321856,106.55145420946776,1886.0,1435.0,1200.0,1528.0,1710.0,998.74,108.0,293.1,1649412860.9563906,1649412862.101689,f89bb382-252d-4aa1-9065-f10b3a97d732
0.6886805174308351,1.2186912780543884,0.4337799157633899,-0.6453073789246976,-0.0121843972913874,-0.3424665288095069,0.014730984400159,0.0014245035295181,-4.856438238661772,17.273720212870685,38.11517529920158,0.8258274226574754,4.374635524807159,-0.4105918978590143,4435.7919921875,11.831,0.12,178.2467318766896,-10.968063764499984,106.3051166068621,1886.0,1435.0,1200.0,1528.0,1710.0,998.74,108.0,293.1,1649412862.2107575,1649412863.246499,f89bb382-252d-4aa1-9065-f10b3a97d732
0.6978714552154002,1.2137999631536829,0.4383030667093828,-0.6576934554371542,-0.0087525879059371,-0.3292652355130955,0.027130204376375,0.006263223579834,-4.503952336360951,17.105227683643978,37.75465212885483,0.8826606736994819,4.358799496490519,-0.4399788299477589,4422.064290364583,11.823,0.1133333333333333,178.23009353587148,-10.94989176162195,106.07139208692372,1886.0,1435.0,1200.0,1528.0,1710.0,998.74,108.0,293.1,1649412863.3552406,1649412864.5575926,f89bb382-252d-4aa1-9065-f10b3a97d732
0.0903643083386732,0.1042462970693213,0.2648500298951416,-0.3413048912847545,0.0773167559312237,0.5095927630850959,0.1700782773501809,0.1367640330893244,-6.892558034380662,17.940207482251733,43.75368317709373,2.050643813318796,0.1110993076816482,-0.649334382796934,4405.645616319444,11.846333333333334,0.1111111111111111,178.9893161145327,-10.83735566758205,105.80961598006408,1449.0,1435.0,1200.0,1528.0,1386.0,998.74,108.0,293.1,1649412865.4623454,1649412866.5109131,f9160eb2-e8d3-4ce9-a838-a5b7004c7839
0.0719409621672029,0.1016307179949039,0.2671070541181402,-0.3403232904060501,0.0807768859756827,0.5128561680544133,0.1754737942036291,0.1565396718163657,-6.770224830375469,17.798855126894104,44.01212954261654,2.05504098909328,0.0981526779107245,-0.6646056424050879,4424.346842447917,11.939666666666668,0.15,178.99017975400773,-10.840654554087427,105.73866169823629,1449.0,1435.0,1200.0,1528.0,1386.0,998.74,108.0,293.1,1649412866.619418,1649412867.7363007,f9160eb2-e8d3-4ce9-a838-a5b7004c7839
0.0889027801739191,0.1151081314278374,0.2699471723041188,-0.3533010558308371,0.0814080233453534,0.5105945925046677,0.1789450498694972,0.1611417157166861,-6.731407572285337,17.549885940538303,43.89620411272761,2.077725618633102,0.1512275443264539,-0.6727961935001698,4436.300726996527,11.939222222222222,0.15,178.97236206719288,-10.828183292709154,105.6826397277539,1449.0,1435.0,1200.0,1528.0,1386.0,998.74,108.0,293.1,1649412867.844553,1649412868.85548,f9160eb2-e8d3-4ce9-a838-a5b7004c7839
-0.0967699632358291,-0.2248514237448459,0.2066362030586431,-0.2579729936841405,0.1005788222433473,0.747967983094984,0.2095815109006249,0.1834024576845277,-7.663562674210331,17.56167711942831,42.64644530986598,2.3923558288489284,-1.1219036385827863,-0.6989461754943008,4436.8125,11.922444444444444,0.1455555555555555,179.094376566526,-10.743149239953528,105.5551610770848,1342.0,1435.0,1200.0,1528.0,1293.0,998.74,108.0,293.1,1649412870.992978,1649412872.127746,27d8dfc0-fbf3-40ea-b102-878593de1c63
-0.0808721772080545,-0.2173278401001938,0.2181089457467788,-0.2587715241455687,0.0974443753971249,0.7475588563894674,0.2084370686590479,0.1763871226514323,-7.475706320865938,18.89310675863289,43.553903419389634,2.4028744457003133,-1.102209797956891,-0.7069179433456712,4425.866753472223,11.910777777777778,0.14,179.09865681840586,-10.725299963513775,105.42161721843269,1342.0,1435.0,1200.0,1528.0,1293.0,998.74,108.0,293.1,1649412872.2436607,1649412873.4716766,27d8dfc0-fbf3-40ea-b102-878593de1c63
-0.0896039233969609,-0.2237995280171308,0.2239530352425134,-0.2673611642697846,0.1069427911518471,0.7576454226356433,0.221599418721147,0.1943158751252023,-7.515592424093727,18.50386615078379,43.04030697503941,2.442525156213384,-1.1202268146398475,-0.7480125621262756,4415.98486328125,11.907444444444444,0.1355555555555555,179.0961205414941,-10.72706072936356,105.2852934727884,1342.0,1435.0,1200.0,1528.0,1293.0,998.74,108.0,293.1,1649412873.5795472,1649412874.699757,27d8dfc0-fbf3-40ea-b102-878593de1c63
-0.315235573650309,-0.5794323877055568,0.1678344016684332,-0.1511266774032187,0.1220769399936639,0.991613304039078,0.2444255540634958,0.2255834734291854,-8.301799658603626,20.284816788379217,41.83556703309929,2.7145097053161606,-2.455662471776266,-0.7696218842959306,4406.651258680556,11.896,0.1366666666666666,179.17187037502916,-10.700058335389825,105.0704255873286,1227.0,1435.0,1200.0,1528.0,1189.0,998.74,108.0,293.1,1649412876.430148,1649412877.3723323,7c0a89f8-07fe-46bc-a8bc-4e9c76d88b99
-0.3007851543276823,-0.5703071897038607,0.1745796828002069,-0.1607515236091673,0.1257980211314986,0.9919025752153804,0.2496981811425402,0.2289758369008829,-8.372273894384056,20.320803336831545,41.9339535177801,2.7374256687974103,-2.420197379069648,-0.7902973195778606,4404.638671875,11.821777777777775,0.11,179.2017941926929,-10.6603494179664,104.79549605394736,1227.0,1435.0,1200.0,1528.0,1189.0,998.74,108.0,293.1,1649412877.5030515,1649412878.4588013,7c0a89f8-07fe-46bc-a8bc-4e9c76d88b99
-0.301850198852298,-0.5667964868028537,0.1761443776021672,-0.1518104100724224,0.1243516645933263,0.9812784297258484,0.2469369549553194,0.2193904377807148,-8.143772948414515,20.56789555433942,42.07420193130178,2.6952361272525542,-2.4108878589977056,-0.7857693982617882,4408.666124131944,11.817555555555556,0.1077777777777777,179.22402266389176,-10.643999462913207,104.49666009956114,1227.0,1435.0,1200.0,1528.0,1189.0,998.74,108.0,293.1,1649412878.5681465,1649412879.7119637,7c0a89f8-07fe-46bc-a8bc-4e9c76d88b99
0.2689463543528039,0.4643435519229685,0.3253972437681772,-0.4370628192782663,0.0607418129582299,0.241258235671994,0.1336917901475697,0.1150054703105344,-6.245219713523911,17.04965067314877,43.331106219078215,1.661036457091171,1.4764596558730867,-0.614530240532077,4400.1162109375,11.889333333333331,0.1322222222222222,178.6418401063371,-10.682236189979276,104.11018143447504,1553.0,1435.0,1200.0,1528.0,1471.0,998.74,108.0,293.1,1649412881.5491705,1649412882.782507,61cb2f19-882d-4f11-90fe-14205a903819
0.2940487311362791,0.4620890564228154,0.3174008140720658,-0.432627156565542,0.0545715343120884,0.2415854357990035,0.1257454262226488,0.1041026726729197,-6.295520738446289,17.010203240773414,43.58345068020096,1.651121185432248,1.465069697696075,-0.58380913401092,4396.60595703125,11.943,0.15,178.5258528694916,-10.667147353465332,104.44523105184066,1553.0,1435.0,1200.0,1528.0,1471.0,998.74,108.0,293.1,1649412882.8917415,1649412884.010362,61cb2f19-882d-4f11-90fe-14205a903819
0.2900095530399156,0.4580852787715705,0.3235007973071868,-0.4371133906449434,0.0600590921732289,0.248464732415506,0.1337423620490044,0.1040060800012036,-6.2901966848143775,17.07991586465191,43.46991745729716,1.6774501824049115,1.451961897103473,-0.6116930774454348,4397.8583984375,11.942333333333332,0.1455555555555555,178.45320242401988,-10.646935590482665,104.6974183320155,1553.0,1435.0,1200.0,1528.0,1471.0,998.74,108.0,293.1,1649412884.1183193,1649412885.1436698,61cb2f19-882d-4f11-90fe-14205a903819
0.2984929901840587,0.4652184458649783,0.3027926135333824,-0.6935368142493096,0.021055507499411,0.489214814298273,0.1895691959946746,0.1714108471891442,-6.231205092937238,15.52657114592474,45.27347625535959,2.7858649348813214,1.4925452663083394,-0.6079894616489575,4404.638671875,11.944666666666668,0.1477777777777777,178.32103067448102,-10.539845908259682,105.2420477506035,1553.0,1522.0,1200.0,1528.0,1471.0,998.74,108.0,293.1,1649412886.9761856,1649412888.0033648,5fbb7277-3235-4cfa-bcd0-30773fed09f9
0.2987691127918507,0.4626675990140867,0.2984140979789373,-0.6931423528182861,0.0112334313168866,0.4927912593975249,0.1803651089990794,0.1664932349811961,-6.168899989068716,16.173946252311374,45.41772015875937,2.797139739277528,1.4809434673045292,-0.5758622554461,4406.148111979167,11.935333333333334,0.14,178.32320722809652,-10.535496216123246,105.36500253931234,1553.0,1522.0,1200.0,1528.0,1471.0,998.74,108.0,293.1,1649412888.1118305,1649412889.2308922,5fbb7277-3235-4cfa-bcd0-30773fed09f9
0.2828197452404546,0.4558039801721956,0.3086569316920152,-0.6836095446205016,0.0138368731845865,0.4934881402039441,0.1793395106873358,0.1513590859131478,-6.336526781976656,17.378802579152644,45.83027719758668,2.7856805915714293,1.4522267440925416,-0.5926868733153203,4411.439453125,11.936555555555556,0.14,178.3249694169024,-10.507873033844945,105.47287627033384,1553.0,1522.0,1200.0,1528.0,1471.0,998.74,108.0,293.1,1649412889.3392866,1649412890.4588,5fbb7277-3235-4cfa-bcd0-30773fed09f9
0.3051937676664517,0.4710822581571084,0.2934737284628967,-0.991621953287043,-0.0326897895395943,0.7743746084233382,0.2471498627487823,0.2282865417200024,-6.091916442928276,16.28546644662978,47.78162151775685,4.104100827429179,1.5274454121300778,-0.6026470140747341,4413.71044921875,11.925888888888888,0.14,178.31238061935215,-10.411418999660793,105.61974582805662,1553.0,1613.0,1200.0,1528.0,1471.0,998.74,108.0,293.1,1649412891.4820435,1649412892.545112,f3261b98-5d5f-492e-856a-fa06d3ee16b3
0.3343484710544943,0.4731936351561245,0.2897819794109811,-0.998385950363084,-0.0296681178495714,0.7733631703521631,0.2527254154871351,0.230650778532684,-5.9895071848624335,15.338226578249994,47.06503022397654,4.110560040676273,1.5415733536312008,-0.6100229162054369,4418.26123046875,11.92077777777778,0.13,178.33573531285415,-10.425985231839492,105.63992751923418,1553.0,1613.0,1200.0,1528.0,1471.0,998.74,108.0,293.1,1649412892.653062,1649412893.655091,f3261b98-5d5f-492e-856a-fa06d3ee16b3
0.3220554523405869,0.4668094379703039,0.299636926646375,-0.983728684693544,-0.0234265326939752,0.7697685194072622,0.2539583585142844,0.2289889856174908,-6.138687616930199,16.14396883099016,47.61692973186752,4.075264135401643,1.5126269164742303,-0.6340135905572931,4422.82080078125,11.917222222222222,0.1311111111111111,178.34748323822657,-10.42621575072398,105.67465903116369,1553.0,1613.0,1200.0,1528.0,1471.0,998.74,108.0,293.1,1649412893.76439,1649412894.9636223,f3261b98-5d5f-492e-856a-fa06d3ee16b3
0.3446904256430514,0.4800081992402237,0.2817031174438119,-1.2455310520299048,-0.0724898831135529,1.0109373347675297,0.3012238729566286,0.2800089586542669,-5.995585620148433,15.7698068960918,49.58374200787749,5.204776870180927,1.5747758692918166,-0.6077086022827057,4422.82080078125,11.911666666666669,0.1377777777777778,178.37306912685744,-10.334921734730298,105.70378295778464,1553.0,1710.0,1200.0,1528.0,1471.0,998.74,108.0,293.1,1649412895.9879005,1649412897.122082,5099e350-1fed-4ba1-9d07-66468b56e4a0
0.3327847877432375,0.4760529706166996,0.2908667468040987,-1.2456246103253086,-0.0668435291571074,1.0118097001265842,0.3073552108039852,0.2807422510936044,-5.991359675480513,16.211910492298465,49.198361326671794,5.2102759772567175,1.5639270083055434,-0.6378213357726039,4422.567328559027,11.893999999999998,0.1288888888888889,178.37572379371488,-10.358033956516758,105.6365435399554,1553.0,1710.0,1200.0,1528.0,1471.0,998.74,108.0,293.1,1649412897.2309449,1649412898.4534397,5099e350-1fed-4ba1-9d07-66468b56e4a0
0.3227260357991076,0.4817726529754201,0.2807816973843229,-1.2543027565657057,-0.075298141236631,1.0175293825170872,0.3033580074331102,0.2877768033349727,-5.805066874636163,15.714879062317818,49.62265572679421,5.23906899955389,1.5807209473421573,-0.6053189589274162,4422.82080078125,11.892888888888889,0.12,178.42053135248997,-10.3572588249097,105.61202164301524,1553.0,1710.0,1200.0,1528.0,1471.0,998.74,108.0,293.1,1649412898.5726175,1649412899.6755168,5099e350-1fed-4ba1-9d07-66468b56e4a0
0.3182949254604301,0.4787484531052562,0.2701049566084863,-1.33477285359717,-0.1114965040292551,1.106966809921779,0.2944300431865068,0.2782571477341711,-6.0996341517172565,17.76493486666641,51.28215142361503,5.634742357180456,1.566020675906354,-0.5285286928601396,4454.746744791667,11.895,0.1277777777777777,178.4533724198392,-10.330836332969245,105.54134056875422,1553.0,1814.0,1200.0,1528.0,1471.0,998.74,108.0,293.1,1649412901.4304802,1649412902.5651016,125b73af-6e1c-42b8-8c1d-a9dd20129bb6
0.3211876384382563,0.4806024191049207,0.2590469036873122,-1.3422807650272148,-0.1128113736930152,1.1087944784538484,0.2984929900522536,0.2781651068000996,-5.780604209713215,16.371029272216,50.8058140639706,5.646079055955218,1.5751376493854428,-0.5171673619187175,4450.376953125,11.855333333333334,0.11,178.49456756745326,-10.298905672918126,105.35570361621234,1553.0,1814.0,1200.0,1528.0,1471.0,998.74,108.0,293.1,1649412902.6728694,1649412903.8180397,125b73af-6e1c-42b8-8c1d-a9dd20129bb6
0.3332712894589444,0.4825089798890781,0.2515127010992902,-1.341504991281578,-0.1106812848714512,1.1015495471272565,0.2986770717193852,0.277954727777352,-5.839793168902264,15.307725795249626,50.12823012725582,5.620487047182906,1.5881215701914702,-0.5103839345778569,4450.376953125,11.866,0.12,178.51293622286116,-10.344713380087942,105.26253831811356,1553.0,1814.0,1200.0,1528.0,1471.0,998.74,108.0,293.1,1649412903.9252348,1649412905.003369,125b73af-6e1c-42b8-8c1d-a9dd20129bb6
0.2585472533472746,0.4513071264398846,0.3471431629679734,-0.1148494219507476,0.1128334069063537,-0.0557986240929241,0.0669839035932073,0.0349142331316513,-6.394317201220712,18.32382907103104,41.27914363780421,0.2758028854388482,1.4085357208826212,-0.6224186773198621,4448.0673828125,11.914333333333332,0.1366666666666666,178.52436540607232,-10.728036118322535,105.19558425040964,1553.0,1349.0,1200.0,1528.0,1471.0,998.74,108.0,293.1,1649412906.2261288,1649412907.260516,78f465f1-b995-4c3f-8f6d-d0bbf35f097b
0.2631755941455476,0.4553963706252267,0.3347570919961946,-0.1086826834281708,0.1016833126967477,-0.0646739947427429,0.0520206873275116,0.0239745180855839,-6.423269641605146,18.236805369985028,41.29018304091544,0.2407416428358211,1.4224340048993087,-0.5684639274434626,4435.027018229167,11.948333333333332,0.1488888888888889,178.504099475895,-10.698789153432802,105.40608840389972,1553.0,1349.0,1200.0,1528.0,1471.0,998.74,108.0,293.1,1649412907.374232,1649412908.389671,78f465f1-b995-4c3f-8f6d-d0bbf35f097b
0.263925069817061,0.45100470645459,0.3329557207490088,-0.1193857222244207,0.1025116805828572,-0.053287222919423,0.0576483293532067,0.0317059511718916,-6.376063145567085,17.862467602168184,40.915320011106274,0.2878654534355276,1.410148107059528,-0.576116590807645,4420.033257378473,11.947444444444445,0.14,178.45412677628752,-10.724435849720033,105.60914765119446,1553.0,1349.0,1200.0,1528.0,1471.0,998.74,108.0,293.1,1649412908.4979289,1649412909.5142753,78f465f1-b995-4c3f-8f6d-d0bbf35f097b
0.2476995795187314,0.4583416783242148,0.3558607479714332,0.1321093951488072,0.1455079163782254,-0.3040723290465474,0.0027656707456691,-0.0170099687980925,-6.673625860751502,18.973415223166374,39.07432350375545,-0.8349316610892914,1.4265954593502364,-0.5879275823892945,4418.00830078125,11.947555555555557,0.1488888888888888,178.3949970697328,-10.797230962392904,106.01324668651938,1553.0,1264.0,1200.0,1528.0,1471.0,998.74,108.0,293.1,1649412911.441703,1649412912.494176,7cb9a55c-abf0-481f-aace-9121f777e5fb
0.2563160208721125,0.4469721028071478,0.3577253340574394,0.1365617457913584,0.1466634843890379,-0.2962326707207218,0.0064149395039217,-0.016152775116079,-6.48951212560587,19.242826213175213,39.20488386880167,-0.8253660220967175,1.3810669677261946,-0.5983732784381597,4414.721299913194,11.932333333333332,0.1444444444444445,178.38553346318284,-10.797085251690609,106.14039824701824,1553.0,1264.0,1200.0,1528.0,1471.0,998.74,108.0,293.1,1649412912.6064472,1649412913.8135011,7cb9a55c-abf0-481f-aace-9121f777e5fb
0.2458982082358142,0.4439883604509926,0.3591919193305258,0.1462589091423909,0.1478392812529737,-0.3010875745596198,0.0036461276645829,-0.0216903990897221,-6.59036815918239,19.52813691176589,39.3605177164786,-0.8562116381373468,1.368114459139727,-0.5982758028701357,4408.162977430556,11.924333333333331,0.14,178.41409276083238,-10.80715475293824,106.23584862284936,1553.0,1264.0,1200.0,1528.0,1471.0,998.74,108.0,293.1,1649412913.921903,1649412915.037166,7cb9a55c-abf0-481f-aace-9121f777e5fb
0.2227170579016745,0.4467313805401213,0.3783976116560114,0.3973448814140398,0.1894377090992648,-0.5489405522655092,-0.0502235766320995,-0.0662386894499854,-6.713934313861915,20.3783911584682,37.2349332468069,-1.9733670870726807,1.3684339254266116,-0.6053147288374173,4404.638671875,11.930333333333332,0.1455555555555555,178.40853905812725,-10.890743841229456,106.37175952150382,1553.0,1178.0,1200.0,1528.0,1471.0,998.74,108.0,293.1,1649412915.946151,1649412917.1040354,9769bb60-40dc-4f92-a619-5456798b5b67
0.2423480604393667,0.439013096497012,0.3807117820274603,0.4008555829961521,0.193513804764975,-0.544930199062074,-0.0474097554092229,-0.0777043533435398,-6.844923592505134,20.4629761876452,37.20896533851153,-1.971668692084912,1.3403588284773944,-0.6190933449827284,4402.3759765625,11.929555555555556,0.14,178.41579879030508,-10.892969534261493,106.44874713709848,1553.0,1178.0,1200.0,1528.0,1471.0,998.74,108.0,293.1,1649412917.2133372,1649412918.3127897,9769bb60-40dc-4f92-a619-5456798b5b67
0.2221253666046934,0.4480068039686042,0.377003849921929,0.3960957552768698,0.1899373594436983,-0.5497820695440351,-0.0518014202232649,-0.0797818469041481,-6.916377299012212,20.2441948320395,37.12076597582308,-1.9735194734874328,1.3757254032791053,-0.6019530524690055,4402.3759765625,11.929777777777778,0.1355555555555555,178.44453263723338,-10.90728456726072,106.52984956221312,1553.0,1178.0,1200.0,1528.0,1471.0,998.74,108.0,293.1,1649412918.4212987,1649412919.7486048,9769bb60-40dc-4f92-a619-5456798b5b67
0.2136444579138244,0.4457189310101087,0.3795415481487278,0.5621769230333236,0.199641096971933,-0.7071851663791184,-0.1066051887333346,-0.1317323490867684,-7.126023310993324,21.85860450310538,35.94797791811706,-2.691327675692351,1.358762811892913,-0.5418840926574068,4401.873806423611,11.919666666666666,0.1355555555555555,178.4929298398723,-10.959120770146717,106.6547494370156,1553.0,1088.0,1200.0,1528.0,1471.0,998.74,108.0,293.1,1649412921.9932826,1649412923.039365,09f67dd1-a22f-4449-8df7-6f0bb8125213
0.2194298839829951,0.4391182860548664,0.3837885766966634,0.5644647959569771,0.2065178648073597,-0.7021623622129831,-0.0994917436905282,-0.1251448518766536,-7.177640232441499,21.755076248865688,36.08727591090828,-2.6856802502352872,1.33312291450307,-0.5677434544574002,4393.850748697917,11.899222222222225,0.13,178.5293317125088,-10.981428357703455,106.64753599834216,1553.0,1088.0,1200.0,1528.0,1471.0,998.74,108.0,293.1,1649412923.1702878,1649412924.2787902,09f67dd1-a22f-4449-8df7-6f0bb8125213
0.2132894431306152,0.4496109447673314,0.3913753738101412,0.5682121740430796,0.210002269094309,-0.7126287284064535,-0.0971249783154446,-0.1133504704915811,-7.064114121386801,21.95932118734948,36.58642769649659,-2.7157842893606188,1.367272328460567,-0.5841987028997544,4388.8515625,11.902,0.13,178.5432349420193,-10.955689169271214,106.6455491722036,1553.0,1088.0,1200.0,1528.0,1471.0,998.74,108.0,293.1,1649412924.3929064,1649412925.5916069,09f67dd1-a22f-4449-8df7-6f0bb8125213
0.2864442336820286,0.4571623415184632,0.3222238567315634,-0.4174282710782451,0.0633841952196045,0.2331414448629368,0.1326677090882054,0.1129446649136127,-6.090021022099862,16.74197198069225,43.73369643120824,1.5964508596860172,1.442235318652457,-0.6122396520535334,4413.997619628906,11.91475,0.1375,178.55507849004013,-10.711799228987632,106.5969293243705,1553.0,1435.0,1200.0,1528.0,1471.0,998.74,108.0,293.1,1649412926.4955056,1649412927.7413845,e3ba8777-b06a-4a6a-b528-612213a727ae
0.2717485436508291,0.461142350380496,0.3335342632994252,-0.413140784071801,0.0635652426243014,0.230593126431919,0.1322014359593547,0.1066798171721404,-6.027480276115488,17.901384504520156,44.51405325025507,1.5894578709128226,1.4500126418082553,-0.6260520098516352,4441.665256076389,11.943444444444443,0.14,178.56190260793088,-10.659740108174194,106.64359801483069,1553.0,1435.0,1200.0,1528.0,1471.0,998.74,108.0,293.1,1649412927.850068,1649412929.0729525,e3ba8777-b06a-4a6a-b528-612213a727ae
0.2788619878793988,0.4566191992602302,0.3259211687368123,-0.4203988661712018,0.0647617740327568,0.2362207681343907,0.1351467439595924,0.1154368486415747,-6.101875398489287,16.96864748716108,43.72804552474986,1.6117513377593615,1.4409361691319769,-0.6228864836052643,4445.7607421875,11.946,0.14,178.5661980380089,-10.699685141442671,106.67980940108038,1553.0,1435.0,1200.0,1528.0,1471.0,998.74,108.0,293.1,1649412929.1810372,1649412930.4053962,e3ba8777-b06a-4a6a-b528-612213a727ae
0.3242340900150461,0.4795277661546648,0.5285572270638936,-0.4245083398326202,0.2472762925443957,0.2038476681211943,0.3375092149714301,0.3236777989039696,-4.835670643332295,17.323823080387356,43.32743353255694,1.5612925653862786,1.534803984554417,-1.4329035540921249,4440.393717447917,11.944555555555556,0.14,178.5643645116717,-10.691225857291874,106.68237527547858,1553.0,1435.0,1200.0,1424.0,1471.0,998.74,108.0,293.1,1649412931.409502,1649412932.546008,300bfe1e-e0d9-4068-a213-93bac214414e
0.3337542511671245,0.4799702703100206,0.5153326741922757,-0.4263921440714829,0.2408157316048544,0.2042016713552231,0.329834928371275,0.3167368048363539,-4.955528014826713,16.638694708904058,43.12134237829082,1.5610439802846143,1.5385204970489608,-1.3952072437901544,4419.529676649306,11.941111111111113,0.1411111111111111,178.57238315375733,-10.688810626510367,106.70393438813878,1553.0,1435.0,1200.0,1424.0,1471.0,998.74,108.0,293.1,1649412932.653849,1649412933.8152573,300bfe1e-e0d9-4068-a213-93bac214414e
0.3583701259434808,0.4800587711464494,0.5293410915933736,-0.4184017804684987,0.2478325835561028,0.1994605552449055,0.3355242677647351,0.3073177874698792,-4.884072120417935,17.450566234455415,43.57107396537231,1.5385529356912022,1.5342787650191505,-1.4315280324842183,4417.75537109375,11.937555555555557,0.1322222222222222,178.5771111624828,-10.709149791493802,106.72737711519008,1553.0,1435.0,1200.0,1424.0,1471.0,998.74,108.0,293.1,1649412933.924244,1649412935.0132806,300bfe1e-e0d9-4068-a213-93bac214414e
0.4415770920506892,0.525189644031988,0.8078339915023105,-0.4067242186778078,0.5003780564570938,0.1268893629155033,0.6107744997369633,0.5889082199931827,-2.7957503811285256,17.49103098505847,43.18999718077653,1.3642598532602197,1.7083617169940275,-2.540548695340924,4419.021538628473,11.931,0.1311111111111111,178.56960706131466,-10.71525569602058,106.6600177895954,1553.0,1435.0,1200.0,1304.0,1471.0,998.74,108.0,293.1,1649412936.9484704,1649412938.077791,728f45f7-f066-4d51-baef-8177f1273ed4
0.43582099788805,0.5264837790541312,0.808093425386924,-0.3969972156826415,0.499503668223457,0.1183811452409517,0.6055403076995768,0.5856781925056052,-2.8660598936209807,17.766665169493464,43.4118288071505,1.3250391160941486,1.710570574527131,-2.5318665525269592,4422.82080078125,11.923,0.13,178.6028488330952,-10.717952482377871,106.62927283141146,1553.0,1435.0,1200.0,1304.0,1471.0,998.74,108.0,293.1,1649412938.1854331,1649412939.5163145,728f45f7-f066-4d51-baef-8177f1273ed4
0.4328463584739859,0.524203491901751,0.795908125123876,-0.4047519138647371,0.4941587236685805,0.1253772628296481,0.6035821635906022,0.588434866981391,-2.790629888642273,16.930385321881886,43.02907315634897,1.352079434969113,1.7050446934551886,-2.5056764364701025,4422.82080078125,11.926444444444444,0.1355555555555555,178.60770585650496,-10.70666360263592,106.62925385866374,1553.0,1435.0,1200.0,1304.0,1471.0,998.74,108.0,293.1,1649412939.631399,1649412940.646855,728f45f7-f066-4d51-baef-8177f1273ed4
0.4645084163236377,0.5368393878211908,0.9752563271204618,-0.3430450711451235,0.6489320125497102,0.0479971861597537,0.7521887142382573,0.7337016490446737,-1.754899161318618,19.11202924776848,43.097492096511154,1.062925542920505,1.7483092286998232,-3.170543237417738,4423.836100260417,11.915,0.1355555555555555,178.59465715955062,-10.737467091746506,106.56682592964984,1553.0,1435.0,1200.0,1166.0,1471.0,998.74,108.0,293.1,1649412942.3921175,1649412943.5220077,2938f584-a0ce-44af-874f-ccb209f1d0d3
0.4558171288626803,0.5367999417359506,0.9791088947478004,-0.3290154098184978,0.6543098287920281,0.0353612890897671,0.7517548072733663,0.728968118843833,-1.8420428366852857,19.173984565533864,43.14510781215928,1.003449782113063,1.7468739778888127,-3.1824026713537164,4424.34375,11.873333333333337,0.12,178.6244367843319,-10.745759890036288,106.44418153509326,1553.0,1435.0,1200.0,1166.0,1471.0,998.74,108.0,293.1,1649412943.6309814,1649412944.8344471,2938f584-a0ce-44af-874f-ccb209f1d0d3
0.4840342285321043,0.5376809043018733,0.9703387149505608,-0.3385350673678033,0.6544544644359653,0.0398186971862028,0.7542399106190679,0.7215785522539702,-1.885842444434838,18.072703829256348,42.64489575293764,1.0271011846094324,1.755518906817998,-3.1744442292886066,4424.850314670139,11.877666666666666,0.1188888888888888,178.64119351509564,-10.751611275152742,106.32881736328204,1553.0,1435.0,1200.0,1166.0,1471.0,998.74,108.0,293.1,1649412944.9425251,1649412946.072611,2938f584-a0ce-44af-874f-ccb209f1d0d3
0.2202188057168263,0.4237737588311872,0.1253246680854426,-0.3678435163579581,-0.1183732725245611,0.2256492169712128,-0.0893672469704054,-0.1205559561766164,-7.691933858420059,17.953213885939874,42.89034457163303,1.465048171521215,1.3172536236276855,0.2134342217260787,4420.53955078125,11.887,0.12,178.70321163275938,-10.75279925374963,106.32797952674385,1553.0,1435.0,1200.0,1623.0,1471.0,998.74,108.0,293.1,1649412946.9745858,1649412948.0256748,ba840b82-ed5a-42eb-aac6-b41c345f1a83
0.2155247213791087,0.4243523014137488,0.121195977555167,-0.3666995799718716,-0.1184784620928266,0.2245710237979981,-0.0903796967526627,-0.1106549875519227,-7.737545404629191,17.545887735983435,42.95271698439127,1.4571260746245247,1.3187840442513925,0.2209501477524716,4429.680501302083,11.943,0.14,178.71488670278066,-10.74930447362431,106.36896521522335,1553.0,1435.0,1200.0,1623.0,1471.0,998.74,108.0,293.1,1649412948.133525,1649412949.348306,ba840b82-ed5a-42eb-aac6-b41c345f1a83
0.2273716961582499,0.4267322152400902,0.1236021889012646,-0.3600989327754274,-0.1188334769661468,0.2178651891941231,-0.0938641013284995,-0.1195303584817231,-7.787168849449521,17.91958669958023,43.18645914787716,1.4297771154992809,1.3253359374298872,0.2236022513600891,4429.67724609375,11.942333333333332,0.13,178.70355314221786,-10.757654949067078,106.42293737004482,1553.0,1435.0,1200.0,1623.0,1471.0,998.74,108.0,293.1,1649412949.461362,1649412950.571803,ba840b82-ed5a-42eb-aac6-b41c345f1a83
0.1705561819975269,0.4037351473786444,-0.0279102382575728,-0.3346824990474706,-0.2500443287688729,0.2210340246437086,-0.2493211504465122,-0.2685576955331549,-8.84675936650823,17.550404734077965,42.58939979484025,1.3689444596525322,1.2391335459798671,0.8261906339029887,4427.3896484375,11.945,0.14,178.69948234947253,-10.748246932667818,106.48663116078492,1553.0,1435.0,1200.0,1712.0,1471.0,998.74,108.0,293.1,1649412952.389558,1649412953.3469946,dc1969d5-6212-4447-ba8c-743b793aabf9
0.1777272784131403,0.4089673166254413,-0.0307174850195121,-0.3359695543521637,-0.2509708063127649,0.2165159305724995,-0.2489352867387543,-0.2747522493746464,-8.677796981135078,17.11875884662427,42.50244646635376,1.3587649560576764,1.2583053318655324,0.8315242113921152,4425.10400390625,11.93742857142857,0.14,178.71459267939923,-10.74810191311562,106.4789618340883,1553.0,1435.0,1200.0,1712.0,1471.0,998.74,108.0,293.1,1649412953.455843,1649412954.6693408,dc1969d5-6212-4447-ba8c-743b793aabf9
0.1579991775045696,0.4049579760309,-0.0193767341811555,-0.3341959968785033,-0.2455080280221885,0.21908801784632,-0.2426284632292832,-0.2691099409304998,-8.63331992306811,17.827659000689504,42.6009118281264,1.365846231470895,1.242592976003424,0.7990549001665538,4427.898003472223,11.935444444444446,0.1322222222222222,178.71839742001404,-10.755086703075415,106.48021078296512,1553.0,1435.0,1200.0,1712.0,1471.0,998.74,108.0,293.1,1649412954.7772446,1649412955.8939674,dc1969d5-6212-4447-ba8c-743b793aabf9
0.1044991565927102,0.3855525247688068,-0.1622929556147598,-0.2919340583020349,-0.3800682661702105,0.2064141921205727,-0.4099689132115471,-0.4340664325981717,-9.871456782053674,19.034660290825165,42.42619891210434,1.242267860524195,1.1658794342196173,1.411813338892989,4426.629503038194,11.939777777777778,0.14,178.76337193896885,-10.745106753196904,106.47341322692112,1553.0,1435.0,1200.0,1801.0,1471.0,998.74,108.0,293.1,1649412956.917596,1649412958.0000648,191fe9e1-11d4-42d7-aec6-bf26ce0c648c
0.132212561988933,0.3826572832285133,-0.154719811591931,-0.2970671080311317,-0.3720652600728777,0.2157320657939884,-0.3981097980107308,-0.4275679413144019,-9.81273316911834,18.924830221739388,42.75121816205159,1.2745156545291478,1.1528344720344883,1.3738542956953406,4424.534118652344,11.941125,0.13625,178.73573187094513,-10.73832565601155,106.49887598241943,1553.0,1435.0,1200.0,1801.0,1471.0,998.74,108.0,293.1,1649412958.1081972,1649412959.176468,191fe9e1-11d4-42d7-aec6-bf26ce0c648c
0.1348969188470286,0.379278574274042,-0.1552948143114875,-0.2914101327432365,-0.3714199623916293,0.2130001717250854,-0.3990453785825061,-0.4265787541093311,-9.806299444901818,18.9335763015512,42.62688214621785,1.2556287397213357,1.1404859113522188,1.374557557786278,4427.135687934027,11.940555555555555,0.1388888888888889,178.73571270846995,-10.775502043640843,106.51677885687144,1553.0,1435.0,1200.0,1801.0,1471.0,998.74,108.0,293.1,1649412959.2889977,1649412960.617463,191fe9e1-11d4-42d7-aec6-bf26ce0c648c
0.2296201231003857,0.3943338302961103,0.2515784443101508,-0.4527052198909753,0.0264596212670028,0.3147710749504981,0.1289274103016036,0.1128597040149277,-4.840351293807935,13.268889612923262,41.718640529800176,1.8332263793034047,1.215410640458842,-0.4687784704705162,7480.881293402777,11.631444444444444,7.645555555555556,-179.2083329604583,-10.818386714437109,94.32023299938471,1553.0,1435.0,1350.0,1528.0,1471.0,998.74,108.0,293.1,1649412963.9725564,1649412964.9331243,adfc502e-0c60-43cb-89d9-da685fb6acf8
0.2775309353338647,0.4308143793556041,0.2694267872329556,-0.4015360461410582,0.0383763861148655,0.2720565263172833,0.119202938445721,0.0921596106927625,-5.256578497784596,14.119114559101009,47.4459053595992,1.6290443788927054,1.2992661180746243,-0.4831926326064374,7496.147135416667,11.626444444444443,7.657777777777778,-178.64684587608878,-10.72181277248753,88.67578591876361,1553.0,1435.0,1350.0,1528.0,1471.0,998.74,108.0,293.1,1649412965.0428474,1649412966.097474,adfc502e-0c60-43cb-89d9-da685fb6acf8
0.2368584800131991,0.3862858173605345,0.2795664542606652,-0.4406281416145275,0.0545214678938762,0.3326922405902002,0.157852518729041,0.1287483861765913,-4.9860451277742746,13.638734899305588,44.93972141011346,1.850540187159996,1.15800214145516,-0.5829121951100225,7509.284450954861,11.62311111111111,7.628888888888889,-178.33947066742024,-10.576192570200426,84.17633809022509,1553.0,1435.0,1350.0,1528.0,1471.0,998.74,108.0,293.1,1649412966.205569,1649412967.360131,adfc502e-0c60-43cb-89d9-da685fb6acf8
0.4257329143664518,0.7093765633171628,0.317006352755926,-0.5338589992363165,0.0164534630233079,0.100158062095254,0.1011179171780571,0.0844979662880375,-4.629689794410994,13.629863095912215,44.60619825143314,1.5402424721274213,2.384074741759851,-0.4632599144663554,7518.794921875,11.620666666666668,7.626666666666667,-178.44643294764248,-10.416819402564547,76.75240892367212,1658.0,1435.0,1350.0,1528.0,1551.0,998.74,108.0,293.1,1649412968.47822,1649412969.618398,1b1ffc1e-ccd4-496f-a296-7f06527c3a64
0.4120451226890605,0.7191328949918492,0.3124043095088725,-0.508639789550717,0.0175579536684629,0.0743208753371931,0.0890605635638256,0.0638808108782702,-4.948204838673244,13.340496505342683,45.53399485684583,1.4231346719989504,2.4112965736439587,-0.4387178436550335,7520.995442708333,11.612666666666668,7.646666666666666,-178.63833394256315,-10.383216863986595,73.73271171298805,1658.0,1435.0,1350.0,1528.0,1551.0,998.74,108.0,293.1,1649412969.726261,1649412970.8490226,1b1ffc1e-ccd4-496f-a296-7f06527c3a64
0.3879567130769139,0.6706142105539038,0.3136139889054345,-0.5244708304957065,0.0171371940957401,0.1285066493159526,0.1013414446719637,0.0831305016148635,-4.933937268025566,14.312751571915436,44.44722536514334,1.5869476657287465,2.2408953521365054,-0.4652104583381471,7515.134168836806,11.602444444444446,7.642222222222222,-178.82691091208775,-10.356526287121218,70.63894717203445,1658.0,1435.0,1350.0,1528.0,1551.0,998.74,108.0,293.1,1649412970.957446,1649412972.1868992,1b1ffc1e-ccd4-496f-a296-7f06527c3a64
0.549199161109604,0.9231874937944752,0.3529548853185782,-0.5918316151245684,-0.0049394674320369,-0.0609923609780931,0.0609092039999699,0.0324159802726814,-4.805533709104371,14.703252851062963,43.86228101105242,1.3175864996355977,3.203268445861139,-0.4021250419051994,7492.50537109375,11.602,7.690000000000001,-179.7362777447238,-10.327060756178042,66.00545915776416,1767.0,1435.0,1350.0,1528.0,1630.0,998.74,108.0,293.1,1649412973.8909464,1649412974.8496978,027c9340-1bac-4b35-8859-49a9790762d1
0.5166035461584124,0.9141148940691152,0.3429750260413553,-0.5990765519385015,-0.0112508408718141,-0.066107204353412,0.0569382988020218,0.0424352871483236,-4.594644997733351,14.254908929243117,40.87540646808377,1.3185965406002265,3.194472389367052,-0.3793138982283695,7485.9619140625,11.580625,7.69,-44.965329504464805,-10.385463782780118,64.37507678118283,1767.0,1435.0,1350.0,1528.0,1630.0,998.74,108.0,293.1,1649412974.9573448,1649412976.094395,027c9340-1bac-4b35-8859-49a9790762d1
0.5437687500459802,0.918348773996519,0.3531521162320022,-0.572818594646352,4.443609980857577e-06,-0.0795057256886775,0.0582005736715033,0.0293128877242339,-4.862249450431183,14.556644094739688,43.038265174832325,1.2319738126784143,3.19049406356814,-0.4068316335322408,7479.4296875,11.574111111111112,7.699999999999999,179.73164839428637,-10.433136629627972,62.86640135569449,1767.0,1435.0,1350.0,1528.0,1630.0,998.74,108.0,293.1,1649412976.2085693,1649412977.402737,027c9340-1bac-4b35-8859-49a9790762d1
0.6295746049619928,1.0959107794922345,0.4315223852993171,-0.6200699708452,0.0194245617955742,-0.2103236348283128,0.0674299454303868,0.0413727709697482,-4.7448711530786944,16.44016326239656,43.30245187242793,1.0610856222433775,3.86410514239264,-0.5324981161019721,7479.4296875,11.553,7.71,179.25121137024783,-10.51238655565772,60.94209876879087,1886.0,1435.0,1350.0,1528.0,1710.0,998.74,108.0,293.1,1649412978.4195416,1649412979.6576614,eb5dd98f-189a-484a-bbb4-c26fe044376a
0.6617509787047182,1.11539360630261,0.3763863668557189,-0.6496671903444429,-0.0211214654629363,-0.2588726710893386,0.0253667623868311,0.0085895317293041,-4.415786335063235,13.854721185619686,34.900367026711606,0.9976952297113656,4.009420747201619,-0.350688725401631,7479.4296875,11.51025,7.68,179.05768308275742,-10.478525003499836,59.94209617964239,1886.0,1435.0,1350.0,1528.0,1710.0,998.74,108.0,293.1,1649412979.7657692,1649412980.8871229,eb5dd98f-189a-484a-bbb4-c26fe044376a
0.6283355933184187,1.1168349056711315,0.3860582428519513,-0.6263661725873345,-0.0187572299850514,-0.2490870045860725,0.0255058332526315,0.0123318521772214,-4.368676391233363,14.961646106173978,39.56383606224777,0.975710173436218,3.970923919197421,-0.3607559811450852,7479.4296875,11.51475,7.68625,178.85435347380798,-10.471609436965196,59.06178383337071,1886.0,1435.0,1350.0,1528.0,1710.0,998.74,108.0,293.1,1649412980.996331,1649412982.198906,eb5dd98f-189a-484a-bbb4-c26fe044376a
0.0633417148498288,0.0657610749689732,0.2099496741379337,-0.2888724349763192,0.0690088025626888,0.5072416752464444,0.1618648939307632,0.1362512343434695,-5.816864532710172,13.797867202498477,44.7230411128244,1.8975880822075928,-0.0594547619277092,-0.5518667515016378,7490.33203125,11.54022222222222,7.673333333333334,179.37305890940124,-10.522923355681067,58.072469921090864,1449.0,1435.0,1350.0,1528.0,1386.0,998.74,108.0,293.1,1649412982.8894074,1649412983.953801,70bf8987-9f84-4e28-bd2b-3e08e2c27514
0.0701264420693246,0.0752412849109359,0.2277793055358014,-0.2894509771591971,0.082091755404196,0.5094901021353623,0.1754869427913877,0.1583410433891647,-5.897410884149725,14.13514717165679,46.40388627586878,1.9072967047938096,-0.0370181571938902,-0.6100668879307478,7507.820149739583,11.616666666666667,7.71,179.21410978267633,-10.46800825529921,57.595959496915206,1449.0,1435.0,1350.0,1528.0,1386.0,998.74,108.0,293.1,1649412984.062116,1649412985.0882175,70bf8987-9f84-4e28-bd2b-3e08e2c27514
0.0461391744434922,0.0589212243476229,0.219310028434506,-0.296434958655855,0.0805660009606283,0.5126397202920685,0.1771583443270731,0.1661083825938801,-5.761933714355806,13.520381812871502,43.64633880161172,1.9252600279546104,-0.0744345626494415,-0.6044021071593269,7517.330620659723,11.612666666666666,7.678888888888888,179.06263136508358,-10.469390989151186,57.14261290039974,1449.0,1435.0,1350.0,1528.0,1386.0,998.74,108.0,293.1,1649412985.196746,1649412986.3145254,70bf8987-9f84-4e28-bd2b-3e08e2c27514
-0.1138450634543315,-0.255421134661505,0.1841625533619054,-0.20338263518587,0.1087471966766405,0.7528689062908909,0.2234948537502862,0.1978422541985341,-6.249598695658532,14.803127368580553,46.22176914878138,2.2621022670406514,-1.2864470695057078,-0.695304000825788,7521.728949652777,11.588555555555557,7.678888888888888,178.84194491736088,-10.471725775482469,56.1023659828879,1342.0,1435.0,1350.0,1528.0,1293.0,998.74,108.0,293.1,1649412988.4557984,1649412989.687247,05094e99-ff66-4db9-b92e-1a34fcf46a84
-0.1049616014252097,-0.255882350526301,0.173225367125393,-0.2053913515843231,0.1051545684101697,0.7384614766072146,0.21605066917852,0.1890826942909547,-6.37578860350339,14.039808474711394,43.78700481989027,2.228201652560922,-1.2661635021425968,-0.6681855973952735,7525.396484375,11.562,7.67,178.75879571222492,-10.483760663663768,55.75072242093374,1342.0,1435.0,1350.0,1528.0,1293.0,998.74,108.0,293.1,1649412989.7963188,1649412990.9173782,05094e99-ff66-4db9-b92e-1a34fcf46a84
-0.1317348772731526,-0.2526017504004387,0.1694587714987406,-0.2209058032501009,0.0967616545912094,0.7492530151568592,0.2158332099866507,0.193859716610115,-6.056441684951358,14.09881910359528,43.72942638646651,2.2878036925306287,-1.253936820089853,-0.6509314259433773,7525.396484375,11.57688888888889,7.661111111111111,178.6384826889051,-10.51608652604936,55.45336785868752,1342.0,1435.0,1350.0,1528.0,1293.0,998.74,108.0,293.1,1649412991.025347,1649412992.1430187,05094e99-ff66-4db9-b92e-1a34fcf46a84
-0.3348139855237019,-0.6362742202346111,0.1311363915522867,-0.0973353575384028,0.1293744663561727,1.0132692052031955,0.2571008967442262,0.2407044734399892,-7.186812888317538,16.779111885460285,43.980622583657386,2.6176695010495603,-2.704765854229887,-0.7487472039900213,7525.396484375,11.560666666666666,7.662222222222223,178.63475188779842,-10.50874321891795,55.0954177553997,1227.0,1435.0,1350.0,1528.0,1189.0,998.74,108.0,293.1,1649412992.9628992,1649412993.9869468,67846b05-5907-44c4-bb4b-a4ad393b5888
-0.3421393276705743,-0.6465949389722202,0.1241336995494465,-0.1052984107708972,0.1257014287472966,1.0221010827968258,0.2546850768236482,0.2299807006173805,-7.335723827705925,16.609935238332287,42.72349702393175,2.653733075585764,-2.7307453774628243,-0.7338857384812029,7515.134168836806,11.477,7.631111111111112,178.61021784829973,-10.486932053304637,54.83112662110568,1227.0,1435.0,1350.0,1528.0,1189.0,998.74,108.0,293.1,1649412994.096094,1649412995.219744,67846b05-5907-44c4-bb4b-a4ad393b5888
-0.3223358707312391,-0.6376811312032845,0.1351204464760076,-0.0893146526567119,0.1340816995453023,1.018594426923383,0.2590074576475655,0.2335121369166344,-7.408576761292319,16.976456942516283,45.61212933606614,2.613198285049114,-2.7236646445294013,-0.7613387602069455,7512.20556640625,11.473,7.627777777777778,178.57697304087958,-10.47258192072218,54.57335717910417,1227.0,1435.0,1350.0,1528.0,1189.0,998.74,108.0,293.1,1649412995.3270588,1649412996.4541135,67846b05-5907-44c4-bb4b-a4ad393b5888
0.2582630392510636,0.4538878107178016,0.2466694297037167,-0.4102597016437925,0.0240898219732922,0.2297278412295277,0.1016292007647304,0.0890873673105965,-4.955870399153066,12.401217829881988,43.36672814211648,1.5405844161048037,1.4194330601668728,-0.4098143473911838,7512.20556640625,11.510111111111112,7.655555555555555,177.87941341004526,-10.577319741140956,54.27482630650088,1553.0,1435.0,1350.0,1528.0,1471.0,998.74,108.0,293.1,1649412997.397025,1649412998.700597,a9154c9e-df09-4564-af17-57e36b5267d2
0.2799457438187801,0.4281593543230665,0.2724105297064256,-0.4105378478830159,0.0522963040519019,0.2497290298133485,0.1300632556443096,0.0982155965583605,-5.398311607414173,12.84495757703088,42.79587619992453,1.5900668158105469,1.3328002621546655,-0.5282168339210991,7518.794921875,11.628777777777778,7.712222222222222,177.86458431044724,-10.558460829932644,54.32165142726583,1553.0,1435.0,1350.0,1528.0,1471.0,998.74,108.0,293.1,1649412998.8091905,1649413000.0419548,a9154c9e-df09-4564-af17-57e36b5267d2
0.271171518188707,0.4186897652372434,0.2721323842107733,-0.3833175133521448,0.047934476913916,0.262928297036912,0.1190385796818951,0.0926653299450133,-5.690739112626191,14.098470623675183,46.85701753639866,1.5671209344766386,1.2600117024274722,-0.5020981708712982,7512.937717013889,11.628333333333334,7.7266666666666675,177.89531257261322,-10.556217112790296,54.32845657240887,1553.0,1435.0,1350.0,1528.0,1471.0,998.74,108.0,293.1,1649413000.151221,1649413001.3591874,a9154c9e-df09-4564-af17-57e36b5267d2
0.2433190410126737,0.3938589600935265,0.2356953259081352,-0.7759958649007552,-0.0197813097686784,0.6354535887535895,0.2023557965403233,0.1847441302036204,-5.045406040631485,12.476756966889145,45.14987672473559,3.277509017815244,1.2234536147801331,-0.4865635279683737,7512.20556640625,11.626666666666669,7.716666666666667,177.87776505772555,-10.442895072677151,54.2592185653375,1553.0,1522.0,1350.0,1528.0,1471.0,998.74,108.0,293.1,1649413002.4776018,1649413003.6168396,c7bd9660-4c62-4ae9-8178-38f5d6a352ec
0.270657201904107,0.4150167278244589,0.2658447791227378,-0.7529820950207613,0.0068286176812712,0.610879689287114,0.2201925080997476,0.1992071897678906,-5.175608269232274,12.75713563679256,47.79665574733863,3.1740910350683693,1.2793538932000157,-0.5830111101068124,7512.20556640625,11.609,7.7,177.9041204810029,-10.482872739071668,54.25683027585772,1553.0,1522.0,1350.0,1528.0,1471.0,998.74,108.0,293.1,1649413003.7259824,1649413004.956315,c7bd9660-4c62-4ae9-8178-38f5d6a352ec
0.2800595305976412,0.4117740573101192,0.2632823006223276,-0.7647436091384482,0.0025461883430506,0.6273620841624917,0.2213455474580928,0.2033293059242353,-5.147721025344126,12.85362047652523,48.14150406823166,3.2382412952639843,1.2652254291973533,-0.5753562369514132,7522.462456597223,11.610222222222225,7.704444444444444,177.87606206389253,-10.453646264749445,54.31301844760988,1553.0,1522.0,1350.0,1528.0,1471.0,998.74,108.0,293.1,1649413005.0658045,1649413006.1846545,c7bd9660-4c62-4ae9-8178-38f5d6a352ec
0.2815893307593757,0.4106994043432669,0.2765321399048611,-1.1139807716188523,-0.0242063519035821,0.9803034033896256,0.3275339064672893,0.3137657052700786,-5.267735483771981,12.6797345512564,52.90811230648363,4.819347495453641,1.2636335213914218,-0.7046507563219079,7525.396484375,11.614333333333333,7.69888888888889,177.85497499319493,-10.333715732023098,54.37717707066848,1553.0,1613.0,1350.0,1528.0,1471.0,998.74,108.0,293.1,1649413007.912776,1649413008.9454944,9195943f-9f45-4786-a3a3-934e510a6565
0.3298728574493195,0.4453538018713162,0.2540276419887585,-1.1249422385395855,-0.0471659989135282,0.95089584032421,0.3063569214181573,0.2837386367241515,-4.730333949335895,11.583374551096982,51.96241275595481,4.769722446097036,1.3980910296071216,-0.608962231751444,7525.396484375,11.610666666666669,7.699999999999999,177.93757474755765,-10.321858144169004,54.4246400552109,1553.0,1613.0,1350.0,1528.0,1471.0,998.74,108.0,293.1,1649413009.0593317,1649413010.2822063,9195943f-9f45-4786-a3a3-934e510a6565
0.317611193295945,0.4478227222399858,0.2521569872080722,-1.12457761470568,-0.0468969563069193,0.9378219914815232,0.3058694082877823,0.2855152276765724,-4.576991172740199,11.19328080365008,50.491172954078976,4.736684800076862,1.419135122578118,-0.6075904336480502,7533.481282552083,11.602555555555556,7.677777777777777,177.94460225330366,-10.346319043725323,54.48068061898599,1553.0,1613.0,1350.0,1528.0,1471.0,998.74,108.0,293.1,1649413010.391454,1649413011.5081418,9195943f-9f45-4786-a3a3-934e510a6565
0.3222870716688771,0.4481226136298231,0.2329012283015165,-1.4756461051943512,-0.1033134629546156,1.2518366123783455,0.3803436185784251,0.3561449621118994,-4.100521919335686,10.320454829522,49.437258624989234,6.227569048798762,1.4682169119266253,-0.6143737373744241,7537.805297851562,11.60325,7.67875,177.9483340030477,-10.24401216589474,54.58227427565684,1553.0,1710.0,1350.0,1528.0,1471.0,998.74,108.0,293.1,1649413013.440477,1649413014.450104,4cb65aa7-3a1a-44db-8d99-ef4fe208c195
0.3189872548533478,0.449943202186766,0.2439132608478742,-1.4612836673089338,-0.0951966712003887,1.2588281786952114,0.3824423526174393,0.3661961281455159,-4.547329265009404,11.071650909674313,52.60677737267735,6.216690314244766,1.449058774203745,-0.6392320823831038,7532.00927734375,11.581,7.665555555555557,177.9883913549825,-10.242694259550046,54.62721246179981,1553.0,1710.0,1350.0,1528.0,1471.0,998.74,108.0,293.1,1649413014.558583,1649413015.6993172,4cb65aa7-3a1a-44db-8d99-ef4fe208c195
0.3463410926249791,0.4482960752659609,0.247870512501484,-1.4647741443608202,-0.0928516516375754,1.2623449492059224,0.3876148470401114,0.3600420329026337,-4.4236756133913255,11.153031666852325,52.45396879744941,6.233241041319298,1.4440421964572614,-0.6555771399269891,7533.481282552083,11.571555555555555,7.652222222222223,177.98342049508656,-10.246902509852418,54.64556366227984,1553.0,1710.0,1350.0,1528.0,1471.0,998.74,108.0,293.1,1649413015.8079312,1649413016.839007,4cb65aa7-3a1a-44db-8d99-ef4fe208c195
0.3355328650711092,0.4242602605476896,0.2302644090454241,-1.5326214959339504,-0.1194251684279146,1.3478640711866774,0.3863920183128224,0.3643022103189784,-4.628851175881008,11.913588444402578,52.301239301635725,6.582498459805717,1.3639493241199565,-0.5978172150916078,7528.335503472223,11.542,7.657777777777778,178.06986792268168,-10.203180192245446,54.78157208085744,1553.0,1814.0,1350.0,1528.0,1471.0,998.74,108.0,293.1,1649413019.0646636,1649413020.202812,8f0a7718-11e3-4894-8cde-3a3aa346bcfc
0.2904591372583612,0.3968846771309778,0.2415985843992829,-1.481354671826715,-0.1022924165749051,1.3434855554638552,0.3829865060022693,0.3594108955472353,-5.54127793639134,13.077924624917442,54.59672761796372,6.465203468802202,1.2418135486665507,-0.6324949465938459,7517.330620659723,11.524888888888889,7.663333333333333,178.09621423904017,-10.23597714795629,54.82127141704326,1553.0,1814.0,1350.0,1528.0,1471.0,998.74,108.0,293.1,1649413020.3123448,1649413021.5101435,8f0a7718-11e3-4894-8cde-3a3aa346bcfc
0.3064479509081044,0.3870626018257893,0.2278056027383711,-1.558616501878065,-0.1274590227961926,1.4005114534520038,0.390402370250453,0.3721782787234448,-4.805427044640624,13.071394749962806,51.19499999447284,6.766730102955979,1.238554121642046,-0.5961208471500486,7507.820149739583,11.531666666666668,7.680000000000001,178.19561474094127,-10.236586078293548,54.764550111080894,1553.0,1814.0,1350.0,1528.0,1471.0,998.74,108.0,293.1,1649413021.6241262,1649413022.6837132,8f0a7718-11e3-4894-8cde-3a3aa346bcfc
0.2275689265612106,0.4044188794969773,0.2709596214653916,-0.102003145570918,0.0829990150303967,-0.0327226617166513,0.0456041231583171,0.0170188574170757,-5.585223093812015,14.03207762190848,39.38299669035197,0.2665406518405774,1.237271153223121,-0.453404312105259,7501.979166666667,11.565555555555555,7.695555555555556,178.28696472654065,-10.689240643836865,54.845248796124594,1553.0,1349.0,1350.0,1528.0,1471.0,998.74,108.0,293.1,1649413024.5941155,1649413025.6485946,8355e56d-6a7a-45f2-bad5-a867518af4de
0.2425058447316767,0.394307532874356,0.3049621479893158,-0.0744040315723139,0.1131095291912265,-0.0177331484261533,0.0675098505654093,0.0505743304141743,-6.226627125326563,15.392143746188108,43.91789503080966,0.2490764143151926,1.1624750692584616,-0.5675463495100868,7499.060546875,11.619,7.71,178.3003943962687,-10.747403404305324,55.00158385767216,1553.0,1349.0,1350.0,1528.0,1471.0,998.74,108.0,293.1,1649413025.7771945,1649413026.9717171,8355e56d-6a7a-45f2-bad5-a867518af4de
0.2385217899910356,0.4057600464192506,0.2771789546926219,-0.086579724290325,0.0865097172143004,-0.0364305941533766,0.0475369815709451,0.0225807558217893,-5.403414955029799,14.412863356837946,41.08650079761596,0.2266139948227377,1.224418214525951,-0.4667446107764927,7499.060546875,11.624999999999998,7.716666666666667,178.26494571447634,-10.715886445017684,55.11231336667659,1553.0,1349.0,1350.0,1528.0,1471.0,998.74,108.0,293.1,1649413027.08017,1649413028.191301,8355e56d-6a7a-45f2-bad5-a867518af4de
0.2279896848401738,0.4201315702505913,0.3070527907870041,0.2337093667449661,0.1424179727309778,-0.349014580975015,-0.0216120126555451,-0.0410720836614494,-5.947372821964891,15.78654559372194,40.414958495047465,-1.1880847177191989,1.2506047253541772,-0.4825056271167794,7499.790201822917,11.632444444444443,7.73,178.24355356199584,-10.83680849353854,55.39816968491005,1553.0,1264.0,1350.0,1528.0,1471.0,998.74,108.0,293.1,1649413030.447158,1649413031.4725974,f4209df5-09f7-4a7b-859a-0cf64ac61dc2
0.1974882509078888,0.4063375775639304,0.2707922284005248,0.1738079545642666,0.1093161301571004,-0.3114674623735328,-0.0325380750828367,-0.0454212689847604,-5.468787136935328,14.677709257132047,35.82171950246816,-0.9782358438766292,1.241248930105896,-0.380319078884817,7505.62744140625,11.620777777777777,7.728888888888889,178.28022864219918,-10.784778673762323,55.48985738541839,1553.0,1264.0,1350.0,1528.0,1471.0,998.74,108.0,293.1,1649413031.5805626,1649413032.7177703,f4209df5-09f7-4a7b-859a-0cf64ac61dc2
0.219411172372309,0.4058065725582713,0.3122359053045639,0.2009777114779289,0.1368272482632379,-0.286851581439322,-0.0118288770989299,-0.0277969574032055,-6.146883083915,16.98507748387843,43.01455652834928,-0.9660443028616424,1.1796280627774498,-0.4948703530600762,7505.62744140625,11.620625,7.728750000000001,178.29268140514847,-10.823454785949064,55.58727940918991,1553.0,1264.0,1350.0,1528.0,1471.0,998.74,108.0,293.1,1649413032.825596,1649413033.9002612,f4209df5-09f7-4a7b-859a-0cf64ac61dc2
0.1848093681693619,0.3950701571521641,0.3464068355117849,0.5289107243890548,0.2001538953109251,-0.5921866304759708,-0.0728261875807689,-0.0976246291647112,-6.6157700046078,18.57255032834013,40.92266245929431,-2.38025391240386,1.1230366523430433,-0.5432087261504277,7505.62744140625,11.619999999999996,7.726666666666666,178.35253150693313,-10.917623671253088,55.73151023716336,1553.0,1178.0,1350.0,1528.0,1471.0,998.74,108.0,293.1,1649413035.0527594,1649413036.226719,e8f201b0-ea2e-4ae1-9e85-0404d756abab
0.2021130517706629,0.4321363288887918,0.3170195017657578,0.5313695304992884,0.1733962999994448,-0.6488443804835261,-0.1060529441647199,-0.1317717953697912,-6.105125209421708,17.276017213599008,38.12662266103251,-2.5233647329267974,1.281036623990221,-0.4179456921424387,7505.62744140625,11.612375,7.71125,178.35505127755442,-10.977783230410616,55.804254455440535,1553.0,1178.0,1350.0,1528.0,1471.0,998.74,108.0,293.1,1649413036.3348234,1649413037.6122408,e8f201b0-ea2e-4ae1-9e85-0404d756abab
0.2205212257109385,0.4349107035906692,0.3076970766108181,0.5234671646364338,0.1669665875985711,-0.6550111220478578,-0.1101290404862696,-0.1310617660621343,-5.902033814882636,16.673966253244892,36.55747880420856,-2.5239995859815325,1.3042838153224008,-0.3922348156221427,7505.62744140625,11.611444444444444,7.71111111111111,178.39909366541502,-10.985336364273564,55.907197880814245,1553.0,1178.0,1350.0,1528.0,1471.0,998.74,108.0,293.1,1649413037.7205694,1649413038.9508097,e8f201b0-ea2e-4ae1-9e85-0404d756abab
0.1804960902763567,0.422647016730544,0.3328945284850094,0.7501885960319014,0.2060854746300104,-0.8618922985367337,-0.1577288414349018,-0.1729889155115052,-6.331813696044533,18.629034774746746,35.01183910560945,-3.486564888774162,1.2487446551648154,-0.4148700131948963,7518.794921875,11.601444444444445,7.684444444444444,178.42748903852447,-10.961465137715582,56.054813067521415,1553.0,1088.0,1350.0,1528.0,1471.0,998.74,108.0,293.1,1649413039.954651,1649413040.996404,85cb5a08-8f83-468a-91df-1493e9dd7ce6
0.2255050870875561,0.4585277829161054,0.3330462442818537,0.7767135592520484,0.2039614547311084,-0.9066610997167084,-0.1739118531666943,-0.1978450106947822,-6.400553558514943,18.548689830093767,37.0560529925743,-3.647233985318255,1.3624305160904238,-0.3817004292611719,7518.794921875,11.569,7.680000000000001,178.42814625450467,-11.056661278727589,56.09369923174106,1553.0,1088.0,1350.0,1528.0,1471.0,998.74,108.0,293.1,1649413041.1046364,1649413042.2186637,85cb5a08-8f83-468a-91df-1493e9dd7ce6
0.2014030222081169,0.4439175597641582,0.3368740316214662,0.7617741129711355,0.2023102818301924,-0.8837853891371117,-0.1661293417554802,-0.1930052788593619,-6.173141456277472,19.114824934856,36.35441038526021,-3.558183274771212,1.3143339982878797,-0.3987115571849609,7524.662977430556,11.58,7.688888888888889,178.43973936225586,-11.054295092498872,56.15596285675994,1553.0,1088.0,1350.0,1528.0,1471.0,998.74,108.0,293.1,1649413042.3274772,1649413043.4469988,85cb5a08-8f83-468a-91df-1493e9dd7ce6
0.2571534915728342,0.4002112969675022,0.2821491615215914,-0.4490367369135466,0.0537563150129635,0.3327190430989013,0.1548829358252678,0.1340554017796448,-5.352523506069835,13.821529754474186,45.78024615394642,1.870858026234916,1.206577558882008,-0.578697056579419,7520.261935763889,11.587111111111112,7.694444444444445,178.52409978760457,-10.702632178342055,56.21023326317514,1553.0,1435.0,1350.0,1528.0,1471.0,998.74,108.0,293.1,1649413044.47341,1649413045.4931564,5cd980e2-5332-4b7c-99fa-6b0e2d12cb37
0.245543193412843,0.4038271881934281,0.2763242890908429,-0.4472222149251632,0.0501535718681343,0.3289059217136907,0.1479404238405146,0.1265606449530895,-5.544380854453269,13.65287827034013,45.93317380549583,1.8567160669265328,1.2195463420877102,-0.5553612187413431,7525.396484375,11.63,7.699999999999999,178.49638439777252,-10.653963855138608,56.19842196882543,1553.0,1435.0,1350.0,1528.0,1471.0,998.74,108.0,293.1,1649413045.601556,1649413046.7138062,5cd980e2-5332-4b7c-99fa-6b0e2d12cb37
0.236089281305932,0.3938210311635806,0.269500116348738,-0.4552560703162071,0.0436186699700744,0.3342442922502786,0.1460601609717134,0.1247066791193659,-5.31056516149425,13.584820676893177,44.21373300033439,1.885887155574672,1.1961570091920557,-0.5379961160363718,7532.00927734375,11.630222222222224,7.706666666666667,178.5281812050886,-10.671996123729873,56.19651444877223,1553.0,1435.0,1350.0,1528.0,1471.0,998.74,108.0,293.1,1649413046.8298924,1649413047.9537437,5cd980e2-5332-4b7c-99fa-6b0e2d12cb37
