raw_voltage_G-,raw_voltage_G0,raw_voltage_G1,raw_voltage_G2,raw_voltage_G3,raw_voltage_G4,raw_voltage_G5,raw_voltage_G6,load_x,load_y,load_z,load_l,load_m,load_n,rpm,voltage,current,roll,pitch,yaw,aileron1_pwm,elevator_pwm,throttle_pwm,rudder_pwm,aileron2_pwm,pbaro,pdiff,Tt,sample_start_time,sample_end_time,uid
0.1252194786187228,0.2129212796595317,0.4168969912427529,-0.0941402239109177,0.154698854831218,-0.106026645939993,0.0902045010763226,0.0689825053945296,-6.749090489489463,26.33511046587089,3.9309841129993823,0.1666678676019907,0.8499787930857022,-0.892459758172238,4441.1630859375,11.960888888888888,0.16,178.57591815610775,5.6609007217404645,77.6101524276513,1553.0,1435.0,1200.0,1528.0,1471.0,999.0,108.0,293.85,1649418717.8149767,1649418718.8718565,9c431dd8-2950-4be5-bff0-bb9da4b9c8fd
0.1252852220920429,0.2032175422504205,0.4127025574908928,-0.0822275044393189,0.1539756765701426,-0.1077359765207989,0.086904178379656,0.0700212525170673,-6.721547053474697,26.310691992955256,3.867117613155453,0.1355875532280177,0.8122219498849752,-0.8821888278891948,4465.318250868056,11.960888888888892,0.1544444444444444,178.6041268373799,5.705051206831034,76.7446323738471,1553.0,1435.0,1200.0,1528.0,1471.0,999.0,108.0,293.85,1649418718.980562,1649418720.0957177,9c431dd8-2950-4be5-bff0-bb9da4b9c8fd
0.1192631193603072,0.208016816172067,0.4185668755206875,-0.0906163730833351,0.1560531704792606,-0.1039754491915558,0.0906515567418417,0.0673257696843239,-6.802371345479572,26.55013184080969,4.006525935553904,0.1648220097965431,0.830967303571438,-0.8977986405438128,4461.96044921875,11.96,0.16,178.67351397024817,5.756424948991978,76.00571670649825,1553.0,1435.0,1200.0,1528.0,1471.0,999.0,108.0,293.85,1649418720.2072258,1649418721.325124,9c431dd8-2950-4be5-bff0-bb9da4b9c8fd
0.3462581546999506,0.5794325623997548,0.4548739628458452,-0.1912200896372839,0.1173697071226401,-0.3777293147531154,0.0269218490417177,-0.0031431512964188,-6.523262088624552,25.40311233888693,3.5622266673779706,-0.2291283495243134,2.2406332111662737,-0.7597648551184142,4467.904513888889,11.931666666666668,0.14,178.36819844306933,5.794485134640751,74.94255678105075,1658.0,1435.0,1200.0,1528.0,1551.0,999.0,108.0,293.85,1649418722.440141,1649418723.586376,adc407e7-a642-4bcf-b389-2785c56d89d9
0.3289585174008818,0.5790072526914041,0.4583022322394757,-0.1881665575024463,0.1190264428272179,-0.3781915420257762,0.027590409696041,0.0112860260208274,-6.556751669584283,25.66528987771408,3.84962132880796,-0.2351173902223832,2.236573725756475,-0.7673967521459715,4467.128309461806,11.929444444444446,0.15,178.41282386346654,5.834052278207028,74.56289009129688,1658.0,1435.0,1200.0,1528.0,1551.0,999.0,108.0,293.85,1649418723.7166069,1649418724.7829676,adc407e7-a642-4bcf-b389-2785c56d89d9
0.3137783486055051,0.5795969210880073,0.4577312754263574,-0.1852020319678115,0.1159157647566852,-0.3797648344138048,0.0231415988118499,0.0079068110356767,-6.579942886174473,25.995778529274656,4.0728557888025385,-0.243153701221571,2.2365753738100738,-0.7557871215501972,4467.128309461806,11.92622222222222,0.15,178.48133521430125,5.876341963635593,74.1927537921649,1658.0,1435.0,1200.0,1528.0,1551.0,999.0,108.0,293.85,1649418724.8939364,1649418726.0386655,adc407e7-a642-4bcf-b389-2785c56d89d9
0.5675481650052252,0.9685707210562952,0.5142959501978678,-0.275447613081325,0.0888471510999084,-0.6794414056740099,-0.0372159753530504,-0.066509754638717,-6.502246207894766,25.64558340901311,3.8273716034029017,-0.712500013279514,3.71178054226021,-0.6639598281408474,4474.38330078125,11.902,0.1333333333333333,178.34861097834954,5.892931117605346,73.71383762358158,1767.0,1435.0,1200.0,1528.0,1630.0,999.0,108.0,293.85,1649418726.9454648,1649418728.083995,91cc79be-a96b-462a-97d4-2afa999e1ec0
0.5395819021696509,0.968229360694157,0.5149660279235799,-0.2754476130705905,0.0885437196453972,-0.6789104003984293,-0.0384802731120545,-0.0590630407651215,-6.595741141851118,25.81524404855605,3.851465145397541,-0.7101919295920401,3.710993783747453,-0.6628021805616193,4473.864095052083,11.90411111111111,0.1311111111111111,178.40432862595887,5.912727994027804,73.49625815302127,1767.0,1435.0,1200.0,1528.0,1630.0,999.0,108.0,293.85,1649418728.1925497,1649418729.3193576,91cc79be-a96b-462a-97d4-2afa999e1ec0
0.5385618668700459,0.971995450454698,0.5130665472026383,-0.2744483121338707,0.0870751114108327,-0.6835963953555416,-0.0387973590356891,-0.062767433117744,-6.391098383091682,25.58547287429466,3.833854781301692,-0.7244937216028947,3.723579230134377,-0.6570841836476319,4484.267035590277,11.90522222222222,0.1344444444444444,178.44332141702054,5.925405963492208,73.3013807134423,1767.0,1435.0,1200.0,1528.0,1630.0,999.0,108.0,293.85,1649418729.434178,1649418730.541545,91cc79be-a96b-462a-97d4-2afa999e1ec0
0.6965444484601926,1.2430118144714517,0.5735662215577668,-0.347841312541823,0.0789982719691439,-0.8899091433010814,-0.0626030744446005,-0.0787860861700846,-5.946430592106262,26.048184605051706,2.781196742880575,-1.01641349952768,4.759117257378514,-0.6638708143370116,4473.346516927083,11.850555555555555,0.1255555555555555,178.40946189257508,5.952815607495208,72.91445201478089,1886.0,1435.0,1200.0,1528.0,1710.0,999.0,108.0,293.85,1649418732.476804,1649418733.6134825,e17567c2-c3b4-48a3-99f5-232fdee84b5a
0.6946631736420676,1.2567830507720152,0.5755359972054679,-0.3440049260065775,0.0812502390286183,-0.904060687393131,-0.0654629160175153,-0.0877105110549224,-6.13134251002569,25.88436470295721,3.1891250897434302,-1.0578838108105857,4.808110822497057,-0.6633380637194201,4466.093804253473,11.854333333333331,0.12,178.43810922377395,5.985418519429012,72.84383089440259,1886.0,1435.0,1200.0,1528.0,1710.0,999.0,108.0,293.85,1649418733.7216277,1649418734.8480098,e17567c2-c3b4-48a3-99f5-232fdee84b5a
0.7009062751568094,1.2519630421876915,0.573894938927647,-0.3509388418285608,0.0778351180526452,-0.8928296720296025,-0.0643098764299778,-0.0835777746237778,-6.00770070232368,26.023064582138563,3.202424808894328,-1.0161029017239616,4.789791909735697,-0.6586870050978219,4469.716634114583,11.850666666666667,0.1233333333333333,178.4554351369685,6.043355788791121,72.74148278641968,1886.0,1435.0,1200.0,1528.0,1710.0,999.0,108.0,293.85,1649418734.961943,1649418736.275817,e17567c2-c3b4-48a3-99f5-232fdee84b5a
-0.1093664149204028,-0.2469280872577779,0.3963192832801228,0.0577403702601012,0.23086924918652,0.2050189135401277,0.1913442700111028,0.1710952784491891,-6.827072760929934,27.45825107675349,4.27493253579453,0.529459737149423,-0.8972176069916196,-1.1664988899640796,4490.00830078125,11.944444444444445,0.1422222222222222,179.56834767815022,6.178747023886221,72.60650307022206,1449.0,1435.0,1200.0,1528.0,1386.0,999.0,108.0,293.85,1649418737.3913307,1649418738.534644,29a0da31-f9fe-426c-a6da-ff4c8efdf277
-0.1308645346342212,-0.2465993698193369,0.4036562551924861,0.0609092060645969,0.2358394561077713,0.2015608065798331,0.1980238074172505,0.1802599194395591,-6.581700790301449,27.593386002487787,4.2949545051885964,0.515928655455494,-0.897821588254332,-1.1925678985012969,4506.533203125,11.951555555555554,0.15,179.4756392438159,6.221634825185855,72.35299908135723,1449.0,1435.0,1200.0,1528.0,1386.0,999.0,108.0,293.85,1649418738.644043,1649418739.7575371,29a0da31-f9fe-426c-a6da-ff4c8efdf277
-0.1095899427745745,-0.2411952550272965,0.4054839238246435,0.0595285929333561,0.237824909143191,0.19851030914968,0.2010217100580488,0.1762890133591659,-6.48150704613804,27.37950137681488,4.453834488809195,0.5109370054307029,-0.8793879479574351,-1.2010081160051778,4513.65283203125,11.951333333333332,0.15,179.47103873195496,6.233798253732787,72.16111705918425,1449.0,1435.0,1200.0,1528.0,1386.0,999.0,108.0,293.85,1649418739.8667634,1649418740.9189274,29a0da31-f9fe-426c-a6da-ff4c8efdf277
-0.3310403090247865,-0.6645307785206629,0.3608178061202716,0.1974189674288775,0.2783623374584978,0.4940666828602433,0.264372125456819,0.2395473882745586,-6.597929845918532,28.933033797963084,5.606798530069474,0.8722444034794071,-2.4963307294477786,-1.3346416849864575,4511.27685546875,11.907111111111114,0.13,179.61583874235924,6.30095205703805,71.91313262207869,1342.0,1435.0,1200.0,1528.0,1293.0,999.0,108.0,293.85,1649418741.896281,1649418742.840345,79c47a41-b96d-4a0f-a757-3d497b4988f5
-0.3331572494833948,-0.6568782345054552,0.3671160311466531,0.1914626082777226,0.2836744104187365,0.4921864194721697,0.268868979301622,0.2390214403309017,-6.787176323040907,28.89300066758789,5.668728190523284,0.881418122707461,-2.465706527410583,-1.3560194913555268,4510.48681640625,11.911,0.14,179.61700898143707,6.310154361420435,71.77398649048736,1342.0,1435.0,1200.0,1528.0,1293.0,999.0,108.0,293.85,1649418742.9503047,1649418744.054925,79c47a41-b96d-4a0f-a757-3d497b4988f5
-0.3637714653410927,-0.6673800009197289,0.3586988432971295,0.1954906606239242,0.280236532272588,0.4950027688036785,0.2656212515199327,0.2476682249088537,-6.714198696948095,28.58851715832407,5.0923065397253096,0.8761678088894927,-2.501536951761265,-1.3371117388089444,4509.16748046875,11.905555555555557,0.14,179.60072429263593,6.3347879129807785,71.62274181714623,1342.0,1435.0,1200.0,1528.0,1293.0,999.0,108.0,293.85,1649418744.166611,1649418745.290265,79c47a41-b96d-4a0f-a757-3d497b4988f5
-0.5572090615076394,-1.030296844521404,0.3327807419847448,0.35819312425013,0.3217434236790185,0.7210844647514941,0.3151564330028278,0.289693478588708,-6.619285501737422,31.02942879842114,8.038733295250493,1.03259467510269,-3.911115474025881,-1.468110074497763,4505.743815104167,11.812333333333331,0.11,179.73881402163562,6.354099513949082,71.31979257105985,1227.0,1435.0,1200.0,1528.0,1189.0,999.0,108.0,293.85,1649418747.426479,1649418748.5669358,3f691623-3232-4940-929e-b73b668dc966
-0.5638213404864312,-1.028059036131737,0.3254478157218755,0.3558036017259771,0.3159529405114083,0.7219441871180532,0.3091004473409159,0.2879993197883344,-6.67404982301339,30.83153767679988,8.110935630986944,1.0382237310100535,-3.903148674224376,-1.4412106294947324,4506.270073784723,11.814555555555554,0.11,179.72603246096878,6.352477865771765,71.250015358499,1227.0,1435.0,1200.0,1528.0,1189.0,999.0,108.0,293.85,1649418748.6755512,1649418749.7922306,3f691623-3232-4940-929e-b73b668dc966
-0.5401703691015948,-1.0323262965514284,0.3188734680363279,0.3588586505319852,0.3103005186569855,0.7238401277864874,0.3020299892441732,0.2783623374604984,-6.743221087756016,30.92131303343085,8.132734234878853,1.0358291500606225,-3.9196485164930746,-1.4150274667930844,4502.5888671875,11.811666666666667,0.11,179.7265196811296,6.35458033080753,71.19937405926281,1227.0,1435.0,1200.0,1528.0,1189.0,999.0,108.0,293.85,1649418749.900829,1649418751.0173728,3f691623-3232-4940-929e-b73b668dc966
0.1102517111295955,0.2083738538366235,0.4204977108537338,-0.0593664721237936,0.1616074830762173,-0.1359829178869535,0.0847255405805761,0.0678218800961046,-6.76422706609209,26.529795901975486,3.5818194977765865,0.0223176671452049,0.8320751266012298,-0.8998051577355662,4499.4365234375,11.956666666666669,0.1533333333333333,179.0532770415603,6.277461091775739,71.08657120839034,1553.0,1435.0,1200.0,1528.0,1471.0,999.0,108.0,293.85,1649418752.956847,1649418754.0915463,71576464-94e7-4af0-aab5-55a8ad339d80
0.10693925117561,0.2094990787495391,0.4162243849075536,-0.0583550339411753,0.1566640791409615,-0.13795522251803,0.0792005595922133,0.0573534951826756,-6.739530098557556,26.59255641297568,3.551981585442536,0.0158150179530513,0.8359906863649302,-0.8792862034293022,4508.90380859375,11.961,0.15,179.06637279092894,6.270937549640339,71.10699575073839,1553.0,1435.0,1200.0,1528.0,1471.0,999.0,108.0,293.85,1649418754.200162,1649418755.3298447,71576464-94e7-4af0-aab5-55a8ad339d80
0.120012089312935,0.2131908279225718,0.4151876608791293,-0.0615410642816069,0.1560951451986694,-0.1388023019950384,0.0786569116014607,0.0595786590525142,-6.783166121915162,26.446677540440223,3.524640106144545,0.0200534268715404,0.850712233959207,-0.8759145274108018,4511.014485677083,11.963555555555557,0.16,179.06918227540757,6.275073798365212,71.1472012798327,1553.0,1435.0,1200.0,1528.0,1471.0,999.0,108.0,293.85,1649418755.4440875,1649418756.550368,71576464-94e7-4af0-aab5-55a8ad339d80
0.14989958085298,0.2059656196483256,0.4065358194427158,-0.3599542971186888,0.1172776662416531,0.1562109548078849,0.1550144235396167,0.1394069214326091,-6.538690887994167,25.81360141848296,5.658692730070661,1.3519704482385777,0.8391507588876906,-0.9200172121938088,4516.0302734375,11.961333333333334,0.15,179.0623475327781,6.375531366904113,71.20248634879461,1553.0,1522.0,1200.0,1528.0,1471.0,999.0,108.0,293.85,1649418758.4884102,1649418759.623347,f0fb085d-b89d-492e-9412-ac779a0e4d4a
0.1590379244916565,0.2150776657474009,0.4192769050742166,-0.3636359326195109,0.125048545572663,0.1520165208906301,0.1647707558584265,0.1375792525593912,-6.406285600493207,26.01369900141664,5.933030498521715,1.3529211353914945,0.8712222895855405,-0.9603921941246408,4521.690002441406,11.9605,0.15,179.03446385467396,6.378717881382286,71.16978311845739,1553.0,1522.0,1200.0,1528.0,1471.0,999.0,108.0,293.85,1649418759.7323687,1649418760.852832,f0fb085d-b89d-492e-9412-ac779a0e4d4a
0.1398276797862161,0.2090555631385397,0.4110326732039839,-0.3616241817299636,0.1207357732978581,0.1545147731085511,0.1595507236118651,0.1312678787061271,-6.464934397227278,25.7846698947084,5.664099071110599,1.3519958637107938,0.8506601634993003,-0.9368853897685516,4524.241102430556,11.960444444444445,0.15,179.03971532150834,6.373726963734629,71.18415108542267,1553.0,1522.0,1200.0,1528.0,1471.0,999.0,108.0,293.85,1649418760.9614668,1649418762.0776737,f0fb085d-b89d-492e-9412-ac779a0e4d4a
0.177234202329911,0.212786252674033,0.4190311256207649,-0.6685557982964171,0.0896310156702604,0.4488306202807881,0.2462901405011734,0.2233557810767887,-6.173430138263285,25.731095561953563,8.206563957141194,2.706320536533642,0.8783515220714816,-1.02734882919742,4514.973958333333,11.952777777777776,0.1422222222222222,179.00867287064048,6.454611771433212,71.18907337508453,1553.0,1613.0,1200.0,1528.0,1471.0,999.0,108.0,293.85,1649418763.792699,1649418764.950884,47a286c5-6530-498a-873c-650156740dea
0.1839602659306183,0.2162377852784112,0.4209022860798473,-0.6736256340824369,0.0905160240361137,0.4488306202722747,0.2492991689147614,0.225985520211442,-6.082160011465849,25.637606368861235,8.043187705448904,2.717250164011109,0.8928401213081212,-1.035144103278062,4512.86083984375,11.949666666666666,0.14,179.01446335323686,6.456472381367742,71.18162239760994,1553.0,1613.0,1200.0,1528.0,1471.0,999.0,108.0,293.85,1649418765.059204,1649418766.1774852,47a286c5-6530-498a-873c-650156740dea
0.1802336221254336,0.2184700292284651,0.4229716884104169,-0.6635972209078751,0.093807243810099,0.438815866049164,0.2474892004035001,0.2192720995189226,-6.213818910575558,25.66409255386377,8.244469214019214,2.6723684651738013,0.8992572156556737,-1.039331698278967,4513.65283203125,11.951,0.14,179.01025595670814,6.451339494206476,71.19175839833825,1553.0,1613.0,1200.0,1528.0,1471.0,999.0,108.0,293.85,1649418766.295678,1649418767.4088085,47a286c5-6530-498a-873c-650156740dea
0.1948286743911437,0.2149330300926269,0.4236159744766081,-0.9826373419440456,0.0572538685199188,0.7494669343167806,0.3344546720495423,0.3125489455298401,-5.866891792863672,25.371876191991618,10.487050909878558,4.088746300506767,0.9029764646974856,-1.1139430557485988,4511.27685546875,11.936666666666667,0.1377777777777778,178.9896075359373,6.556329130419027,71.16877632960096,1553.0,1710.0,1200.0,1528.0,1471.0,999.0,108.0,293.85,1649418769.3402646,1649418770.4760296,327a7ccd-b117-4c09-8b14-ccb0c8b964b0
0.1987399056480745,0.2191962417967331,0.4252008979659097,-0.976892875288068,0.054660541048814,0.7417557304215041,0.3297717136387275,0.3084430125937719,-5.8104437812688285,25.792498024244424,10.71921142246857,4.061392780137199,0.9159092850526888,-1.1051432367392648,4513.65283203125,11.929555555555554,0.1322222222222222,178.98278797150596,6.563196648470129,71.12687691359247,1553.0,1710.0,1200.0,1528.0,1471.0,999.0,108.0,293.85,1649418770.584193,1649418771.707887,327a7ccd-b117-4c09-8b14-ccb0c8b964b0
0.1681105246057448,0.2114880718348618,0.4213543989090274,-0.9767861684050132,0.0549922927628844,0.7476918604840701,0.3298131825933367,0.3080126456755643,-5.929084686661823,25.568407844969474,10.492194710033992,4.072718392975378,0.8895899298719603,-1.10165387436905,4506.533203125,11.93,0.13,178.96841421785263,6.540111462849133,71.11898273273177,1553.0,1710.0,1200.0,1528.0,1471.0,999.0,108.0,293.85,1649418771.8161786,1649418772.93495,327a7ccd-b117-4c09-8b14-ccb0c8b964b0
0.2029500168636254,0.2140126214012032,0.4002563060433826,-1.1357393488766043,0.0103342627935649,0.8986424198553613,0.3417698980837008,0.3153207916306077,-5.998116123947636,26.09916310166758,11.453130508446243,4.773070213134769,0.90927239688443,-1.029091852843099,4499.4365234375,11.884,0.11,178.95969889647168,6.605154073654695,71.08727016441539,1553.0,1814.0,1200.0,1528.0,1471.0,999.0,108.0,293.85,1649418773.8456948,1649418774.9790304,f61c5c02-dc66-49c0-b49a-a11dc3660d09
0.1980238074518144,0.2151434092246368,0.3985677101633644,-1.1130067536328534,0.009274275604932,0.8789158371444523,0.3318117842770552,0.3088804595580197,-6.052619824849214,26.35564183967485,11.734346843540807,4.67909632197025,0.9085053219438222,-1.0105787392312218,4497.07568359375,11.884555555555556,0.1122222222222222,178.94647868587816,6.59941382140786,71.07710228947096,1553.0,1814.0,1200.0,1528.0,1471.0,999.0,108.0,293.85,1649418775.0869496,1649418776.211553,f61c5c02-dc66-49c0-b49a-a11dc3660d09
0.1935006561171294,0.2229537344394674,0.4108880375398728,-1.1378052128825655,0.0166638429698607,0.8966534268591871,0.3495230768528668,0.3236332957536506,-5.916856363086103,26.29256145986126,12.212919325472509,4.775234232511821,0.9364295082728634,-1.0611312350978606,4492.88525390625,11.878888888888888,0.11,178.9494460236176,6.603349575621472,71.06431921098434,1553.0,1814.0,1200.0,1528.0,1471.0,999.0,108.0,293.85,1649418776.319812,1649418777.445325,f61c5c02-dc66-49c0-b49a-a11dc3660d09
0.0919006829002236,0.2008244796393528,0.4206312206787814,0.2608745724643569,0.1921857865407261,-0.4361115607865456,-0.0072404871720261,-0.0323676465876334,-7.12800057421397,27.83890007986428,1.419614892734706,-1.3663397289495378,0.786100786053288,-0.8126427198618194,4494.71728515625,11.96622222222222,0.1411111111111111,178.96052155481172,6.157385702120745,71.04730596867174,1553.0,1349.0,1200.0,1528.0,1471.0,999.0,108.0,293.85,1649418778.351655,1649418779.3156989,b3ccc1a7-403c-435a-b908-6a2bf52524d3
0.1165939340789288,0.2043351813892178,0.4250491822551448,0.2621762933174124,0.1970508039623844,-0.4404637802219504,-0.0025595512056049,-0.0251490118776221,-7.078556457004399,27.690634934096867,1.496825035409202,-1.3797817963808947,0.7983510782778253,-0.8313153376347344,4506.533203125,11.96288888888889,0.14,178.97321963538866,6.137561410077868,71.22161163738055,1553.0,1349.0,1200.0,1528.0,1471.0,999.0,108.0,293.85,1649418779.42418,1649418780.5188353,b3ccc1a7-403c-435a-b908-6a2bf52524d3
0.1173570641553118,0.2074256305894215,0.4322303926797713,0.2588066872197291,0.2003582066398608,-0.4378719693582288,0.0024576879254595,-0.017455001526176,-7.048703741130219,27.97875088797896,1.8977390747045595,-1.3640101785906364,0.8070525678959896,-0.851939917282234,4509.16748046875,11.963666666666668,0.14,178.99406233709593,6.133698843238488,71.36294342950627,1553.0,1349.0,1200.0,1528.0,1471.0,999.0,108.0,293.85,1649418780.6269522,1649418781.9473674,b3ccc1a7-403c-435a-b908-6a2bf52524d3
0.0781638354991886,0.1967676012928271,0.4470985325645892,0.5647919962457368,0.2457085635946076,-0.7250193562204419,-0.0690762789688629,-0.0900762652296986,-7.454726547464735,29.13218377639956,-0.5805399470366454,-2.6917094412222653,0.7552059134757076,-0.8349859680112147,4499.9619140625,11.937333333333337,0.1388888888888889,179.0009760063558,6.02695342152242,71.59910329133874,1553.0,1264.0,1200.0,1528.0,1471.0,999.0,108.0,293.85,1649418782.8570695,1649418783.995366,942073d9-877e-483e-8064-e4f866136a5b
0.0901256089162896,0.208214046611447,0.4536475941680216,0.5620454361500626,0.2496061403888431,-0.7321019549563921,-0.0628726226882857,-0.0791507097636905,-7.21076223475667,28.988534094336327,-0.3031921466156058,-2.701888574890043,0.7947030965258919,-0.8560727048911465,4506.533203125,11.931,0.13,178.99017064708883,6.010763122141075,71.75830817070255,1553.0,1264.0,1200.0,1528.0,1471.0,999.0,108.0,293.85,1649418784.1043072,1649418785.2256126,942073d9-877e-483e-8064-e4f866136a5b
0.0688965333131554,0.2003582066601925,0.4429010645089796,0.5597600918126239,0.2394376472518388,-0.7202908808575454,-0.0734886781897625,-0.0902659099010986,-7.427737488932491,29.221944990148447,-0.1015771900793866,-2.6692572150650387,0.7645917702581934,-0.8133929133407296,4494.71728515625,11.91177777777778,0.1211111111111111,178.99596264750505,6.017185065212571,71.89820638201248,1553.0,1264.0,1200.0,1528.0,1471.0,999.0,108.0,293.85,1649418785.3411846,1649418786.457903,942073d9-877e-483e-8064-e4f866136a5b
0.056464946755206,0.1895297500158125,0.4644558215444463,0.7960790581155593,0.2804266826549069,-0.9389310493380348,-0.120542807445703,-0.1370575713867619,-7.618611713474947,30.527502543706337,-1.8678238699498195,-3.684298205860502,0.7132763099423906,-0.8340065345708604,4488.833618164063,11.913,0.12,178.9885086343908,5.936224876415804,72.21231501883778,1553.0,1178.0,1200.0,1528.0,1471.0,999.0,108.0,293.85,1649418788.362934,1649418789.39503,3f534c44-bbfe-4134-9ee3-8e56659ebc8e
0.0597915669048159,0.1978528744098792,0.4636406024492142,0.7927918843668942,0.2838058973920763,-0.9473199225051516,-0.1175317558311505,-0.1396347157189751,-7.6017788597624385,29.82298260330049,-2.314234979087737,-3.700507692908447,0.7486715711408789,-0.8411354369362856,4479.579969618056,11.902111111111113,0.1244444444444444,178.99239273529884,5.920238356202664,72.33182701275001,1553.0,1178.0,1200.0,1528.0,1471.0,999.0,108.0,293.85,1649418789.5037766,1649418790.5509045,3f534c44-bbfe-4134-9ee3-8e56659ebc8e
0.0714377716856998,0.1896243194808234,0.4580599928132819,0.7931241417657411,0.2791745222688822,-0.939747786180362,-0.1222273578271693,-0.1421653342252794,-7.6941437978790095,29.96632908797284,-2.381213049672378,-3.683626369612216,0.7186645906850389,-0.8217454490975263,4480.6201171875,11.895888888888887,0.1211111111111111,178.9899232424589,5.9214361057646165,72.42708462546453,1553.0,1178.0,1200.0,1528.0,1471.0,999.0,108.0,293.85,1649418790.6598043,1649418791.7797918,3f534c44-bbfe-4134-9ee3-8e56659ebc8e
0.0772535411546925,0.2094105779162001,0.4496397707348757,0.9242697324938026,0.2706405131614404,-1.0821457293976442,-0.1852399609743225,-0.2062778769475641,-7.812476163450731,31.43585599805133,-2.9923059208106464,-4.290280459781576,0.7824730136358119,-0.7069313403116808,4481.922200520833,11.886888888888889,0.1144444444444444,178.9555810513121,5.84827486649311,72.57511000297687,1553.0,1088.0,1200.0,1528.0,1471.0,999.0,108.0,293.85,1649418792.892271,1649418794.0340078,bbe8292b-40ee-404a-b6fc-5ab0c87235d0
0.063320980388157,0.2029373738848972,0.4361750012074091,0.9176195270297858,0.2627386528759353,-1.0686556633424724,-0.1911695177781293,-0.2177829873793276,-7.93492763317579,30.972914971913283,-2.9152736902431746,-4.2487539531063785,0.7583358463954034,-0.670000886935737,4475.162923177083,11.884333333333334,0.1166666666666666,178.96094654436007,5.849769160101527,72.68878787697302,1553.0,1088.0,1200.0,1528.0,1471.0,999.0,108.0,293.85,1649418794.167525,1649418795.2601805,bbe8292b-40ee-404a-b6fc-5ab0c87235d0
0.0779630650297095,0.2107254474798254,0.4481514395866125,0.9129709576200452,0.2670544593057325,-1.0703129062640453,-0.1871672565881506,-0.2167123800955257,-8.04965858129136,31.637387312176028,-2.6206257008926137,-4.237001535492565,0.7870892869747556,-0.6969385145748123,4473.6044921875,11.878,0.11,178.96121975192688,5.855947493092625,72.80496256456576,1553.0,1088.0,1200.0,1528.0,1471.0,999.0,108.0,293.85,1649418795.373018,1649418796.4204738,bbe8292b-40ee-404a-b6fc-5ab0c87235d0
0.1222347246375863,0.2040722074723045,0.4123080966368679,-0.0828191958400525,0.149741796512001,-0.1088799131897253,0.0839851678311703,0.0680357994031018,-6.569829672408814,26.62452060971983,3.728828055644047,0.1364667784374544,0.8156324681208267,-0.8718479076960685,4480.0372314453125,11.96375,0.1475,178.9381701402078,6.135249118310571,72.91376349376706,1553.0,1435.0,1200.0,1528.0,1471.0,999.0,108.0,293.85,1649418797.3973663,1649418798.5330305,83077f64-288c-4f1b-8ef0-7bd0a6de8194
0.1278886638954958,0.2137759448765391,0.4294014003402841,-0.0921679192902697,0.1627984514671511,-0.1111151916375567,0.100026577034439,0.0780288083449333,-6.513265870325008,26.65766332604272,3.665815715970906,0.1536215066814122,0.8544207296427299,-0.9347418835567332,4485.3095703125,11.958444444444444,0.14,178.91142008377838,6.154504263496516,72.80318443865184,1553.0,1435.0,1200.0,1528.0,1471.0,999.0,108.0,293.85,1649418798.6412008,1649418799.7680788,83077f64-288c-4f1b-8ef0-7bd0a6de8194
0.1318595700650006,0.2089503735709819,0.4289937907847788,-0.0841209167921311,0.1644288897445739,-0.1133767675458086,0.0999871309618049,0.0792910831959658,-6.483098658783206,26.62597943241039,3.724016151519804,0.1301815078343828,0.8345754223693145,-0.9367479707968857,4501.79931640625,11.96388888888889,0.14,178.90594682552353,6.150789209770459,72.72945178765164,1553.0,1435.0,1200.0,1528.0,1471.0,999.0,108.0,293.85,1649418799.8768864,1649418801.0041945,83077f64-288c-4f1b-8ef0-7bd0a6de8194
0.1908314708949353,0.2480677430138292,0.6421735833411616,-0.097756115473477,0.3559264914917648,-0.1496408742436938,0.3155074020406921,0.2912217615980336,-5.015664624218684,26.53826188029263,3.876203157526567,0.0902452541864698,0.9847461332598996,-1.7891265848777649,4502.59228515625,11.952666666666667,0.1333333333333333,178.8593634175642,6.145210842493329,72.51952212896177,1553.0,1435.0,1200.0,1424.0,1471.0,999.0,108.0,293.85,1649418802.9281142,1649418804.064675,dc6a3d61-01ee-4034-abaa-9f8763b0f56a
0.1781444966436439,0.2399433663157239,0.6358328780531651,-0.0883315341202803,0.3480534573138492,-0.1481328198438802,0.3038536121508862,0.2837639226873084,-5.157790097192011,27.11680628050885,4.117033526421786,0.0758608706319532,0.9515937138797896,-1.754065216667157,4507.323404947917,11.954,0.1333333333333333,178.84217866161245,6.145985642077302,72.46338025071398,1553.0,1435.0,1200.0,1424.0,1471.0,999.0,108.0,293.85,1649418804.1728823,1649418805.290575,dc6a3d61-01ee-4034-abaa-9f8763b0f56a
0.2089372248718317,0.2424926960946085,0.6378213653059513,-0.0910502800637668,0.3544143915195743,-0.1509031492052076,0.3105766412454891,0.2887892529519595,-5.167936078514768,26.531501956642582,3.763260704461696,0.071925855056695,0.9648134098152455,-1.7749929369549873,4488.96337890625,11.952666666666666,0.1344444444444444,178.86278761906811,6.145564447078485,72.40294825475752,1553.0,1435.0,1200.0,1424.0,1471.0,999.0,108.0,293.85,1649418805.3995306,1649418806.5287716,dc6a3d61-01ee-4034-abaa-9f8763b0f56a
0.2702106520042618,0.288606182682157,0.9238145853163572,-0.0572045229727796,0.6105342832152518,-0.2419184334706429,0.57939463346987,0.5564223461604251,-3.2890012068574586,27.39941643061952,3.794024578710245,-0.188000602186837,1.1381737499806237,-2.889539606361676,4480.6201171875,11.942,0.13,178.77770167584754,6.12242191632758,72.22483817068101,1553.0,1435.0,1200.0,1304.0,1471.0,999.0,108.0,293.85,1649418808.289519,1649418809.3877192,84314bc4-dac8-4a87-930c-aaaf58665e59
0.2596517437873754,0.2820176748195632,0.8994146528147047,-0.0447142725045515,0.593970467577908,-0.2488609458898548,0.5584295450183341,0.5360636148151375,-3.248705046627814,26.87596239035041,3.356100311669758,-0.2365108169146524,1.1139654249078998,-2.804931810627568,4479.319932725694,11.940555555555555,0.13,178.78493256944887,6.111015405549921,72.20458134742256,1553.0,1435.0,1200.0,1304.0,1471.0,999.0,108.0,293.85,1649418809.4962225,1649418810.625085,84314bc4-dac8-4a87-930c-aaaf58665e59
0.281766332441048,0.2913623515256667,0.9089338024279988,-0.0567746617555888,0.5980050940533554,-0.2425252964070597,0.5668022294090448,0.5424897866245639,-3.2138394301181497,27.086558851040174,4.045369092558156,-0.1930709998653377,1.1447498289550302,-2.8333886223454168,4477.500651041667,11.936,0.13,178.78842507284446,6.123960558733734,72.22059434647672,1553.0,1435.0,1200.0,1304.0,1471.0,999.0,108.0,293.85,1649418810.7390316,1649418812.0578852,84314bc4-dac8-4a87-930c-aaaf58665e59
0.3308463666275025,0.2970769768520711,1.054960178457425,0.0116617753961053,0.7320585678728698,-0.3201784728080947,0.6893885240858079,0.6654932995792475,-2.417082389544152,28.33182498772577,3.776112763605627,-0.5060595863772349,1.163782732226006,-3.3886032122561005,4478.27978515625,11.894333333333334,0.1133333333333333,178.72718559674612,6.09264257613754,72.15079436661864,1553.0,1435.0,1200.0,1166.0,1471.0,999.0,108.0,293.85,1649418813.9888496,1649418815.1248405,d0ac290a-40a3-4d30-966d-b2e169ab7c55
0.3149162164779368,0.2967988313728191,1.0495869134201143,0.0082608145324395,0.7309586289578974,-0.3183705267537259,0.6882632992254631,0.6678196071494735,-2.5080898411426253,27.879334420957907,3.530241890232232,-0.4976773271586124,1.1656332140667482,-3.3784668114627485,4469.457790798611,11.899888888888889,0.12,178.73974252008023,6.104652847178708,72.17374987350914,1553.0,1435.0,1200.0,1166.0,1471.0,999.0,108.0,293.85,1649418815.233595,1649418816.353152,d0ac290a-40a3-4d30-966d-b2e169ab7c55
0.3149946029248269,0.2892757547063798,1.0454440629013306,0.0051324361680337,0.7251681459760795,-0.3064259458926268,0.6842099611428832,0.656886973005432,-2.567449679040038,28.230914237912263,3.735255544298994,-0.4616522250454392,1.1361487043399858,-3.35999608917417,4472.048828125,11.903666666666668,0.12,178.74320922053897,6.113116210470261,72.19875595497047,1553.0,1435.0,1200.0,1166.0,1471.0,999.0,108.0,293.85,1649418816.46221,1649418817.4118726,d0ac290a-40a3-4d30-966d-b2e169ab7c55
0.0536379770647861,0.1696883681010509,0.2045718578829875,-0.0470810379673912,-0.0399412956102618,-0.0941796699572538,-0.1400949200754917,-0.1635916421429747,-8.224057253081972,27.419343036135587,4.0440907374564015,0.0830263142951854,0.6780301939238628,-0.016168512237096,4479.579969618056,11.95411111111111,0.1344444444444444,178.85696981571508,6.141781138892597,72.34968188615032,1553.0,1435.0,1200.0,1623.0,1471.0,999.0,108.0,293.85,1649418819.9268353,1649418821.063864,6175009b-cad5-4234-9f30-76bdb9a19376
0.0591614409343618,0.1693829137800187,0.2048464633386329,-0.0459396298722435,-0.0361918941693615,-0.0957656050536812,-0.1364633510633761,-0.1513567792962158,-8.208885521660367,27.041281676071307,3.9450745517430112,0.0743870817556602,0.6775252157571666,-0.0268210627692782,4488.964138454861,11.958222222222222,0.1377777777777778,178.89294973444288,6.158396332958561,72.30389078013474,1553.0,1435.0,1200.0,1623.0,1471.0,999.0,108.0,293.85,1649418821.1719666,1649418822.3030825,6175009b-cad5-4234-9f30-76bdb9a19376
0.0551237797300535,0.162154165400701,0.2018763752662716,-0.0380084371804287,-0.0384291954920245,-0.0962308666411853,-0.1417253585398865,-0.1580165944345871,-8.309242860475752,27.288238220437105,3.876183671868173,0.056878464566221,0.6505732978918126,-0.0133070832733728,4491.315809461806,11.959111111111111,0.14,178.8724121145186,6.155926745254909,72.2236952523599,1553.0,1435.0,1200.0,1623.0,1471.0,999.0,108.0,293.85,1649418822.41418,1649418823.5215352,6175009b-cad5-4234-9f30-76bdb9a19376
0.0128881442625788,0.1423522294317538,0.0525238778807715,-0.0055453167646795,-0.1744302144719575,-0.0999883596640033,-0.3044253208469264,-0.3287883416057148,-9.319981202455592,27.694840032455087,3.632605758748672,-0.0300829224960897,0.5721584197496359,0.6038365423503154,4492.889702690973,11.948777777777776,0.1344444444444444,178.90790025962613,6.14452018704538,72.11165586485464,1553.0,1435.0,1200.0,1712.0,1471.0,999.0,108.0,293.85,1649418825.4563837,1649418826.603412,1b015c7d-182f-4a86-aea7-0168affb1d3a
0.0150374504138503,0.1426556608740539,0.0618670380034504,-0.0036362272281474,-0.1670087862544242,-0.1006584375427791,-0.2965740308407265,-0.3243253700433951,-9.274301891834334,27.878114219547392,3.893116560103997,-0.0341504207689075,0.5710246295089247,0.5701915763825582,4497.07568359375,11.950444444444445,0.13,178.91188301882215,6.140266164989193,72.07183206744392,1553.0,1435.0,1200.0,1712.0,1471.0,999.0,108.0,293.85,1649418826.7129834,1649418828.0304782,1b015c7d-182f-4a86-aea7-0168affb1d3a
-0.0116771607914123,0.1475484929043231,0.0637508416093426,-0.0117150897544383,-0.1679696525653198,-0.0995205694677553,-0.2954867346442704,-0.3120363945054547,-9.25498694298367,27.96291249748502,3.68927253818387,-0.0127363771368256,0.5921612245263366,0.5675967988065899,4492.36181640625,11.951666666666666,0.13,178.912238188659,6.140089006957597,72.04013923078517,1553.0,1435.0,1200.0,1712.0,1471.0,999.0,108.0,293.85,1649418828.138909,1649418829.4674923,1b015c7d-182f-4a86-aea7-0168affb1d3a
-0.0367198649018399,0.1214195055062125,-0.0874475370957653,0.0300886619854869,-0.2993519461986936,-0.1056058875861366,-0.4579121041285735,-0.4813956812621759,-10.470001006673558,28.0334640663734,3.4552942193637746,-0.1284198009989862,0.4901040392216069,1.1798996626583516,4484.527669270833,11.940666666666663,0.13,178.9845061435372,6.137718836451863,72.01422701089395,1553.0,1435.0,1200.0,1801.0,1471.0,999.0,108.0,293.85,1649418830.3699615,1649418831.5170548,c37935be-8967-4edd-a018-cd7e3a08712e
-0.0621099982467838,0.116370911964543,-0.0907842718141187,0.0360500785753478,-0.3031610229376902,-0.1056144848484997,-0.4633855031021217,-0.4735631023993141,-10.484392282958794,28.293946226526057,3.4942299536942163,-0.1403270324886061,0.469984423844111,1.1968083879627565,4483.745768229167,11.937666666666669,0.12,178.99970103771074,6.142311711781873,71.99696029267216,1553.0,1435.0,1200.0,1801.0,1471.0,999.0,108.0,293.85,1649418831.6304274,1649418832.7431014,c37935be-8967-4edd-a018-cd7e3a08712e
-0.0557505804931367,0.1216430333343714,-0.0891153987810232,0.0286160079744537,-0.2993175573583515,-0.1036421802848373,-0.4559514308438697,-0.4731458841525096,-10.356829797027428,27.75777701099016,3.576576285080922,-0.122519452456214,0.4891373928116767,1.179712204507265,4485.3095703125,11.93925,0.1275,178.98470080392852,6.135965114234658,71.96428352931795,1553.0,1435.0,1200.0,1801.0,1471.0,999.0,108.0,293.85,1649418832.851279,1649418833.9652295,c37935be-8967-4edd-a018-cd7e3a08712e
0.1369875614730564,0.217247200525524,0.3870100070164773,-0.1495356847782379,0.1441667493473217,-0.0643321281208414,0.1059960850010406,0.0906515566631076,-6.037650396247316,22.980325941855263,3.1919699075179016,0.36183247750597,0.8725868891765614,-0.8589894482413178,7454.855577256944,11.650555555555554,7.652222222222223,178.1219261067157,5.857793304283954,62.83110749152331,1553.0,1435.0,1350.0,1528.0,1471.0,999.0,108.0,293.85,1649418837.816407,1649418838.8839998,d2f5237c-ee34-4a75-85f4-05a1062dd5bd
0.1267973221059822,0.209818187483407,0.3785948420895982,-0.1468139043962696,0.1356595431424394,-0.0570871961174604,0.0958715890764572,0.0757146376889667,-6.201257695085864,23.310589004201944,3.468753503949852,0.3737052372445578,0.8425654347157923,-0.8222510330640665,7463.511176215277,11.651222222222223,7.663333333333333,177.93956460933583,5.759112248975425,59.09754243499666,1553.0,1435.0,1350.0,1528.0,1471.0,999.0,108.0,293.85,1649418838.9929378,1649418840.1120818,d2f5237c-ee34-4a75-85f4-05a1062dd5bd
0.1358962197391847,0.2078327344377266,0.371757520561277,-0.1551764759098068,0.1313599195721394,-0.0542602263259507,0.0953324925376205,0.079080704065498,-6.036119377116255,22.865260990864808,2.476052032937856,0.3955540262212378,0.8433368676704666,-0.8077226355015473,7467.122667100694,11.652666666666669,7.686666666666667,177.86586079691213,5.685430871825874,55.69304640630738,1553.0,1435.0,1350.0,1528.0,1471.0,999.0,108.0,293.85,1649418840.2204702,1649418841.3378232,d2f5237c-ee34-4a75-85f4-05a1062dd5bd
0.3279637680301561,0.570051474244803,0.405680142809132,-0.220159867405538,0.0873047078488453,-0.339319943325943,0.0099549734885575,-0.0149896212831006,-6.348847513620621,23.110875451785336,3.699223316249611,-0.0950717202317897,2.2034053709643406,-0.627734320569111,7472.90869140625,11.616,7.626666666666667,177.57445457052307,5.662971597151317,51.03390078641993,1658.0,1435.0,1350.0,1528.0,1551.0,999.0,108.0,293.85,1649418842.4580593,1649418843.7117014,2e774d0a-d2ea-4e19-9746-bf91f0eb7763
0.3324520246119439,0.5656896475423018,0.3849583048833379,-0.2413115705704445,0.0730560727280877,-0.3393199433729789,0.0032162665435619,-0.0189848017793522,-5.974360099779272,21.98818243660782,0.2306841396428631,-0.0561973347956684,2.216408447441308,-0.5753691836727881,7467.845920138889,11.622666666666667,7.66,177.6533584336349,5.696678201250377,49.0710835216965,1658.0,1435.0,1350.0,1528.0,1551.0,999.0,108.0,293.85,1649418843.823824,1649418845.0355618,2e774d0a-d2ea-4e19-9746-bf91f0eb7763
0.3350564777266748,0.5725927124113079,0.3974242793686539,-0.2333212080438058,0.0785936966660836,-0.3381315032511037,0.0062252951609691,-0.0161907037725985,-6.113352084180521,22.798699378617112,2.456359769289935,-0.065272493789629,2.223377019366924,-0.6005737392980252,7473.633246527777,11.614555555555556,7.680000000000001,177.77587077786745,5.740341466180151,47.43111487975133,1658.0,1435.0,1350.0,1528.0,1551.0,999.0,108.0,293.85,1649418845.1445825,1649418846.2516823,2e774d0a-d2ea-4e19-9746-bf91f0eb7763
0.5405341711197916,0.9658024149776092,0.450754881215586,-0.3227566291993384,0.0486546211019597,-0.6459122180056096,-0.0584678093384913,-0.0861721137804314,-6.006943933672293,22.315560487937216,1.7274744614076158,-0.5557623606039458,3.718243531528045,-0.4943430094352882,7484.510308159723,11.583777777777776,7.680000000000001,177.84890523175252,5.851421401834501,44.58832374257509,1767.0,1435.0,1350.0,1528.0,1630.0,999.0,108.0,293.85,1649418848.394461,1649418849.362407,41e5bcaa-bf31-4aca-b7a1-59f3103b4f1f
0.5371549564998715,0.9714563539569032,0.44888776651679,-0.3294098705682448,0.0445653765970335,-0.6471087497784299,-0.0597169354772242,-0.0849361360766033,-5.834719930349082,22.254262957730624,1.461954215999388,-0.5438979956521454,3.74128333208124,-0.4840528421693879,7482.332899305556,11.588888888888889,7.666666666666667,177.97447750073331,5.904420017539868,43.84129456940218,1767.0,1435.0,1350.0,1528.0,1630.0,999.0,108.0,293.85,1649418849.4764528,1649418850.5626895,41e5bcaa-bf31-4aca-b7a1-59f3103b4f1f
0.5544060443525921,0.9743227695282468,0.4621153537935231,-0.3206528374560121,0.0564912440675489,-0.642007053907731,-0.0508678626144465,-0.0703673798912947,-6.107956540024771,22.60927329952964,3.813566366940746,-0.5489381528480796,3.7328921566612014,-0.5275225796633717,7485.9619140625,11.586666666666666,7.649999999999999,178.08408837653366,5.958978857151891,43.2684606435465,1767.0,1435.0,1350.0,1528.0,1630.0,999.0,108.0,293.85,1649418850.6715431,1649418851.7736633,41e5bcaa-bf31-4aca-b7a1-59f3103b4f1f
0.7499863077607116,1.3379605734903943,0.5164958280068433,-0.3899297902855845,0.0307526711033841,-0.9505196093126058,-0.113579560918552,-0.1365265660196651,-5.807453709171328,22.539949755209424,1.5070212313208815,-1.0839034062298385,5.12704670973392,-0.4369259819896781,7485.9619140625,11.536333333333332,7.67,178.18349798535365,6.050383626560241,42.070608249301486,1886.0,1435.0,1350.0,1528.0,1710.0,999.0,108.0,293.85,1649418853.900029,1649418855.0577023,6c32ab16-c14c-426e-a53b-32fddaae20bb
0.7272061936970714,1.3176878121180289,0.5124485585273759,-0.4146923303207519,0.0279848705063895,-0.921824585899784,-0.1031207839027599,-0.1254998662599285,-5.503906181715572,22.298538550174115,-0.4519295926073045,-0.9655249747765854,5.069013355017194,-0.4476520298716159,7491.05126953125,11.53588888888889,7.652222222222223,178.29700055116112,6.102971434846154,41.76053625427565,1886.0,1435.0,1350.0,1528.0,1710.0,999.0,108.0,293.85,1649418855.1663058,1649418856.2874324,6c32ab16-c14c-426e-a53b-32fddaae20bb
0.7452578347555908,1.3040900371104978,0.5093778325208593,-0.4037991389767319,0.0270229928299565,-0.9114022155043168,-0.106663852012047,-0.1276006235381409,-5.6933847609730215,22.63302267734471,0.5325584795618439,-0.964550899267614,5.0090988411855655,-0.4375426775397268,7489.59716796875,11.534888888888888,7.661111111111111,178.35966677788608,6.170772920325839,41.48184556339144,1886.0,1435.0,1350.0,1528.0,1710.0,999.0,108.0,293.85,1649418856.3969631,1649418857.7272627,6c32ab16-c14c-426e-a53b-32fddaae20bb
-0.1300098693683483,-0.2628906064990324,0.3543354993137585,-0.0031643913064333,0.2136707552484786,0.277533969653534,0.2028625274202498,0.1773935035609431,-6.460509368943613,24.10012776750241,4.308520738437095,0.8056349264846095,-0.9551987160971064,-1.103028474013584,7489.59716796875,11.637,7.707777777777778,179.51969548178235,6.369724567744741,40.93938890386939,1449.0,1435.0,1350.0,1528.0,1386.0,999.0,108.0,293.85,1649418859.8635254,1649418861.2143142,2ae7c56b-70e0-48ca-ac6a-3b4b4bc0f84d
-0.1198631209225543,-0.2608576154996806,0.3626308088814953,0.0043667774826909,0.2189433821995762,0.2723346720277745,0.2073624156542418,0.186311859519125,-6.334739681095437,24.406505705986653,4.882998118572749,0.779561890536082,-0.9539516829727144,-1.1268397982537897,7492.50537109375,11.637,7.723333333333334,179.58120057634835,6.392256365747358,40.73560337979289,1449.0,1435.0,1350.0,1528.0,1386.0,999.0,108.0,293.85,1649418861.343027,1649418862.4370117,2ae7c56b-70e0-48ca-ac6a-3b4b4bc0f84d
-0.1297337467024395,-0.271147988813545,0.34509196651612,0.0014508011496678,0.2064652700174367,0.2799270322270427,0.1957622317365383,0.1695568806928487,-6.35834581841292,24.07443269483825,4.0396940812417474,0.7999796862050569,-0.98566406027442,-1.0717609245784947,7492.50537109375,11.625333333333336,7.706666666666667,179.59904103046043,6.391415398705801,40.61539432713039,1449.0,1435.0,1350.0,1528.0,1386.0,999.0,108.0,293.85,1649418862.5463846,1649418863.6654968,2ae7c56b-70e0-48ca-ac6a-3b4b4bc0f84d
-0.3306721454637516,-0.6832469431582223,0.3405435293669716,0.1164341267501728,0.284901790517618,0.5783326234851179,0.310175100298137,0.2790986641421331,-5.965941721883821,24.89722187845756,4.521732399716066,1.2166649350711365,-2.5527666274946403,-1.3835330563327055,7492.50537109375,11.589,7.694444444444445,179.79472139672188,6.432271977637264,40.42138204484627,1342.0,1435.0,1350.0,1528.0,1293.0,999.0,108.0,293.85,1649418865.309102,1649418866.5333264,15cc63bd-d298-4228-b471-66dfa99a7fb7
-0.3584993429289827,-0.681047064312691,0.3449432851305806,0.1252462817116881,0.2812226844106363,0.5885102191264586,0.3039041840503955,0.2803123901061733,-6.191001819338597,26.03069302844257,7.407147591422592,1.2277369468172483,-2.569283007219073,-1.3718003960971428,7492.50537109375,11.588888888888889,7.713333333333334,179.81771484910777,6.428295526879846,40.396014722268845,1342.0,1435.0,1350.0,1528.0,1293.0,999.0,108.0,293.85,1649418866.6417017,1649418867.7663944,15cc63bd-d298-4228-b471-66dfa99a7fb7
-0.339016511801306,-0.6730440567845175,0.3294935681062981,0.1042589399269772,0.2678337723736871,0.5797612797583912,0.2951426014298732,0.2648753158930408,-5.945650896346707,25.208255468849067,4.447969012856,1.2488496755357696,-2.5131856583291587,-1.3229101134021906,7492.50537109375,11.591666666666669,7.673333333333334,179.8283213739789,6.418555724555278,40.38836453094346,1342.0,1435.0,1350.0,1528.0,1293.0,999.0,108.0,293.85,1649418867.8794346,1649418868.925522,15cc63bd-d298-4228-b471-66dfa99a7fb7
-0.5291037152613968,-1.045291425432293,0.3241203031688492,0.2457338494624291,0.3333117469413501,0.8478808708955644,0.3802677607020369,0.3477247397436288,-6.014818720181522,27.23562389127307,9.512679223400658,1.5461621066401237,-3.9714633042155865,-1.5635078371506017,7492.50537109375,11.494555555555555,7.638888888888889,179.9612823898218,6.430175346721416,40.40544835187748,1227.0,1435.0,1350.0,1528.0,1189.0,999.0,108.0,293.85,1649418869.9007504,1649418871.0410297,74c37133-8c1a-4b17-b25a-e27d11c41132
-0.5578412105108533,-1.0443179155613054,0.3077223628461789,0.2365424055776832,0.3185194646517401,0.8451247021127446,0.3676500704406412,0.3485844622991602,-5.86083842577273,26.84846398696343,7.94633305033252,1.5571470602502815,-3.954933842847732,-1.5049485238657838,7485.9619140625,11.494333333333334,7.652222222222223,179.94988508082676,6.406546591878971,40.473477415465766,1227.0,1435.0,1350.0,1528.0,1189.0,999.0,108.0,293.85,1649418871.1495254,1649418872.2621486,74c37133-8c1a-4b17-b25a-e27d11c41132
-0.5544761547367453,-1.0466715337358523,0.3178215723881374,0.2528670168221356,0.3260263582993934,0.8439929028936574,0.3696931754264508,0.3434746770274731,-6.075367895852322,27.52876771235253,9.633262591629164,1.522953039322179,-3.978552304619667,-1.530040086692087,7485.9619140625,11.496222222222222,7.649999999999999,179.95031158819495,6.396999362943502,40.50012236287294,1227.0,1435.0,1350.0,1528.0,1189.0,999.0,108.0,293.85,1649418872.371185,1649418873.4998186,74c37133-8c1a-4b17-b25a-e27d11c41132
0.1093095564851332,0.2047033448556826,0.3749789509034972,-0.1004384497014182,0.137460914495298,-0.0881838641283211,0.0804350198578704,0.0620662912903481,-6.398092343510177,23.583010402272933,4.3303369200829644,0.2008793353395757,0.8112042010150359,-0.797043865527232,7492.50537109375,11.639666666666663,7.73,179.73658282650675,6.365128419615754,40.68265233825237,1553.0,1435.0,1350.0,1528.0,1471.0,999.0,108.0,293.85,1649418875.4283683,1649418876.5725255,d72860d9-3c46-4ead-9144-51d7b49f2c32
0.1374593973969922,0.2053268964733665,0.362276805580942,-0.1208872021602344,0.1245888469265196,-0.0838179910287918,0.073966367105897,0.0518917290585845,-6.1954499047377976,23.20295091614264,2.291907463219633,0.2534425360224961,0.8318811794492424,-0.7556684142382071,7499.060546875,11.646,7.73,179.28981559943674,6.2991556224226,40.68040179092085,1553.0,1435.0,1350.0,1528.0,1471.0,999.0,108.0,293.85,1649418876.6851082,1649418877.7994442,d72860d9-3c46-4ead-9144-51d7b49f2c32
0.1207453819735186,0.1946056522825298,0.3741991321227801,-0.0983321296083845,0.1413155052556878,-0.0809986069750372,0.0809705763559561,0.0514492246670897,-6.7921994508404095,23.540529360031293,4.222738520251355,0.2117382484577663,0.7767652597553995,-0.8036067820482385,7492.50537109375,11.650666666666666,7.7444444444444445,179.2665717067813,6.278826797586657,40.655650703188535,1553.0,1435.0,1350.0,1528.0,1471.0,999.0,108.0,293.85,1649418877.907731,1649418879.225819,d72860d9-3c46-4ead-9144-51d7b49f2c32
0.1258506160099501,0.1813249638662752,0.3510877716067193,-0.4338631333448065,0.0894813227890587,0.2467660221328395,0.1588275453339317,0.1324907071599009,-6.385006863939214,22.301721789716268,5.267477400588218,1.6961533840633107,0.7546380021026815,-0.8146373884634872,7485.9619140625,11.650666666666666,7.736666666666666,179.2283621107444,6.363778318889814,40.68399560878913,1553.0,1522.0,1350.0,1528.0,1471.0,999.0,108.0,293.85,1649418881.3670285,1649418882.505089,1bab5e28-c745-48b0-a1de-a285cb03493e
0.1382179760040691,0.1845039139274346,0.3505820525487522,-0.4342560772480111,0.0891758684458461,0.245379846161329,0.1581559503978827,0.1374341113521559,-6.404642863221474,22.22180238804244,5.458197943330308,1.6933903876370722,0.7650245895675405,-0.8119065188659635,7492.50537109375,11.645888888888884,7.742222222222221,179.18926762575512,6.355018648711142,40.66507446696838,1553.0,1522.0,1350.0,1528.0,1471.0,999.0,108.0,293.85,1649418882.6132145,1649418883.7413738,1bab5e28-c745-48b0-a1de-a285cb03493e
0.1360014092912699,0.1872155795661016,0.3544143914894769,-0.4416077171412279,0.086838434831158,0.2493168690677975,0.1586697609462296,0.1406691962629397,-6.3343723053561405,22.70178440414405,5.443809854955593,1.722226664759222,0.7759813821808536,-0.8145827991604052,7486.68896484375,11.649444444444445,7.75,179.17899957470283,6.351013975991529,40.677762302261584,1553.0,1522.0,1350.0,1528.0,1471.0,999.0,108.0,293.85,1649418883.8548248,1649418884.9693518,1bab5e28-c745-48b0-a1de-a285cb03493e
0.1664406402293005,0.1855851412818812,0.3641575747006723,-0.7989894023139696,0.0567016232299627,0.601649305441747,0.2674357714836456,0.2379958420074862,-6.032980199729962,22.161802050226385,8.979609891569924,3.3177510935213723,0.7810052045086402,-0.9395875428782806,7485.9619140625,11.634555555555556,7.739999999999999,179.13722613773905,6.489542924100343,40.73269941103077,1553.0,1613.0,1350.0,1528.0,1471.0,999.0,108.0,293.85,1649418886.8970463,1649418888.0351655,f230e0d5-0b0a-466a-85d8-7eff129a24ed
0.1536297647394608,0.1777399213835371,0.3660317694970435,-0.7955419136911376,0.0661403642363666,0.6022025620708006,0.2742943333511818,0.2497290300955235,-6.258219364073502,21.649077801414027,8.458102337266531,3.307715545762347,0.7574828146164929,-0.96636498244332,7485.9619140625,11.639666666666669,7.75,179.10905236632263,6.451154083029632,40.737794732151606,1553.0,1613.0,1350.0,1528.0,1471.0,999.0,108.0,293.85,1649418888.1429412,1649418889.2621472,f230e0d5-0b0a-466a-85d8-7eff129a24ed
0.1408603581464712,0.1905978286702695,0.3665248455735216,-0.801812833279797,0.0570121347593145,0.5975752328778887,0.2690727840839158,0.2494255986423903,-5.902489212590243,22.16021376496841,8.743946094634792,3.315100542023252,0.8014685992600031,-0.945226774803574,7492.50537109375,11.644222222222222,7.727777777777779,179.0987767261713,6.455972402034123,40.74667511643748,1553.0,1613.0,1350.0,1528.0,1471.0,999.0,108.0,293.85,1649418889.3716114,1649418890.4941456,f230e0d5-0b0a-466a-85d8-7eff129a24ed
0.1767623664344456,0.1716475237730156,0.3668793546098285,-1.149796833074199,0.0233039345954535,0.9494848841780634,0.3697326214981347,0.3410947630233966,-5.794472681595787,21.59086791325784,10.972180029228504,4.887508119101536,0.7527372354681535,-1.0450085919208016,7485.9619140625,11.611555555555556,7.724444444444444,179.067820791033,6.554233732731779,40.77526514993829,1553.0,1710.0,1350.0,1528.0,1471.0,999.0,108.0,293.85,1649418892.4249222,1649418893.5666685,04fffa8b-fc61-4754-b2a1-3342cfad1b13
0.1510829634940053,0.1711478733343017,0.3656959720448896,-1.163616123465096,0.0188070804354281,0.9622128211957504,0.3699955954082183,0.3471694604224513,-5.803501232266983,21.79186534234147,10.897080360421604,4.94853942204554,0.75322258994507,-1.0380214071074385,7492.50537109375,11.608666666666668,7.71111111111111,179.04821966593488,6.569062358011093,40.79076967935422,1553.0,1710.0,1350.0,1528.0,1471.0,999.0,108.0,293.85,1649418893.6740663,1649418895.009222,04fffa8b-fc61-4754-b2a1-3342cfad1b13
0.1544621783276138,0.1689914872251245,0.3602655608847129,-1.158251451116158,0.0189911621537415,0.955059930950387,0.3669188007132199,0.3546116218755556,-5.881542518204679,21.33637585442778,10.255670621403658,4.916933114642002,0.7503594964297003,-1.0274753565121018,7486.779846191406,11.595875,7.67875,179.04322015718992,6.595559312057266,40.82956031578922,1553.0,1710.0,1350.0,1528.0,1471.0,999.0,108.0,293.85,1649418895.1401951,1649418896.2225227,04fffa8b-fc61-4754-b2a1-3342cfad1b13
0.175618429878412,0.1497417965132285,0.376399009979732,-1.4306532408990404,-0.004097948803703,1.2482232496192476,0.4530822002725143,0.4320311393453259,-5.732206871356116,22.329892838686032,13.970030683360312,6.198238678843674,0.6787623268714075,-1.140479346931813,7485.9619140625,11.572666666666668,7.66,179.02382071239978,6.696860746910733,40.83159258165852,1553.0,1814.0,1350.0,1528.0,1471.0,999.0,108.0,293.85,1649418897.3417618,1649418898.4780324,00faf836-10a2-4f87-8255-f0d7136343d2
0.1881885830441209,0.1509777739193882,0.3707582197185393,-1.444577725205746,-0.0125788580338899,1.251852289886848,0.4524773602984979,0.4226824169889264,-5.287562451772556,22.172169061013943,12.811481639511294,6.236516541545213,0.6918732318044789,-1.1216087464376077,7485.9619140625,11.575666666666669,7.717777777777777,178.9904590328538,6.695248442811656,40.85523072801108,1553.0,1814.0,1350.0,1528.0,1471.0,999.0,108.0,293.85,1649418898.5902455,1649418899.7087166,00faf836-10a2-4f87-8255-f0d7136343d2
0.1847699221415388,0.1548566392034858,0.3779242586235194,-1.4528219664159407,-0.0069249185510301,1.259544277033224,0.4596959939035385,0.4434179093642854,-5.461206096187588,22.2350141971688,13.421220565653892,6.273181669052135,0.703716638279237,-1.1482456985767624,7485.9619140625,11.578,7.699999999999999,178.98410999256532,6.675403849928745,40.86645272881741,1553.0,1814.0,1350.0,1528.0,1471.0,999.0,108.0,293.85,1649418899.8168094,1649418900.9371865,00faf836-10a2-4f87-8255-f0d7136343d2
0.1043919441390824,0.2062154448609827,0.3756363856696175,0.2267405587331624,0.1751319281124416,-0.4169013114775725,-0.010751189171807,-0.0280548741182497,-6.778161617427368,24.04337342858148,0.2908465096732233,-1.2735790409807444,0.815134180314747,-0.7225199493431227,7488.14306640625,11.642333333333331,7.746666666666666,178.9543212608652,6.104146037655919,40.961646213644734,1553.0,1349.0,1350.0,1528.0,1471.0,999.0,108.0,293.85,1649418902.871608,1649418904.0099812,6d779e61-7401-47a1-97b0-b6785fb576d8
0.1159031218055482,0.2062751197123981,0.3786621027108437,0.2298542709963185,0.1782709263377985,-0.4123078640712073,-0.0096795704502951,-0.038530845204278,-7.0037151391006525,24.20917994228184,1.3740839172291186,-1.2689717750044904,0.8071649655256686,-0.731108972751492,7485.9619140625,11.64611111111111,7.737777777777778,178.9181531324802,6.095005204976065,40.992842723223816,1553.0,1349.0,1350.0,1528.0,1471.0,999.0,108.0,293.85,1649418904.1179435,1649418905.2406666,6d779e61-7401-47a1-97b0-b6785fb576d8
0.0902702445984582,0.2028888248590356,0.3718495614186893,0.2253073509074286,0.1743167089556814,-0.4097221218294974,-0.0121843971158176,-0.035063129337506,-6.974654199350165,23.893129236411287,0.6429938960381522,-1.2554407980432414,0.800860831581562,-0.7142013143567024,7485.9619140625,11.641,7.743333333333333,178.92680925888834,6.080771138177628,41.04037894257234,1553.0,1349.0,1350.0,1528.0,1471.0,999.0,108.0,293.85,1649418905.3490353,1649418906.463681,6d779e61-7401-47a1-97b0-b6785fb576d8
0.0791464476745791,0.2085033179123633,0.383354669770656,0.5772058814650627,0.21670810394605,-0.7578734106407048,-0.1065394451377826,-0.1249344724236521,-7.317907829853327,25.249023371772587,-2.3338963164315163,-2.822666154253868,0.8081582782405041,-0.6545115094622578,7483.784505208333,11.609333333333334,7.703333333333333,178.93571127210663,5.959728944731992,41.11160529360208,1553.0,1264.0,1350.0,1528.0,1471.0,999.0,108.0,293.85,1649418907.3797235,1649418908.5166714,0d1723ec-54ae-49ba-b98a-dc1048fc2f16
0.0815268673953743,0.2076532041693065,0.3823412087933114,0.5787751276410543,0.2138988345380376,-0.7552107984646145,-0.1090913038205685,-0.1281695576771184,-7.293651295707168,25.483911531225225,-1.8853293934925184,-2.818632391401427,0.8005690434679226,-0.64520630080824,7485.9619140625,11.607,7.716666666666667,178.93292910838466,5.957490065640306,41.15773411452663,1553.0,1264.0,1350.0,1528.0,1471.0,999.0,108.0,293.85,1649418908.6250415,1649418909.6532202,0d1723ec-54ae-49ba-b98a-dc1048fc2f16
0.0831567999893608,0.2121586553125309,0.3918224294905305,0.5890265582608748,0.2225066787314633,-0.7614367088722362,-0.1059871998716153,-0.1325870141614695,-7.552514138147039,25.764102731413573,-0.7550832698001273,-2.853368173631546,0.8086256893943741,-0.6723408924960801,7479.4296875,11.611555555555556,7.673333333333334,178.9642159282428,5.942585976257038,41.230107557882,1553.0,1264.0,1350.0,1528.0,1471.0,999.0,108.0,293.85,1649418909.7660203,1649418910.8753915,0d1723ec-54ae-49ba-b98a-dc1048fc2f16
0.0722696795510615,0.22221740747701,0.4168049503584074,0.8703428878802286,0.2653056828028647,-1.0431345321575538,-0.1719673624048467,-0.1904675798416711,-7.772688195019069,27.4253088532328,-2.749382589021822,-4.1091339462105365,0.83256175819761,-0.6707117446288119,7485.9619140625,11.587222222222222,7.727777777777779,178.92457351030004,5.861004868718066,41.33674502466368,1553.0,1178.0,1350.0,1528.0,1471.0,999.0,108.0,293.85,1649418913.008048,1649418914.1603088,a5d65558-e606-4d1c-87d2-fb34d9344602
0.0583396474180478,0.2285394014823881,0.4080696652793741,0.8589687608853455,0.2543816454150747,-1.0441156278820865,-0.1785644685066756,-0.2033194200254115,-7.51934237429706,27.247647924262573,-3.5549505137303514,-4.087294934470969,0.8624633031881724,-0.6347536460992836,7485.9619140625,11.59,7.707777777777778,178.93828853015344,5.846212196795635,41.36588564730258,1553.0,1178.0,1350.0,1528.0,1471.0,999.0,108.0,293.85,1649418914.2696607,1649418915.3733566,a5d65558-e606-4d1c-87d2-fb34d9344602
0.0692717768618736,0.2219149874814408,0.4118478922717767,0.8702902930877522,0.2617292376205923,-1.0443705104099854,-0.1738870722010689,-0.1958585455924502,-7.583482529635348,27.17663711862795,-2.998439281271022,-4.1136324765435175,0.831983738521959,-0.6565041744045779,7485.9619140625,11.592222222222222,7.702222222222222,178.95448518540525,5.861772363794178,41.42890476713466,1553.0,1178.0,1350.0,1528.0,1471.0,999.0,108.0,293.85,1649418915.4852116,1649418916.6120453,a5d65558-e606-4d1c-87d2-fb34d9344602
0.0618559121865837,0.2255966222561976,0.4132548026562536,0.9645927351443304,0.26392506977441,-1.1467989284563629,-0.207508291772218,-0.2262320376007667,-7.394972637431458,28.15918669464164,-4.837745272372683,-4.550140823747481,0.849254808211606,-0.6151365732061876,7499.060546875,11.571111111111112,7.684444444444444,178.9439545515249,5.835278249731175,41.50456277257089,1553.0,1088.0,1350.0,1528.0,1471.0,999.0,108.0,293.85,1649418918.296239,1649418919.472766,922e5a5e-2593-4119-9b6c-06cf31e2ffd9
0.0905595159150635,0.2350899804777578,0.4244837883306984,0.9592017702099191,0.2736814018196626,-1.1455629508053615,-0.1976336198702903,-0.2198286213800663,-7.568206403633225,28.12814565124876,-3.963392226519614,-4.534797191679225,0.8797124850319661,-0.6555646024382132,7499.060546875,11.56922222222222,7.685555555555556,178.93497816513567,5.816894890443824,41.5708429282767,1553.0,1088.0,1350.0,1528.0,1471.0,999.0,108.0,293.85,1649418919.5831823,1649418920.7072277,922e5a5e-2593-4119-9b6c-06cf31e2ffd9
0.0579097861667247,0.2353918947600663,0.4276536352460997,0.9844250133800312,0.279351523799323,-1.1700271295079492,-0.2014103305860634,-0.2241929776277321,-7.583190285736251,28.18367914439992,-4.100114478349772,-4.646172285969531,0.8792590373474323,-0.6621995463184006,7499.060546875,11.56111111111111,7.651111111111111,178.93824147773913,5.818525550676295,41.628359951277375,1553.0,1088.0,1350.0,1528.0,1471.0,999.0,108.0,293.85,1649418920.8198795,1649418921.9346046,922e5a5e-2593-4119-9b6c-06cf31e2ffd9
0.1136354774489422,0.2024943639938768,0.3706924762151817,-0.1245137140399552,0.1340291048086235,-0.0743645837047404,0.0852211452212472,0.0553736049083881,-6.304888378574397,23.145102768844584,2.843194546715596,0.2829344784827686,0.81812502439855,-0.7956720616358822,7499.060546875,11.635333333333332,7.706666666666667,178.90395544592548,6.140927460110084,41.66534922018253,1553.0,1435.0,1350.0,1528.0,1471.0,999.0,108.0,293.85,1649418922.8397484,1649418923.9792328,7f874c09-690d-4fbb-9e17-b0eaee4e359b
0.1279281099977858,0.1992729335410309,0.3718495614243561,-0.1244874166330294,0.1381709440542659,-0.0734704723338016,0.0897442966931319,0.068864167068097,-6.304710165806274,22.87247949786762,2.5503554603358696,0.2830881175906316,0.8087023574216938,-0.8100212071363351,7504.168131510417,11.646666666666668,7.684444444444444,178.91334316148473,6.139442225988691,41.59614612296692,1553.0,1435.0,1350.0,1528.0,1471.0,999.0,108.0,293.85,1649418924.0873432,1649418925.209345,7f874c09-690d-4fbb-9e17-b0eaee4e359b
0.1115316860886034,0.1949996074398869,0.3604233452589653,-0.1201877926566703,0.1289274108515017,-0.0703542311807409,0.0761748423285575,0.0519154975988955,-6.6168297685993,22.99939511062101,2.864677095281833,0.2805572105499206,0.7908464829708981,-0.762842390331933,7492.50537109375,11.646,7.699999999999999,178.91461813012978,6.146267861699257,41.54793029979598,1553.0,1435.0,1350.0,1528.0,1471.0,999.0,108.0,293.85,1649418925.3177166,1649418926.380452,7f874c09-690d-4fbb-9e17-b0eaee4e359b
