raw_voltage_G-,raw_voltage_G0,raw_voltage_G1,raw_voltage_G2,raw_voltage_G3,raw_voltage_G4,raw_voltage_G5,raw_voltage_G6,load_x,load_y,load_z,load_l,load_m,load_n,rpm,voltage,current,roll,pitch,yaw,aileron1_pwm,elevator_pwm,throttle_pwm,rudder_pwm,aileron2_pwm,pbaro,pdiff,Tt,sample_start_time,sample_end_time,uid
0.0607119756342157,0.1875442969628853,0.0561756754277824,-0.1327842444271674,-0.1105497976662461,0.2325128361507151,-0.1887845462909683,-0.2183954132214712,-13.01412199135926,20.881313388274705,41.07732631417792,0.9632350202818204,0.4517125433071884,0.4045815554301503,4031.980034722222,11.949555555555555,0.0988888888888888,179.01705275384222,-8.531370915936963,104.19122921807632,1553.0,1435.0,1200.0,1528.0,1471.0,997.6,110.0,292.15,1649403844.6169713,1649403845.6159213,d0df676d-50b1-4350-9aa7-80182295e669
0.062579090495844,0.1979843613688263,0.0513764013140734,-0.1360845674188682,-0.1209372683229682,0.2274768857317252,-0.1976467683826075,-0.2217746289174322,-12.805456350839002,21.134680242082894,41.32668184400991,0.960948700723106,0.4872886054071428,0.4395174646067747,4475.801866319444,11.948777777777776,0.0955555555555555,179.01341909320374,-8.606768520411087,104.17178670514892,1553.0,1435.0,1200.0,1528.0,1471.0,997.6,110.0,292.15,1649403845.7250507,1649403846.789842,d0df676d-50b1-4350-9aa7-80182295e669
0.057161827644293,0.193303425690523,0.048036632436526,-0.1349932255696634,-0.1210161605376534,0.2298962457238444,-0.1982253111038391,-0.2278756242935232,-12.866923727568526,20.927848915083377,41.14930608533235,0.9623269019495458,0.4713897796819022,0.4442360170485726,4543.160698784723,11.946666666666667,0.09,179.0052107236412,-8.65534340283214,104.17388509104391,1553.0,1435.0,1200.0,1528.0,1471.0,997.6,110.0,292.15,1649403846.899129,1649403848.0229435,d0df676d-50b1-4350-9aa7-80182295e669
0.2438864578298415,0.5369445773841187,0.1059434902581812,-0.3132632688894477,-0.1490886289979808,0.0579901955303464,-0.2099670980503363,-0.2329378731642662,-11.98998844128502,20.133978723070346,41.423309409795095,0.9762704133207972,1.7772241941773623,0.4615991802221258,4566.556640625,11.928999999999998,0.08,178.69949600985086,-8.768744559303169,104.21304560119523,1658.0,1435.0,1200.0,1528.0,1551.0,997.6,110.0,292.15,1649403849.5959346,1649403850.5748692,a4efdbeb-b7f8-4efc-a38b-4f0850aecefc
0.2642932333016949,0.5324345749931183,0.1098092069197901,-0.3094501464140742,-0.1450782763102837,0.0608171652100558,-0.207442548079482,-0.2285330591298045,-12.118746239560728,20.3336642187186,41.71885268337107,0.9755200456385164,1.7583798419846983,0.4470056790345221,4583.653157552083,11.928333333333333,0.0833333333333333,178.68200161865676,-8.789474468025375,104.2663438440186,1658.0,1435.0,1200.0,1528.0,1551.0,997.6,110.0,292.15,1649403850.688835,1649403851.8040092,a4efdbeb-b7f8-4efc-a38b-4f0850aecefc
0.2632676350455332,0.5406919554649857,0.1070874268350139,-0.3139338525091199,-0.1478395027357973,0.0592524703623195,-0.2090992839816793,-0.2286645462745169,-12.07000760336572,20.084827019410493,42.04533033655999,0.9804095877087696,1.7864867896402068,0.4583920038106093,4595.93896484375,11.93,0.08,178.66590058605328,-8.820261545709208,104.33218003742834,1658.0,1435.0,1200.0,1528.0,1551.0,997.6,110.0,292.15,1649403851.9367585,1649403852.9336538,a4efdbeb-b7f8-4efc-a38b-4f0850aecefc
0.423839502297268,0.818707962268683,0.1584988279411309,-0.4658276211345399,-0.1732690833244647,-0.088815001551465,-0.2226161451515723,-0.2404589280545206,-11.44739707273808,20.16259069478297,39.98046926968284,0.9933770406916974,2.8650718762841025,0.4719930763359838,4605.542534722223,11.901000000000002,0.0811111111111111,178.41086587590448,-8.846320804395052,104.40244447015,1754.888888888889,1435.0,1200.0,1528.0,1621.2222222222222,997.6,110.0,292.15,1649403853.5959308,1649403854.5769932,b9d8d3a5-0907-474a-9028-c21db74ab717
0.4241945170631142,0.816498981497244,0.1554746278925811,-0.4665245022515066,-0.1752545366326726,-0.0899326408162984,-0.22544311514161,-0.2532657597096248,-11.504401575964284,20.11913152225684,39.40132327651771,0.9918778541841706,2.862216621313694,0.4817323962441923,4601.697428385417,11.893666666666668,0.08,178.37097757115163,-8.868329286584387,104.4609905749856,1767.0,1435.0,1200.0,1528.0,1630.0,997.6,110.0,292.15,1649403854.6853857,1649403855.8009946,b9d8d3a5-0907-474a-9028-c21db74ab717
0.4200263806963851,0.8132249564346625,0.1547383009171707,-0.4672345319970579,-0.1754123209994629,-0.0861195186908827,-0.2255351560296919,-0.2565529341736623,-11.571011746585237,20.15554508504176,39.39113794041597,1.0022176741589155,2.8505401177336496,0.482603770197327,4588.288411458333,11.887555555555556,0.08,178.37781990288016,-8.875824091106137,104.49153518095392,1767.0,1435.0,1200.0,1528.0,1630.0,997.6,110.0,292.15,1649403855.9093685,1649403857.0313823,b9d8d3a5-0907-474a-9028-c21db74ab717
0.5402711972123168,1.0440765985658744,0.2013898735278696,-0.5822067635489433,-0.1966343187028157,-0.2237206357803846,-0.2410506193771228,-0.2711874349635192,-10.97927155717828,20.764315387000487,37.0457578161407,0.9586413258112304,3.7500963134750016,0.4937893843146993,4559.26953125,11.842777777777776,0.08,178.16939288580772,-8.924227270160557,104.6125737221456,1886.0,1435.0,1200.0,1528.0,1710.0,997.6,110.0,292.15,1649403859.1683226,1649403860.1997492,b4825e7d-e1b7-447c-9358-b066b6fe7795
0.5441106161600189,1.047534705471579,0.199496461336102,-0.574633112133607,-0.1973706457678911,-0.2348049879461952,-0.2457184071196642,-0.2754870593079243,-11.011347490530262,20.687584250794952,36.91904600528142,0.916009720387826,3.763362573894807,0.5043343351495365,4550.394856770833,11.843333333333335,0.08,178.19476779748413,-8.945617145911315,104.56564501017826,1886.0,1435.0,1200.0,1528.0,1710.0,997.6,110.0,292.15,1649403860.3129194,1649403861.4245074,b4825e7d-e1b7-447c-9358-b066b6fe7795
0.5359847226403506,1.038554146472747,0.1987732830605837,-0.5783804917406822,-0.19725230753424,-0.2223137251011636,-0.2404852254501659,-0.2702538774439496,-10.81630294878308,20.620949318149496,36.97041974008785,0.9521610553972724,3.728258622987964,0.4968246898777462,4549.58935546875,11.838,0.0788888888888888,178.19652239719096,-8.932505554298352,104.52537345592197,1886.0,1435.0,1200.0,1528.0,1710.0,997.6,110.0,292.15,1649403861.5333164,1649403862.6571262,b4825e7d-e1b7-447c-9358-b066b6fe7795
-0.1985934746090488,-0.2267711336030549,-0.0063726732129161,0.0564386493607821,-0.0803603894733289,0.456895321867421,-0.1660372997862679,-0.1925056277259228,-13.693682170222676,22.4558685904706,39.86744358627384,1.0474004281192784,-1.113925219698791,0.3650345640137027,4547.712456597223,11.922666666666666,0.0888888888888888,179.02261101000676,-8.970165509834509,104.47978725558148,1449.0,1435.0,1200.0,1528.0,1386.0,997.6,110.0,292.15,1649403863.6742258,1649403864.6993954,3ee6cc28-ad76-4d22-a3ce-fee032361f8d
-0.1879128972429883,-0.2281807835613836,-0.006734810214357,0.058049912506314,-0.0795457181074185,0.4585235686123543,-0.165998401535439,-0.1889264427496185,-13.7653723780232,22.422380434076,40.112876977180754,1.0471877085049168,-1.121102034859332,0.3645165334853228,4554.423828125,11.925444444444445,0.09,179.07750296363645,-8.978982525143088,104.45890433164912,1449.0,1435.0,1200.0,1528.0,1386.0,997.6,110.0,292.15,1649403864.807484,1649403866.040498,3ee6cc28-ad76-4d22-a3ce-fee032361f8d
-0.1896523603176902,-0.2298949607334666,-0.007226832771478,0.0626635455779771,-0.0776861468115634,0.4549498207095937,-0.1668823564491414,-0.1814344245349276,-13.878608626864692,22.324793373003534,39.96658912336157,1.0279980586994035,-1.1260341211758302,0.3635005482515773,4562.509765625,11.926,0.09,179.10306001369082,-8.981916755437776,104.42910497521028,1449.0,1435.0,1200.0,1528.0,1386.0,997.6,110.0,292.15,1649403866.149438,1649403867.266014,3ee6cc28-ad76-4d22-a3ce-fee032361f8d
-0.3954952296225983,-0.5946980287991427,-0.0605847494418096,0.2279502387622241,-0.0522090296137541,0.6544939105228706,-0.147550231396228,-0.1749258191948529,-14.490018747815084,24.01287354086457,39.00929679891411,1.1116272408673011,-2.505159864957969,0.3288451512165325,4567.908637152777,11.900777777777778,0.0844444444444444,179.2252945968972,-8.995516610712658,104.36820700857044,1342.0,1435.0,1200.0,1528.0,1293.0,997.6,110.0,292.15,1649403869.20401,1649403870.3392742,49d8d632-2959-4f05-8ebf-24723ca36c8c
-0.4008993448614009,-0.5939354042029859,-0.0550622968113671,0.2335910291856934,-0.0459371012840136,0.6477091839214658,-0.1442499083898844,-0.1724275667266853,-14.577151261211094,24.02352493882248,38.92378398444495,1.0839449122390867,-2.501269185969801,0.3080317134682842,4559.539116753473,11.894444444444446,0.09,179.2490226740738,-8.99950819223636,104.26429630508738,1342.0,1435.0,1200.0,1528.0,1293.0,997.6,110.0,292.15,1649403870.4475052,1649403871.5730278,49d8d632-2959-4f05-8ebf-24723ca36c8c
-0.4054224972725693,-0.5865458345500048,-0.060163991149998,0.2243606448555954,-0.0512886208453439,0.6474067639371536,-0.1480893279953842,-0.166628991228096,-14.584129628711672,23.784650261148013,38.67042473736459,1.1022053606678692,-2.470449912663375,0.3282903863764367,4558.730794270833,11.892555555555557,0.09,179.2708155309856,-8.992134244117425,104.17280895679473,1342.0,1435.0,1200.0,1528.0,1293.0,997.6,110.0,292.15,1649403871.6816714,1649403872.7994251,49d8d632-2959-4f05-8ebf-24723ca36c8c
-0.5806289194414926,-0.9234155788551098,-0.0918654992647256,0.3882065383291347,-0.0134598206302715,0.8059931741708661,-0.1229884650984204,-0.1531121303627231,-15.224781342116914,25.829098002384388,35.695572581483965,1.100151677297098,-3.725163824471727,0.2394330308110268,4558.192057291667,11.79,0.0644444444444444,179.41728362536713,-9.054049814079852,103.9019433859696,1227.0,1435.0,1200.0,1528.0,1189.0,997.6,110.0,292.15,1649403874.733395,1649403875.8778217,85390c48-3463-475d-af37-7ef753c42384
-0.5877818124637855,-0.9226924001391404,-0.0919049453644967,0.384051550635949,-0.012854980599928,0.8078997349456025,-0.1215947031964089,-0.1437371093685941,-15.26591290448638,25.70716525100439,35.530430106056045,1.1129513078445177,-3.720189692571346,0.2365179998760629,4552.543185763889,11.797,0.07,179.48273049799425,-9.0695866920306,103.587442013267,1227.0,1435.0,1200.0,1528.0,1189.0,997.6,110.0,292.15,1649403875.9913452,1649403876.9452777,85390c48-3463-475d-af37-7ef753c42384
-0.5908014620714088,-0.918355856551922,-0.0862327998216986,0.3787885325003231,-0.0091106364315308,0.8076888501136062,-0.1169805220074553,-0.136223134559843,-15.304481076477028,25.76392596447482,35.45470597588989,1.1249767244435305,-3.701972363839574,0.2174382042324595,4547.17578125,11.802666666666669,0.07,179.5146381061569,-9.08336109658427,103.32264165042488,1227.0,1435.0,1200.0,1528.0,1189.0,997.6,110.0,292.15,1649403877.053807,1649403878.1240437,85390c48-3463-475d-af37-7ef753c42384
0.0416332173609869,0.1733042594493463,0.0477999559180144,-0.1256970966828661,-0.1154542616550941,0.2350899804846123,-0.1943464453209643,-0.2118342131040184,-12.944368130999107,20.86664376623948,40.33452582205159,0.9524417427687344,0.4029896617838904,0.4279438408767518,4549.322482638889,11.940111111111111,0.09,179.13050219595613,-9.103643153597144,103.0868794573841,1553.0,1435.0,1200.0,1528.0,1471.0,997.6,110.0,292.15,1649403879.1266022,1649403880.3719788,68254813-c007-4116-81a1-c881fd594dec
0.0505611821348395,0.1810751386527971,0.0507058177887162,-0.1286687022316706,-0.1139290127950556,0.2309218439835209,-0.1923872893890255,-0.2201178925961878,-12.906588270779686,20.786105440381903,40.45482616743263,0.9494275858010268,0.431350286480091,0.4202593362771858,4553.886501736111,11.935444444444446,0.09,179.087661731662,-9.092146237676722,103.30445968685432,1553.0,1435.0,1200.0,1528.0,1471.0,997.6,110.0,292.15,1649403880.4812698,1649403881.6060488,68254813-c007-4116-81a1-c881fd594dec
0.0462615584500964,0.182390008228551,0.0556102814995317,-0.1263545315329358,-0.109866065401835,0.2292651083393155,-0.1887713975765914,-0.2056674739310892,-12.900141078478804,20.86905561254304,40.736993579562856,0.941326798208418,0.4337627722084057,0.4034396985124003,4559.26953125,11.94188888888889,0.0955555555555555,179.06279377180385,-9.081967643129849,103.52740920392203,1553.0,1435.0,1200.0,1528.0,1471.0,997.6,110.0,292.15,1649403881.71457,1649403882.8343594,68254813-c007-4116-81a1-c881fd594dec
0.0594628494863097,0.1705430333319008,0.0282346958059493,-0.4241067985140588,-0.1639861029841207,0.5308830289809912,-0.1299441258506234,-0.1572276726754587,-12.87035819526491,20.1454332167314,43.11521617916446,2.2849926958529214,0.4029524294448516,0.4303394668372912,4568.990234375,11.929000000000002,0.0866666666666666,179.02472229737023,-8.99876427079926,103.89499784249362,1553.0,1522.0,1200.0,1528.0,1471.0,997.6,110.0,292.15,1649403884.7687356,1649403885.9137638,52b07bc2-326f-4808-ab01-3bd35dbbee15
0.0615534921708654,0.1779326003612725,0.0335467691355777,-0.4328769808239652,-0.1613432148147691,0.5307646907252189,-0.1239746173509689,-0.151521138048786,-12.749382013422457,20.07934578794595,43.02326741545641,2.304382799976843,0.432041932004176,0.4117987887914663,4568.719835069444,11.934666666666669,0.09,179.00940142415195,-8.971673938139958,104.01162408148149,1553.0,1522.0,1200.0,1528.0,1471.0,997.6,110.0,292.15,1649403886.0289829,1649403887.1414852,52b07bc2-326f-4808-ab01-3bd35dbbee15
0.0697056838374435,0.1769990429627869,0.027011867047722,-0.4291033041747802,-0.1678386713017965,0.5298705794629652,-0.1328236905321422,-0.1619612036595184,-12.842489788335593,20.222803084920777,43.19955377244192,2.2944679568633948,0.4267606311983102,0.4421975946717444,4573.86669921875,11.937666666666663,0.09,179.00932705098103,-8.959589720814652,104.10431809652756,1553.0,1522.0,1200.0,1528.0,1471.0,997.6,110.0,292.15,1649403887.254944,1649403888.2510328,52b07bc2-326f-4808-ab01-3bd35dbbee15
0.0866472731069128,0.1773859180510997,0.0082102426351432,-0.7587761194891374,-0.2208805170402484,0.8475268675370385,-0.0616042791512964,-0.0915554938694047,-12.65850812796186,19.525101813375965,45.46291320854379,3.746837214246536,0.4462353980358819,0.4394334140671299,4571.698296440973,11.93588888888889,0.09,178.9759623357954,-8.851961686875837,104.22220033141278,1553.0,1613.0,1200.0,1528.0,1471.0,997.6,110.0,292.15,1649403889.1621273,1649403890.2069962,553060b2-cb0a-4d89-b4da-a536340c8073
0.0776075445120115,0.180028300180831,0.0119904928507485,-0.755564801900992,-0.2192369298502175,0.8429880391416215,-0.0599101201515228,-0.0847409284924194,-12.529747931493583,19.66693471208286,45.62470188841221,3.730612978405345,0.4536473467410633,0.4302376788576311,4574.951985677083,11.92,0.09,178.978615484833,-8.813162322976886,104.2733910814222,1553.0,1613.0,1200.0,1528.0,1471.0,997.6,110.0,292.15,1649403890.3157148,1649403891.4381084,553060b2-cb0a-4d89-b4da-a536340c8073
0.0627105774605176,0.1793526595059684,0.0096292903921635,-0.7539156512369964,-0.2209199631658014,0.840206078695175,-0.064174343680377,-0.0820565715900388,-12.677050166153691,19.717978133821337,45.32583986802985,3.720740474338828,0.4544527912491314,0.4412071832806482,4577.938802083333,11.923666666666668,0.09,179.01358453556367,-8.818759188683021,104.27829212160668,1553.0,1613.0,1200.0,1528.0,1471.0,997.6,110.0,292.15,1649403891.547211,1649403892.7575724,553060b2-cb0a-4d89-b4da-a536340c8073
0.0917297498648414,0.1749331805704811,-0.0066578987734878,-1.0009398326745529,-0.2647642959654113,1.0835459482317615,-0.0137253231484792,-0.0383538434274793,-12.49226493739104,19.488031696164985,47.098531280218886,4.822823941953394,0.4502354178800614,0.4513204608053592,4584.468587239583,11.898999999999996,0.08,179.00643560423234,-8.710673152614861,104.27707179447496,1553.0,1710.0,1200.0,1528.0,1471.0,997.6,110.0,292.15,1649403894.8045056,1649403895.8301933,d68c1d53-aba9-402a-a58b-12cf122e1005
0.0726904378753016,0.1733831516222316,-0.0019021163776498,-1.000532728630647,-0.2624041046635514,1.085784260805246,-0.0115269622233862,-0.0385738312047668,-12.546753475237754,19.81494654183091,47.27713650167514,4.829340408973564,0.4434814621034241,0.4383887881934241,4581.20068359375,11.904,0.08,179.02533701439552,-8.697773771184862,104.19844265674976,1553.0,1710.0,1200.0,1528.0,1471.0,997.6,110.0,292.15,1649403895.9383862,1649403897.166334,d68c1d53-aba9-402a-a58b-12cf122e1005
0.0732295344196733,0.1774986934037781,-0.005531156618169,-0.9957466001381188,-0.2644290041536515,1.075594021722447,-0.0177068496014745,-0.0381925189857074,-12.659259549502645,19.68673771798439,46.992843932346005,4.794512683529714,0.4614117032211917,0.4550053163580912,4584.740234375,11.891333333333332,0.0844444444444444,179.0318439079448,-8.696628006951592,104.13518144465708,1553.0,1710.0,1200.0,1528.0,1471.0,997.6,110.0,292.15,1649403897.274772,1649403898.3952343,d68c1d53-aba9-402a-a58b-12cf122e1005
0.0799616668027117,0.1690046359169378,-0.0034668113198067,-1.0648693425107565,-0.274356271174689,1.1487402159400455,-0.0004820572385931,-0.0224798265742971,-12.624114761780548,20.24278912071269,47.22676447933453,5.118649822024407,0.4358826330657277,0.4396806804504626,4586.1025390625,11.859777777777778,0.0755555555555555,179.0315722181978,-8.659312786241042,104.04539405455785,1553.0,1814.0,1200.0,1528.0,1471.0,997.6,110.0,292.15,1649403899.310239,1649403900.3317854,5136efcc-7ae5-4579-b03b-80934d5ec2e6
0.0908882332855396,0.1720814307273352,-0.0008502207157241,-1.0879979154467383,-0.2758683714542965,1.169567750128255,0.0076701345931492,-0.017562214089161,-12.515751207843532,20.257420566476824,47.62895283425074,5.2179704072616415,0.4461046768448642,0.4273730569566012,4576.037272135417,11.859666666666666,0.0788888888888888,179.07847285049854,-8.64319372952729,103.87686444915714,1553.0,1814.0,1200.0,1528.0,1471.0,997.6,110.0,292.15,1649403900.4437077,1649403901.6751363,5136efcc-7ae5-4579-b03b-80934d5ec2e6
0.0832356921580782,0.1662697071920483,-0.0033879191350486,-1.0606486083650906,-0.2749348138854874,1.147767212530973,-0.0010343024870723,-0.0279365356018367,-12.521084323183253,20.371584077090944,47.25607010836267,5.107856671316066,0.4241235512656885,0.4409140233326828,4568.990234375,11.868555555555556,0.0744444444444444,179.0673426777911,-8.656336341582731,103.74856389905788,1553.0,1814.0,1200.0,1528.0,1471.0,997.6,110.0,292.15,1649403901.7840052,1649403902.9072273,5136efcc-7ae5-4579-b03b-80934d5ec2e6
0.0332180516984691,0.1894508578414909,0.0713229734509344,0.1386837432700799,-0.074548665453242,-0.0334063933394469,-0.2545411833421712,-0.2753029775480558,-12.998210213314389,22.128792623908847,38.86820760502601,-0.2380064765352261,0.4458879440916307,0.4275170399407383,4581.20068359375,11.950888888888889,0.0977777777777778,179.08079966827583,-9.08801416295634,103.52453445319138,1553.0,1349.0,1200.0,1528.0,1471.0,997.6,110.0,292.15,1649403904.6348035,1649403905.7738807,f47c61c5-9550-4e07-9eff-eb0e0c57b78d
0.0345592187466463,0.1943027265677585,0.0718357726002804,0.1344630118768631,-0.0748116393855361,-0.0327621072009895,-0.2543965476629001,-0.2771700926354627,-13.05380757241316,22.08886568348117,39.08627771296466,-0.2272701148138442,0.4630976502737934,0.4278054315630033,4581.20068359375,11.950111111111111,0.09,179.062356639697,-9.05458076642408,103.74107725281766,1553.0,1349.0,1200.0,1528.0,1471.0,997.6,110.0,292.15,1649403905.8829153,1649403906.8885045,f47c61c5-9550-4e07-9eff-eb0e0c57b78d
0.0383591919660511,0.1892667761045423,0.0734530622316879,0.1381972415210949,-0.0724974687452559,-0.0324333897887779,-0.2528450013234823,-0.2686628849852726,-13.066560429355205,22.16960025116345,38.93176871321526,-0.2343702697452172,0.4453135783050049,0.4194032491861798,4585.830078125,11.944333333333333,0.09,179.01705730730163,-9.034249095675982,103.92748905237536,1553.0,1349.0,1200.0,1528.0,1471.0,997.6,110.0,292.15,1649403906.9969752,1649403908.234679,f47c61c5-9550-4e07-9eff-eb0e0c57b78d
0.0384249354681623,0.1961303952707462,0.0888764827958192,0.398383628437005,-0.0339849360016418,-0.2905686158065934,-0.3141968264679782,-0.3368783312786476,-13.237990507263383,23.02120205268519,37.06644026006639,-1.3953216153133652,0.4577597141729922,0.4332874514176864,4595.665310329861,11.941333333333334,0.09,178.96748986558495,-9.108204961052804,104.16301218879518,1553.0,1264.0,1200.0,1528.0,1471.0,997.6,110.0,292.15,1649403909.1400635,1649403910.1260674,283d2881-2582-4283-8838-97ceff2d4d0c
0.0428428974409286,0.1966957891848913,0.0930709168434126,0.3987254945094171,-0.0312237097144222,-0.2928433405965052,-0.3118300608056895,-0.3342617401847015,-13.24392899993296,23.16316757434468,36.890266528622426,-1.4000855027339176,0.4617099609997606,0.4201998305727051,4588.55810546875,11.939,0.09,178.9781783527261,-9.117142453309246,104.28756979522927,1553.0,1264.0,1200.0,1528.0,1471.0,997.6,110.0,292.15,1649403910.2355354,1649403911.3044257,283d2881-2582-4283-8838-97ceff2d4d0c
0.020634749304981,0.1910549987236031,0.0943857864516775,0.4019074787455101,-0.0280285764459825,-0.2893194894948518,-0.3087532654196303,-0.336878331186712,-13.267012433997674,23.1274358606957,37.03941304758709,-1.3995039585563354,0.4390860436039473,0.4092291743730916,4590.469509548611,11.935444444444444,0.09,178.97493173614063,-9.097891754861038,104.40347203416512,1553.0,1264.0,1200.0,1528.0,1471.0,997.6,110.0,292.15,1649403911.41232,1649403912.5335968,283d2881-2582-4283-8838-97ceff2d4d0c
0.026485919200282,0.201836929207619,0.1191316323808167,0.6758079450590329,0.0151517429078842,-0.5638643265947211,-0.3720642484403542,-0.3931547617476822,-13.539436670758077,24.63628555075764,35.203309481441835,-2.623490503490729,0.4655976634619049,0.4071328210693883,4581.745062934027,11.929,0.09,178.93207912928796,-9.133080794601206,104.65514097887296,1553.0,1178.0,1200.0,1528.0,1471.0,997.6,110.0,292.15,1649403914.7623188,1649403915.8065634,a1c7932f-0dcf-42e1-82c6-24942af82cfe
0.0163745716758892,0.2037697874743387,0.1184084540901974,0.6717581470098649,0.0133503714898718,-0.5631674454917586,-0.3729583599617057,-0.3969021408796653,-13.53508687632394,24.658189226955784,35.03505439815891,-2.612704605002818,0.4747606535586638,0.4118002602956357,4584.1953125,11.924555555555555,0.09,178.93751595986728,-9.128038786901396,104.6790656137157,1553.0,1178.0,1200.0,1528.0,1471.0,997.6,110.0,292.15,1649403915.9146335,1649403917.0356014,a1c7932f-0dcf-42e1-82c6-24942af82cfe
0.0257890382831988,0.1976556439723228,0.1129517452626192,0.6763470415523213,0.0089455581928567,-0.5594332146290497,-0.379493263202778,-0.4033187056038919,-13.676310201917772,24.83531687613037,35.2672874435108,-2.613796287471124,0.4498622530055638,0.4339986905927215,4583.650390625,11.923,0.0866666666666666,178.94010536047264,-9.127912333538015,104.70994186331367,1553.0,1178.0,1200.0,1528.0,1471.0,997.6,110.0,292.15,1649403917.1459596,1649403918.1926136,a1c7932f-0dcf-42e1-82c6-24942af82cfe
0.0166375455901111,0.2037697874691402,0.124509449034136,0.7591575225315067,0.0221074032973918,-0.6453336752615851,-0.3969678839089821,-0.4252375877703331,-13.570388244777083,25.552331662087795,34.71614038256705,-2.988332112017462,0.4674782356187393,0.4256658510757835,4589.650336371527,11.900666666666666,0.08,178.93086487343552,-9.159194694800412,104.7397176935454,1553.0,1088.0,1200.0,1528.0,1471.0,997.6,110.0,292.15,1649403919.176237,1649403920.5178576,b24ca4de-4c91-44c7-b92e-b0e2984a8f06
0.0210423589060597,0.2029940144241154,0.1211039367632384,0.7634965919050516,0.0210292101829241,-0.6543536843798582,-0.400044679482998,-0.4196230922763447,-13.514249342443383,25.334036953168702,33.871701516914925,-3.0201121776256747,0.4709016922779569,0.4350392001482558,4588.012424045139,11.894222222222222,0.08,178.9515026694677,-9.13402136856816,104.72121243435409,1553.0,1088.0,1200.0,1528.0,1471.0,997.6,110.0,292.15,1649403920.6303244,1649403921.7498302,b24ca4de-4c91-44c7-b92e-b0e2984a8f06
0.0159856736903181,0.2037718103487096,0.1266117231413744,0.7504920268213596,0.0244311824446182,-0.6398562299943593,-0.3912067311614502,-0.4116504292373835,-13.522147922369466,25.37051587308047,34.39313011346307,-2.957604132250116,0.4712043188589482,0.4110095384627883,4580.930121527777,11.899777777777778,0.08,178.97731471325108,-9.13680837034074,104.67180132807842,1553.0,1088.0,1200.0,1528.0,1471.0,997.6,110.0,292.15,1649403921.8581371,1649403922.862672,b24ca4de-4c91-44c7-b92e-b0e2984a8f06
0.0576746268122977,0.1835207960623961,0.0512054682501688,-0.1410547749626265,-0.1190307072633344,0.242413803925776,-0.1919533823798526,-0.2178168706706024,-12.797583548025928,21.131014970755864,40.80640767668253,1.005613740231654,0.4381979373149667,0.4265270284965222,4562.235622829861,11.952333333333334,0.0977777777777777,179.0031328283137,-8.880066112899407,104.59409730153082,1553.0,1435.0,1200.0,1528.0,1471.0,997.6,110.0,292.15,1649403924.5926208,1649403925.638387,2e61efca-9691-4fde-b7d3-6dcf045af119
0.0417910017304163,0.1877809734881801,0.0543874527395657,-0.1436582170027729,-0.1162694808756604,0.2395210909037081,-0.1888634384798146,-0.2040896302457216,-12.786730053898372,21.034522108340724,40.673113989686165,1.0044891495540371,0.4558013768819162,0.4143811697462334,4574.951985677083,11.94811111111111,0.09,178.9967412890704,-8.866157665883277,104.6254402807221,1553.0,1435.0,1200.0,1528.0,1471.0,997.6,110.0,292.15,1649403925.747501,1649403926.867017,2e61efca-9691-4fde-b7d3-6dcf045af119
0.0349880685484962,0.1825948244487196,0.0540663211207642,-0.1388023019926493,-0.1151978620623916,0.238704354617522,-0.1891466411744528,-0.217555413726809,-12.806804531810428,21.06529369936164,40.4678264094133,0.9918452488853452,0.4376940024563166,0.4128613889409384,4576.30859375,11.95077777777778,0.09,178.98264833208293,-8.849237010579433,104.66490435483652,1553.0,1435.0,1200.0,1528.0,1471.0,997.6,110.0,292.15,1649403926.9749355,1649403928.0925877,2e61efca-9691-4fde-b7d3-6dcf045af119
0.0994040368932605,0.199195052806743,0.1868555075598242,-0.1508131311760584,0.008513674078537,0.2249108672091724,-0.0489107296195325,-0.0748920487592788,-11.980247832600464,20.680062284054976,40.29844613052815,0.9923902656589684,0.5054963828873901,-0.1339099728625932,4582.289442274306,11.947,0.0944444444444444,178.96474868299808,-8.86084169170676,104.66880059830306,1553.0,1435.0,1200.0,1424.0,1471.0,997.6,110.0,292.15,1649403930.2376926,1649403931.369403,08224f26-9936-4794-9c04-7ba1be6b1fda
0.1000528744679505,0.2035857057349328,0.1895428986867741,-0.1497855099116892,0.0069075102428285,0.2218360953107681,-0.0501052381326075,-0.0778489883845638,-11.866923065769974,21.01067392167127,40.60841401017975,0.985594714949629,0.5184641295761448,-0.1327637802900594,4583.106011284723,11.949333333333332,0.09,178.9726064361832,-8.860916349468939,104.68080882977384,1553.0,1435.0,1200.0,1424.0,1471.0,997.6,110.0,292.15,1649403931.4797256,1649403932.6102924,08224f26-9936-4794-9c04-7ba1be6b1fda
0.100841796243018,0.2041510996485143,0.1871892821530014,-0.1520865319310083,0.0044224066084585,0.2241239683504803,-0.0513543643311697,-0.0729182271204047,-11.822770311515534,20.96408730216839,40.69759230890493,0.9955368312628023,0.5196151214015603,-0.1241682389660428,4578.75390625,11.943,0.09,178.9759137655613,-8.85873970098969,104.68396893062985,1553.0,1435.0,1200.0,1424.0,1471.0,997.6,110.0,292.15,1649403932.7418785,1649403933.8368366,08224f26-9936-4794-9c04-7ba1be6b1fda
0.156263549645479,0.2332754604947453,0.3989753197161582,-0.1614484044058897,0.1951310943916084,0.1931982361228877,0.1627458567103484,0.1442061955176932,-10.40763125128146,21.11323834670801,40.76279205204239,0.9594176815112512,0.6328365938248485,-0.9729787939660076,4578.75390625,11.935,0.09,178.93279098678147,-8.85703993252374,104.6577910922709,1553.0,1435.0,1200.0,1304.0,1471.0,997.6,110.0,292.15,1649403934.628027,1649403935.674659,bf8b1357-4753-47d1-bfc9-e84cf130f362
0.1635610758382358,0.2359840917894859,0.4003033379176425,-0.1623162184306338,0.1959989082897203,0.1901345900193887,0.1643499975889262,0.1417210919127996,-10.312900696279655,21.033614541441125,40.6027927711858,0.954051306229229,0.6439328834089467,-0.9780615805172552,4583.650390625,11.936,0.09,178.9369680269139,-8.846154508261511,104.6443174057682,1553.0,1435.0,1200.0,1304.0,1471.0,997.6,110.0,292.15,1649403935.7834053,1649403936.9093883,bf8b1357-4753-47d1-bfc9-e84cf130f362
0.1621541653887447,0.2344719917965374,0.3988175353699761,-0.1612511739425065,0.1961829900360594,0.1906999839347589,0.164271105409754,0.1366062492815626,-10.32678636745684,20.90594624812356,40.60755059035233,0.9519927995639752,0.6380902131201444,-0.9762988969405576,4579.569498697917,11.929333333333332,0.0866666666666666,178.9470767068855,-8.842033058279839,104.61495669925604,1553.0,1435.0,1200.0,1304.0,1471.0,997.6,110.0,292.15,1649403937.0388,1649403938.2227318,bf8b1357-4753-47d1-bfc9-e84cf130f362
0.2071227048636027,0.262978363757643,0.5922611372278317,-0.143447837848247,0.3678129120085017,0.1364353162695052,0.347327244755056,0.3197149844787513,-9.001737214779837,21.62871610519963,40.6283723887152,0.8049867251078376,0.7455271032801224,-1.7301181732200812,4586.1025390625,11.910555555555554,0.0888888888888888,178.92454163608392,-8.856100022602957,104.54309931463796,1553.0,1435.0,1200.0,1166.0,1471.0,997.6,110.0,292.15,1649403939.133622,1649403940.18365,f469aa50-d31a-4bd6-81ee-1124632d6335
0.2127897926937499,0.2561410420815156,0.591774635515637,-0.140239555778739,0.3693118632700256,0.1406428989524303,0.3476559621419524,0.3203461218289593,-9.120597275034342,21.667752971872115,40.69364078137194,0.8073897554872173,0.7197205923402638,-1.7327709411093446,4587.193901909723,11.917222222222222,0.09,178.9435523292738,-8.845533150774516,104.48987089152617,1553.0,1435.0,1200.0,1166.0,1471.0,997.6,110.0,292.15,1649403940.292762,1649403941.372861,f469aa50-d31a-4bd6-81ee-1124632d6335
0.2216914596413749,0.2615320072498416,0.5962977865900904,-0.147129473094867,0.3730329440356651,0.1403667763426929,0.3537832541531271,0.3294450190728938,-9.050315297054256,21.492236913853063,40.54620344313335,0.8213848179052949,0.7418813475619114,-1.7522235652440747,4583.650390625,11.919,0.09,178.956939500047,-8.844058493959963,104.42384572954936,1553.0,1435.0,1200.0,1166.0,1471.0,997.6,110.0,292.15,1649403941.481212,1649403942.6369317,f469aa50-d31a-4bd6-81ee-1124632d6335
-0.0094626168825805,0.1556981557400768,-0.1383198459486277,-0.1048432631661635,-0.2906738054108144,0.2450303943417982,-0.3982038615682232,-0.4256714937855105,-14.36403912495521,21.69853397572632,40.52114640620816,0.9233003401145072,0.330997689292502,1.2075319821226542,4595.93896484375,11.946888888888887,0.09,179.0538902407658,-8.840609248429107,104.4704443157068,1553.0,1435.0,1200.0,1623.0,1471.0,997.6,110.0,292.15,1649403943.639151,1649403944.688933,11603e31-f16d-4ee8-b94d-8cd05f9a3f7e
-0.0221248116494587,0.1566580105424302,-0.1367157049161918,-0.1060134972115562,-0.2868738316794152,0.2433210639137504,-0.3927865976520225,-0.419333820893691,-14.232844839277828,21.33130340730344,40.28955253273584,0.9197735898728222,0.3359613249994047,1.1924783348050638,4601.148654513889,11.942666666666668,0.09,179.0454724120687,-8.840352736880277,104.48092182589362,1553.0,1435.0,1200.0,1623.0,1471.0,997.6,110.0,292.15,1649403944.7972,1649403945.9140804,11603e31-f16d-4ee8-b94d-8cd05f9a3f7e
-0.0163771876815416,0.1538025520895594,-0.1361535980875812,-0.1045967250814373,-0.2862678958141267,0.2465556430262675,-0.3925669048006939,-0.4117146978934362,-14.296243256439316,21.44518161924279,40.53892666008058,0.924636970334736,0.323353272411123,1.1905015770329908,4603.069227430556,11.943444444444443,0.09,179.0420542818441,-8.831648894011696,104.49078082450556,1553.0,1435.0,1200.0,1623.0,1471.0,997.6,110.0,292.15,1649403946.022582,1649403947.1416504,11603e31-f16d-4ee8-b94d-8cd05f9a3f7e
-0.0706040563907805,0.1349626623328405,-0.290450277550816,-0.0772047022002025,-0.4277226907468208,0.2472656725910391,-0.5596304451489085,-0.5857437639993708,-15.347747467603975,21.858812905739992,40.36487010407057,0.8589448302349121,0.2485300623343119,1.828164316445166,4585.5576171875,11.901000000000002,0.0822222222222222,179.03944363176132,-8.837230960974628,104.46773956079548,1553.0,1435.0,1200.0,1712.0,1471.0,997.6,110.0,292.15,1649403949.2818644,1649403950.3134992,854e5fd7-ffb3-4022-95a9-89003a07e4c6
-0.0567873046819142,0.1329079257293217,-0.2914030524684736,-0.0749679065867321,-0.4274415109123977,0.2445454097647543,-0.5594468690977108,-0.587059139791073,-15.269201870627215,21.74666318844495,39.98296550000336,0.8469741377577454,0.2433147349943259,1.828152006724688,4582.017252604167,11.919,0.0866666666666666,179.05773032489915,-8.838237180648605,104.39038918626493,1553.0,1435.0,1200.0,1712.0,1471.0,997.6,110.0,292.15,1649403950.4283395,1649403951.43954,854e5fd7-ffb3-4022-95a9-89003a07e4c6
-0.0659231203352387,0.1330561014236022,-0.2901478575271864,-0.0736545540635618,-0.4256188989362398,0.2457141265101048,-0.5582629803687389,-0.5865195372339376,-15.333321091383269,21.736483162652235,40.35130477296112,0.8466592539496537,0.2409774205499775,1.822781262054626,4575.766221788194,11.920222222222224,0.0888888888888888,179.07192497581428,-8.840848305050056,104.32722511464044,1553.0,1435.0,1200.0,1712.0,1471.0,997.6,110.0,292.15,1649403951.5471458,1649403952.6715305,854e5fd7-ffb3-4022-95a9-89003a07e4c6
-0.1118383699707741,0.1094541921467159,-0.4332714418035139,-0.0258327440950184,-0.554200032020061,0.2302381118022114,-0.721806521587936,-0.7425025782151126,-16.650670370659842,22.46010489764636,39.94173020464491,0.7009502639428946,0.1504609460516278,2.421625331608505,4582.289984809027,11.910777777777778,0.0877777777777777,179.0597748281907,-8.841275002145705,104.22248112807868,1553.0,1435.0,1200.0,1801.0,1471.0,997.6,110.0,292.15,1649403954.698554,1649403955.7467082,ecb850d4-54ba-41e0-ae86-5359f42cb6d0
-0.1021740776519422,0.1143586557590575,-0.4290901555260705,-0.0290410260775796,-0.5527405263374412,0.2285024839849998,-0.7184010078754252,-0.7361386066366247,-16.516290237407794,22.52580183312707,39.98583525898442,0.7050055618132286,0.1681748485673122,2.4097836811377533,4583.650390625,11.9085,0.0837499999999999,179.07327128199069,-8.83834749531848,104.15381078561832,1553.0,1435.0,1200.0,1801.0,1471.0,997.6,110.0,292.15,1649403955.8557231,1649403956.975644,ecb850d4-54ba-41e0-ae86-5359f42cb6d0
-0.1102736750457146,0.1158444583901674,-0.4280645570651923,-0.0288963904132029,-0.5514388050875899,0.2287128630965524,-0.7164418514030513,-0.7341137064100762,-16.46676906734307,22.43635636733924,40.25377524592284,0.7046778111800183,0.1710679605732904,2.404453562368635,4582.289984809027,11.914111111111112,0.0877777777777777,179.0657049502101,-8.836725052657354,104.11946897392646,1553.0,1435.0,1200.0,1801.0,1471.0,997.6,110.0,292.15,1649403957.0837944,1649403958.2016478,ecb850d4-54ba-41e0-ae86-5359f42cb6d0
0.030877583783473,0.1662828558883858,-0.0520512453944457,-0.1150860983243676,-0.1823548333790434,0.244202026507229,-0.2621411307635581,-0.2778143788398114,-12.633064629686132,17.59850000870805,41.43244655449398,0.922676788403188,0.3570290557323025,0.7540491805585745,7567.754211425781,11.641,7.475,-179.08380172614352,-8.935110465124932,90.707756097785,1553.0,1435.0,1350.0,1528.0,1471.0,997.6,110.0,292.15,1649403963.1625285,1649403964.233174,795af90e-0288-4ff4-bef1-34d2c074a91c
0.029746795875472,0.1663354506742392,-0.0426893733180919,-0.0991104314718061,-0.1706919387860284,0.2413224621809342,-0.2575653838834374,-0.2865451142379702,-13.000049562567217,17.76757735946306,43.1742461046563,0.8818487474828348,0.343015635505885,0.7211648066796147,7574.906629774306,11.643222222222224,7.476666666666666,-178.64052871001644,-8.91180457901638,85.98040582152936,1553.0,1435.0,1350.0,1528.0,1471.0,997.6,110.0,292.15,1649403964.3416555,1649403965.3700094,795af90e-0288-4ff4-bef1-34d2c074a91c
0.013679088902356,0.1655728263130338,-0.0438727560120171,-0.0975720339196764,-0.1722566337766062,0.2421902760713017,-0.2589065510945684,-0.2780510556156763,-12.956691793053094,17.828045323491356,43.38196598461863,0.8807254550274104,0.3377440344682889,0.7270382807583686,7584.587782118056,11.64188888888889,7.478888888888889,-178.41213021981082,-8.816166278119356,81.30943221127421,1553.0,1435.0,1350.0,1528.0,1471.0,997.6,110.0,292.15,1649403965.477595,1649403966.572872,795af90e-0288-4ff4-bef1-34d2c074a91c
0.2414408004304138,0.5375625660509902,-0.0023360234852781,-0.287820538135502,-0.2223137252486781,0.0543743040395428,-0.2955914185684221,-0.3193905626220595,-12.213314469183048,17.023964670649747,43.616683100043446,0.8849814192902808,1.751633226139948,0.8353537443122118,7585.3330078125,11.62288888888889,7.535555555555557,-178.51062306546223,-8.670673762424236,73.56050063562469,1658.0,1435.0,1350.0,1528.0,1551.0,997.6,110.0,292.15,1649403968.1269128,1649403969.148404,e36c4858-1f40-4218-aaae-0b96849b703f
0.2209945787739514,0.5349854218261407,-0.0096598474369463,-0.2885963114181957,-0.2270078103161096,0.0555839840942606,-0.300088273320618,-0.3171815810037979,-12.202672703884195,16.785117060818322,43.28563245410764,0.8874542445586863,1.7444533143414134,0.85745291412447,7595.790690104167,11.627666666666666,7.524444444444445,-178.8334026274389,-8.676494221961947,70.81215773374635,1658.0,1435.0,1350.0,1528.0,1551.0,997.6,110.0,292.15,1649403969.2562363,1649403970.485625,e36c4858-1f40-4218-aaae-0b96849b703f
0.2437812682459854,0.5324608723834021,-0.0067802829600488,-0.2996280691141225,-0.2244043682417206,0.063644134864743,-0.2929879763813883,-0.3120272914043032,-12.143079688062649,16.667873929452707,42.67557698927343,0.929750337555586,1.7415086466568137,0.8386996245023275,7598.7822265625,11.623333333333337,7.485555555555556,-179.0175490809219,-8.70092846480776,68.23092679356098,1658.0,1435.0,1350.0,1528.0,1551.0,997.6,110.0,292.15,1649403970.5938232,1649403971.7184117,e36c4858-1f40-4218-aaae-0b96849b703f
0.386050152309828,0.8200885752478433,0.0281689522301936,-0.4569522493514725,-0.2676898813842913,-0.0851070690686024,-0.3268327256152009,-0.3563647023430542,-11.747692103360514,16.81110338773788,41.00000856630325,0.9529929834177858,2.853927471284277,0.9294821421700046,7598.7822265625,11.590222222222222,7.47111111111111,-179.6737602643408,-8.703389230183737,65.24020476315593,1767.0,1435.0,1350.0,1528.0,1630.0,997.6,110.0,292.15,1649403972.6278286,1649403973.6264064,f6ceac75-0242-47ce-8934-01bdf03a5791
0.4032880917349402,0.8219951360286989,0.0274852199621308,-0.4516664723538147,-0.2692282791258736,-0.087763105866884,-0.3286340973480666,-0.353642922111231,-11.623893998389912,16.874588656402533,41.56859403717889,0.9356408550472368,2.854469601558658,0.9362137667483614,7598.7822265625,11.587777777777776,7.449999999999999,-179.90391335425315,-8.752490226898358,63.76890308930479,1767.0,1435.0,1350.0,1528.0,1630.0,997.6,110.0,292.15,1649403973.7341917,1649403974.7965224,f6ceac75-0242-47ce-8934-01bdf03a5791
0.3838280228019197,0.8115156260810943,0.0175842515632319,-0.4544539965121383,-0.2749479627515654,-0.0856198682343811,-0.3362340450042779,-0.3592179701346175,-11.838918444476969,16.727608849096537,39.985173422545984,0.9449169744735816,2.830433817500185,0.964705211783478,7598.7822265625,11.585555555555556,7.493333333333333,179.8783851427753,-8.770842091424534,62.5099899422447,1767.0,1435.0,1350.0,1528.0,1630.0,997.6,110.0,292.15,1649403974.9049454,1649403976.0205717,f6ceac75-0242-47ce-8934-01bdf03a5791
0.546148663887661,1.0676259122182556,0.0684565575426285,-0.5876897719733543,-0.2968405450109166,-0.2241939889064329,-0.3502637062609711,-0.3703154721187058,-11.395879838587724,17.185595826301217,38.65293178698555,0.939649488633968,3.819311985749577,0.9732183947936404,7598.7822265625,11.518333333333334,7.492222222222223,179.25679694716908,-8.815404806890635,60.17283657095965,1886.0,1435.0,1350.0,1528.0,1710.0,997.6,110.0,292.15,1649403977.6113596,1649403978.6914704,0df3d241-f91d-4696-82d0-966ba016b1b0
0.5226650945743314,1.0593948288215302,0.0654323574696563,-0.5799714847924897,-0.2980107791153191,-0.2310707578167077,-0.3541031261979279,-0.3707362299383462,-11.36442352788939,17.23463377696858,37.512702132014034,0.906794474433897,3.797182432324212,0.9818665208535644,7598.7822265625,11.52111111111111,7.52,179.08072377728502,-8.79782352051207,59.38567017058411,1886.0,1435.0,1350.0,1528.0,1710.0,997.6,110.0,292.15,1649403978.8052447,1649403979.9068696,0df3d241-f91d-4696-82d0-966ba016b1b0
0.5389957738001907,1.0644965226715886,0.0610538416379414,-0.5794718341934635,-0.3023761469177088,-0.2366852517981674,-0.359494092601673,-0.3847790402783514,-11.336530888451144,17.1274532901885,37.45414145327864,0.8921270397425303,3.816297580688838,1.0020588827995949,7598.7822265625,11.518888888888888,7.547777777777778,178.8911754030785,-8.808930736194847,58.56575301313837,1886.0,1435.0,1350.0,1528.0,1710.0,997.6,110.0,292.15,1649403980.0155227,1649403981.2277737,0df3d241-f91d-4696-82d0-966ba016b1b0
-0.2090072431180095,-0.2529370421776165,-0.1010695872457876,0.0784101205595615,-0.1331655567959885,0.4740149228707262,-0.2210514501736373,-0.2515169829343964,-13.485442342914764,18.79409951564152,40.99852331574841,1.0076037410017171,-1.232332425982838,0.6446382003519997,7598.7822265625,11.631333333333332,7.556666666666666,179.54800585698214,-8.842336147924259,57.51742825856813,1449.0,1435.0,1350.0,1528.0,1386.0,997.6,110.0,292.15,1649403982.2554996,1649403983.3927824,f4dbabfe-d322-4b9a-ae14-ebf738e4fe88
-0.2037609127354387,-0.2536076257788606,-0.0986370782698689,0.0819865658925136,-0.130956575626394,0.4727789455367437,-0.2188424689366578,-0.2434305336685375,-13.410190113613991,18.83328562272137,41.21445411655094,0.9972119432839146,-1.2375793925200822,0.6354599043033219,7598.7822265625,11.630000000000004,7.559999999999999,179.31220495953605,-8.804589392067399,56.96626728185882,1449.0,1435.0,1350.0,1528.0,1386.0,997.6,110.0,292.15,1649403983.500806,1649403984.6188726,f4dbabfe-d322-4b9a-ae14-ebf738e4fe88
-0.2285067617163701,-0.2579861421709755,-0.098058535658106,0.0905332183624258,-0.1272486430988019,0.4691367570005592,-0.2189476585609794,-0.2400907647581639,-13.554373647188324,18.7756822664923,41.20889149263351,0.9693217882182528,-1.2539482703545328,0.629230818299304,7598.7822265625,11.628000000000002,7.543333333333333,179.12100519737018,-8.800544781713889,56.51092702901561,1449.0,1435.0,1350.0,1528.0,1386.0,997.6,110.0,292.15,1649403984.7316656,1649403985.9443023,f4dbabfe-d322-4b9a-ae14-ebf738e4fe88
-0.4347046500042434,-0.6268334530396306,-0.1489834395214504,0.2522884742006481,-0.0948108074599641,0.6717055522305021,-0.1940308766400206,-0.2227081863376948,-14.440982448406876,20.142398741557923,39.69252402475988,1.0654770859986566,-2.640755940584558,0.572457441999595,7598.7822265625,11.586333333333332,7.502222222222222,179.0754189970297,-8.772123700531296,56.05829532563325,1342.0,1435.0,1350.0,1528.0,1293.0,997.6,110.0,292.15,1649403986.5916605,1649403987.7006423,43ef64d4-2dca-49ce-91cc-608f1e3ea32c
-0.438083865664552,-0.6287926094546941,-0.1484969376703337,0.2524331098685459,-0.0960073388594016,0.6756238633301467,-0.1946883114784731,-0.2217220337691883,-14.445727013074302,20.3795486025429,39.99191808178279,1.0755974480661843,-2.650706853626561,0.57444588285314,7598.7822265625,11.578666666666669,7.496666666666666,178.9812595269517,-8.76532718798844,55.80925372702617,1342.0,1435.0,1350.0,1528.0,1293.0,997.6,110.0,292.15,1649403987.8158965,1649403988.9295225,43ef64d4-2dca-49ce-91cc-608f1e3ea32c
-0.4239358654537611,-0.6252950550863045,-0.1349011847906955,0.2583763202368214,-0.0834897794000686,0.6739539790694304,-0.1827098481182442,-0.1995270322379781,-14.429713424273524,20.47101337757228,41.11629865676417,1.0599091710371085,-2.647535882149576,0.5238440416315446,7598.7822265625,11.592333333333336,7.527777777777778,178.87800983399836,-8.738623425063416,55.558677233130574,1342.0,1435.0,1350.0,1528.0,1293.0,997.6,110.0,292.15,1649403989.049723,1649403990.1559255,43ef64d4-2dca-49ce-91cc-608f1e3ea32c
-0.6401399383634653,-0.990671200129792,-0.189704955211861,0.4110063757152673,-0.0628857714510201,0.8575492075212641,-0.1702185855629686,-0.1927554530944513,-15.151594820047167,22.401792335576086,36.12331033408879,1.1370873700032282,-3.990790093089588,0.5014876103317242,7598.7822265625,11.486444444444446,7.497777777777778,178.94213620338587,-8.740575625937439,55.20442871291797,1227.0,1435.0,1350.0,1528.0,1189.0,997.6,110.0,292.15,1649403991.152836,1649403992.1993568,538dced7-3cc3-4147-9bf5-94a262952ac5
-0.632184974327479,-0.9863452764002058,-0.1860364686606162,0.4110852679195427,-0.0598484225301233,0.858443318801602,-0.1675099539193813,-0.1831437551357792,-15.216975626573428,22.41864358836997,36.88753830939768,1.139301882404676,-3.980652697998875,0.4900429326819636,7598.7822265625,11.488333333333337,7.493333333333333,178.90145559668926,-8.74280122410574,54.999446008461945,1227.0,1435.0,1350.0,1528.0,1189.0,997.6,110.0,292.15,1649403992.307824,1649403993.427232,538dced7-3cc3-4147-9bf5-94a262952ac5
-0.6372735215134588,-0.982545300798524,-0.188508423748766,0.40753512025996,-0.0630698531866189,0.8579699657715636,-0.170691938663391,-0.1902966466035928,-15.257414071659722,22.404256111282,36.863449892776245,1.146003799571897,-3.965620624333959,0.5027029730012527,7598.7822265625,11.498666666666669,7.502222222222222,178.91019216754765,-8.749411519129971,54.806405510314725,1227.0,1435.0,1350.0,1528.0,1189.0,997.6,110.0,292.15,1649403993.5351677,1649403994.6561177,538dced7-3cc3-4147-9bf5-94a262952ac5
0.0267751905016066,0.171516036818083,-0.04917168078994,-0.1049747502662513,-0.1761092021209459,0.2333149065663581,-0.2624041047485976,-0.2913575377747204,-12.897293122658052,17.401806143849207,41.95084925779036,0.8741923584922158,0.3728665100771157,0.7433406398485632,7598.7822265625,11.642333333333331,7.556666666666666,178.48159931494916,-8.72167801032383,54.57069226696301,1553.0,1435.0,1350.0,1528.0,1471.0,997.6,110.0,292.15,1649403995.6572428,1649403996.7971342,b29c0ed2-6337-46f4-ab8b-92a4c1bf2622
0.0302332976723546,0.165191514128154,-0.0565086535597587,-0.110707582239359,-0.1820392646315513,0.2375356378436544,-0.2659148070735727,-0.295578269996231,-12.814135619559377,17.260048759591708,40.8796055416047,0.8951748074513884,0.3582898476357088,0.7642070981438774,7598.7822265625,11.643666666666666,7.524444444444445,178.44425639402695,-8.702173835966427,54.563476172104885,1553.0,1435.0,1350.0,1528.0,1471.0,997.6,110.0,292.15,1649403996.9059677,1649403997.8681734,b29c0ed2-6337-46f4-ab8b-92a4c1bf2622
0.0193330283649402,0.1700302341920273,-0.0457004248661686,-0.1069470548444798,-0.1725722025356797,0.2374172995823335,-0.2565134880831987,-0.2796026017630618,-12.806424203512051,17.33712446903804,42.10513982691779,0.887674417911977,0.3657450206415384,0.725515062619731,7598.7822265625,11.642333333333331,7.536666666666666,178.38976969828803,-8.688180201313148,54.58783490341488,1553.0,1435.0,1350.0,1528.0,1471.0,997.6,110.0,292.15,1649403997.976302,1649403998.920523,b29c0ed2-6337-46f4-ab8b-92a4c1bf2622
0.036991727550161,0.1552116539937872,-0.0727867401668063,-0.460318316403878,-0.234279040157396,0.5905781042715873,-0.1832620933866992,-0.1981595677365434,-12.618111737412235,16.70143093964034,44.17081636943392,2.473254156086365,0.3323051237937405,0.7406038619282728,7598.7822265625,11.631,7.492500000000001,178.37229067501954,-8.593547965936523,54.713806216711546,1553.0,1511.125,1350.0,1528.0,1471.0,997.6,110.0,292.15,1649404000.5900762,1649404001.619569,f295f510-f36b-4dc0-bdf9-75db43a9ff55
0.0400948199025787,0.1549881261611006,-0.0843575934744744,-0.4549930932357399,-0.2416423109498099,0.5859366149439534,-0.1951879620110923,-0.21272832456297,-12.818414798088822,16.45917217921099,44.09052249842696,2.448515970441364,0.332202808990766,0.78325089400143,7598.7822265625,11.629,7.510000000000001,178.42180632113502,-8.553638755587283,54.74357991250915,1553.0,1522.0,1350.0,1528.0,1471.0,997.6,110.0,292.15,1649404001.7313075,1649404003.1496563,f295f510-f36b-4dc0-bdf9-75db43a9ff55
0.0299177289463926,0.1623119497515454,-0.0831347645988022,-0.4591480821047037,-0.2426942067066071,0.5841483924276141,-0.1953851924547741,-0.2121892279809164,-12.789305855408902,16.48354525518146,44.31590362679677,2.454143273125144,0.3580575293520736,0.7844755635242707,7598.7822265625,11.62477777777778,7.510000000000001,178.4388074208891,-8.54890865985957,54.770879419711775,1553.0,1522.0,1350.0,1528.0,1471.0,997.6,110.0,292.15,1649404003.2580128,1649404004.3738973,f295f510-f36b-4dc0-bdf9-75db43a9ff55
0.057832411176463,0.1535680670155863,-0.1131006450001459,-0.8496119077514298,-0.3134473508479542,0.9697338748841692,-0.1183075289554906,-0.1459197929480853,-12.614846926120052,15.927284616744124,46.98395464343606,4.196729564078662,0.3465463501586059,0.8115802472447754,7598.7822265625,11.618333333333332,7.475555555555555,178.49654376885312,-8.39107275910564,54.829153455345455,1553.0,1613.0,1350.0,1528.0,1471.0,997.6,110.0,292.15,1649404005.1933496,1649404006.3298333,a4b6c536-7b1d-443a-ad5c-03e66332bed7
0.0449861349184415,0.1619306375646301,-0.1038702597621673,-0.8434977609333341,-0.3082141690290816,0.9625283898563842,-0.1153490721597132,-0.1312458470783198,-12.624931599654593,16.271236357399566,47.96708069529727,4.169637208697398,0.3691072376248822,0.7899620984745462,7598.7822265625,11.61488888888889,7.484444444444446,178.5258483160321,-8.361496427315931,54.85964645544003,1553.0,1613.0,1350.0,1528.0,1471.0,997.6,110.0,292.15,1649404006.4376004,1649404007.6481082,a4b6c536-7b1d-443a-ad5c-03e66332bed7
0.0593971060220447,0.1573680401153624,-0.1009118028857497,-0.8415780501626763,-0.3029941357630681,0.9640010437313056,-0.1117200317504146,-0.1319032818195088,-12.782512763481812,16.22331202492021,47.81907557355429,4.168342761413651,0.3543721896932805,0.7728180197896458,7598.7822265625,11.623888888888889,7.475555555555555,178.50590871711515,-8.379667576420319,54.87133746256936,1553.0,1613.0,1350.0,1528.0,1471.0,997.6,110.0,292.15,1649404007.756993,1649404008.8790438,a4b6c536-7b1d-443a-ad5c-03e66332bed7
0.0701658882048053,0.1527396991780459,-0.1301413564815429,-1.201116235428787,-0.3717881260022185,1.316241455471847,-0.0453717073858875,-0.0639639649189975,-12.647015545551085,15.883531872109758,50.32765331366376,5.767664264445591,0.3562287058130996,0.8119549857972365,7598.7822265625,11.58,7.46,178.51435690220853,-8.273351792575792,54.951918137122405,1553.0,1710.0,1350.0,1528.0,1471.0,997.6,110.0,292.15,1649404009.6961746,1649404010.7233112,feba5c60-c79a-4569-b866-19c243785d30
0.055794363255857,0.1601161175439235,-0.129207798971604,-1.2032068796945672,-0.3728663192804026,1.312691307463926,-0.0467523205271084,-0.0689078745573733,-12.655438424057298,15.92875107401593,50.574388047733976,5.764783928666212,0.3820849233637408,0.8153144461987205,7598.7822265625,11.583333333333334,7.470000000000001,178.57701098637497,-8.250695485916431,54.96763212567288,1553.0,1710.0,1350.0,1528.0,1471.0,997.6,110.0,292.15,1649404010.8318155,1649404012.0641887,feba5c60-c79a-4569-b866-19c243785d30
0.0595943364480559,0.1550801670321435,-0.1312984418062482,-1.2014186557030593,-0.3724587095865895,1.3114290325992533,-0.0471336327199253,-0.0762579961834006,-12.66984961845142,15.787036808797325,49.92023528687806,5.756758562293523,0.3687416777816086,0.8166837387503892,7598.7822265625,11.58711111111111,7.474444444444444,178.5956680275478,-8.2727415341462,55.011854185454126,1553.0,1710.0,1350.0,1528.0,1471.0,997.6,110.0,292.15,1649404012.1723995,1649404013.2926235,feba5c60-c79a-4569-b866-19c243785d30
0.0730060065654695,0.1664800863200889,-0.150495539668265,-1.3298946811505417,-0.4165331480374641,1.4207998921961913,-0.0457924656856768,-0.0656207007669736,-12.509101327048088,16.542713651986386,50.15909248822653,6.2965125014492855,0.4228575547386748,0.9013649986945936,7598.7822265625,11.537,7.449999999999999,178.63840679791429,-8.245792833048437,55.04364757767568,1553.0,1814.0,1350.0,1528.0,1471.0,997.6,110.0,292.15,1649404014.0916111,1649404015.0422738,c37c3c37-3619-4c4b-8afd-86d51ebc37ec
0.0631181870355249,0.1628773436622395,-0.1440789754634618,-1.3164829977332622,-0.4049359956261702,1.4113985736211827,-0.041006340058634,-0.0631881914955045,-12.783807562908368,16.364414926612998,50.12321429940906,6.244126550371256,0.4103598568451485,0.8695204795043392,7598.7822265625,11.537333333333336,7.463333333333334,178.66571389421603,-8.24482266159508,55.0493815214839,1553.0,1814.0,1350.0,1528.0,1471.0,997.6,110.0,292.15,1649404015.151559,1649404016.252848,c37c3c37-3619-4c4b-8afd-86d51ebc37ec
0.0782523363405001,0.1689651898257736,-0.1500221866426297,-1.340163822688517,-0.414666032916602,1.4249417314927666,-0.0430706854525655,-0.0667120424702916,-12.70327581099712,16.30175742341972,49.76623348282829,6.32725031011395,0.4383246952534119,0.8939211190305356,7598.7822265625,11.548,7.470000000000001,178.6973012423976,-8.237115362299152,55.09588486444794,1553.0,1814.0,1350.0,1528.0,1471.0,997.6,110.0,292.15,1649404016.3615978,1649404017.48265,c37c3c37-3619-4c4b-8afd-86d51ebc37ec
0.0117593792090858,0.1763153107768668,-0.024846591916966,0.2215468238706796,-0.1240929557253374,-0.0870399274849481,-0.3345378628271224,-0.364700977600372,-13.080768795047112,18.66216543007973,39.624745217958456,-0.5731372515171568,0.3741431636427645,0.7415552956656677,7598.7822265625,11.641,7.52,178.737144012556,-8.748350468215158,55.19108404109957,1553.0,1349.0,1350.0,1528.0,1471.0,997.6,110.0,292.15,1649404019.1122353,1649404020.1443594,168013a4-491e-44d3-aa2d-ab8e5533c450
-0.0001927858426361,0.168110524605357,-0.0313420481738213,0.2220990690702572,-0.1280901597934294,-0.0801368616382393,-0.3383509854250915,-0.35973076958273,-13.139600092358316,18.61674952527224,39.49676659618058,-0.5595453833020526,0.3444403510682814,0.7600917850840753,7598.7822265625,11.643888888888888,7.484444444444446,178.7253414456702,-8.763480380727863,55.338889714193606,1553.0,1349.0,1350.0,1528.0,1471.0,997.6,110.0,292.15,1649404020.252557,1649404021.3763254,168013a4-491e-44d3-aa2d-ab8e5533c450
0.0060396962701073,0.1720156872567069,-0.0238867371092663,0.2199295343319243,-0.123751089639569,-0.0808205938639078,-0.3318160822763827,-0.3609010040633412,-12.995428675843456,18.74861091494872,39.7108940366852,-0.5548358269034394,0.3569108487954442,0.7355173098148222,7598.7822265625,11.64577777777778,7.48888888888889,178.74407589565365,-8.780988716891544,55.487335148339895,1553.0,1349.0,1350.0,1528.0,1471.0,997.6,110.0,292.15,1649404021.484579,1649404022.6016884,168013a4-491e-44d3-aa2d-ab8e5533c450
0.0115732746215265,0.1746803210330675,0.0084631021077842,0.5403025517842256,-0.0591009696603879,-0.3919147377974352,-0.3922055263327971,-0.4153801081374727,-13.596566577276052,19.68001859275683,37.681184626883976,-1.9694298667097967,0.3517706427905658,0.6888129165511584,7598.7822265625,11.630333333333333,7.473333333333333,178.7494762985574,-8.884372736898579,55.82918194229453,1553.0,1264.0,1350.0,1528.0,1471.0,997.6,110.0,292.15,1649404024.6484344,1649404025.6708534,2035ea41-346a-4815-b2e1-317d95a1a71f
-0.0112771370038146,0.1753028611996901,0.0006487306061357,0.5231910423529889,-0.0698808782037159,-0.3808081330748606,-0.395771352343536,-0.419386415865592,-13.383340734272924,19.655377184965488,37.06252775356579,-1.9064162094106445,0.3596905127553718,0.718436325075553,7598.7822265625,11.630222222222224,7.486666666666666,178.77612314323935,-8.896229091524074,55.97665331557419,1553.0,1264.0,1350.0,1528.0,1471.0,997.6,110.0,292.15,1649404025.7790096,1649404026.9032812,2035ea41-346a-4815-b2e1-317d95a1a71f
0.0018189647014985,0.1742246681501071,0.0032784698821467,0.5260311604894301,-0.0692628894682019,-0.3800192111889903,-0.3937070066465772,-0.4110238430512681,-13.214463188646716,19.83933863373514,37.41102950757195,-1.9095589992981488,0.3511827492583153,0.711499360437434,7598.7822265625,11.637,7.52,178.8041345079355,-8.900579163115465,56.0620014621679,1553.0,1264.0,1350.0,1528.0,1471.0,997.6,110.0,292.15,1649404027.011922,1649404028.1368887,2035ea41-346a-4815-b2e1-317d95a1a71f
-0.0169705226056942,0.1757367681616725,0.0238561797831628,0.8622695890947928,-0.0229137335822938,-0.7113796012536225,-0.4770960566162675,-0.5006059315663106,-13.505080645705847,21.581420715773923,34.27201390596696,-3.40071511728179,0.3466678929069832,0.736834300909294,7598.7822265625,11.620666666666668,7.497777777777778,178.98681019401718,-8.924930589917592,56.32168297768207,1553.0,1178.0,1350.0,1528.0,1471.0,997.6,110.0,292.15,1649404030.1974535,1649404031.1362936,6416ffc5-2149-45f6-91b2-694000158425
-0.0221905551419556,0.187320769131641,0.0411730128764533,0.8763649902604727,-0.0072536359830963,-0.7205705436204016,-0.4683127253944297,-0.4928087526727349,-13.815347254592304,21.872127626841344,36.52142869349539,-3.450172380282328,0.3717417033300142,0.6837559079182249,7598.7822265625,11.616,7.513333333333334,179.00132206927375,-9.031224744829744,56.4225603182637,1553.0,1178.0,1350.0,1528.0,1471.0,997.6,110.0,292.15,1649404031.2458065,1649404032.1929667,6416ffc5-2149-45f6-91b2-694000158425
-0.0301981113613252,0.1775249907938923,0.0295890114417827,0.8657934393877791,-0.0190874628580625,-0.7106958687907249,-0.4740455582954959,-0.4955962770744705,-13.544744088131765,21.82167431136488,35.110213605707806,-3.405135846889205,0.3461602444178191,0.7207681788383817,7598.7822265625,11.604888888888889,7.5,179.00364736923115,-9.04174854852092,56.49467914734501,1553.0,1178.0,1350.0,1528.0,1471.0,997.6,110.0,292.15,1649404032.300935,1649404033.364528,6416ffc5-2149-45f6-91b2-694000158425
-0.0178120391890013,0.1825477925743575,0.0535722334320362,1.0307964162955296,0.0154936088479125,-0.8732927216084567,-0.5044059056429032,-0.525575312768327,-13.87180755407,22.890853046523866,34.25992740598241,-4.134737232008274,0.356072887662501,0.6843901363118644,7598.7822265625,11.592222222222222,7.517777777777777,179.06663233811742,-9.10611122348098,56.60516314899427,1553.0,1088.0,1350.0,1528.0,1471.0,997.6,110.0,292.15,1649404035.111906,1649404036.2324913,989b165e-bcd1-4f58-aaa5-6a1096fe079a
-0.033564177708345,0.186071643034314,0.0525466351170467,1.0353458648477163,0.0145732001263613,-0.8822075423551746,-0.5070619430669049,-0.5211704979271945,-13.795133721319711,22.8217549280616,34.065361475566185,-4.165534012869464,0.3698448999472694,0.6910972381979564,7598.7822265625,11.575666666666669,7.483333333333332,179.0845896643553,-9.10517415947235,56.67686761326593,1553.0,1088.0,1350.0,1528.0,1471.0,997.6,110.0,292.15,1649404036.3412163,1649404037.3480518,989b165e-bcd1-4f58-aaa5-6a1096fe079a
-0.0306583157858404,0.1764336490319885,0.0475632792793595,1.0337154266496962,0.0111808365168077,-0.878210336645425,-0.5082716234358908,-0.5276922529410794,-13.664192953906802,22.751378859311497,33.054601651863884,-4.153683766835544,0.3416117649616958,0.7017473216804692,7598.7822265625,11.57688888888889,7.52,179.08102734124816,-9.127177803611024,56.73917335778469,1553.0,1088.0,1350.0,1528.0,1471.0,997.6,110.0,292.15,1649404037.4574964,1649404038.579465,989b165e-bcd1-4f58-aaa5-6a1096fe079a
0.0229357711523756,0.1735540846629459,-0.0480277441784746,-0.1368077459300587,-0.179685647795596,0.256298826407346,-0.2528712987493779,-0.2741327434819345,-12.658919967705712,17.301682894449613,41.37636909387431,0.9970693811312372,0.3879050298000984,0.7324449202861121,7598.7822265625,11.645,7.510000000000001,179.12964766339994,-8.78283011691903,56.82606398876596,1553.0,1435.0,1350.0,1528.0,1471.0,997.6,110.0,292.15,1649404040.6230276,1649404041.6451638,2dcb1569-0353-464b-9faf-116dce03e99d
0.0349536796427603,0.1736198281457731,-0.0530899924435257,-0.1330603672982584,-0.1835908109742124,0.2541950351251953,-0.2592747146316664,-0.2794185199757781,-12.761127285262525,17.299104740166776,41.53334366302395,0.9835931301676633,0.3867013986661243,0.7539731883653035,7598.7822265625,11.64611111111111,7.491111111111111,179.15564791684048,-8.7524129129515,56.84274482853895,1553.0,1435.0,1350.0,1528.0,1471.0,997.6,110.0,292.15,1649404041.753682,1649404042.8782203,2dcb1569-0353-464b-9faf-116dce03e99d
