raw_voltage_G-,raw_voltage_G0,raw_voltage_G1,raw_voltage_G2,raw_voltage_G3,raw_voltage_G4,raw_voltage_G5,raw_voltage_G6,load_x,load_y,load_z,load_l,load_m,load_n,rpm,voltage,current,roll,pitch,yaw,aileron1_pwm,elevator_pwm,throttle_pwm,rudder_pwm,aileron2_pwm,pbaro,pdiff,Tt,sample_start_time,sample_end_time,uid
-0.2524899865259615,0.0393058981314769,-0.6858053770989211,0.10599608496117,-0.7525087402364815,-0.1634601552351854,-1.1553192894913162,-1.1814983644838977,-27.778185084964385,26.354146917442097,-11.13750912012717,-0.4816199122316631,0.3866598017693309,3.5644355724030548,3814.704806857639,11.958444444444446,0.1877777777777777,177.7520986839162,12.677845667226627,65.82182952192836,1553.0,1435.0,1200.0,1528.0,1471.0,999.7000000000002,107.0,294.1,1649429479.6851077,1649429480.8155775,353bc790-3e5b-48f9-98d3-c4d6cc432a31
-0.2449031878407882,0.0401342660012056,-0.6694220954576428,0.1038922936975772,-0.7368486363846164,-0.1630525455015015,-1.1364903421496533,-1.1632611091196792,-27.621490479962453,26.248057940298413,-11.103586434437004,-0.475761536131175,0.3896528183518791,3.494248071962992,3867.973795572917,11.959333333333332,0.18,177.73214542462088,12.6675300894414,65.37705671009603,1553.0,1435.0,1200.0,1528.0,1471.0,999.7000000000002,107.0,294.1,1649429480.9237127,1649429482.0429077,353bc790-3e5b-48f9-98d3-c4d6cc432a31
-0.2495709755558412,0.0426719643742524,-0.6728276090704969,0.0983040977901871,-0.741490128127768,-0.160725226134628,-1.139106934731409,-1.1570023239813352,-27.556795970309352,26.227439333872603,-11.174025836151106,-0.4582110558682094,0.3998089264072089,3.509149931805958,3861.583821614584,11.961222222222222,0.18,177.73163088370336,12.668741878836649,65.01548774491297,1553.0,1435.0,1200.0,1528.0,1471.0,999.7000000000002,107.0,294.1,1649429482.15146,1649429483.270785,353bc790-3e5b-48f9-98d3-c4d6cc432a31
-0.0670144622275363,0.3516663142150895,-0.6289766914795909,-0.1309302783963963,-0.7805154757436925,-0.2390257200363501,-1.1406058872271627,-1.1657330652880844,-27.16767684909073,25.47832739143899,-9.104376341060595,-0.1193228144643666,1.5686191326912928,3.543541455111668,3832.613715277778,11.955222222222222,0.1777777777777777,177.72416321021083,12.71494032974523,64.33798534403134,1658.0,1435.0,1200.0,1528.0,1551.0,999.7000000000002,107.0,294.1,1649429485.2062466,1649429486.34497,606cd6ae-9763-4178-bce8-d7a012196351
-0.0576723131227499,0.3600590168489964,-0.6325306758359888,-0.1349072112211141,-0.7850967027981732,-0.2433428756986922,-1.1463299576944552,-1.1737367939835197,-27.256722950054183,25.42377236977586,-9.104264049862817,-0.1206364757380892,1.6009895381456118,3.5637165050226685,3829.5691189236113,11.919777777777778,0.16,177.8004488341408,12.711266446881671,64.18884588677439,1658.0,1435.0,1200.0,1528.0,1551.0,999.7000000000002,107.0,294.1,1649429486.4574225,1649429487.5803196,606cd6ae-9763-4178-bce8-d7a012196351
-0.0625345916693694,0.3590043819171744,-0.6304898878556973,-0.1299901464963078,-0.7819875825403154,-0.2492460932495271,-1.1458642742026273,-1.1618344743273126,-27.322849209915137,25.42241557691309,-9.436465850077548,-0.1449871050069863,1.5999702936771942,3.555438192272953,3833.375,11.923,0.16,177.84502568430395,12.723863782168374,64.08626479344979,1658.0,1435.0,1200.0,1528.0,1551.0,999.7000000000002,107.0,294.1,1649429487.694692,1649429488.8015804,606cd6ae-9763-4178-bce8-d7a012196351
0.1394069215161747,0.6916389737969721,-0.591686976510898,-0.3647404234035732,-0.8322687683996218,-0.3465689219844485,-1.1635372311048666,-1.1929903347787247,-27.12583349624254,24.916345467185348,-7.583676764479406,0.1648264586438849,2.8610907003789783,3.637342052286338,3856.949381510417,11.914,0.1566666666666666,177.80943584526872,12.801975817655146,63.80195816924801,1767.0,1435.0,1200.0,1528.0,1630.0,999.7000000000002,107.0,294.1,1649429490.7391665,1649429491.8736944,4635ae3e-01ff-4240-a557-4add93abda62
0.1267929392081588,0.6883928897274595,-0.5925504078719345,-0.3603525930891072,-0.8318978654424581,-0.3471080185830854,-1.1649298982736096,-1.1924600032714383,-27.19494057779264,24.95073628187316,-7.546825919640906,0.1538732416818485,2.848484036815176,3.639631910741647,3850.595947265625,11.883,0.15,177.86107662885348,12.789911711442397,63.72578106943487,1767.0,1435.0,1200.0,1528.0,1630.0,999.7000000000002,107.0,294.1,1649429491.9827747,1649429493.3028088,4635ae3e-01ff-4240-a557-4add93abda62
0.1216561820030344,0.6844203402607119,-0.5999049143624235,-0.3546685203637494,-0.8385144023140453,-0.3471606134397372,-1.172899110260028,-1.2005113952908448,-27.17230933642861,25.04023006755732,-7.4238368818760545,0.1411912355032332,2.8311697841705312,3.6697370563473375,3849.7314453125,11.893,0.15,177.93654338899296,12.804197905865127,63.67612559416887,1767.0,1435.0,1200.0,1528.0,1630.0,999.7000000000002,107.0,294.1,1649429493.4110384,1649429494.5340946,4635ae3e-01ff-4240-a557-4add93abda62
0.3008066548565847,0.9999885171016338,-0.5601043042381559,-0.5903463149441076,-0.8903390039239759,-0.4212338079439227,-1.186273367940026,-1.2101686142395176,-26.82320119797763,25.086369225871383,-4.752085542402742,0.5092595317056917,4.020132654763623,3.745224327861369,3847.13916015625,11.878111111111112,0.1477777777777777,177.87011524585512,12.861864339253897,63.62272186286835,1886.0,1435.0,1200.0,1528.0,1710.0,999.7000000000002,107.0,294.1,1649429496.181526,1649429497.404894,0a56f342-0206-4d06-a345-296af70b241a
0.3184790071722792,0.9977011498284007,-0.5573951663055683,-0.5885444371221297,-0.8862047482298611,-0.4205040550644116,-1.1818007847222474,-1.2126213542741568,-26.792081178395915,24.97417925340272,-4.702273824094741,0.5062495703613638,4.010839889433528,3.729409553635709,3848.866943359375,11.843222222222222,0.14,177.94072877713435,12.867710412000996,63.699312568581234,1886.0,1435.0,1200.0,1528.0,1710.0,999.7000000000002,107.0,294.1,1649429497.5139563,1649429498.6321118,0a56f342-0206-4d06-a345-296af70b241a
0.32410664880446,0.9992526958873807,-0.5557515788193403,-0.5728580378714668,-0.8829175723562495,-0.4392146540888524,-1.1860478170489737,-1.2042850736656303,-26.893298281620574,25.021018457994625,-5.102399503316522,0.4290972925248105,4.019095481607028,3.7284097075248623,3852.326171875,11.842666666666666,0.14,178.00599047574394,12.883126718140144,63.72162148423032,1886.0,1435.0,1200.0,1528.0,1710.0,999.7000000000002,107.0,294.1,1649429498.7409515,1649429499.8616383,0a56f342-0206-4d06-a345-296af70b241a
-0.5024073032060075,-0.3832011962148478,-0.7451454671804977,0.4347792166443018,-0.7027540531067514,-0.0622151879060731,-1.1578832872787952,-1.1819322720341217,-28.00131133793822,27.891647782451784,-12.811089645158834,-0.9889047007592136,-1.225802560506884,3.529817456114425,3857.7214626736113,11.900777777777778,0.1566666666666666,178.82445963308564,12.765893066634831,63.72241530399386,1449.0,1435.0,1200.0,1528.0,1386.0,999.7000000000002,107.0,294.1,1649429500.7716749,1649429502.1134398,20479ea3-1161-47b7-9bce-a5d0c2ab03a9
-0.5055761398653632,-0.3834378728174168,-0.7473938951988022,0.4385528921575673,-0.7027672018290518,-0.0635958010351538,-1.1605524747188063,-1.185456125433989,-28.15083947321984,27.79571408096189,-12.5634589838171,-1.0013033179025534,-1.2284354481323774,3.5369890898327854,3870.301595052084,11.950333333333331,0.1666666666666666,178.8481619073254,12.762653849420952,63.57277117164823,1449.0,1435.0,1200.0,1528.0,1386.0,999.7000000000002,107.0,294.1,1649429502.2210095,1649429503.3432548,20479ea3-1161-47b7-9bce-a5d0c2ab03a9
-0.4952281132030295,-0.3748780699353831,-0.7365199188162608,0.4329646967328268,-0.6961139588944277,-0.0680532092328368,-1.151282636650248,-1.1789738140219497,-27.98516195462941,27.87896008779748,-12.660613680954208,-0.9975528994368904,-1.1952637377439623,3.5008378390390265,3866.2275390625,11.958,0.1755555555555555,178.88730496254882,12.774098969740171,63.489970306159975,1449.0,1435.0,1200.0,1528.0,1386.0,999.7000000000002,107.0,294.1,1649429503.4517255,1649429504.5718622,20479ea3-1161-47b7-9bce-a5d0c2ab03a9
-0.7208735116022997,-0.7348029173946798,-0.8143525653201072,0.7056505518795092,-0.6838243060557513,0.0366969775802915,-1.1852145175248172,-1.2130596443642585,-28.60883686430552,29.757316347605563,-12.65716605849371,-1.3690148120652947,-2.579292871079719,3.596142911552119,3869.330430772569,11.946000000000002,0.1655555555555555,179.05104584643144,12.735602316030686,63.32617250403428,1342.0,1435.0,1200.0,1528.0,1293.0,999.7000000000002,107.0,294.1,1649429505.1880844,1649429506.4137175,161e5760-fb92-447f-ba1e-c98edd2d3206
-0.7141074089665974,-0.7372135127154481,-0.8105175271440598,0.7049931171300529,-0.6801125373155354,0.0382172955854433,-1.1802700560170882,-1.1948295103850362,-28.551543123896124,29.766059276682057,-12.829379076261878,-1.3638651370997774,-2.586889047006528,3.5783160501254656,3866.42138671875,11.921777777777775,0.16,179.10972476050094,12.751394282574187,63.31800891015629,1342.0,1435.0,1200.0,1528.0,1293.0,999.7000000000002,107.0,294.1,1649429506.5224411,1649429507.6531422,161e5760-fb92-447f-ba1e-c98edd2d3206
-0.71542227915729,-0.7357753734860727,-0.7983001912493476,0.7074448008772979,-0.6688265688822473,0.0360806324547418,-1.1687238480382918,-1.196158078613852,-28.50950471186214,29.81586958940393,-12.521384572280065,-1.373188104800784,-2.584048931625435,3.530490105548278,3868.5558810763887,11.917666666666667,0.1544444444444444,179.1581477660767,12.762450461565669,63.3104296769073,1342.0,1435.0,1200.0,1528.0,1293.0,999.7000000000002,107.0,294.1,1649429507.7851243,1649429508.8303118,161e5760-fb92-447f-ba1e-c98edd2d3206
-0.9198391315721166,-1.0891287032986012,-0.8744103613309049,0.984131696299374,-0.6608885884257758,0.1390782040640415,-1.2068096251947844,-1.24081218415648,-28.994447695388544,32.21707302937054,-11.34508561191246,-1.7538051660486482,-3.955182291352383,3.6376555230145966,3869.718505859375,11.888333333333334,0.1455555555555555,179.33745844562728,12.73627603830132,63.35084542404608,1227.0,1435.0,1200.0,1528.0,1189.0,999.7000000000002,107.0,294.1,1649429509.7830362,1649429510.8296564,1bf58ddf-b900-4799-8833-f534f11c1a79
-0.9190502092232128,-1.0873273306238218,-0.8759750572073683,0.9878133309976326,-0.6632159086306921,0.1357252866225994,-1.2107016428430235,-1.2365257038590756,-29.001834302497446,32.32635893661387,-11.111298519093893,-1.7689643782427644,-3.9509964451030712,3.6490296385141097,3867.97216796875,11.85888888888889,0.14,179.37413200801083,12.744281020008572,63.43727919126288,1227.0,1435.0,1200.0,1528.0,1189.0,999.7000000000002,107.0,294.1,1649429510.9380543,1649429512.1518154,1bf58ddf-b900-4799-8833-f534f11c1a79
-0.9205754588559836,-1.0843425744679034,-0.873305870282295,0.976544899085819,-0.6637944513460973,0.1407217910826765,-1.2052843752596232,-1.2237977548929575,-28.74726841660448,32.31095612511996,-11.43019869663554,-1.732209635923924,-3.9372208091807934,3.6384631224476847,3865.6490071614585,11.845333333333334,0.13,179.41792262750948,12.747690897087962,63.49324727914177,1227.0,1435.0,1200.0,1528.0,1189.0,999.7000000000002,107.0,294.1,1649429512.26039,1649429513.3732386,1bf58ddf-b900-4799-8833-f534f11c1a79
-0.2694649554755551,0.0312851933785755,-0.6864233661023323,0.1080209841900655,-0.7482222634243169,-0.1569778474205227,-1.1494155204128835,-1.1780139570967023,-27.719433096755377,25.97138721140655,-11.043545402595576,-0.4741445570459741,0.3550336752135751,3.550411868133715,3866.2275390625,11.875000000000002,0.1433333333333333,179.12012637969696,12.852626508401451,63.583453587510135,1553.0,1435.0,1200.0,1528.0,1471.0,999.7000000000002,107.0,294.1,1649429515.315036,1649429516.4520147,30789205-904a-4d00-bcbe-2ed3abb9748a
-0.2585909823371988,0.0265122165938573,-0.6842275330560867,0.1146216295343992,-0.7457503075358594,-0.1569909961470565,-1.148902720986133,-1.1639711392831085,-27.783589469416,26.1657941664462,-10.837878994563132,-0.4876649679700226,0.3350931975729702,3.5429674599883896,3864.484375,11.959111111111111,0.1711111111111111,179.08218543776744,12.849200599350262,63.41411877869727,1553.0,1435.0,1200.0,1528.0,1471.0,999.7000000000002,107.0,294.1,1649429516.5610087,1649429517.6794405,30789205-904a-4d00-bcbe-2ed3abb9748a
-0.2487203559304037,0.0267701333370871,-0.686293901954359,0.1104413557528247,-0.7480675133242598,-0.1534807995672664,-1.1495834192822905,-1.1745786045440796,-27.75851811311609,26.122461162619988,-10.86034470539889,-0.4707285260631548,0.3364651558118762,3.549907622332824,3865.452799479168,11.958888888888891,0.1755555555555555,179.0758485400375,12.852141944425336,63.27973480677727,1553.0,1435.0,1200.0,1528.0,1471.0,999.7000000000002,107.0,294.1,1649429517.7909477,1649429518.8908565,30789205-904a-4d00-bcbe-2ed3abb9748a
-0.2607473687599241,0.0119566096942843,-0.7069090428328256,-0.1548609070958468,-0.7937956648922884,0.1173565584167339,-1.091981972561666,-1.1099299568175416,-27.530309620124022,25.578571992578794,-9.004770956365935,0.7321147458102345,0.2941926017356704,3.557160841486596,3858.299750434028,11.964000000000002,0.17,179.11595237520416,12.94139117253625,63.08424416799279,1553.0,1522.0,1200.0,1528.0,1471.0,999.7000000000002,107.0,294.1,1649429520.84244,1649429521.980517,bafd3b24-c35c-4360-aff1-760c8b0ebdbb
-0.2600504877825277,0.0168873708445407,-0.7139304494776465,-0.1523626546725957,-0.8029340130847795,0.1101642216806931,-1.1032635621581313,-1.128390739080214,-27.51337556384421,25.75491569768224,-9.086012225254931,0.7111321178336973,0.312536420743116,3.5956845435554623,3857.52783203125,11.960333333333333,0.18,179.1007089107965,12.930252367228556,62.93032509613665,1553.0,1522.0,1200.0,1528.0,1471.0,999.7000000000002,107.0,294.1,1649429522.0891123,1649429523.2087114,bafd3b24-c35c-4360-aff1-760c8b0ebdbb
-0.2574338969479388,0.0096555878154036,-0.7061595669124747,-0.1447495589498658,-0.7930461888864713,0.1096382738515693,-1.0948483904894848,-1.1169513651538652,-27.54410402574823,25.770089693445453,-9.109190397986485,0.6932453297671465,0.2853913083808411,3.558774288032658,3856.563747829861,11.958777777777776,0.17,179.1155152430973,12.925913015239614,62.868231846392064,1553.0,1522.0,1200.0,1528.0,1471.0,999.7000000000002,107.0,294.1,1649429523.317475,1649429524.4372642,bafd3b24-c35c-4360-aff1-760c8b0ebdbb
-0.2518194029368434,0.0038964587672111,-0.7283414263523733,-0.4223448730300472,-0.8422091876991104,0.3860107061929772,-1.0386508237695482,-1.0622790472502266,-27.442191738926244,25.1595660006249,-6.825014287361312,1.935741771515176,0.2755865266891079,3.576371657128905,3860.423990885417,11.961333333333336,0.17,179.13252089631078,13.029754942512255,62.73864797963876,1553.0,1613.0,1200.0,1528.0,1471.0,999.7000000000002,107.0,294.1,1649429525.3474486,1649429526.480729,d4acc5e6-c7e1-4bdf-a246-82dc85bcf0df
-0.2572498151682968,-0.001757480718623,-0.741384938630234,-0.4240410552521996,-0.854227102257771,0.3940971537476458,-1.05218084161302,-1.078044345557596,-27.67512598883328,25.318311744255187,-6.788037282861025,1.9580307764810168,0.2550863805861309,3.628909201307673,3861.002685546875,11.963,0.17,179.13285785230983,13.002437316335577,62.61037019683676,1553.0,1613.0,1200.0,1528.0,1471.0,999.7000000000002,107.0,294.1,1649429526.5889575,1649429527.7101526,d4acc5e6-c7e1-4bdf-a246-82dc85bcf0df
-0.2507527147915197,0.0010722283373919,-0.7348166141237432,-0.4282464474237903,-0.8499088489805272,0.3943551969064134,-1.0445096676502044,-1.0684238755041775,-27.478026344286903,25.316237363862143,-6.853874378802495,1.968498995843044,0.2658221350413072,3.603503469990825,3857.52783203125,11.962500000000002,0.175,179.12354830447111,13.018115588688516,62.47155684724,1553.0,1613.0,1200.0,1528.0,1471.0,999.7000000000002,107.0,294.1,1649429527.8188198,1649429528.943587,d4acc5e6-c7e1-4bdf-a246-82dc85bcf0df
-0.256907949003934,-0.0189296783869152,-0.7635010550982751,-0.6587322016387204,-0.901049634175857,0.6401486843137887,-1.0078565571780975,-1.0322474049814665,-27.564962455361428,25.27200828276904,-4.839674925902687,3.0393049931474714,0.2001248762096535,3.658429952494652,3864.484375,11.949555555555555,0.1677777777777778,179.14715116151297,13.122846341758777,62.274702826806205,1553.0,1710.0,1200.0,1528.0,1471.0,999.7000000000002,107.0,294.1,1649429530.6777134,1649429531.8167782,2bbdc3f3-44ad-4880-b397-a01a2a8afa8b
-0.2494789346719258,-0.0115795570132623,-0.7697466887410672,-0.6829258115287312,-0.9120945452708557,0.6562821330364155,-1.011104287299542,-1.033102071198218,-27.519713629142803,25.31641292912741,-4.726833231720792,3.130158000677394,0.2289554914613318,3.6874608885097935,3859.2646484375,11.927666666666669,0.1577777777777777,179.15627174078466,13.112062326832971,62.23099568739738,1553.0,1710.0,1200.0,1528.0,1471.0,999.7000000000002,107.0,294.1,1649429531.9516785,1649429533.0040195,2bbdc3f3-44ad-4880-b397-a01a2a8afa8b
-0.2575653838854489,-0.02142793072747,-0.7801867580848503,-0.6780081977545399,-0.9183138819724976,0.6620281127355757,-1.0189540639809789,-1.0430950868443445,-27.630614351645185,25.21688343627164,-4.706677302260741,3.130744802011271,0.1913553926356004,3.720182408308805,3857.52783203125,11.931222222222225,0.16,179.1790830547927,13.120919279775446,62.18562046401126,1553.0,1710.0,1200.0,1528.0,1471.0,999.7000000000002,107.0,294.1,1649429533.1363814,1649429534.2693558,2bbdc3f3-44ad-4880-b397-a01a2a8afa8b
-0.2389073816075983,-0.0258984875684924,-0.7687210898372859,-0.8882296489462082,-0.9358805502239858,0.868778193195572,-0.9561558516067294,-0.97749619868122,-27.55957517125324,25.63678559263764,-3.1776444549004594,4.073181919717942,0.1871502527077138,3.6387183344040057,3859.2646484375,11.925,0.16,179.2157080469421,13.22295595010496,62.11428672722956,1553.0,1814.0,1200.0,1528.0,1471.0,999.7000000000002,107.0,294.1,1649429535.178374,1649429536.3126628,5231a0a6-688e-4a63-a732-3726213e9ea6
-0.2372278883337343,-0.0295164020276903,-0.7820012791390448,-0.8889229900875748,-0.9488380923101746,0.8743679057903333,-0.9663106970924632,-0.9974630124950438,-27.337862022640635,25.578425679121924,-3.068498412815949,4.086387621593691,0.1702867662344224,3.688816766154422,3855.79248046875,11.900333333333332,0.1433333333333333,179.23666762077514,13.188806996393405,62.0805364858108,1553.0,1814.0,1200.0,1528.0,1471.0,999.7000000000002,107.0,294.1,1649429536.421033,1649429537.5402763,5231a0a6-688e-4a63-a732-3726213e9ea6
-0.2639162049379209,-0.0321704158637864,-0.7815805207063292,-0.8869805217472065,-0.9462680264192664,0.8737352512280944,-0.9672007633387336,-0.9860297079334106,-27.61708342583134,25.58133868066206,-3.2740612505140443,4.08045117040273,0.1639183232316466,3.685219473873981,3857.529215494792,11.901333333333334,0.1433333333333333,179.25178965959756,13.217011408797326,62.06038970448898,1553.0,1814.0,1200.0,1528.0,1471.0,999.7000000000002,107.0,294.1,1649429537.6493876,1649429538.9783642,5231a0a6-688e-4a63-a732-3726213e9ea6
-0.2559743914562449,0.0484705394377283,-0.656891383396648,0.3789104107415163,-0.7007291531798673,-0.4336922003688924,-1.205073995887978,-1.2293991043519563,-27.73882333246788,27.19566844290921,-12.640471257157134,-1.6976967496296305,0.4023205711413083,3.526401263131521,3864.484375,11.919222222222222,0.1522222222222222,179.2515361836884,12.817224404704678,62.03206263327123,1553.0,1349.0,1200.0,1528.0,1471.0,999.7000000000002,107.0,294.1,1649429540.7079525,1649429541.8447697,f82f2cca-4e4d-4be6-a6e2-f16c4eaff74f
-0.262272617726336,0.0443681461920397,-0.6580353204755832,0.3719810482758299,-0.7022675513195752,-0.4218320739025407,-1.2051791857755958,-1.2290046433305422,-27.921962832944,27.346256003206545,-12.438734667350326,-1.6545332449298364,0.3872255194841014,3.529743203743521,3867.97216796875,11.946666666666664,0.1633333333333333,179.2759685292594,12.759966454573767,62.14223813804298,1553.0,1349.0,1200.0,1528.0,1471.0,999.7000000000002,107.0,294.1,1649429541.952729,1649429543.075156,f82f2cca-4e4d-4be6-a6e2-f16c4eaff74f
-0.2568750772369126,0.0518453714739577,-0.6497746490213429,0.3714545526264191,-0.6951787576145403,-0.4292599931744497,-1.197541430381288,-1.2267973042840448,-27.80378247856892,27.216867715646234,-12.459940852343191,-1.6704274218438273,0.4152074698570402,3.4989592385981787,3870.6898328993057,11.94611111111111,0.1622222222222222,179.30983260716434,12.768996154384004,62.22807843771188,1553.0,1349.0,1200.0,1528.0,1471.0,999.7000000000002,107.0,294.1,1649429543.1832054,1649429544.3094666,f82f2cca-4e4d-4be6-a6e2-f16c4eaff74f
-0.2565134880908354,0.0709811073673398,-0.6222182592354533,0.5596786709937568,-0.6565758145482313,-0.630265264459214,-1.2322523737803648,-1.2553152075978402,-27.857367857951186,28.07537957169154,-13.766382187715555,-2.539872525711567,0.4775234048827577,3.459972579057608,3857.52783203125,11.932,0.16,179.34290438312553,12.706935442901711,62.45054604698818,1553.0,1264.0,1200.0,1528.0,1471.0,999.7000000000002,107.0,294.1,1649429546.2373438,1649429547.3716156,036aaf0c-bafe-4604-a8e5-3bf0c2b9851a
-0.2532043991252417,0.0709520706599473,-0.6204503069001622,0.5682192962408169,-0.6531987898793532,-0.6371053284537543,-1.2325224702743007,-1.2670789186339533,-27.93567353605357,28.05505671721196,-13.618446876297485,-2.574571146674522,0.4757177813002227,3.4535811966911893,3857.913791232639,11.90277777777778,0.1477777777777777,179.3470009788077,12.6948615657239,62.62141461272467,1553.0,1264.0,1200.0,1528.0,1471.0,999.7000000000002,107.0,294.1,1649429547.4806178,1649429548.6026156,036aaf0c-bafe-4604-a8e5-3bf0c2b9851a
-0.2491365206764163,0.0723902093034797,-0.6140814049538208,0.5928730993948648,-0.6460080939894431,-0.6640601649192662,-1.2335634093959955,-1.2500951703247,-27.81749358517132,28.175574114172964,-14.004006892127355,-2.689641121517603,0.4810628231080229,3.4364673369005083,3857.52783203125,11.921666666666669,0.15,179.37400451114632,12.71432722540348,62.75675936458792,1553.0,1264.0,1200.0,1528.0,1471.0,999.7000000000002,107.0,294.1,1649429548.710791,1649429549.83227,036aaf0c-bafe-4604-a8e5-3bf0c2b9851a
-0.2518982951130639,0.0729271143949013,-0.5705833125808478,0.7486385665522399,-0.5927651700208553,-0.8175685192681368,-1.2357236327012735,-1.263533149934129,-27.6963044222738,28.98283482378105,-15.211683202473736,-3.378577785338123,0.4765155759203112,3.3072124058368915,3858.613342285156,11.907375,0.14,179.34055707478078,12.643614075340896,62.98190175183419,1553.0,1178.0,1200.0,1528.0,1471.0,999.7000000000002,107.0,294.1,1649429551.767259,1649429552.904662,7440c419-bc27-479a-aa91-5b10dc21f70d
-0.2473225482681371,0.0718620699918809,-0.5763292947833407,0.7362787932622471,-0.5979852042768135,-0.802131942667415,-1.2377485336445897,-1.2628362682569532,-27.863924388728247,28.89870227597104,-14.811807488122044,-3.316873585707348,0.4713193575916101,3.325281771131265,3847.331136067709,11.890222222222222,0.14,179.3542166942109,12.647033735243316,63.13552522828125,1553.0,1178.0,1200.0,1528.0,1471.0,999.7000000000002,107.0,294.1,1649429553.0133674,1649429554.1350195,7440c419-bc27-479a-aa91-5b10dc21f70d
-0.2310970552535661,0.0924660768238247,-0.5790116296266828,0.6329169020580188,-0.6172743480101571,-0.7220826454468293,-1.2173548886665997,-1.236933315150072,-27.41963705037327,28.665801845866728,-14.024654447097838,-2.905161391526133,0.5510279018339284,3.3292776924318064,3852.327880859375,11.893666666666668,0.14,179.3606856422648,12.670999540948552,63.243178116519545,1553.0,1178.0,1200.0,1528.0,1471.0,999.7000000000002,107.0,294.1,1649429554.2432842,1649429555.3588388,7440c419-bc27-479a-aa91-5b10dc21f70d
-0.2218798180820508,0.0972784996053515,-0.5315185249052607,0.7705574412209667,-0.5638248808895381,-0.8613799979320903,-1.2172102530160192,-1.246045368502804,-27.68411533616064,29.777655691943945,-14.966738784111168,-3.519212328380915,0.5653821646730623,3.19135246637612,3857.52783203125,11.895,0.14,179.31402178985527,12.618045368904657,63.43196909863814,1553.0,1088.0,1200.0,1528.0,1471.0,999.7000000000002,107.0,294.1,1649429557.26605,1649429558.3235428,9d1cfd07-b346-4e29-b4b7-243042c2310a
-0.220615014522707,0.0974317324813764,-0.5515702926992984,0.7514908219309521,-0.586275275382972,-0.841891090479651,-1.2314973356601475,-1.2551650086838075,-27.49888508988922,29.73548129420252,-14.803592661246638,-3.4335673060835905,0.5642755255346235,3.2698335551494777,3855.600341796875,11.878,0.14,179.3068925901816,12.596323470069247,63.51059368290388,1553.0,1088.0,1200.0,1528.0,1471.0,999.7000000000002,107.0,294.1,1649429558.4548132,1649429559.4622967,9d1cfd07-b346-4e29-b4b7-243042c2310a
-0.2239836097267837,0.1019988814579602,-0.5410776301041179,0.7430109251150739,-0.5776441651178014,-0.8415254558101705,-1.2196822106618874,-1.2386163490362825,-27.422801757564248,29.65087957501294,-15.138814091249827,-3.413670614826024,0.5855454718236195,3.227046198033495,3855.79248046875,11.885666666666667,0.14,179.30330749977725,12.593878262346385,63.6024058446371,1553.0,1088.0,1200.0,1528.0,1471.0,999.7000000000002,107.0,294.1,1649429559.5706265,1649429560.892657,9d1cfd07-b346-4e29-b4b7-243042c2310a
-0.2553827000617448,0.0252236443578451,-0.681111290783587,0.1205648401738879,-0.7428049982868835,-0.1608172670316433,-1.14708819942948,-1.1636161243166738,-27.72705656257782,26.251739110340512,-10.765699965714855,-0.508904666190286,0.3286876955889966,3.532126825830592,3852.326171875,11.904666666666666,0.1466666666666667,179.26264510691843,12.783768240875183,63.73963952326081,1553.0,1435.0,1200.0,1528.0,1471.0,999.7000000000002,107.0,294.1,1649429562.8292415,1649429563.9706652,e6af124c-93e4-4ab9-8db5-66acf8602c79
-0.2603529078332836,0.0333758360876307,-0.6842012355381112,0.1260346977448609,-0.7470520289286704,-0.1740317078139881,-1.1557531968774344,-1.1885855177602438,-27.791603989864303,26.329060779299247,-10.838488210352969,-0.5506233159385336,0.3594973110257548,3.555315321065716,3858.107259114584,11.938555555555556,0.151111111111111,179.21529368213243,12.797301312078185,63.55523200476955,1553.0,1435.0,1200.0,1528.0,1471.0,999.7000000000002,107.0,294.1,1649429564.1020756,1649429565.1923454,e6af124c-93e4-4ab9-8db5-66acf8602c79
-0.2657307253035926,0.0293391863137422,-0.6986122122264048,0.129124641141769,-0.7583467639056662,-0.173887072263608,-1.1697039745973628,-1.203101690934455,-27.91379102559277,26.219977928473625,-11.082786878915716,-0.5588095980952021,0.3460915756282035,3.609359258335755,3887.664740668403,11.948777777777778,0.16,179.2010884064787,12.808083904047908,63.45980060168612,1553.0,1435.0,1200.0,1528.0,1471.0,999.7000000000002,107.0,294.1,1649429565.299874,1649429566.340791,e6af124c-93e4-4ab9-8db5-66acf8602c79
-0.1958842951302117,0.0564337185942153,-0.4984002371704319,0.0906614182355325,-0.5781005341056283,-0.1727918952096631,-0.957002299578749,-0.989120750236768,-26.69082592502659,26.043430723614023,-10.603052173856256,-0.4600940327817706,0.4522298455872293,2.792650075039444,3896.4963107638887,11.959555555555555,0.1677777777777778,179.11864195191734,12.798873299088408,63.15825230328952,1553.0,1435.0,1200.0,1424.0,1471.0,999.7000000000002,107.0,294.1,1649429568.3555534,1649429569.697939,afa80f05-fe84-450b-b6cb-314d86e69f58
-0.1950761980547042,0.0611453347509001,-0.4911136660342256,0.0922228259051449,-0.5743613723568333,-0.1806400240346738,-0.9504416440459592,-0.9701236112799222,-26.29817117958396,26.10629973402964,-10.807465886992183,-0.4803073227747821,0.4692046239018546,2.768828106827039,3885.704074435764,11.962555555555555,0.1677777777777778,179.10752088612875,12.78412881794512,63.04147276450026,1553.0,1435.0,1200.0,1424.0,1471.0,999.7000000000002,107.0,294.1,1649429569.8066056,1649429570.9278605,afa80f05-fe84-450b-b6cb-314d86e69f58
-0.1910494094746285,0.0660076130312476,-0.4858678829019316,0.089647872952298,-0.569608665171637,-0.1815303003552243,-0.9455245768271792,-0.9757802937891088,-26.347133825577888,26.039370796245592,-10.553790756977534,-0.4766661138475139,0.4861878044182812,2.7491200852244138,3865.84033203125,11.962666666666664,0.16,179.09026023918622,12.78626448528935,62.90023128265357,1553.0,1435.0,1200.0,1424.0,1471.0,999.7000000000002,107.0,294.1,1649429571.0356903,1649429572.3687298,afa80f05-fe84-450b-b6cb-314d86e69f58
-0.1175317558124179,0.1054306911577787,-0.2578020605167611,0.0686011933332859,-0.3650428434445898,-0.2120971870522758,-0.7116162780203217,-0.7328908775748221,-24.69895973530297,25.89682147819672,-10.391517320010102,-0.4866111419985555,0.6379917562170083,1.8326052844325948,3863.6138916015625,11.96325,0.16,179.10966252988848,12.77936653969413,62.66907055011114,1553.0,1435.0,1200.0,1304.0,1471.0,999.7000000000002,107.0,294.1,1649429574.2978554,1649429575.2393649,16a91a28-44e2-43b7-ac39-845fcac9276c
-0.112877117031852,0.0988431944379657,-0.2666379855804229,0.0716648394764107,-0.3731424418747341,-0.2076266299326326,-0.7194660529071356,-0.7490506325113203,-24.6438246237749,25.990716779425103,-10.338216976716712,-0.4832573151207422,0.6114862474455077,1.8661629465818728,3864.29150390625,11.964,0.16,179.10458390478564,12.77871627248284,62.56642475971689,1553.0,1435.0,1200.0,1304.0,1471.0,999.7000000000002,107.0,294.1,1649429575.347482,1649429576.453366,16a91a28-44e2-43b7-ac39-845fcac9276c
-0.1154717932920772,0.1034813969650797,-0.2522045502484716,0.0654460540714127,-0.3603662896498041,-0.2081701093910742,-0.704054130998148,-0.7283655332615292,-24.5834532389092,25.912637512389363,-10.467886941321092,-0.4702397186689495,0.6312836389820643,1.8075417836841976,3862.9361979166665,11.963,0.16,179.11164632038742,12.766898337671424,62.50866792118536,1553.0,1435.0,1200.0,1304.0,1471.0,999.7000000000002,107.0,294.1,1649429576.561525,1649429577.685622,16a91a28-44e2-43b7-ac39-845fcac9276c
-0.0581401032800467,0.1370801080927672,-0.0730208881372404,0.0749904482033454,-0.200095460565605,-0.259568031724827,-0.529533576849962,-0.5460958818576971,-23.14852509528988,26.06680694250364,-10.492839186348036,-0.5966050410629665,0.757551100136181,1.1015741280668498,3847.715087890625,11.956333333333331,0.16,179.12003531050803,12.76248024877955,62.410354937182106,1553.0,1435.0,1200.0,1166.0,1471.0,999.7000000000002,107.0,294.1,1649429579.827088,1649429580.9620974,9634de45-2457-4831-a667-f1c3c352025c
-0.049737074614378,0.1362906806236717,-0.0625307565761165,0.0801325997874373,-0.1896786577296251,-0.2629826474979376,-0.5215781074564445,-0.5420769306168969,-23.27539788662701,26.2072683209596,-10.345165332233996,-0.6144644232717856,0.7542137035584382,1.061771442528978,3855.79248046875,11.952,0.16,179.13936019239975,12.756833105292024,62.42764214597141,1553.0,1435.0,1200.0,1166.0,1471.0,999.7000000000002,107.0,294.1,1649429581.0706725,1649429582.1912086,9634de45-2457-4831-a667-f1c3c352025c
-0.0609792103480367,0.1289274108860844,-0.0753638847639845,0.0788440275080941,-0.2013415525166573,-0.2535681798256591,-0.5309136844765139,-0.5568166237843233,-23.174851908392903,26.194883247434188,-10.286909144438432,-0.5910633616092208,0.7247138912616148,1.107696873501958,3850.595947265625,11.948666666666666,0.1555555555555555,179.13302936594903,12.769123461521032,62.43521758467086,1553.0,1435.0,1200.0,1166.0,1471.0,999.7000000000002,107.0,294.1,1649429582.2996953,1649429583.3994176,9634de45-2457-4831-a667-f1c3c352025c
-0.3019290910503064,0.0148098768065662,-0.8228017031028868,0.2130001717612497,-0.8691508805888551,-0.2300977542057603,-1.3240040591480815,-1.3425174409056058,-28.76550601755143,27.045353754982376,-11.195193932234137,-0.8754840946658325,0.2804364946905064,4.147137326583058,3851.944959852431,11.934444444444445,0.1511111111111111,179.24894830090284,12.753730776452764,62.537432124510005,1553.0,1435.0,1200.0,1623.0,1471.0,999.7000000000002,107.0,294.1,1649429584.3306332,1649429585.464074,b75e030f-8fcd-4928-8d54-cc99d81d3617
-0.2928696380377315,0.0240271129788774,-0.8067602857333789,0.2097524439135491,-0.8576720625435925,-0.2350548132632874,-1.3095404796573578,-1.336074574445179,-28.542067982478446,27.13994986401933,-10.92619990976241,-0.8777159931758398,0.3124596170733607,4.090627122464711,3861.002685546875,11.919333333333334,0.14,179.26105746739137,12.761237059486866,62.578489909430765,1553.0,1435.0,1200.0,1623.0,1471.0,999.7000000000002,107.0,294.1,1649429585.5724475,1649429586.6967037,b75e030f-8fcd-4928-8d54-cc99d81d3617
-0.3014820353356732,0.0144417133125093,-0.8234985838343957,0.2154063830534198,-0.8695716386426899,-0.2305579586638104,-1.3244116683866958,-1.348394913833562,-28.710001226851208,27.026876406031093,-11.001355938827936,-0.8820444086721136,0.2766040792387348,4.1495370288610935,3852.326171875,11.915444444444445,0.14,179.28315995954551,12.748828313312249,62.65832191935978,1553.0,1435.0,1200.0,1623.0,1471.0,999.7000000000002,107.0,294.1,1649429586.80485,1649429587.9252603,b75e030f-8fcd-4928-8d54-cc99d81d3617
-0.3356303005577062,0.0067015139966955,-0.9192682588777554,0.2584168621047728,-0.9580980248860652,-0.258340609199111,-1.442942901688099,-1.4658709663659073,-29.69109977155343,27.828085865538384,-11.22808450682767,-1.041484215127096,0.245173880398812,4.567526834064196,3860.423990885417,11.896666666666668,0.1366666666666666,179.3095958272731,12.750773304542149,62.76453211986339,1553.0,1435.0,1200.0,1712.0,1471.0,999.7000000000002,107.0,294.1,1649429589.860405,1649429590.9984624,58d3d6b9-96dc-4333-a53a-7d06a2724c04
-0.3351164055985384,0.0133109254232467,-0.9173934727083504,0.2572323837486527,-0.9573655323542144,-0.2670192977160276,-1.441842792942273,-1.4678640914871608,-29.544673127635843,27.70187617021211,-11.68379230127655,-1.059056736548189,0.2732282922825363,4.562708109042159,3867.97216796875,11.868,0.12,179.3191155931563,12.744515048851383,62.88204400671364,1553.0,1435.0,1200.0,1712.0,1471.0,999.7000000000002,107.0,294.1,1649429591.106675,1649429592.2249432,58d3d6b9-96dc-4333-a53a-7d06a2724c04
-0.3466149423841072,0.0041402575148307,-0.934539930240649,0.2620053601958791,-0.9703153623515726,-0.2617099631602277,-1.456749047670584,-1.4878265741178336,-29.644872681157,27.601876034615785,-11.703261233723577,-1.0594628518219789,0.2380381068968189,4.6238177941869525,3867.97216796875,11.878666666666668,0.1255555555555555,179.3093211018865,12.724562833057178,62.98662634546507,1553.0,1435.0,1200.0,1712.0,1471.0,999.7000000000002,107.0,294.1,1649429592.333212,1649429593.4511054,58d3d6b9-96dc-4333-a53a-7d06a2724c04
-0.359441497774077,-0.0025069564204402,-1.007646177912379,0.331496215560256,-1.0349560377519087,-0.3149200049855948,-1.5591424455993117,-1.5868336351112449,-30.54651357286035,28.49188047418024,-11.778240178643134,-1.3339933361063374,0.206977878189571,4.956002399229607,3878.47314453125,11.865777777777778,0.1244444444444444,179.35915416207092,12.72714473942718,63.21917683177612,1553.0,1435.0,1200.0,1801.0,1471.0,999.7000000000002,107.0,294.1,1649429594.365553,1649429595.499485,cbc40ca3-031a-43f6-bd7b-f73e9b195a67
-0.373282146693624,-0.0063513065516209,-1.0113639740847693,0.3241877324038213,-1.0377161700020328,-0.3058539775352633,-1.5586515601721598,-1.5763612330720431,-30.51890062641975,28.358750308435464,-11.992467311343338,-1.298222521269012,0.194924364331582,4.963373201087975,3875.553629557292,11.866666666666667,0.13,179.37422763065922,12.72996655619178,63.37624841538918,1553.0,1435.0,1200.0,1801.0,1471.0,999.7000000000002,107.0,294.1,1649429595.6074994,1649429596.9356368,cbc40ca3-031a-43f6-bd7b-f73e9b195a67
-0.3676462856929753,-0.0038744208450619,-1.0133790131231422,0.3251979905045991,-1.0415303902312198,-0.3072017190750722,-1.561666998249959,-1.5848087322283095,-30.386889378522447,28.45290066945188,-11.728171942474813,-1.3028975912857803,0.2006868749211806,4.976343372623586,3878.668267144097,11.86988888888889,0.1288888888888889,179.37187956340455,12.718729377187294,63.444803782998505,1553.0,1435.0,1200.0,1801.0,1471.0,999.7000000000002,107.0,294.1,1649429597.0440023,1649429598.1647255,cbc40ca3-031a-43f6-bd7b-f73e9b195a67
-0.2958417917056726,-0.053864669683581,-0.6815643734116982,0.1294500712776839,-0.693055790437743,-0.078573262590457,-1.0920230626689431,-1.1191148756120308,-28.66583058336461,23.011966044317987,-8.67414770854573,-0.3657728682700889,0.018987839916064,3.380714504061983,7301.04443359375,11.627666666666666,7.819999999999999,178.10097563980156,12.695045221921582,57.23667105600503,1553.0,1435.0,1350.0,1528.0,1471.0,999.7000000000002,107.0,294.1,1649429603.3308487,1649429604.308446,ce0fb9c2-dd5a-497b-9b89-a2980bdd6675
-0.2951158739606191,-0.0576860096955485,-0.6979591605294105,0.0994546084380169,-0.7093820948669523,-0.0747245294045763,-1.1060209556763183,-1.1363314627726864,-28.97373126047907,22.85660085235287,-12.696917745761274,-0.2921043634101708,0.0451395526883324,3.438678731908541,7309.350423177083,11.626666666666669,7.860000000000001,177.74438057015405,12.685952817180215,54.59194895402495,1553.0,1435.0,1350.0,1528.0,1471.0,999.7000000000002,107.0,294.1,1649429604.416687,1649429605.5352404,ce0fb9c2-dd5a-497b-9b89-a2980bdd6675
-0.2872945900147584,-0.0457135734421957,-0.6793493652082444,0.1162783650034997,-0.6878828722544154,-0.0976377774609907,-1.087116951902268,-1.101698866871655,-28.64828680381057,22.27037748662968,-11.934976792024228,-0.3842179878987687,0.080085443805807,3.360252557426512,7301.822448730469,11.631,7.83375,177.56703869263174,12.676916370186586,52.29945045832792,1553.0,1435.0,1350.0,1528.0,1471.0,999.7000000000002,107.0,294.1,1649429605.6495245,1649429606.7640688,ce0fb9c2-dd5a-497b-9b89-a2980bdd6675
-0.1016108751968715,0.2903983245687063,-0.6671966782332645,-0.1561094860504841,-0.7697428539220489,-0.1570545483194905,-1.1251687587950572,-1.150753950562348,-28.594853350882293,21.902161144195816,-9.31854657395805,0.0953129943054506,1.351442817301315,3.5515210133799315,7324.615071614583,11.613666666666669,7.893333333333334,177.52852989636372,12.78588996324986,47.95912530972384,1658.0,1435.0,1350.0,1528.0,1551.0,999.7000000000002,107.0,294.1,1649429608.7008867,1649429609.8455565,027bcf12-47a2-4dc8-ad53-5be7180fe14d
-0.0880375849092336,0.2960550029174369,-0.6491993939677512,-0.1547809195532445,-0.7549231712291715,-0.1603965086962259,-1.10976011928644,-1.1254289943323657,-28.546613392793308,22.08141942316,-8.70596642173092,0.087012643571973,1.3678684843274294,3.4863854331637576,7314.197374131944,11.591444444444445,7.867777777777778,177.68726804613425,12.850722877761529,46.63848698422445,1658.0,1435.0,1350.0,1528.0,1551.0,999.7000000000002,107.0,294.1,1649429609.959109,1649429611.2717936,027bcf12-47a2-4dc8-ad53-5be7180fe14d
-0.0931327049739512,0.2908229178643335,-0.6532535765838864,-0.156917583149783,-0.7565667589436518,-0.159245997797264,-1.110157319547408,-1.1307432631372534,-28.47747155867954,21.854214338768458,-9.565143304291556,0.0926075900609279,1.3553726806385644,3.492993875957209,7319.7490234375,11.590333333333332,7.836666666666667,177.81426858356147,12.900617789103425,45.59294401392118,1658.0,1435.0,1350.0,1528.0,1551.0,999.7000000000002,107.0,294.1,1649429611.3826623,1649429612.5003102,027bcf12-47a2-4dc8-ad53-5be7180fe14d
0.1217526057281234,0.6538364757746256,-0.5901672070024097,-0.4045924866387079,-0.7933831255810154,-0.2674762151315393,-1.1097875128479258,-1.144083721032571,-28.024002089961783,21.528360810933872,-6.564606284583047,0.4097814677066752,2.7215788988843794,3.503054798860903,7319.7490234375,11.577333333333334,7.876666666666667,178.03048808756705,13.054094321619596,43.75432842688509,1767.0,1435.0,1350.0,1528.0,1630.0,999.7000000000002,107.0,294.1,1649429614.2314088,1649429615.3684957,87820af5-8e6f-4a1b-bc54-c55e250e7178
0.1237336759362715,0.6511804393919521,-0.59905024907202,-0.4202542304080037,-0.8008170722886965,-0.2800759549486868,-1.112717482000633,-1.1394488013184665,-27.64508628612631,20.959425515626,-10.81400907387048,0.4120967269739803,2.7479531340033883,3.5235066932146304,7319.7490234375,11.552333333333332,7.889999999999999,178.1306459815561,13.107581533009968,43.18927029194451,1767.0,1435.0,1350.0,1528.0,1630.0,999.7000000000002,107.0,294.1,1649429615.4764671,1649429616.605828,87820af5-8e6f-4a1b-bc54-c55e250e7178
0.1073898468044775,0.6436462371774639,-0.6086093546556225,-0.4160729441186819,-0.8102578411373469,-0.2629432014238687,-1.122776242395692,-1.1494023723796245,-27.853692916108063,21.337719281147667,-8.960629105774508,0.4433865619570016,2.7036309149456974,3.565154915662647,7326.00537109375,11.554666666666668,7.893333333333334,178.2691485575456,13.171348179101209,42.65609092659011,1767.0,1435.0,1350.0,1528.0,1630.0,999.7000000000002,107.0,294.1,1649429616.7174969,1649429617.8266766,87820af5-8e6f-4a1b-bc54-c55e250e7178
0.3037393196555212,0.984881171875442,-0.5390658788296071,-0.6325925854165108,-0.8347144276307529,-0.3599017024294931,-1.1205146647729771,-1.1440508484120329,-28.012883480073373,21.61370487829481,-3.2863399738730164,0.7200398519435681,3.9653765877226017,3.547619740261628,7326.00537109375,11.531,7.863333333333334,178.22162865476008,13.267750607411626,42.03740783811092,1886.0,1435.0,1350.0,1528.0,1710.0,999.7000000000002,107.0,294.1,1649429618.7376564,1649429619.880206,26fce6f0-7659-4688-b90f-d8e8d002da8a
0.3267626852493541,0.9767684268753716,-0.5322154062647304,-0.6322375701344647,-0.8261414735217899,-0.353024933217027,-1.1091804801188565,-1.1250378194556947,-27.908820098310148,21.515896729367515,-3.32164776089135,0.7344315234203997,3.9349141731453217,3.509552242329619,7326.00537109375,11.490444444444446,7.846666666666668,178.335563799215,13.330052462517116,41.75439894985144,1886.0,1435.0,1350.0,1528.0,1710.0,999.7000000000002,107.0,294.1,1649429619.99282,1649429621.1101344,26fce6f0-7659-4688-b90f-d8e8d002da8a
0.3071842778515328,0.9838555736558138,-0.5262853424847296,-0.6178923379125333,-0.8208425464217879,-0.3596255797584325,-1.1095091978416267,-1.1295346772502572,-28.083567754900866,21.741090499003768,-1.3763390235165656,0.6892499042528635,3.9441044296468095,3.498231989704988,7326.00537109375,11.502,7.84,178.43982891362498,13.369222648769751,41.47451069913275,1886.0,1435.0,1350.0,1528.0,1710.0,999.7000000000002,107.0,294.1,1649429621.235894,1649429622.5332935,26fce6f0-7659-4688-b90f-d8e8d002da8a
-0.543324961412001,-0.4788278498323491,-0.7448561962329098,0.4235562573836993,-0.6493226628055649,0.0302869881074562,-1.093817313144214,-1.1125816121924057,-28.99763748769546,24.38885976853814,-14.154082607938548,-0.7796453209548231,-1.5641652680384066,3.352608808637162,7332.27197265625,11.53322222222222,7.881111111111112,179.32762449104231,13.306635822993892,41.17416679075977,1449.0,1435.0,1350.0,1528.0,1386.0,999.7000000000002,107.0,294.1,1649429623.1751845,1649429624.3804553,2d811e9e-66e2-42d5-b89f-5194c24c3999
-0.5444042504819269,-0.4760047144716377,-0.7323123344588393,0.4462843247985657,-0.634551740665161,0.0234091242048056,-1.0835010576006954,-1.1072870660689569,-28.95546071152089,24.35806677844274,-11.67671357712272,-0.8455331433886922,-1.577835789903964,3.3047805898585345,7328.79052734375,11.626333333333331,7.915555555555557,179.46496593487294,13.302043184823228,40.934643819671,1449.0,1435.0,1350.0,1528.0,1386.0,999.7000000000002,107.0,294.1,1649429624.4895363,1649429625.608241,2d811e9e-66e2-42d5-b89f-5194c24c3999
-0.5509786005642884,-0.4841963542832396,-0.7566505817905201,0.4307425671259398,-0.6552609447720243,0.0221337005662565,-1.104302310339363,-1.1327035149714733,-29.10484159780848,24.0305954947734,-15.200456068260465,-0.8173604214409448,-1.5759062434608635,3.3897120821194977,7332.27197265625,11.623,7.913333333333333,179.59094497956428,13.280872254580869,40.71008237795914,1449.0,1435.0,1350.0,1528.0,1386.0,999.7000000000002,107.0,294.1,1649429625.7213385,1649429626.8374605,2d811e9e-66e2-42d5-b89f-5194c24c3999
-0.7647299107792697,-0.847662612140606,-0.8039979628085144,0.7138137000396538,-0.6143690332224078,0.1168355412652894,-1.1050895890426728,-1.128702474532153,-29.10591036990174,25.87517516405435,-15.517003562364662,-1.23327250310541,-2.9741349830253525,3.3569747095608107,7328.79052734375,11.609777777777778,7.899999999999999,20.022858922973025,13.296214851595224,40.400125357784326,1342.0,1435.0,1350.0,1528.0,1293.0,999.7000000000002,107.0,294.1,1649429628.772958,1649429629.8210657,60ba3f90-18af-4ae0-be27-6efdf243419b
-0.7668254852002444,-0.8507032496920978,-0.7993411303251122,0.7285922853409054,-0.6081918829806288,0.1131922567913844,-1.1048293539783165,-1.13692041512399,-29.34142100922397,26.108609209533785,-14.50709797112882,-1.27297454105124,-2.9943434868360583,3.3427684544906584,7332.27197265625,11.59,7.893333333333333,-179.87478183853312,13.295367054364498,40.35624366909671,1342.0,1435.0,1350.0,1528.0,1293.0,999.7000000000002,107.0,294.1,1649429629.9301095,1649429630.9356987,60ba3f90-18af-4ae0-be27-6efdf243419b
-0.7644559795385032,-0.8402116805794463,-0.7875757814509297,0.728605981880006,-0.6006587736003769,0.1092750411197602,-1.096474447641566,-1.12473046872049,-29.252789628046283,26.28461821190118,-13.526515904769616,-1.2798543977378938,-2.963564750043082,3.307217385438825,7332.27197265625,11.584444444444443,7.884444444444445,-179.8358725275613,13.29774832392763,40.28076780203836,1342.0,1435.0,1350.0,1528.0,1293.0,999.7000000000002,107.0,294.1,1649429631.0441315,1649429632.3678586,60ba3f90-18af-4ae0-be27-6efdf243419b
-0.985422675738433,-1.2244141004461204,-0.8624686001573337,1.028779735135161,-0.5839626632815554,0.2018911674582463,-1.13116785584381,-1.1531645461685642,-29.630380101828408,28.717511780203782,-15.030037974011703,-1.7368829964101076,-4.430223605943568,3.3887201274962755,7338.5498046875,11.56177777777778,7.898888888888889,-179.53071788928293,13.28107820375709,40.26048024292864,1227.0,1435.0,1350.0,1528.0,1189.0,999.7000000000002,107.0,294.1,1649429634.3004506,1649429635.4402585,3d50859b-fefe-46c2-b377-8aeb1753c8ed
-1.0006379181681242,-1.2248233539483868,-0.8560810695327981,1.0380413475463264,-0.5769472836000403,0.2040064639103875,-1.1261160131412042,-1.1437089825015028,-29.713018650093023,28.830487115239904,-13.531726904280529,-1.7517573465006715,-4.445186604634682,3.365306036126964,7338.5498046875,11.522375,7.87875,-179.46614717814438,13.27918622949903,40.34564738950935,1227.0,1435.0,1350.0,1528.0,1189.0,999.7000000000002,107.0,294.1,1649429635.547961,1649429636.869033,3d50859b-fefe-46c2-b377-8aeb1753c8ed
-0.9842995572161962,-1.2151004328782993,-0.8406636677639806,1.0331352404886684,-0.5658421106656709,0.2065343006790647,-1.1121159286322404,-1.1286887773324,-29.653461066876627,28.973366309892327,-12.349792482329365,-1.733076750166472,-4.418032877042513,3.3120151174330608,7338.5498046875,11.513444444444442,7.862222222222223,-179.44758234452533,13.279403384454362,40.3831682748049,1227.0,1435.0,1350.0,1528.0,1189.0,999.7000000000002,107.0,294.1,1649429636.9769008,1649429638.1015282,3d50859b-fefe-46c2-b377-8aeb1753c8ed
-0.3041117749920003,-0.0566138430439945,-0.683425462491741,0.1152922126701033,-0.6942731409934868,-0.0518145689687604,-1.0847633335527536,-1.1014095947765292,-28.598276728641693,22.79048613823851,-7.084320259312077,-0.274979304788253,-0.004270565666472,3.3764968066506644,7338.5498046875,11.529,7.876666666666667,-179.7985766590534,13.41467803201488,40.55157949026,1553.0,1435.0,1350.0,1528.0,1471.0,999.7000000000002,107.0,294.1,1649429640.241542,1649429641.378622,741f0822-ae58-4097-b1f6-3d60c2ee3612
-0.2789846128351817,-0.0503813607935394,-0.6883825232042665,0.0781734437596614,-0.701951982958069,-0.0623729723080929,-1.0832380838693385,-1.10869397783226,-28.22741743258992,22.184470751316937,-12.580766369282724,-0.2199282602779403,0.0694406304603457,3.3847255441790667,7341.3447265625,11.62911111111111,7.930000000000001,-179.8110379597391,13.426219628756124,40.53061801915219,1553.0,1435.0,1350.0,1528.0,1471.0,999.7000000000002,107.0,294.1,1649429641.486249,1649429642.6084378,741f0822-ae58-4097-b1f6-3d60c2ee3612
-0.2908578871959244,-0.0635563549526729,-0.7140224908574844,0.0781208490773075,-0.7183878596517136,-0.0609660617487469,-1.1047625151549965,-1.1348073084707242,-28.612273534724583,21.71372660058465,-14.395565032005438,-0.2215284389012401,0.0372078784675544,3.468477917260872,7338.5498046875,11.630444444444445,7.930000000000001,-179.8164778259581,13.397912478923436,40.47035184501058,1553.0,1435.0,1350.0,1528.0,1471.0,999.7000000000002,107.0,294.1,1649429642.7199428,1649429643.8446076,741f0822-ae58-4097-b1f6-3d60c2ee3612
-0.2990758235652482,-0.0776517579127916,-0.7250016566247465,-0.1865887146274737,-0.7570055967564596,0.2138942829491569,-1.0404390480371817,-1.0618714389134098,-28.51458336740792,21.503667778701768,-11.73130622425099,0.9917740556331168,-0.0080713080505109,3.444345259047733,7344.83837890625,11.628444444444446,7.924444444444443,-179.89979702691338,13.454110137049442,40.51587733255844,1553.0,1522.0,1350.0,1528.0,1471.0,999.7000000000002,107.0,294.1,1649429645.779452,1649429646.8915622,39f0c74f-1b96-457a-bc4c-472297e3a5b1
-0.2923042440048214,-0.0720898591387549,-0.7331670003285241,-0.1924661820659451,-0.7633958658237556,0.207845883054559,-1.0473815642140984,-1.0711544234738808,-28.543426539786704,21.1365524467442,-12.63885317317161,0.9884412013850488,0.0212366813097304,3.473535903997961,7340.64599609375,11.635,7.936666666666667,-179.9573891819949,13.435293440204749,40.499554318806965,1553.0,1522.0,1350.0,1528.0,1471.0,999.7000000000002,107.0,294.1,1649429646.9994895,1649429647.943565,39f0c74f-1b96-457a-bc4c-472297e3a5b1
-0.2867746685932942,-0.0712866929194087,-0.7105873926449343,-0.1755586012359155,-0.7468285015409376,0.2147659319477795,-1.0303337207061145,-1.0629315525557168,-28.395791838237297,21.911951663095667,-9.189588603382091,0.9727407923273916,-0.0080037321308314,3.400814887701493,7344.1396484375,11.639,7.931111111111111,-179.9656263901339,13.415494619075652,40.48181328189282,1553.0,1522.0,1350.0,1528.0,1471.0,999.7000000000002,107.0,294.1,1649429648.0518608,1649429649.1605456,39f0c74f-1b96-457a-bc4c-472297e3a5b1
-0.288486738683524,-0.0847230175053261,-0.7461299763817771,-0.4373957511662329,-0.8082849871678537,0.4854646969607146,-0.9952705075913394,-1.0180205081105271,-28.635963905722274,21.802161577733017,-6.85554629292337,2.169431089599269,-0.047402112546747,3.482294205861089,7338.5498046875,11.631555555555556,7.924444444444443,-19.998182208411663,13.43833258979419,40.52760362899849,1553.0,1613.0,1350.0,1528.0,1471.0,999.7000000000002,107.0,294.1,1649429651.3008893,1649429652.4376056,ad53c9b0-3ef1-4425-9b8a-ed226d7a85c5
-0.2835970665848451,-0.0771488202514438,-0.7516633886636012,-0.4641862257880443,-0.8152976287884096,0.4954905769318455,-0.9950102730587442,-1.02842989790687,-28.60625448689845,21.427275664323545,-7.897600091829862,2.249481482175779,-0.0070275130094167,3.498404297683138,7344.1396484375,11.627999999999998,7.928888888888888,179.9487072526499,13.423970788971896,40.54686286518316,1553.0,1613.0,1350.0,1528.0,1471.0,999.7000000000002,107.0,294.1,1649429652.5462494,1649429653.6618528,ad53c9b0-3ef1-4425-9b8a-ed226d7a85c5
-0.2913219267197645,-0.0899003169253881,-0.756621545574585,-0.4365054747443369,-0.8150100013062481,0.4873685183920675,-1.0038034698933962,-1.0317170743151325,-28.77469771745959,21.61055034740842,-7.259463434907878,2.1697741391758925,-0.0630362731164468,3.5166974857580886,7341.3447265625,11.624444444444444,7.930000000000001,179.9340542201505,13.445718680471648,40.54104809746975,1553.0,1613.0,1350.0,1528.0,1471.0,999.7000000000002,107.0,294.1,1649429653.7718012,1649429654.8945055,ad53c9b0-3ef1-4425-9b8a-ed226d7a85c5
-0.2887672441998622,-0.0996758252340502,-0.7722712395857598,-0.7067512588076882,-0.8609066435180109,0.7871379455237242,-0.9453739145643756,-0.9621516608125568,-29.038930614787105,21.79411718068127,-1.2226949893762131,3.454271270187679,-0.1190498772986031,3.522053218426948,7338.5498046875,11.618666666666668,7.930000000000001,179.95813139588472,13.507864769318564,40.60366689232547,1553.0,1710.0,1350.0,1528.0,1471.0,999.7000000000002,107.0,294.1,1649429655.8112414,1649429656.9455898,d035b4c2-f88d-48f3-9254-781b805ac8c1
-0.2955256750646322,-0.1002675166243948,-0.7856697677282686,-0.7393074442209866,-0.8783549731881415,0.7843767195736399,-0.9526714460386418,-0.9703827502755726,-28.56817690670016,21.51893510489409,-6.035382482248391,3.518483627507848,-0.0787919298429837,3.56776950029683,7338.5498046875,11.609777777777778,7.92,179.94407334875302,13.531267938190922,40.60163225486272,1553.0,1710.0,1350.0,1528.0,1471.0,999.7000000000002,107.0,294.1,1649429657.053944,1649429658.1725836,d035b4c2-f88d-48f3-9254-781b805ac8c1
-0.2880440658314949,-0.0988474573497599,-0.7727577419965853,-0.721543548311285,-0.8654297977536736,0.7918451783347797,-0.943138635531254,-0.9783377167575534,-28.749935693615235,21.84368668563216,-2.3692376974199045,3.4984839166331216,-0.106035403544139,3.524229705161239,7338.5498046875,11.604333333333331,7.930000000000001,179.9124055561212,13.541148281144038,40.60110784811644,1553.0,1710.0,1350.0,1528.0,1471.0,999.7000000000002,107.0,294.1,1649429658.2811024,1649429659.6033993,d035b4c2-f88d-48f3-9254-781b805ac8c1
-0.306123525810769,-0.1098660654498288,-0.8135581654005181,-0.9694886384296652,-0.932409292991346,1.0492045899997011,-0.919773388737985,-0.9358674021192148,-29.044123565857053,21.95169707294646,0.156080579677407,4.635047143120735,-0.1397188758106434,3.637610952628953,7342.04345703125,11.597777777777775,7.915555555555557,179.8222045601222,13.580167728916242,40.64852833370404,1553.0,1814.0,1350.0,1528.0,1471.0,999.7000000000002,107.0,294.1,1649429661.7457082,1649429663.0204237,483d157e-3b98-405f-b6cc-f09a2baed74d
-0.301797604048508,-0.1093006714555449,-0.8178314936012322,-1.0109596524731224,-0.9428625125803726,1.0564232237373024,-0.913041252536808,-0.9395884850163172,-28.30512831165016,21.589754342561875,-4.155255965964974,4.74188941831167,-0.0997885393480484,3.6423778809205705,7338.5498046875,11.579444444444444,7.864444444444445,179.79063087231896,13.565419263495937,40.68697167399249,1553.0,1814.0,1350.0,1528.0,1471.0,999.7000000000002,107.0,294.1,1649429663.1291869,1649429664.318867,483d157e-3b98-405f-b6cc-f09a2baed74d
-0.2890008864987065,-0.1072327859937416,-0.7908260819710313,-0.9536297841726856,-0.9086460456831084,1.0208114992153556,-0.9002258181667542,-0.9169019145515602,-28.789223523875823,21.76105667633274,-1.27285583891569,4.535239044486487,-0.1194966739023551,3.545125433561147,7340.64599609375,11.580666666666666,7.903333333333332,179.81417377547805,13.562128060953375,40.69732699968414,1553.0,1814.0,1350.0,1528.0,1471.0,999.7000000000002,107.0,294.1,1649429664.42707,1649429665.540836,483d157e-3b98-405f-b6cc-f09a2baed74d
-0.3044404923968611,-0.0477384727340172,-0.6919984156542272,0.34150237253567,-0.6762594202037816,-0.3338146847096909,-1.1657593626824114,-1.1920567766060153,-28.802044329946924,22.739050532344603,-16.66199256289693,-1.4213430734308474,0.0869506898471538,3.468395934733762,7338.5498046875,11.603333333333332,7.899999999999999,179.7153682589447,13.158137739472757,40.768415608565626,1553.0,1349.0,1350.0,1528.0,1471.0,999.7000000000002,107.0,294.1,1649429667.8888118,1649429669.0254958,672b36e5-a983-4b5f-a46c-d894e41e2306
-0.2980896711996267,-0.04015167472997,-0.6645307791830186,0.3549929337916109,-0.6552740936753664,-0.3261752910051802,-1.1464439135241231,-1.163510935340487,-28.95669568739438,23.54755636263915,-12.5844931009488,-1.427308219549091,0.080455641102809,3.381217931414233,7338.5498046875,11.614333333333336,7.937777777777778,179.74647749388436,13.061242114586015,40.808715242488525,1553.0,1349.0,1350.0,1528.0,1471.0,999.7000000000002,107.0,294.1,1649429669.1344078,1649429670.2556489,672b36e5-a983-4b5f-a46c-d894e41e2306
-0.2978003998241599,-0.0388236564063678,-0.6542353458327629,0.3800937932161479,-0.6460305564689874,-0.3294756141799466,-1.143485454026942,-1.170400856176579,-29.064051241445576,24.049974242440044,-9.539139880688072,-1.4870712359705205,0.0567762079084354,3.3547765759778447,7338.5498046875,11.618555555555556,7.91,179.7134876801932,13.039214469921513,40.84590903761383,1553.0,1349.0,1350.0,1528.0,1471.0,999.7000000000002,107.0,294.1,1649429670.3644311,1649429671.484616,672b36e5-a983-4b5f-a46c-d894e41e2306
-0.2980743310594667,-0.0122682200289283,-0.6296954874566384,0.5660004539971116,-0.6087123525021502,-0.5584733597645908,-1.1814342648711216,-1.2154565446470107,-28.867279018437955,24.34629570686064,-14.111489974622684,-2.4184631629277806,0.1741787904986349,3.322938678185539,7344.83837890625,11.617111111111113,7.898888888888887,179.67409873815964,12.932505665608494,40.87974845094675,1553.0,1264.0,1350.0,1528.0,1471.0,999.7000000000002,107.0,294.1,1649429672.1901338,1649429673.3275318,ee5816bd-9980-40a2-b447-8bbcdb832b3f
-0.2908052924317777,-0.015248043399731,-0.6285033383911754,0.5427037056824661,-0.6111733508235495,-0.5304666290140142,-1.1733987613593575,-1.2077300355214855,-28.795023882680667,24.46145187291377,-13.561402857243904,-2.3020297392844697,0.1605616860365771,3.313439061514311,7344.83837890625,11.585555555555556,7.91,179.65581659848124,12.953249993618943,40.93653995607559,1553.0,1264.0,1350.0,1528.0,1471.0,999.7000000000002,107.0,294.1,1649429673.4361508,1649429674.5533893,ee5816bd-9980-40a2-b447-8bbcdb832b3f
-0.2995672561727664,-0.0307859676910034,-0.639721372124342,0.5710955732019847,-0.6120269211682744,-0.5505567473340562,-1.186447209825703,-1.213443150638258,-29.02332776936835,24.169219881632547,-14.952870900851256,-2.4140525694806256,0.112021681742256,3.3448378684976974,7338.5498046875,11.578333333333337,7.91,179.65717049375672,12.994430152762336,40.95545995953147,1553.0,1264.0,1350.0,1528.0,1471.0,999.7000000000002,107.0,294.1,1649429674.6623237,1649429675.7872436,ee5816bd-9980-40a2-b447-8bbcdb832b3f
-0.2888592851097433,-0.0025201051344265,-0.6072287408316881,0.6081184632894652,-0.5877555154627953,-0.6330527892771655,-1.173793222542844,-1.1987889147355226,-28.16984911615464,24.360450007386195,-17.728076928273108,-2.6800739209112394,0.2340965132294007,3.249820704466681,7332.27197265625,11.581,7.913333333333333,179.61875750986457,12.886227339432118,41.054395629114055,1553.0,1178.0,1350.0,1528.0,1471.0,999.7000000000002,107.0,294.1,1649429677.720349,1649429678.85754,d778562d-1f1a-412a-97bb-a512bda1fe39
-0.2889250286547303,0.0024238047217595,-0.5928835086295645,0.6394649521652067,-0.5726608075390905,-0.6428222737847321,-1.171465901427814,-1.1888090456703049,-28.679187042501606,24.89941610660414,-14.266508237072108,-2.768154681505459,0.2226234817393777,3.2115713326713777,7332.27197265625,11.573,7.91,179.61374415101378,12.90828742749518,41.11539946368603,1553.0,1178.0,1350.0,1528.0,1471.0,999.7000000000002,107.0,294.1,1649429678.9665034,1649429680.1769817,d778562d-1f1a-412a-97bb-a512bda1fe39
-0.2721604386286976,0.0104182121587758,-0.587071783412273,0.5678703079462363,-0.5757244548169363,-0.592160330765687,-1.148876424647587,-1.1740956434332457,-28.505528497678107,24.614931824253,-15.21063846298068,-2.4944701345704567,0.268924500902897,3.174905672463288,7338.5498046875,11.566555555555556,7.894444444444444,179.5806921067102,12.88929048954739,41.17657557080707,1553.0,1178.0,1350.0,1528.0,1471.0,999.7000000000002,107.0,294.1,1649429680.2899742,1649429681.52026,d778562d-1f1a-412a-97bb-a512bda1fe39
-0.2775716335258658,0.0134697212035676,-0.5617099632529496,0.7448026877363776,-0.5429351366720607,-0.7374221236501401,-1.179623157279387,-1.1975129850228643,-28.766720786763617,26.24733172574433,-12.315144229061774,-3.207594572507669,0.2364068031817024,3.144603085733218,7335.062120225694,11.572555555555557,7.888888888888889,179.51733527196913,12.864478024976288,41.27750527617234,1553.0,1088.0,1350.0,1528.0,1471.0,999.7000000000002,107.0,294.1,1649429683.1783447,1649429684.3877342,7acadf50-61ef-4e4a-bc8b-f5cc3044c396
-0.295044230472524,0.0088423914790785,-0.5563619824346924,0.7691909885768401,-0.5301910121898818,-0.7947454068862435,-1.1772968478048276,-1.2086893847699778,-28.36329449177672,25.52780286321492,-17.8766902050151,-3.39660869348762,0.2628121017370302,3.109030366903155,7339.947265625,11.551888888888888,7.864444444444445,179.5223273813425,12.8095660550978,41.32199333387627,1553.0,1088.0,1350.0,1528.0,1471.0,999.7000000000002,107.0,294.1,1649429684.4964988,1649429685.6141613,7acadf50-61ef-4e4a-bc8b-f5cc3044c396
