raw_voltage_G-,raw_voltage_G0,raw_voltage_G1,raw_voltage_G2,raw_voltage_G3,raw_voltage_G4,raw_voltage_G5,raw_voltage_G6,load_x,load_y,load_z,load_l,load_m,load_n,rpm,voltage,current,roll,pitch,yaw,aileron1_pwm,elevator_pwm,throttle_pwm,rudder_pwm,aileron2_pwm,pbaro,pdiff,Tt,sample_start_time,sample_end_time,uid
0.083802603234434,0.2115598838739813,0.1161686238132614,-0.361976164774949,-0.075448340310938,0.4220907252485584,-0.0478866491476433,-0.05830446269035,-11.017418294614144,18.688361962010653,42.15866677418973,1.895870039957091,0.5500539974595564,0.0791043436442176,4515.242404513889,11.943,0.14,179.7584014863554,-11.096489914188965,110.92139406224376,1553.0,1435.0,1200.0,1528.0,1471.0,998.74,108.0,293.1,1649411575.9842708,1649411576.9586632,3ac938a6-f3ac-41bd-accc-97af6cad8ac7
0.0941445583926497,0.2105484456700901,0.1159536929631594,-0.3541375183525333,-0.0746897622274487,0.4151497310953634,-0.0523116919856375,-0.0801515284571972,-11.230348241175868,18.83242589846676,42.03879370767304,1.86340865661574,0.5478536996346745,0.0842336673450425,4528.756673177083,11.941666666666668,0.14,179.80790366182,-11.154494916260344,110.41766457531573,1553.0,1435.0,1200.0,1528.0,1471.0,998.74,108.0,293.1,1649411577.069415,1649411578.0187843,3ac938a6-f3ac-41bd-accc-97af6cad8ac7
0.1148977522581947,0.2204686308158371,0.1185004946673697,-0.3578242098964789,-0.0742593945827156,0.4119662300548593,-0.0493689116409056,-0.0814648807100248,-11.030309785543514,18.688637495642173,42.50692589495371,1.8639201178567093,0.5801084843040408,0.0780132102798003,4530.35205078125,11.942222222222222,0.14,179.82441298795382,-11.111910204605133,109.99486827659284,1553.0,1435.0,1200.0,1528.0,1471.0,998.74,108.0,293.1,1649411578.1324708,1649411579.0766797,3ac938a6-f3ac-41bd-accc-97af6cad8ac7
0.2411252316982755,0.4801948094841052,0.1730675825278395,-0.4829866779180317,-0.0945741315245033,0.2614268162509104,-0.0654366188634818,-0.0761922530351701,-10.57760660223564,19.398638665107686,41.037591896496814,1.8153912366912537,1.5829395971582312,0.0824609412789459,4487.396375868056,11.939444444444446,0.14,179.54454522780264,-11.066368874812946,108.983390874775,1658.0,1435.0,1200.0,1528.0,1551.0,998.74,108.0,293.1,1649411580.945254,1649411581.967075,442a2cb5-3f02-4a3b-9d95-483e1337feb3
0.2972792644071184,0.5406186261347327,0.1801168001880222,-0.4611477017856449,-0.0929209366426693,0.1933413522260807,-0.0770919277632816,-0.0977758389806579,-10.320746604446526,18.86404536032624,42.62033510932815,1.610319444104486,1.7914688129435197,0.0973291762694407,4475.162923177083,11.927333333333332,0.14,179.4713711344946,-11.08034182917124,108.7218219503202,1658.0,1435.0,1200.0,1528.0,1551.0,998.74,108.0,293.1,1649411582.0748527,1649411583.311802,442a2cb5-3f02-4a3b-9d95-483e1337feb3
0.2614136689305086,0.4721872542210162,0.1512933417711285,-0.519132454661482,-0.103055041568488,0.2942854058744768,-0.061413118831713,-0.0841603635382001,-10.609951649544255,17.655583529814724,39.81521929388512,1.9579146216524737,1.567009571149208,0.1156471967596445,4480.100043402777,11.926111111111112,0.14,179.40143455085308,-11.039000781127395,108.41618540425036,1658.0,1435.0,1200.0,1528.0,1551.0,998.74,108.0,293.1,1649411583.4204874,1649411584.5414608,442a2cb5-3f02-4a3b-9d95-483e1337feb3
0.4038721971930318,0.7698989949527153,0.221914480965948,-0.6135335601995346,-0.114350784634233,0.0885563568398596,-0.0823134773782645,-0.1051340519742004,-10.013967166860324,18.652390233919142,39.85613428317287,1.7189906835922355,2.695145451426554,0.0997864968963637,4478.800238715277,11.92288888888889,0.1388888888888889,179.0812959953555,-10.970021846925794,108.02626660055232,1767.0,1435.0,1200.0,1528.0,1630.0,998.74,108.0,293.1,1649411585.4512413,1649411586.594836,0f27c950-c8dd-4ba9-b127-50d4b347878e
0.3918487268513731,0.7453645415238921,0.205820982737973,-0.646609105889489,-0.1291815037829778,0.1365010574090739,-0.0826351156415906,-0.1011484800427491,-10.000597153233306,18.60878603640153,38.86255554274558,1.9000970966406825,2.61488909403646,0.1377488363460076,4487.6572265625,11.89011111111111,0.13,179.03296254114892,-10.95966746987153,107.8232210136359,1767.0,1435.0,1200.0,1528.0,1630.0,998.74,108.0,293.1,1649411586.7082984,1649411587.821489,0f27c950-c8dd-4ba9-b127-50d4b347878e
0.3928728079373328,0.7306931264865887,0.2179698721396007,-0.6391735115400456,-0.1205205573056532,0.1434900960760275,-0.0759161311467437,-0.0934898700325231,-10.1845909350169,19.48471483664011,38.84896896656936,1.9053463084626705,2.5611545969082266,0.0976082601656498,4497.600314670139,11.890888888888888,0.13,179.0148579863889,-10.994430571425957,107.62589533069442,1767.0,1435.0,1200.0,1528.0,1630.0,998.74,108.0,293.1,1649411587.9303696,1649411589.0430071,0f27c950-c8dd-4ba9-b127-50d4b347878e
0.5312122520286553,0.9863088170077116,0.2739909012955029,-0.716712921547077,-0.1355404149838577,-0.0491130196872625,-0.1019859510817911,-0.1217595680472511,-9.563676830253284,20.39413091869678,37.0254870013001,1.656291283370037,3.544749265306752,0.1065596592941062,4506.007215711806,11.881555555555556,0.1277777777777778,178.6986202278173,-10.951066838750409,107.30592145864682,1886.0,1435.0,1200.0,1528.0,1710.0,998.74,108.0,293.1,1649411589.9565442,1649411590.9777863,70754544-b9e6-41ba-a7b7-09a4308915f0
0.6095122250340297,1.0751469662716702,0.2761007611678158,-0.6685542888990353,-0.1329683279756207,-0.1702317379414543,-0.1267226958585572,-0.1499958895041098,-9.245105649499674,18.93476418959052,38.41386891969658,1.266299690388507,3.857566021269109,0.1493518769549122,4497.864854600694,11.823333333333332,0.1055555555555555,178.64910287415455,-10.9149774472684,107.11496606547124,1886.0,1435.0,1200.0,1528.0,1710.0,998.74,108.0,293.1,1649411591.0861232,1649411592.2097206,70754544-b9e6-41ba-a7b7-09a4308915f0
0.5335891315276984,0.9909487892881004,0.2922220729844334,-0.7132613964446197,-0.1177011741782944,-0.0556620868166537,-0.0832743437191567,-0.106474207676898,-9.4132405929786,20.247354157214435,37.33561797784885,1.6338488122719188,3.559066861927273,0.0319640890240225,4494.71728515625,11.828333333333331,0.11,178.57203253737993,-10.88580779632552,106.9566582176184,1886.0,1435.0,1200.0,1528.0,1710.0,998.74,108.0,293.1,1649411592.3208811,1649411593.3467655,70754544-b9e6-41ba-a7b7-09a4308915f0
-0.1009381002946133,-0.1434609867111176,0.0553473070485185,-0.1957928071375403,-0.0477253244424261,0.6236339232421909,-0.0283967414732719,-0.0610186576448547,-11.866346236228065,19.27724554524609,42.95081743269609,1.974469806254276,-0.8068089145272519,0.0552827112452143,4489.754557291667,11.833888888888888,0.1133333333333333,179.40320736439764,-10.90497615304873,106.5026988013524,1449.0,1435.0,1200.0,1528.0,1386.0,998.74,108.0,293.1,1649411595.487664,1649411596.5179584,61971789-76ee-4f22-9f7c-7479e11dac12
-0.0923388524777822,-0.1360714189312295,0.0572144215109832,-0.1988958984477949,-0.0468969570277938,0.6202941548017169,-0.0248334454370823,-0.0413350585415642,-11.632195597090888,19.0527635691645,43.12138216312247,1.9727146205356163,-0.7817658991059346,0.0478993635514094,4537.557291666667,11.938666666666665,0.14,179.33212634461526,-10.909417483556531,106.43435516960736,1449.0,1435.0,1200.0,1528.0,1386.0,998.74,108.0,293.1,1649411596.6508958,1649411597.740111,61971789-76ee-4f22-9f7c-7479e11dac12
-0.0911291724496098,-0.1259206248299808,0.0613957070602926,-0.1870226265242678,-0.0435440392011953,0.5993088373812888,-0.0274763333057225,-0.0519460570840345,-11.635462996241426,19.08119089310797,43.111928993545305,1.8991681144498456,-0.744783641135927,0.0427009931475636,4560.079210069444,11.935555555555556,0.1488888888888889,179.30542941187937,-10.849230805227764,106.37059383588549,1449.0,1435.0,1200.0,1528.0,1386.0,998.74,108.0,293.1,1649411597.8484066,1649411598.9732463,61971789-76ee-4f22-9f7c-7479e11dac12
-0.2786821929016667,-0.4324167764787625,0.0103787651262129,-0.0607556851555172,-0.0248597413828512,0.7778023723469797,-0.0109089751009152,-0.0369433934490453,-12.273562753365532,20.029444088302377,42.183227353872965,2.018716174524805,-1.9003474689203583,0.0250814070449561,4571.157552083333,11.912777777777777,0.1344444444444444,179.32864143031873,-10.86438576176742,106.19704555926462,1342.0,1435.0,1200.0,1528.0,1293.0,998.74,108.0,293.1,1649411601.2192676,1649411602.2048042,5254f46e-3c7f-4216-aa6c-e1de22ec80ca
-0.2598006627156136,-0.4317067468200929,0.013297774971542,-0.0467128752711614,-0.023886738628623,0.7653374092151397,-0.0143933801252602,-0.0398887017093082,-12.215766548862854,20.38317045000939,42.341566967111845,1.961573174805732,-1.901034775172664,0.0250658695134421,4552.27734375,11.89722222222222,0.13,179.33364871789024,-10.82686212542345,106.0303684529488,1342.0,1435.0,1200.0,1528.0,1293.0,998.74,108.0,293.1,1649411602.3137553,1649411603.4825714,5254f46e-3c7f-4216-aa6c-e1de22ec80ca
-0.258152018137699,-0.4289333827631958,0.0200314259615438,-0.0505543185178606,-0.0159631305301249,0.7627557136310293,-0.0061774664416991,-0.0365458981875091,-12.262903450838133,20.140982430165085,41.91897600299876,1.9630758211800243,-1.885658203208372,-0.0068304867803822,4537.546875,11.90277777777778,0.13,179.32088385324144,-10.865618895503824,105.92445498621912,1342.0,1435.0,1200.0,1528.0,1293.0,998.74,108.0,293.1,1649411603.6155674,1649411604.819168,5254f46e-3c7f-4216-aa6c-e1de22ec80ca
-0.4531917211671326,-0.7619889544035123,-0.0237683995479689,0.1164624461763128,0.0100368992272957,0.927684347751302,0.0065656434334206,-0.0111719478136568,-12.942273334958552,22.19804506474715,40.69691801301202,1.967862379106189,-3.14248473828807,-0.0425612583321942,4532.748046875,11.905,0.13,179.39739107886444,-10.864020346646829,105.66584732822449,1227.0,1435.0,1200.0,1528.0,1189.0,998.74,108.0,293.1,1649411606.4186249,1649411607.3667405,52d52f60-0834-41c4-9761-62b3ab06cde9
-0.4677094023560174,-0.7732396917973023,-0.0286061079443101,0.1217821050907141,0.0077930241213935,0.9358759849096998,0.0012566047645296,-0.0192376614658012,-13.236077616208688,22.409941209716635,40.95047763505322,1.9753265592230016,-3.185807717132089,-0.026601254540187,4527.161946614583,11.804,0.0966666666666666,179.43924192463885,-10.82573571339283,105.35008312943532,1227.0,1435.0,1200.0,1528.0,1189.0,998.74,108.0,293.1,1649411607.4745362,1649411608.5945103,52d52f60-0834-41c4-9761-62b3ab06cde9
-0.4508942387803969,-0.7588393345040484,-0.033650656030282,0.1171421326900779,0.001951968569551,0.9228410764094108,-0.0023845728811862,-0.0250534311862458,-12.887863863835106,21.93366499250532,40.46661638037737,1.9531916945583028,-3.1297303380497867,-0.0051266860431764,4530.35205078125,11.798,0.1,179.4696954614182,-10.819186984934865,105.03053728257574,1227.0,1435.0,1200.0,1528.0,1189.0,998.74,108.0,293.1,1649411608.7029314,1649411609.9466493,52d52f60-0834-41c4-9761-62b3ab06cde9
0.1578019470823843,0.3059270603011966,0.1059025270459019,-0.297193536859329,-0.0784952973830119,0.2743449052636867,-0.0868523056924504,-0.1101406708985215,-10.70652989163512,16.611554631195233,42.61369721362909,1.403682156355219,0.8890928036437338,0.1664250322051307,4506.536987304688,11.84775,0.11,178.9874328795965,-10.835439206621496,104.5997879874743,1553.0,1435.0,1200.0,1528.0,1471.0,998.74,108.0,293.1,1649411611.9628696,1649411613.097788,ace502bd-a994-4941-ab11-caa42dc4a2df
0.0722433820966646,0.2036383001669977,0.1051019734799177,-0.3381143122184466,-0.0828323448363889,0.4073115914072919,-0.0669487192173441,-0.0875001322416197,-11.342545574654851,18.992087834467416,41.96013089937074,1.810099941336412,0.5207697112717637,0.1300056826020415,4514.70947265625,11.947555555555557,0.14,178.96240061574338,-10.8028499313501,104.89035372114049,1553.0,1435.0,1200.0,1528.0,1471.0,998.74,108.0,293.1,1649411613.2095902,1649411614.313996,ace502bd-a994-4941-ab11-caa42dc4a2df
0.095503425576087,0.1975373054992083,0.101919988880189,-0.3491460689075025,-0.0832662520255619,0.4215384799795854,-0.0595065571102461,-0.0817935978496366,-11.061290785664395,18.504112680735265,41.70960303479073,1.863662952924843,0.4992652905576269,0.1235466884076379,4487.6572265625,11.945222222222222,0.1422222222222222,178.8956119903994,-10.80656413130251,105.1604209187426,1553.0,1435.0,1200.0,1528.0,1471.0,998.74,108.0,293.1,1649411614.4215004,1649411615.5636053,ace502bd-a994-4941-ab11-caa42dc4a2df
0.090174663633071,0.1912805492822349,0.090983813426713,-0.6035455917045269,-0.1145657142750133,0.6680851096243194,0.0033174097263314,-0.0273670964159936,-11.150183687924624,17.54366368448234,42.795693474762224,2.984766046085999,0.497414263228619,0.0905131448016795,4478.281901041667,11.939333333333334,0.14,178.79908016794968,-10.689368994475014,105.49446877502994,1553.0,1522.0,1200.0,1528.0,1471.0,998.74,108.0,293.1,1649411616.4682434,1649411617.6060438,98ca5f1e-24bd-4362-bf31-24b041638ded
0.0970681204473014,0.2086348047921075,0.1057725569064043,-0.5824434436418976,-0.1109311104775894,0.6405168477188277,0.0008591095542728,-0.0129733191823923,-10.88786395647502,18.5293951294096,44.08972111484639,2.8828244387328583,0.5475338225319903,0.0727929816458515,4481.661783854167,11.927666666666669,0.1355555555555555,178.8000940715865,-10.656632372101836,105.5487505650938,1553.0,1522.0,1200.0,1528.0,1471.0,998.74,108.0,293.1,1649411617.7151191,1649411618.7479918,98ca5f1e-24bd-4362-bf31-24b041638ded
0.0869380615446031,0.1899783227346275,0.0935503381472463,-0.5995756993503691,-0.116424231455512,0.667389745904094,0.0005359545117035,-0.019591665252287,-11.135420016936276,18.107611744018183,43.027299516095205,2.9781589930556653,0.4900563992443202,0.0934890248353103,4485.3095703125,11.932444444444444,0.14,178.7429405664316,-10.572938174788394,105.64897524315472,1553.0,1522.0,1200.0,1528.0,1471.0,998.74,108.0,293.1,1649411618.8564775,1649411620.063216,98ca5f1e-24bd-4362-bf31-24b041638ded
0.1357905243589058,0.224910867001784,0.0821463726794174,-0.8871276904619129,-0.1640250442498501,0.92246178756963,0.0606912406001947,0.0259736254868623,-10.695258887738351,17.31424271015205,46.70430926741663,4.194967291759213,0.6200374813680072,0.0957446884312343,4490.890869140625,11.928,0.13625,178.68271252751288,-10.50014724797798,105.8279908964787,1553.0,1613.0,1200.0,1528.0,1471.0,998.74,108.0,293.1,1649411620.9748352,1649411622.1082623,66499f1c-f5f3-42e2-ad34-9d953f077faf
0.1121860865233188,0.2110541646627007,0.076975395377732,-0.913602099223431,-0.1708269661123713,0.9561806050820174,0.0630301914518239,0.0505515731928825,-10.863687380579645,17.537086345935844,46.08966452623398,4.331494773517861,0.5776416323636027,0.1057426555518706,4493.67041015625,11.919,0.13,178.7226457976778,-10.514347483995683,105.84729661589522,1553.0,1613.0,1200.0,1528.0,1471.0,998.74,108.0,293.1,1649411622.2207596,1649411623.250553,66499f1c-f5f3-42e2-ad34-9d953f077faf
0.0950801386902839,0.2046947474876302,0.0688206746437758,-0.8914010211292662,-0.170359176611459,0.9406171016424582,0.0564937720897187,0.0355190732854205,-10.829254579308754,17.01066182545354,45.84734896318634,4.242524234025487,0.552434559752652,0.1248513001164974,4494.71728515625,11.918666666666669,0.13,178.7287656471741,-10.466618691258068,105.86662605124634,1553.0,1613.0,1200.0,1528.0,1471.0,998.74,108.0,293.1,1649411623.3594787,1649411624.6816337,66499f1c-f5f3-42e2-ad34-9d953f077faf
0.1555403713282113,0.2286602682558694,0.0658925607155323,-1.157843852623947,-0.2110058470101053,1.1789033269934874,0.1131358259937266,0.087416977030064,-10.69127374328986,17.047573680723737,48.38523068926507,5.3795878495598375,0.6514698720820392,0.1077830976200175,4488.1796875,11.912666666666668,0.1277777777777777,178.75207784172127,-10.363123680677017,105.92911165741327,1553.0,1710.0,1200.0,1528.0,1471.0,998.74,108.0,293.1,1649411626.4880028,1649411627.4605434,b43faa82-e775-4f8b-81cc-ff387a7ec1fd
0.1238302682496694,0.2161998561969775,0.066304721856431,-1.1446653041079655,-0.2151279636824168,1.1769143328079985,0.1038543640923792,0.0938031976266996,-10.8435624128831,18.08438178254755,48.04639575139743,5.35215371592188,0.6072378492754928,0.1236484910431227,4491.577311197917,11.888333333333332,0.12,178.7750515624496,-10.453534515265522,105.88674475290158,1553.0,1710.0,1200.0,1528.0,1471.0,998.74,108.0,293.1,1649411627.5812893,1649411628.5299213,b43faa82-e775-4f8b-81cc-ff387a7ec1fd
0.1522263942490891,0.2433443268547128,0.0777845458743929,-1.1557279160176066,-0.2026746284566405,1.1645874300503416,0.1199235880097742,0.0879874281492714,-10.613125791919694,17.08606444913446,48.7432634127047,5.343588794658424,0.7033116968165077,0.0729004174825934,4490.597595214844,11.891,0.12375,178.78481190277353,-10.44135906273974,105.83559460457222,1553.0,1710.0,1200.0,1528.0,1471.0,998.74,108.0,293.1,1649411628.6389,1649411629.707938,b43faa82-e775-4f8b-81cc-ff387a7ec1fd
0.1229973489887615,0.2126714543508431,0.0536905712445356,-1.3062138612628942,-0.2449031888278124,1.33702954663074,0.134594498515256,0.1128860016769158,-10.837246876830331,17.92492358732109,49.24004371419724,6.074876230975949,0.6024679364835279,0.1375404849696536,4501.79931640625,11.893999999999998,0.12,178.76237473135004,-10.305189636682016,105.7574743159402,1553.0,1814.0,1200.0,1528.0,1471.0,998.74,108.0,293.1,1649411631.4198406,1649411632.4652798,c7029345-b4d7-4b6a-8557-e6abf52147f1
0.1444691694148751,0.2036777465129919,0.0429480857938937,-1.315233873400391,-0.2535813300819182,1.3545436097074763,0.1292166814027689,0.1059303412426631,-10.94107123025604,17.854917737620212,49.23564505913976,6.133527661694116,0.5699382453921005,0.1704430759825886,4516.0302734375,11.85877777777778,0.11,178.8516392325228,-10.326963520846109,105.62722336737797,1553.0,1814.0,1200.0,1528.0,1471.0,998.74,108.0,293.1,1649411632.573972,1649411633.6925275,c7029345-b4d7-4b6a-8557-e6abf52147f1
0.1459812694086195,0.2432816175563127,0.048378498089916,-1.2879766000576154,-0.2503993442265691,1.29524298851261,0.1201966763642578,0.1014860821811071,-10.615791912147383,17.437173822130486,49.87920343775617,5.93655296497067,0.707451972790968,0.177887086403687,4518.146592881944,11.857555555555557,0.11,178.88106216964744,-10.327138259852374,105.5456618017691,1553.0,1814.0,1200.0,1528.0,1471.0,998.74,108.0,293.1,1649411633.8008473,1649411634.9245777,c7029345-b4d7-4b6a-8557-e6abf52147f1
0.0813119367370024,0.2324334380950399,0.1426935893653426,-0.0132954640052343,-0.0211341086015581,0.0729296413998273,-0.1238835884099804,-0.1533290841201373,-10.901846343497642,19.728669428144865,40.8712686409738,0.3327902774675477,0.597703831015634,0.0805944636913697,4523.1796875,11.866444444444443,0.1133333333333333,178.86489738861172,-10.74194854961568,105.3601189540558,1553.0,1349.0,1200.0,1528.0,1471.0,998.74,108.0,293.1,1649411636.9488332,1649411638.0009563,29d15345-1dc1-45af-a292-541d3fa82b50
0.0940702177078833,0.2357342662994108,0.1301765361037883,-0.0102778380514488,-0.0299877334651624,0.066431656601695,-0.1379911298836943,-0.1612380267743451,-11.17189506288966,19.483787135379785,40.70430478898626,0.3089722425302853,0.612305876707564,0.129903699641126,4525.56787109375,11.942444444444444,0.1344444444444444,178.83992925264582,-10.831388643568395,105.58919818644868,1553.0,1349.0,1200.0,1528.0,1471.0,998.74,108.0,293.1,1649411638.1131413,1649411639.222028,29d15345-1dc1-45af-a292-541d3fa82b50
0.0782786335476249,0.2004957620032866,0.1367508843385032,-0.0377586137034182,-0.0233870873577752,0.1205385412272847,-0.1151386942366349,-0.1346908062446457,-11.103576646118858,19.78612519351429,40.00000984583526,0.4948012490259385,0.489704045875425,0.0738403505489996,4530.086154513889,11.943444444444443,0.1311111111111111,178.78424196143277,-10.76181624181891,105.82332113408864,1553.0,1349.0,1200.0,1528.0,1471.0,998.74,108.0,293.1,1649411639.3337831,1649411640.5439758,29d15345-1dc1-45af-a292-541d3fa82b50
0.0796809926706349,0.2079692784271947,0.1507092358243699,0.2417133806503299,0.0154293808197319,-0.1590057857010209,-0.1825975804931209,-0.2163669754874942,-11.145672872368046,20.6123286819264,37.67147994742979,-0.7580128630243314,0.5051598374191558,0.0976932469807264,4528.756673177083,11.949,0.1366666666666666,178.74513533388486,-10.787074281369618,106.1769002957626,1553.0,1264.0,1200.0,1528.0,1471.0,998.74,108.0,293.1,1649411641.6607845,1649411642.8000176,e9ce04d7-5e92-4476-bcd2-a9506a594c52
0.0348221926067203,0.1853747620061155,0.1434041244506329,0.2151960027576571,0.0089324087725416,-0.111023153482555,-0.1789887682680925,-0.1992640588924822,-11.460074363784235,20.84942376845741,37.85863136876001,-0.5892932164378677,0.4237889742958211,0.1083421872079757,4525.56787109375,11.947,0.14,178.74921978700857,-10.925416917096069,106.32547284731844,1553.0,1264.0,1200.0,1528.0,1471.0,998.74,108.0,293.1,1649411642.908573,1649411643.9328718,e9ce04d7-5e92-4476-bcd2-a9506a594c52
0.0710205533899425,0.1964388837263247,0.1403419956551591,0.2091450720359121,0.0098664721268733,-0.1206469921391057,-0.1774645308102915,-0.2004494645861121,-11.376186729393975,20.03623316717157,37.24334098042504,-0.6028689159364654,0.4706828100787187,0.1098840934567953,4513.917643229167,11.939888888888888,0.1355555555555555,178.71393199411668,-10.782696224975377,106.43472627655224,1553.0,1264.0,1200.0,1528.0,1471.0,998.74,108.0,293.1,1649411644.0417058,1649411645.159675,e9ce04d7-5e92-4476-bcd2-a9506a594c52
0.0708101742160102,0.2319474420646056,0.1729229468697865,0.4750405206145091,0.0550843332060216,-0.40772352301922,-0.2369087804132616,-0.2576705739656111,-11.457607569529486,21.431839254947725,36.06703220354321,-1.837117739522169,0.5842150707767417,0.0928593879042897,4487.321847098215,11.937857142857142,0.13,178.74135140908473,-10.873840938996668,106.6966399629366,1553.0,1178.0,1200.0,1528.0,1471.0,998.74,108.0,293.1,1649411647.0964558,1649411648.125264,61d30108-cb4a-419d-b51b-4c58efae1197
0.0269092060498537,0.1903828979629956,0.1591294594269379,0.4648871986048137,0.0473402569363294,-0.3666414288849325,-0.2372278887782641,-0.2591381705970609,-11.570525620397436,21.590331204533108,34.73369977031667,-1.7218029240298554,0.4413176029140326,0.1155205822023222,4478.27978515625,11.93477777777778,0.13,178.7446966839582,-10.88878623312234,106.81315897879608,1553.0,1178.0,1200.0,1528.0,1471.0,998.74,108.0,293.1,1649411648.2337284,1649411649.3870494,61d30108-cb4a-419d-b51b-4c58efae1197
0.0556340502570974,0.2016098611577997,0.1691047676623699,0.4734338512235319,0.0497297791213062,-0.375921371620923,-0.238049683373048,-0.2694927716265849,-11.572516128348225,22.30653456640412,36.12287832055288,-1.7564704053089517,0.4707196265356099,0.1029359640840681,4475.421712239583,11.931,0.1377777777777778,178.68801066730654,-10.887665228324812,106.8728184044664,1553.0,1178.0,1200.0,1528.0,1471.0,998.74,108.0,293.1,1649411649.500611,1649411650.5811918,61d30108-cb4a-419d-b51b-4c58efae1197
0.0426982616383561,0.2137102011980635,0.1825346433946389,0.6275127883446503,0.0712703781896923,-0.5368174565280125,-0.2758552243032652,-0.2936454127907665,-11.557767435638445,23.18147355808217,35.00157025768253,-2.459292248320447,0.5078328019236324,0.1100023631090046,4472.5673828125,11.922222222222224,0.13,178.80779093587114,-10.945474811094938,106.9912607148636,1553.0,1088.0,1200.0,1528.0,1471.0,998.74,108.0,293.1,1649411652.513705,1649411653.6534548,4430ec18-2e4c-4949-8f3f-d13fb6abed73
0.0207141471279246,0.1880565901792808,0.1824936800972792,0.622974971457213,0.0719687760210756,-0.510151890145227,-0.272527085801062,-0.2897341801982981,-11.823176447843853,23.733884192047075,34.63262668694092,-2.385667411826805,0.4173300746943802,0.1002918309697714,4469.716634114583,11.886,0.1133333333333333,178.79282371466994,-10.929760063634554,106.98331113357962,1553.0,1088.0,1200.0,1528.0,1471.0,998.74,108.0,293.1,1649411653.7618265,1649411654.7941668,4430ec18-2e4c-4949-8f3f-d13fb6abed73
0.0335993638043408,0.2110015699263241,0.1862425750501609,0.6100381726377173,0.0699160616996368,-0.5168840262568979,-0.2718974664121584,-0.2885700151468741,-11.71842374654497,23.65343976076076,35.19504402680534,-2.371817395452081,0.4994906871127587,0.1006435276374561,4468.939453125,11.9,0.12,178.83296397751218,-10.982255759230409,106.93119147784306,1553.0,1088.0,1200.0,1528.0,1471.0,998.74,108.0,293.1,1649411654.9125526,1649411656.0164616,4430ec18-2e4c-4949-8f3f-d13fb6abed73
0.0673257698009194,0.1941054960488372,0.1070874264746651,-0.3240978012375348,-0.0755479668949978,0.3975158131676311,-0.0635169095480018,-0.090761009083419,-11.300003389235052,18.75092701621412,41.09863997324256,1.754853971089638,0.4907462138376857,0.1103746382301603,4465.060492621527,11.907222222222222,0.1211111111111111,178.8591357445919,-10.686954427739677,106.83482661557308,1553.0,1435.0,1200.0,1528.0,1471.0,998.74,108.0,293.1,1649411657.9538243,1649411658.983503,939f20a0-e3e2-48e1-909b-e65386988950
0.0904411775296988,0.2282658073059613,0.1138458563847545,-0.3030335838896316,-0.0779015834299421,0.3537043612544303,-0.0731154578420801,-0.0998599072622067,-10.859214858140133,19.06875779850678,42.36821076295502,1.6117557972557035,0.6023365662116358,0.1243206749422495,4473.6044921875,11.948666666666668,0.1322222222222222,178.82808266898536,-10.720506403945029,106.86754094496771,1553.0,1435.0,1200.0,1528.0,1471.0,998.74,108.0,293.1,1649411659.0961845,1649411660.3181534,939f20a0-e3e2-48e1-909b-e65386988950
0.1011487676745529,0.1952504439179528,0.1058266683393781,-0.3308997210607275,-0.0842478534051915,0.4082466664054291,-0.0682292012967208,-0.087320096861392,-11.194389527122288,19.41785309084693,41.861144078864,1.7988441628439216,0.488303748070733,0.1316065329032223,4483.224500868056,11.945,0.1311111111111111,178.8318028453533,-10.745281112748216,106.89417944164067,1553.0,1435.0,1200.0,1528.0,1471.0,998.74,108.0,293.1,1649411660.4264314,1649411661.440164,939f20a0-e3e2-48e1-909b-e65386988950
0.1221821298382088,0.2014819143660912,0.2529985035922455,-0.342032624092183,0.055938998668703,0.3990410624569459,0.0923082916728369,0.0805533574442625,-10.158828949452452,18.85787865523921,41.149481063571095,1.8072949115501424,0.5213446705402622,-0.4879089503560496,4493.410427517361,11.945,0.13,178.87010654621872,-10.703486995489431,106.8915778984768,1553.0,1435.0,1200.0,1424.0,1471.0,998.74,108.0,293.1,1649411663.4810293,1649411664.5059426,da50df77-2e59-4cc8-a6d3-d47bb0d1fe16
0.1468096373044706,0.2372595151693931,0.2586787400994332,-0.3383772846180614,0.060120283978536,0.3644731428824551,0.0950695182906213,0.0687326800746504,-9.7056034289476,18.03855481381228,41.73692641021399,1.7165438558808166,0.6470142450295948,-0.4994352972636613,4498.124945746527,11.943111111111111,0.13,178.86208031503404,-10.732655602931189,106.89938556360804,1553.0,1435.0,1200.0,1424.0,1471.0,998.74,108.0,293.1,1649411664.6139033,1649411665.735381,da50df77-2e59-4cc8-a6d3-d47bb0d1fe16
0.1496760529363806,0.2462400741355768,0.256311974031334,-0.3257019445233856,0.0576877740339457,0.3448552879096227,0.0852868866167694,0.0727430316183696,-9.807770657434228,18.096225830115863,41.81128740617461,1.6440923387383606,0.6790511882296351,-0.4777600355139578,4501.79931640625,11.943888888888887,0.13,178.87798706670114,-10.736351778773289,106.914815719853,1553.0,1435.0,1200.0,1424.0,1471.0,998.74,108.0,293.1,1649411665.8439815,1649411667.166556,da50df77-2e59-4cc8-a6d3-d47bb0d1fe16
0.191291675187607,0.2398498081910435,0.461221242398903,-0.3588498174424143,0.2409674470646333,0.3701665257051773,0.305448649628566,0.2792695970071086,-8.466789404472664,18.80064670145988,41.80110539270763,1.7912897470457512,0.6627662270959824,-1.320600458762554,4536.213595920139,11.944222222222225,0.1222222222222222,178.90477051516643,-10.672778939299748,106.84677641098098,1553.0,1435.0,1200.0,1304.0,1471.0,998.74,108.0,293.1,1649411668.9158745,1649411670.1436083,e1691e84-be18-4bdb-ab46-ad560abf1eea
0.1979317664356024,0.2515389983866058,0.4756716582332733,-0.3339461754026932,0.2526566373222357,0.3382677921350311,0.3079731988241971,0.2852128073366046,-8.3810736653696,19.11289349041521,42.21553043986848,1.6663311833028127,0.7001832870691211,-1.3576644341792652,4540.485134548611,11.940888888888889,0.1288888888888889,178.91376359757362,-10.824414925562074,106.8724746182782,1553.0,1435.0,1200.0,1304.0,1471.0,998.74,108.0,293.1,1649411670.252506,1649411671.4761057,e1691e84-be18-4bdb-ab46-ad560abf1eea
0.2189696795983783,0.2613479253591456,0.4774204346661853,-0.3492775573812935,0.2529196110176638,0.3443687874024488,0.313890111971416,0.2912612074193168,-8.265020990678535,18.791174644587155,42.47477867796385,1.71267888374182,0.7358466523317198,-1.3671995134459107,4547.17578125,11.935,0.1266666666666666,178.86592950608633,-10.7635346035776,106.89611010844608,1553.0,1435.0,1200.0,1304.0,1471.0,998.74,108.0,293.1,1649411671.5890975,1649411672.7186563,e1691e84-be18-4bdb-ab46-ad560abf1eea
0.2710122166264228,0.2940355822169705,0.6683394863424549,-0.2908578911037043,0.4280339356796993,0.248054592544669,0.4834556857042115,0.4656260551966864,-7.0545665793554,19.379842441383648,42.35785908341611,1.3784670919501552,0.8558347180544577,-2.1024730506973004,4542.3564453125,11.92811111111111,0.1288888888888889,178.87932426595862,-10.801399464788858,106.83800341244704,1553.0,1435.0,1200.0,1166.0,1471.0,998.74,108.0,293.1,1649411674.428624,1649411675.4786198,1a69598f-8cfc-4e3f-83ff-fe1d07661eea
0.2338747375315616,0.2574033167197648,0.6628635605910904,-0.3103169535302764,0.4195115583460321,0.3005537935741609,0.4846355280862149,0.4643309087151854,-7.321304690897141,20.40481921085342,42.14392215897218,1.5466883421522413,0.7242915400813674,-2.0905928910756355,4541.1533203125,11.9075,0.12,178.86839975783613,-10.741832958150352,106.76603029406805,1553.0,1435.0,1200.0,1166.0,1471.0,998.74,108.0,293.1,1649411675.5870502,1649411676.705087,1a69598f-8cfc-4e3f-83ff-fe1d07661eea
0.2631624454307682,0.2908404493448176,0.6688391367644908,-0.2807859881186925,0.4274159467607681,0.2428871555402028,0.4791166159613995,0.4535818503260037,-7.1125737811669225,19.74456004173224,42.47774309774499,1.3465679726798745,0.8419968525875982,-2.096453962089482,4538.147705078125,11.9135,0.12,178.8965981938245,-10.750922872718585,106.70904261072803,1553.0,1435.0,1200.0,1166.0,1471.0,998.74,108.0,293.1,1649411676.8135788,1649411677.8276646,1a69598f-8cfc-4e3f-83ff-fe1d07661eea
0.0635389452662209,0.2076749499529599,-0.0334063937150093,-0.2733175296345591,-0.2081920242938361,0.3572808049537623,-0.2291510483743438,-0.2515301317908895,-11.989540130772832,19.12205604420187,42.73598367863684,1.5452711955827931,0.516856148468838,0.7221388557437112,4547.178385416667,11.921666666666663,0.1233333333333333,178.93980938560858,-10.788195286167143,106.7516720980678,1553.0,1435.0,1200.0,1623.0,1471.0,998.74,108.0,293.1,1649411679.9568405,1649411681.2033844,db595142-3ecc-45ea-9b1a-5a049326d61a
0.0471030748979722,0.1925276524053665,-0.0536027929687328,-0.26926772880136,-0.222721336667836,0.3678392083626788,-0.2473619958857081,-0.2658753618417125,-12.332513846859612,19.12411233559206,42.51128565854095,1.5586615025112365,0.462684623408596,0.7930318027942073,4559.26953125,11.944,0.13,178.9503142165521,-10.79972692221585,106.76586978462254,1553.0,1435.0,1200.0,1623.0,1471.0,998.74,108.0,293.1,1649411681.3122325,1649411682.4356515,db595142-3ecc-45ea-9b1a-5a049326d61a
0.0390843930470887,0.1952883727323806,-0.0493532347030361,-0.2920352040877076,-0.2216643827027113,0.3855778096535964,-0.2357486609891591,-0.25920138607959,-12.098369256582798,18.96145390872112,42.49892624374509,1.6491295638190755,0.4745611307453309,0.7696121523926567,4553.820617675781,11.941875,0.12625,178.9893624080371,-10.783653566108104,106.7648076902066,1553.0,1435.0,1200.0,1623.0,1471.0,998.74,108.0,293.1,1649411682.5438292,1649411683.757406,db595142-3ecc-45ea-9b1a-5a049326d61a
-0.0245350689519309,0.1555767830743665,-0.1861502565013286,-0.2729695917617246,-0.3423036877457379,0.4073110861323728,-0.375769654588919,-0.3853656754354356,-13.179325736999449,19.28850774760356,41.489501326008735,1.649611254524457,0.3312017368289565,1.3128048961398997,4547.17578125,11.941,0.13,179.03186667524204,-10.69568862700457,106.79597042829478,1553.0,1435.0,1200.0,1712.0,1471.0,998.74,108.0,293.1,1649411684.4156237,1649411685.394975,da28a058-09ee-4156-8efb-b6149a717730
0.0241530369340814,0.1984744029425396,-0.1767059517473964,-0.2477089190862691,-0.3375752135843312,0.3526049282511072,-0.3823692894209206,-0.4122699356650046,-12.900380913481865,19.075961409434697,43.00564461560568,1.4691406883198317,0.4741670346871534,1.3107201867944112,4551.200358072917,11.929,0.12,179.05405568312574,-10.7795960780021,106.71328871166205,1553.0,1435.0,1200.0,1712.0,1471.0,998.74,108.0,293.1,1649411685.5031805,1649411686.623016,da28a058-09ee-4156-8efb-b6149a717730
-0.019465235017824,0.1615695539781089,-0.1818769303188731,-0.2638540070929385,-0.3386498674224778,0.3938968871544959,-0.374821431315113,-0.3962133516810956,-13.058806571211695,19.27293429340156,41.63013578091556,1.599097861674612,0.3507271450334714,1.3017472571676352,4553.886501736111,11.933333333333332,0.12,179.04675345199306,-10.83701719376318,106.67887897753344,1553.0,1435.0,1200.0,1712.0,1471.0,998.74,108.0,293.1,1649411686.73055,1649411687.8556693,da28a058-09ee-4156-8efb-b6149a717730
-0.0482785808813014,0.131062050975462,-0.3183326002681105,-0.2431321618319171,-0.4636889370932053,0.4125326353296655,-0.5220236498607036,-0.5442626507651007,-14.295277520605476,20.061249289373205,41.64754361306319,1.59204309100937,0.2337141173883982,1.86297028279976,4552.005859375,11.937,0.12,179.03767233603656,-10.773123904581082,106.66759929957412,1553.0,1435.0,1200.0,1801.0,1471.0,998.74,108.0,293.1,1649411689.9954967,1649411691.133093,41fe186d-04ac-4ea5-9d37-03f5c5e603f7
-0.0353321717549861,0.1583582379155316,-0.3100135186988835,-0.2239527652060009,-0.4547629919423401,0.3660949833545089,-0.5211512822552054,-0.556210266999572,-13.975019241096966,19.45837458127212,41.39990644789406,1.4409669072629916,0.3341752737414447,1.8418240663850536,4544.7646484375,11.93825,0.12875,179.03792676058313,-10.825302992449783,106.62679005764817,1553.0,1435.0,1200.0,1801.0,1471.0,998.74,108.0,293.1,1649411691.241379,1649411692.359534,41fe186d-04ac-4ea5-9d37-03f5c5e603f7
-0.0660020126622421,0.1491895510412308,-0.3168265685618731,-0.2237074904197211,-0.4589903003926505,0.3744792994054171,-0.5250493670122809,-0.5491772299946823,-14.048869376358027,19.429678554157253,41.30636199165251,1.4586727454635808,0.3006763024326522,1.8611397268889904,4541.554361979167,11.929,0.12,179.0507498715674,-10.83402585549793,106.61533924550464,1553.0,1435.0,1200.0,1801.0,1471.0,998.74,108.0,293.1,1649411692.4674911,1649411693.5941365,41fe186d-04ac-4ea5-9d37-03f5c5e603f7
0.1211959776152916,0.2818467417392479,0.056846258763962,-0.2425101257068531,-0.1008855056144857,0.2707360939067411,-0.1109705560257604,-0.1407392062809328,-9.66579854968476,14.454021129399576,45.64170093173247,1.2564816313796987,0.7546946126388339,0.3015794291244512,7551.178819444444,11.646555555555556,7.529999999999999,-178.94379366262444,-10.912201829144436,93.9834181575736,1553.0,1435.0,1350.0,1528.0,1471.0,998.74,108.0,293.1,1649411697.432236,1649411698.410684,cc31ba8a-fd83-447c-a3eb-a46a395eee1f
0.1304263621377742,0.2694475217797419,0.0665762938602877,-0.2711611392737562,-0.0947056180972887,0.3020957322441286,-0.0935616815225853,-0.1223836257631048,-9.715743860524803,14.713121685004182,44.7242700885818,1.3936113076961647,0.720823445708385,0.2519258174924127,7551.91748046875,11.639333333333331,7.541111111111111,-178.40253911639635,-10.783351448817006,88.64981678062931,1553.0,1435.0,1350.0,1528.0,1471.0,998.74,108.0,293.1,1649411698.519091,1649411699.851056,cc31ba8a-fd83-447c-a3eb-a46a395eee1f
0.1383024310789639,0.2957449128532818,0.0377543517113927,-0.254094128269177,-0.1188597745237503,0.2596911897681781,-0.1271828996048147,-0.1505349859437134,-9.452452283875475,13.790778697507111,44.3627439995888,1.2523490849476968,0.8168512203322534,0.3753659866091843,7554.137369791667,11.634,7.54,-178.04286894380255,-10.65460902342396,82.94004804751592,1553.0,1435.0,1350.0,1528.0,1471.0,998.74,108.0,293.1,1649411699.9591668,1649411701.008004,cc31ba8a-fd83-447c-a3eb-a46a395eee1f
0.2975194810047263,0.5999015404447385,0.1149043262609023,-0.3938364720505446,-0.123150295722268,0.0982408825564172,-0.1271960486086118,-0.1514073513805582,-9.220939237638635,14.190588438688543,45.77441493902954,1.2116066849713445,1.9655762541986703,0.3136312053311954,7565.248046875,11.627555555555556,7.568888888888889,-178.4062926848002,-10.51124022224202,74.3470196858489,1658.0,1435.0,1350.0,1528.0,1551.0,998.74,108.0,293.1,1649411703.0082712,1649411704.0394163,66f51a65-5190-49f0-8888-42eb4d876875
0.2968746892063834,0.6130628783941878,0.0908573841867747,-0.4102597021381863,-0.1432526306517223,0.0800602818863493,-0.1437709925665977,-0.1524567187571863,-8.80408375135969,13.033397101411452,42.7304002664458,1.198655293651098,2.039445876160336,0.3953107881961006,7565.248046875,11.617,7.59,-178.62719162729712,-10.463692429517408,71.62764058060095,1658.0,1435.0,1350.0,1528.0,1551.0,998.74,108.0,293.1,1649411704.1533043,1649411705.2606552,66f51a65-5190-49f0-8888-42eb4d876875
0.2935495864070169,0.6014186975514628,0.116130695002265,-0.4015613340451174,-0.1195976190488535,0.0958387162784537,-0.1207228436946925,-0.1431009146794334,-9.078906740416274,13.691356511571753,44.66859273320185,1.2202809099613303,1.9810824934301103,0.2967645910677981,7565.248046875,11.62611111111111,7.599999999999999,-178.82384188042067,-10.50992882592138,69.31601617970368,1658.0,1435.0,1350.0,1528.0,1551.0,998.74,108.0,293.1,1649411705.3703375,1649411706.491436,66f51a65-5190-49f0-8888-42eb4d876875
0.4700308682597026,0.8785476736185183,0.1490054693961781,-0.5038405127963904,-0.15691210404392,-0.0864876827392879,-0.1660898946670009,-0.1851160598206116,-8.720180163671154,13.947144410386525,43.909270330516,1.0446780420844228,3.0393567029367445,0.3990801164580989,7565.248046875,11.612333333333332,7.575555555555557,-179.51351036603393,-10.542630253847584,66.07456701178634,1767.0,1435.0,1350.0,1528.0,1630.0,998.74,108.0,293.1,1649411707.6145377,1649411708.7445672,5fb5e5b0-e9d3-4dc1-94f4-7e568ced36a0
0.4665727614440989,0.8685020705530188,0.1534102823998201,-0.512058450189687,-0.1491806702048158,-0.0758898330449767,-0.1532436176093577,-0.1821050081408612,-8.615812845123617,13.59019194421417,43.01151861951787,1.0847929570392636,3.01018264027182,0.3619207299494043,7565.248046875,11.590666666666667,7.582222222222223,-179.81230989274457,-10.555695077637482,64.43033709070899,1767.0,1435.0,1350.0,1528.0,1630.0,998.74,108.0,293.1,1649411708.8523276,1649411710.091607,5fb5e5b0-e9d3-4dc1-94f4-7e568ced36a0
0.4504236352683581,0.8537219258305622,0.1671830356939539,-0.5124023416875858,-0.1394091652137365,-0.0508956784979878,-0.1413435407322704,-0.1698408134987168,-8.882868843548927,14.48302606637472,44.54948875761225,1.148449123122896,2.943937878888834,0.312719196809535,7565.248046875,11.592888888888888,7.611111111111111,179.927351527845,-10.602959512375277,63.04996041290887,1767.0,1435.0,1350.0,1528.0,1630.0,998.74,108.0,293.1,1649411710.2039363,1649411711.3091366,5fb5e5b0-e9d3-4dc1-94f4-7e568ced36a0
0.5828461658990297,1.1081997525566132,0.2233937098658903,-0.5668556570959674,-0.1490810433972706,-0.2517673142106074,-0.1690822348574805,-0.1832802996426199,-8.36744528572389,15.236464234284352,44.40988772841355,0.827927822105411,3.9062542929671946,0.3189340178988589,7558.5771484375,11.578,7.610000000000001,179.3766273037876,-10.591772421424704,61.63103718307281,1886.0,1435.0,1350.0,1528.0,1710.0,998.74,108.0,293.1,1649411711.917134,1649411712.9475105,ae2b253b-d991-4772-80a6-891fe4978697
0.597809886508474,1.0563048855304802,0.2281343201334665,-0.677837266843269,-0.1496671723218949,-0.1379779814708392,-0.1246846475834121,-0.151823558450335,-8.162789376462685,15.21975185403018,39.02103218283899,1.3333442333033168,3.771894233916352,0.2353547615742587,7545.26953125,11.509444444444444,7.584444444444443,179.15661173242336,-10.62246861964708,60.693478365182585,1886.0,1435.0,1350.0,1528.0,1710.0,998.74,108.0,293.1,1649411713.0559845,1649411714.1807756,ae2b253b-d991-4772-80a6-891fe4978697
0.575677598538977,1.0969980753413218,0.2121161746243607,-0.5936967058023128,-0.1572989794658277,-0.2363681662776147,-0.1695753112693828,-0.1920798124222787,-8.359460241595634,14.758288984761975,41.48725318037173,0.918885300580852,3.892669575392355,0.3406906704547496,7545.26953125,11.51977777777778,7.572222222222223,179.00634908850287,-10.603677630875511,59.88713886489691,1886.0,1435.0,1350.0,1528.0,1710.0,998.74,108.0,293.1,1649411714.2884634,1649411715.4161308,ae2b253b-d991-4772-80a6-891fe4978697
-0.0806365121002391,-0.0771521074206101,-0.0123816276931015,-0.0917603098504487,-0.0809783783766704,0.4754875767248218,-0.0961782719376236,-0.1098397682816757,-10.520547944867776,14.852348941849554,44.26869595294091,1.3750752540993327,-0.5964931790505186,0.3029545313643138,7540.108018663194,11.541777777777778,7.595555555555555,179.38831755200704,-10.659032709276405,58.30509705730262,1449.0,1435.0,1350.0,1528.0,1386.0,998.74,108.0,293.1,1649411717.4367173,1649411718.576493,d2bfdebd-e39c-47ca-9fa3-15d2f7ae1347
-0.0920495810202151,-0.0805444712129817,-0.0068986211917861,-0.0734573238373768,-0.0732732419929122,0.4655603119321394,-0.0976377772629628,-0.1173476741182537,-10.888145623566038,15.132129083253426,44.79465218431067,1.3135068270455026,-0.6131775276889756,0.2871838642068705,7551.91748046875,11.624333333333333,7.624444444444445,179.15720216433158,-10.639558227269143,57.85643786783253,1449.0,1435.0,1350.0,1528.0,1386.0,998.74,108.0,293.1,1649411718.6846275,1649411719.8020566,d2bfdebd-e39c-47ca-9fa3-15d2f7ae1347
-0.08070225559679,-0.0780462187987333,-0.015668801797346,-0.0911423211751037,-0.0810046757401679,0.4737782463559633,-0.0969145989196521,-0.1160196559542378,-10.54521677099537,14.535243578297436,43.97069505132821,1.3675143996657684,-0.5973207208166145,0.3081093236393828,7558.5771484375,11.621444444444444,7.636666666666667,178.97396184927848,-10.615392733394422,57.48759854573296,1449.0,1435.0,1350.0,1528.0,1386.0,998.74,108.0,293.1,1649411719.9108107,1649411721.0367775,d2bfdebd-e39c-47ca-9fa3-15d2f7ae1347
-0.2865714115974138,-0.4262105903676126,-0.0564034640730495,0.04030519886413,-0.0487377738205935,0.6933351554494895,-0.0655812542974951,-0.0894066930178632,-11.695914894606371,16.35142173460278,43.84192252838042,1.5737862807198126,-1.9125986926991128,0.2323673517917069,7565.248046875,11.600444444444443,7.626666666666667,178.9057677227853,-10.624224547446204,56.92744486607142,1342.0,1435.0,1350.0,1528.0,1293.0,998.74,108.0,293.1,1649411721.9420135,1649411723.0833712,c155b29a-7199-444e-8468-26ff5d101fc4
-0.2965866738024533,-0.4239899773800147,-0.0648408815854827,0.0329651919901831,-0.0555988648983224,0.6872771471036446,-0.067875196164104,-0.0848041434615305,-11.279829589901848,15.788376146351691,42.293367636321584,1.5725403581309878,-1.8931309146482944,0.2550219183589969,7558.5771484375,11.57611111111111,7.6,178.80551875960725,-10.621793094965415,56.6416663361035,1342.0,1435.0,1350.0,1528.0,1293.0,998.74,108.0,293.1,1649411723.1919143,1649411724.1764562,c155b29a-7199-444e-8468-26ff5d101fc4
-0.2951833031471913,-0.4271760083161825,-0.0718956630997881,0.0299182345733785,-0.0623502149114278,0.684697980013236,-0.0761310605869091,-0.0978516964824278,-11.387614753554535,15.849372615542684,41.02573374443421,1.573414562191528,-1.893153639050627,0.2832880139971355,7558.5771484375,11.575888888888889,7.611111111111111,178.68648374057207,-10.619490372577737,56.39447761603624,1342.0,1435.0,1350.0,1528.0,1293.0,998.74,108.0,293.1,1649411724.284208,1649411725.4456685,c155b29a-7199-444e-8468-26ff5d101fc4
-0.5079560545053917,-0.8257864579317267,-0.1020557395871006,0.2099891203386469,-0.0092785352547759,0.920939066840456,-0.0293697435582655,-0.0489218555641163,-12.471753967273246,18.20725002532077,42.699298419907535,1.7119339586393116,-3.4193872491230453,0.1395173269793388,7571.93115234375,11.544,7.576666666666666,178.66679306410484,-10.610712820584364,55.78273665593846,1227.0,1435.0,1350.0,1528.0,1189.0,998.74,108.0,293.1,1649411727.4713504,1649411728.526121,6d956444-f112-4204-bb6f-7e2ae57ec2ed
-0.4938424425360744,-0.8280217373831863,-0.0947541669266426,0.2178687291464097,-0.0021317129316219,0.9179861733142192,-0.024636212741364,-0.0572424524210628,-12.532458825333286,18.39788934481147,43.04380616451317,1.6891756455542912,-3.4308986500997567,0.1132545336639267,7571.93115234375,11.4785,7.55,178.62571801398371,-10.623440166624643,55.6054596652132,1227.0,1435.0,1350.0,1528.0,1189.0,998.74,108.0,293.1,1649411728.6380565,1649411729.7420342,6d956444-f112-4204-bb6f-7e2ae57ec2ed
-0.5187870430260971,-0.8307273358193601,-0.1046536187378359,0.2043154581058286,-0.0122587379268801,0.9213112760562878,-0.029086540844362,-0.0554597920871327,-12.262646380869766,18.14503651476528,41.31284358614854,1.7249112269871292,-3.426577640636439,0.1442831469902563,7571.93115234375,11.478555555555555,7.548888888888888,178.61619046927393,-10.61238782961457,55.44343562526944,1227.0,1435.0,1350.0,1528.0,1189.0,998.74,108.0,293.1,1649411729.850482,1649411730.9740264,6d956444-f112-4204-bb6f-7e2ae57ec2ed
0.1249565047161635,0.2985455849823224,0.0457882052905772,-0.2396963037343087,-0.1070522443752552,0.2531825855697019,-0.1255393123499663,-0.1537564167454942,-10.07115521520356,13.862868201556772,45.75120173458643,1.2060332288057096,0.8181664506859101,0.3479537184738466,7571.93115234375,11.524888888888889,7.55111111111111,178.14255783146862,-10.573495783843136,55.25255232853511,1553.0,1435.0,1350.0,1528.0,1471.0,998.74,108.0,293.1,1649411733.0027196,1649411734.0464425,d06d751a-d849-40c0-a600-66a814ca7603
0.1344104170870533,0.2977172171782593,0.0449861347773593,-0.2388021923171055,-0.1084460062947295,0.2514338090614552,-0.1253289332071268,-0.1520076402858652,-9.870771324073749,13.84019153469279,45.50133500628117,1.199957372017116,0.8156945465370146,0.3503504801902972,7571.93115234375,11.635222222222222,7.657777777777778,178.09520944232224,-10.584801549330535,55.32052067933076,1553.0,1435.0,1350.0,1528.0,1471.0,998.74,108.0,293.1,1649411734.1548512,1649411735.364748,d06d751a-d849-40c0-a600-66a814ca7603
0.1382103902255168,0.2935622294221036,0.0421328676914123,-0.2375136199998569,-0.109997552543351,0.2540241020813119,-0.127721996084936,-0.1509820414288349,-9.954185900881676,13.857193770222636,45.43957694408096,1.2027902057046955,0.8009093198513881,0.3591163992502075,7565.248046875,11.632333333333332,7.643333333333334,178.0453687930388,-10.568240143004283,55.37249045036052,1553.0,1435.0,1350.0,1528.0,1471.0,998.74,108.0,293.1,1649411735.4728496,1649411736.5990522,d06d751a-d849-40c0-a600-66a814ca7603
0.1506622052161476,0.2893809442653813,0.0172423855217809,-0.5936461331232803,-0.1672338313674947,0.597967670851884,-0.0500000485994962,-0.0655023621369688,-9.699967915541931,12.655646617901644,47.34737766162038,2.770252525720013,0.8087681099944087,0.3600764180716622,7565.248046875,11.628444444444446,7.639999999999999,178.0857291397543,-10.441395846154332,55.45419279375727,1553.0,1522.0,1350.0,1528.0,1471.0,998.74,108.0,293.1,1649411738.436776,1649411739.5827167,4c84111b-257b-416b-b782-ea1174a4e0cc
0.1585478827052028,0.2950541006288193,0.0185016260330567,-0.6047972425892761,-0.1674639336390032,0.5940857715184117,-0.0468499243337787,-0.073640394031662,-9.536697541008886,12.434842793790486,46.145502420866485,2.785173117343746,0.8409915226675567,0.3532865768685277,7565.248046875,11.615555555555558,7.624444444444445,178.08071426308368,-10.463598419552582,55.51454813981304,1553.0,1522.0,1350.0,1528.0,1471.0,998.74,108.0,293.1,1649411739.7175567,1649411740.8101673,4c84111b-257b-416b-b782-ea1174a4e0cc
0.1594961059669477,0.2924243615492238,0.0243426815672357,-0.5906623896243854,-0.1644169758694948,0.5979798081079838,-0.048063650164651,-0.0701130031894071,-9.742512686045975,13.125746682970904,48.19245871310215,2.767132397763846,0.8130846953884334,0.3451678926751826,7565.248046875,11.615666666666666,7.639999999999999,178.09363849881316,-10.444528246798692,55.54941321988632,1553.0,1522.0,1350.0,1528.0,1471.0,998.74,108.0,293.1,1649411740.9189804,1649411742.1229,4c84111b-257b-416b-b782-ea1174a4e0cc
0.1537435515220995,0.2913370655712,0.0212577950867587,-0.9620247254946578,-0.2068215252218615,0.9616297271123078,0.0503872147072564,0.0271241366456214,-9.645348880581794,12.476344824493042,51.496092227566685,4.41812172447245,0.8245550257680058,0.2685626641263869,7565.248046875,11.625444444444446,7.642222222222222,178.159045908125,-10.347198810035918,55.59427314344506,1553.0,1613.0,1350.0,1528.0,1471.0,998.74,108.0,293.1,1649411742.9447503,1649411744.0845895,55c5eab1-b14a-4b4e-8ec5-9a896cb4740b
0.181848888819173,0.2894911910223633,0.0199682114012212,-0.9570433895008392,-0.2052158669261474,0.959556279006486,0.0492619897518426,0.0171867562023279,-9.774872342405674,12.340629112211714,51.58927556475354,4.401211502798699,0.8170253641232486,0.2696524986449293,7568.218315972223,11.61722222222222,7.624444444444445,178.2133853753418,-10.376055979824269,55.661256429180426,1553.0,1613.0,1350.0,1528.0,1471.0,998.74,108.0,293.1,1649411744.192686,1649411745.3067825,55c5eab1-b14a-4b4e-8ec5-9a896cb4740b
0.1867037918722415,0.2983286315090951,0.0309296727479129,-0.9551469419049472,-0.1979461543250686,0.9550048075778288,0.0562661991216942,0.0321939705532903,-9.736427609869414,12.547905537977822,52.487396795240926,4.388788203512018,0.8424039310757986,0.2371312026050573,7565.248046875,11.607555555555557,7.632222222222222,178.21350072964782,-10.379977077590285,55.70637703829248,1553.0,1613.0,1350.0,1528.0,1471.0,998.74,108.0,293.1,1649411745.4148138,1649411746.6415682,55c5eab1-b14a-4b4e-8ec5-9a896cb4740b
0.1866026480452011,0.2951678874180897,0.0043288484346211,-1.2775683837675067,-0.2560532838454104,1.2542767069267915,0.1180903567464647,0.0914010323520059,-9.471076820919322,11.666235526148354,52.52928086395727,5.781566906830748,0.8662955915461874,0.2619076599426845,7565.248046875,11.592,7.636666666666667,178.24708704652647,-10.248198253656216,55.73929323772258,1553.0,1710.0,1350.0,1528.0,1471.0,998.74,108.0,293.1,1649411747.4457538,1649411748.5070713,87432d79-970a-47a9-b89d-7383000769aa
0.1693196988890271,0.2939415187082818,0.0108652677735341,-1.2784407500542747,-0.2529178250315358,1.2596879011212914,0.1227809012152494,0.1007694783527194,-9.450956928866514,12.036393340961762,53.05185463592383,5.798567147355643,0.857450060179779,0.2424920119148156,7565.248046875,11.572,7.595555555555555,178.2845453217546,-10.230013633900963,55.79008631894034,1553.0,1710.0,1350.0,1528.0,1471.0,998.74,108.0,293.1,1649411748.6205957,1649411749.706399,87432d79-970a-47a9-b89d-7383000769aa
0.1969319599872178,0.291412923436925,0.0022680431404714,-1.2908308789082903,-0.2624632740247474,1.266704753428623,0.1181788575938448,0.0962685785428247,-9.291889134157447,11.94643788980924,52.02525460937086,5.841176061243796,0.8569181242020575,0.2720501839980901,7565.248046875,11.572,7.625555555555555,178.31744103061723,-10.248167992123642,55.83604742077526,1553.0,1710.0,1350.0,1528.0,1471.0,998.74,108.0,293.1,1649411749.8153343,1649411751.0454855,87432d79-970a-47a9-b89d-7383000769aa
0.1788145743847356,0.28808782063583,0.0082355284070468,-1.3159777860942214,-0.2654217311329633,1.3077438582627994,0.1227556151019484,0.0962432922462112,-9.736449117414615,12.943707797973996,54.13398023893821,5.997142197544905,0.8323952135832869,0.2630601965241247,7565.248046875,11.568,7.607777777777778,178.35840850525898,-10.23792792587424,55.841711165417024,1553.0,1814.0,1350.0,1528.0,1471.0,998.74,108.0,293.1,1649411751.9557345,1649411752.9840314,faa83107-2f7f-452a-9a91-6489f6913173
0.1843097177922336,0.2912349103145841,-0.0204943734879379,-1.3358378978964067,-0.2957360545182473,1.3064719744967623,0.0984224360011576,0.0751623923821964,-9.374182864980344,12.623981410413814,51.59089519270217,6.035310562352796,0.8647924403329478,0.3751611107119081,7565.248046875,11.53377777777778,7.58111111111111,178.4079410371199,-10.198308370092455,55.85589139704387,1553.0,1814.0,1350.0,1528.0,1471.0,998.74,108.0,293.1,1649411753.0922663,1649411754.2105646,faa83107-2f7f-452a-9a91-6489f6913173
0.1680316324235479,0.3003206588644261,-0.0065304577374225,-1.3033342908116656,-0.2823901259065141,1.2806216374580104,0.0998687926347621,0.0742682813307951,-9.506870151292851,13.00377237069406,53.49081897421238,5.907350286655576,0.8798594620030403,0.3397051970222008,7565.248046875,11.539555555555555,7.582222222222223,178.4639501061338,-10.179767726726716,55.8966976033302,1553.0,1814.0,1350.0,1528.0,1471.0,998.74,108.0,293.1,1649411754.318731,1649411755.4759758,faa83107-2f7f-452a-9a91-6489f6913173
0.1109268460818753,0.3010306884216945,0.0504296950306261,0.0881796017767496,-0.0726289558857255,-0.0673037335142696,-0.2151345362574608,-0.2304133230081882,-10.11865431858736,14.931588878501746,43.12010530908648,-0.2468775631223252,0.8110864564201564,0.4212983769509486,7578.6259765625,11.568,7.559999999999999,178.52115066370294,-10.676214050133572,56.02536318909509,1553.0,1349.0,1350.0,1528.0,1471.0,998.74,108.0,293.1,1649411757.4832084,1649411758.7147524,4948abd9-4aee-414e-af11-23772ad51ed5
0.1066611056432253,0.3029812468110135,0.0502987137864772,0.0888597938225714,-0.0701762182134452,-0.0671798323717091,-0.2132947299976489,-0.2339660003221224,-10.181251331800336,14.652134710058514,43.50849481431888,-0.2499621429656274,0.8153062071233557,0.416377397811924,7585.3330078125,11.625,7.54,178.56614339649556,-10.716308114335192,56.210530755859,1553.0,1349.0,1350.0,1528.0,1471.0,998.74,108.0,293.1,1649411758.823115,1649411759.9470062,4948abd9-4aee-414e-af11-23772ad51ed5
0.1077736876190418,0.3032720352667077,0.0476942605047743,0.0825509484056268,-0.0725025260871764,-0.0695819980811561,-0.2133326589603953,-0.2407426366171547,-10.036126825480538,14.43692302342684,42.373980026498174,-0.2427930653678003,0.8260328565967805,0.4217196242433099,7598.7822265625,11.634666666666666,7.623333333333333,178.55071779371005,-10.70218062694693,56.34729922270924,1553.0,1349.0,1350.0,1528.0,1471.0,998.74,108.0,293.1,1649411760.0800483,1649411761.173814,4948abd9-4aee-414e-af11-23772ad51ed5
0.0927411880132191,0.3054845561300324,0.0796809926204517,0.3998517307600152,-0.015432125261249,-0.3628864568134156,-0.2771038433948337,-0.3027185187694793,-10.568018969171638,16.129729491087737,42.38288867703023,-1.6050919492114963,0.8010067790695715,0.393178495878437,7598.7822265625,11.634333333333334,7.650000000000001,178.5073309142823,-10.814690159140056,56.51000267674793,1553.0,1264.0,1350.0,1528.0,1471.0,998.74,108.0,293.1,1649411761.991376,1649411763.12557,3e063f56-fe4f-4c87-8558-e3cbd235874a
0.0903390223962201,0.3116669715588702,0.0694654671419707,0.3819492764880277,-0.0288210384083248,-0.3596119251508061,-0.285966571584709,-0.3002910671746051,-10.473681035056496,16.070776470315067,41.293430433875365,-1.5583757389268165,0.8347383016775514,0.4371028877795224,7598.7822265625,11.62188888888889,7.672222222222222,178.52593331394178,-10.836620663336369,56.5954012908505,1553.0,1264.0,1350.0,1528.0,1471.0,998.74,108.0,293.1,1649411763.2334802,1649411764.3534346,3e063f56-fe4f-4c87-8558-e3cbd235874a
0.0998844700195674,0.3085188704498202,0.0765202482868659,0.386045600755365,-0.0193388053670015,-0.3594728523961191,-0.2769141987148241,-0.2910743351672222,-10.488706392733754,15.91179699817355,41.474828810805846,-1.5679847883791058,0.8213698191624541,0.4016482335090157,7598.7822265625,11.623111111111111,7.654444444444445,178.5570152281248,-10.847781097576428,56.70685555881687,1553.0,1264.0,1350.0,1528.0,1471.0,998.74,108.0,293.1,1649411764.461633,1649411765.6121018,3e063f56-fe4f-4c87-8558-e3cbd235874a
0.0759644631996072,0.3086569317475327,0.091111760978003,0.7094817528844242,0.0227516892456636,-0.6820316998281959,-0.3610061930058041,-0.3821098545352324,-10.815479256826698,17.346133467532077,37.69828070444397,-3.0129418472940004,0.8187993379203575,0.440867639659144,7598.7822265625,11.61888888888889,7.743333333333333,178.62077124947731,-10.985399448659646,56.85371259452617,1553.0,1178.0,1350.0,1528.0,1471.0,998.74,108.0,293.1,1649411767.5199366,1649411768.659626,5cd72f30-f5bd-4ff0-affa-50fc63b0677c
0.0941228125335153,0.310287369981422,0.0879166278455076,0.7099945519850596,0.0154541627806859,-0.6743528582948435,-0.3674227579015789,-0.3936544119189263,-10.81659703642773,17.804719769720233,39.04079098090959,-2.9937488452627896,0.8127658356308806,0.4662045517253208,7598.7822265625,11.608375,7.73875,178.6597699220908,-10.958670119957102,56.877034702334,1553.0,1178.0,1350.0,1528.0,1471.0,998.74,108.0,293.1,1649411768.767936,1649411769.8864448,5cd72f30-f5bd-4ff0-affa-50fc63b0677c
0.0687953894865805,0.3065718520956885,0.0876713541273557,0.7079357697843274,0.0189441302789936,-0.6778357469896876,-0.365693198276336,-0.3896010725914702,-10.970870918805236,17.513153271762615,37.76944662649557,-2.9991566126832407,0.8114231764274957,0.4570739286254532,7598.7822265625,11.608666666666666,7.75,178.65173022025525,-10.96030523878528,56.919950630732096,1553.0,1178.0,1350.0,1528.0,1471.0,998.74,108.0,293.1,1649411769.9947186,1649411771.116124,5cd72f30-f5bd-4ff0-affa-50fc63b0677c
0.0868384349122048,0.3134430568722408,0.0918743853846275,0.9031225849141564,0.0352692482432879,-0.8718595129190638,-0.426013359950761,-0.4496547209882062,-11.18136016966433,18.76904660822417,36.46614758865989,-3.8672265118661606,0.8264913438460693,0.5150343933647817,7598.7822265625,11.607,7.757777777777777,178.69276447896888,-11.06097283564116,56.96669265086212,1553.0,1088.0,1350.0,1528.0,1471.0,998.74,108.0,293.1,1649411772.026687,1649411773.1711,031eba46-4d87-4d80-9890-2e9e847f6089
0.0855367139939202,0.3142056812084313,0.0973968377017535,0.902031243256539,0.0374913778459157,-0.8662844629692534,-0.4218583711188867,-0.4456180704628851,-11.131524767980318,19.071483955804663,37.254926486214046,-3.8498061340736776,0.8224975892737748,0.4996701802523419,7598.7822265625,11.564666666666666,7.762222222222222,178.70182738108758,-11.052679657896428,56.95585617628894,1553.0,1088.0,1350.0,1528.0,1471.0,998.74,108.0,293.1,1649411773.2854087,1649411774.3897126,031eba46-4d87-4d80-9890-2e9e847f6089
0.0778710241562654,0.3098797604255736,0.1020120300291657,0.9043454135874724,0.0432636555490372,-0.8648249568900086,-0.4170459472854336,-0.4458415989759251,-11.227131697527229,19.10729791296412,37.19919599329326,-3.8513364193702286,0.8074516385620855,0.4780019401546412,7598.7822265625,11.577333333333334,7.756666666666667,178.72917090506488,-11.074938295764111,56.93229392092717,1553.0,1088.0,1350.0,1528.0,1471.0,998.74,108.0,293.1,1649411774.50185,1649411775.628253,031eba46-4d87-4d80-9890-2e9e847f6089
0.1397750850182593,0.2957186154661838,0.0421986111454956,-0.2624961458753298,-0.109852916901114,0.2752460966410112,-0.1195698039064062,-0.1477869081266722,-10.046664850235423,13.516845746647515,45.52266216933046,1.304547076842605,0.8119895189677417,0.3474568706514916,7598.7822265625,11.598333333333333,7.753333333333334,178.72673025080147,-10.698936666546125,56.95191705441261,1553.0,1435.0,1350.0,1528.0,1471.0,998.74,108.0,293.1,1649411777.441151,1649411778.4926088,0ee27360-be58-4531-b667-5909de80c56d
0.1225406846883465,0.2970011189937209,0.0398176857141725,-0.2788991465245029,-0.1173092395469014,0.2785676594047345,-0.1194711886719052,-0.1327589587566743,-9.675530914370269,13.603904592886003,44.01534995628234,1.3494173370887157,0.829402261257977,0.3588269493727566,7598.7822265625,11.632444444444443,7.768888888888889,178.7292817059114,-10.696794169012726,56.96376325861809,1553.0,1435.0,1350.0,1528.0,1471.0,998.74,108.0,293.1,1649411778.6020238,1649411779.657401,0ee27360-be58-4531-b667-5909de80c56d
0.1226160368342064,0.2971649719678214,0.0345329212408063,-0.271200583812522,-0.1214895137750427,0.2754959218566228,-0.1274064273859149,-0.1563861562882088,-9.8018517847871,13.678703230523713,44.55782837132692,1.3254042520585338,0.8248212898930852,0.3837558467911702,7598.7822265625,11.620666666666668,7.712222222222222,178.71789957511453,-10.71445457174918,56.94909466846558,1553.0,1435.0,1350.0,1528.0,1471.0,998.74,108.0,293.1,1649411779.7713282,1649411780.9531288,0ee27360-be58-4531-b667-5909de80c56d
