raw_voltage_G-,raw_voltage_G0,raw_voltage_G1,raw_voltage_G2,raw_voltage_G3,raw_voltage_G4,raw_voltage_G5,raw_voltage_G6,load_x,load_y,load_z,load_l,load_m,load_n,rpm,voltage,current,roll,pitch,yaw,aileron1_pwm,elevator_pwm,throttle_pwm,rudder_pwm,aileron2_pwm,pbaro,pdiff,Tt,sample_start_time,sample_end_time,uid
0.0817498895178785,0.2448331639143749,0.0852737400482952,-0.2144113578046079,-0.1001360296449445,0.2496324377871246,-0.1439211909716625,-0.1569778477641137,-11.79151361565401,19.83522325908946,41.09620774599298,1.1809684912529363,0.6696369244634099,0.2943851124956465,4613.81103515625,11.943777777777775,0.12,179.3731803349865,-9.051352648267605,107.82111655646165,1553.0,1435.0,1200.0,1528.0,1471.0,997.6,110.0,292.15,1649404501.166844,1649404502.4624436,d5f6b0d0-5f32-417e-a3c0-1d5559c66f00
0.0988826405053688,0.2529327603707973,0.0858259853061955,-0.2160154989082687,-0.1006882748942472,0.2450172456507701,-0.1441447187974284,-0.1659978537515677,-11.72011008014879,19.724431809157004,41.3603827054922,1.1735871895619776,0.6973992175752377,0.2961367627218195,4623.20703125,11.94888888888889,0.1288888888888889,179.41345113033287,-9.05616935458854,107.27339533890932,1553.0,1435.0,1200.0,1528.0,1471.0,997.6,110.0,292.15,1649404502.5706415,1649404503.578373,d5f6b0d0-5f32-417e-a3c0-1d5559c66f00
0.0951352621306554,0.2466345352021361,0.0807637372824829,-0.2135172463741919,-0.1026342820707443,0.2468186169377381,-0.1475107853128455,-0.1644068614208752,-11.816577581958311,19.611311094108338,41.035837941910216,1.1708974150877585,0.6767058228748888,0.3092612996783601,4625.7021484375,11.94277777777778,0.12,179.41160394361734,-9.066378210667985,106.7497968316857,1553.0,1435.0,1200.0,1528.0,1471.0,997.6,110.0,292.15,1649404503.686546,1649404504.9198532,d5f6b0d0-5f32-417e-a3c0-1d5559c66f00
0.3000445362446129,0.6024645245360836,0.1387757841321508,-0.3839506720727529,-0.1338755863010082,0.0570434894014693,-0.1686801879340168,-0.1845243684198591,-11.059246209431183,19.103950154951427,41.45445473415764,1.128876623204018,2.0268672829248526,0.3457663602007533,4622.376302083333,11.941666666666668,0.13,179.09429460425596,-9.057393476269787,106.14243516121071,1658.0,1435.0,1200.0,1528.0,1551.0,997.6,110.0,292.15,1649404505.623595,1649404506.7702742,69592a96-3a2c-4e85-8609-60cd68388cf1
0.3068120686473789,0.605666737481362,0.1417453665170908,-0.3856438198756163,-0.1317980921634098,0.0579730010746797,-0.1653146271499905,-0.1926361034360892,-11.004079204957112,19.07604227510977,41.83518975399088,1.1348360083624358,2.035508870151499,0.3350566780818615,4619.608289930556,11.93888888888889,0.1255555555555555,179.05653883634398,-9.048346985577844,105.92764772020116,1658.0,1435.0,1200.0,1528.0,1551.0,997.6,110.0,292.15,1649404506.904874,1649404507.8868573,69592a96-3a2c-4e85-8609-60cd68388cf1
0.2914189920598305,0.6027932419107822,0.1380657545433899,-0.386146504755311,-0.1347171029274515,0.0602649199678998,-0.1684698087876748,-0.1948855421148811,-11.05424402136472,19.08354251734106,41.66891441373108,1.1409349330276135,2.026389013764494,0.3479157215396071,4623.20703125,11.939666666666666,0.1277777777777777,179.00405718058138,-9.042199530733615,105.72246276625472,1658.0,1435.0,1200.0,1528.0,1551.0,997.6,110.0,292.15,1649404507.994898,1649404509.1191084,69592a96-3a2c-4e85-8609-60cd68388cf1
0.4518725203214637,0.8746293624646873,0.1910024039241017,-0.5253254869189512,-0.1566754272906452,-0.092273108859562,-0.181815736645753,-0.2052993106335934,-10.434876294104326,19.24777141673865,39.77756100753374,1.115850165967211,3.078813624019132,0.3540370438048814,4624.038736979167,11.898999999999996,0.12,178.658537642128,-9.031602397372602,105.30009525162971,1767.0,1435.0,1200.0,1528.0,1630.0,997.6,110.0,292.15,1649404510.7459586,1649404511.8832862,f15492e2-9d52-4f00-81db-c3861803b0bb
0.4676641031555798,0.8700536165631457,0.1891089917164572,-0.5253649330282749,-0.1568595090631751,-0.088052377133468,-0.1808164356506971,-0.2008287532994407,-10.393523928489104,19.133784492584244,39.73278789191905,1.1245874607302486,3.0616388272531765,0.3549044483276264,4618.22509765625,11.9,0.12,178.65249064798286,-9.009564222833127,105.1067348729564,1767.0,1435.0,1200.0,1528.0,1630.0,997.6,110.0,292.15,1649404511.9920018,1649404513.1225872,f15492e2-9d52-4f00-81db-c3861803b0bb
0.4493611195680334,0.8775352240847175,0.1982078891745104,-0.5203158323059603,-0.1498249560056122,-0.0992024721697993,-0.1770559081588066,-0.1940045793004075,-10.456561429043404,19.28693139628985,39.89868151730157,1.0896051808114198,3.088633023636348,0.328642730692263,4615.73876953125,11.891666666666667,0.1166666666666666,178.62435482206183,-9.023254483250772,104.96538866154243,1767.0,1435.0,1200.0,1528.0,1630.0,997.6,110.0,292.15,1649404513.243049,1649404514.227751,f15492e2-9d52-4f00-81db-c3861803b0bb
0.6042658957455975,1.1005633946606932,0.2387979126288887,-0.6149601765562899,-0.1707050873230999,-0.2506097227420127,-0.2019463924962287,-0.2237600818483787,-10.13646954860008,19.79488091422944,37.10543843915091,0.9679715630886204,3.961849724654322,0.3594246347631283,4612.702962239583,11.837777777777776,0.1055555555555555,178.37432436384492,-9.001757411475541,104.6491478673312,1886.0,1435.0,1200.0,1528.0,1710.0,997.6,110.0,292.15,1649404516.0999372,1649404517.203864,7065072d-52b9-4256-aad6-6fb8c7e69ab2
0.6061330104291361,1.111174392057055,0.242150830001093,-0.6185234743439121,-0.1722566336330378,-0.2562373653752076,-0.201736013355392,-0.2300451594462708,-9.949533757618992,19.95260363824229,37.32766577003205,0.9647054644041072,3.9990086857049256,0.3583000832689353,4606.093587239583,11.833666666666668,0.1055555555555555,178.3565749789218,-9.003730292644553,104.47281135570918,1886.0,1435.0,1200.0,1528.0,1710.0,997.6,110.0,292.15,1649404517.316703,1649404518.3207314,7065072d-52b9-4256-aad6-6fb8c7e69ab2
0.5814134638682164,1.1023647659560047,0.2373910021887327,-0.6174452810133617,-0.1753465775335192,-0.2494526373296201,-0.204115927607068,-0.2201967848122228,-9.952699083399922,19.98175918197317,37.17848393330477,0.977450408422232,3.966877827951096,0.3711042592604608,4600.873046875,11.83822222222222,0.1011111111111111,178.33440873833538,-9.007446010416777,104.32488387757496,1886.0,1435.0,1200.0,1528.0,1710.0,997.6,110.0,292.15,1649404518.4307544,1649404519.6655877,7065072d-52b9-4256-aad6-6fb8c7e69ab2
-0.1327447983598051,-0.1629342071874303,0.0302332976545485,-0.0437544176212494,-0.063372273143924,0.4903850482520649,-0.1088667644335906,-0.125552461026983,-12.610767795234878,21.192639328519217,40.774288578335046,1.3428056280068756,-0.8755647682430373,0.2200000650351256,4588.55810546875,11.941777777777778,0.13,179.22047703680258,-9.000819398829526,104.0954646535434,1449.0,1435.0,1200.0,1528.0,1386.0,997.6,110.0,292.15,1649404521.6926737,1649404522.7375214,3699b825-4b11-4e86-8558-0be18add2b33
-0.14343468917308,-0.1655113518777108,0.0279191270933294,-0.0402700130170476,-0.0661334994740497,0.4927255159620108,-0.1135608492797708,-0.1405025299325751,-12.743463485117276,21.435072713409497,41.17472608328979,1.3416939347308874,-0.8884121071024432,0.2336900031275797,4603.9632568359375,11.939374999999998,0.13,179.21017559371438,-8.965230105260808,104.0139387567002,1449.0,1435.0,1200.0,1528.0,1386.0,997.6,110.0,292.15,1649404522.845773,1649404523.9621067,3699b825-4b11-4e86-8558-0be18add2b33
-0.1384644816112274,-0.1734137189836701,0.0294838219488757,-0.0352998056845936,-0.0610449538291101,0.4943559541564633,-0.1096819836477335,-0.1384907790684378,-12.808983902711004,21.30773901135225,40.979367834888144,1.33331585533729,-0.916370500803753,0.2179219870327889,4618.501736111111,11.934111111111111,0.12,179.18345892932095,-8.967328799462969,103.96896955011476,1449.0,1435.0,1200.0,1528.0,1386.0,997.6,110.0,292.15,1649404524.0713856,1649404525.1953895,3699b825-4b11-4e86-8558-0be18add2b33
-0.3603487579755299,-0.5402755586683666,-0.0225718673652718,0.1172776662484732,-0.0322230106619953,0.7048402635459117,-0.0836344149913246,-0.1069602034599866,-13.548226886978837,22.704318787385013,39.662127299668576,1.468208786298706,-2.297480520609426,0.1665363942083873,4620.71484375,11.899,0.12,179.2746115983443,-8.935168948619703,103.89450606887335,1342.0,1435.0,1200.0,1528.0,1293.0,997.6,110.0,292.15,1649404526.1061332,1649404527.1359622,91eebd86-2cda-4779-9081-97286d875930
-0.3559570926301421,-0.5309925765073051,-0.0219801760054938,0.1117026191573165,-0.0325911741554082,0.7027233236547183,-0.0837396045544771,-0.0989000521642586,-13.600188280845302,22.57055858002406,39.92801341509664,1.4751866574942358,-2.2639308162436085,0.1678490012735833,4619.331651475694,11.904222222222224,0.1155555555555555,179.2920543836647,-8.917924807967665,103.7392573868588,1342.0,1435.0,1200.0,1528.0,1293.0,997.6,110.0,292.15,1649404527.2445009,1649404528.472262,91eebd86-2cda-4779-9081-97286d875930
-0.3354845690729086,-0.5321102159814142,-0.019140057556181,0.1094673408263663,-0.0299745835384018,0.7056160365482489,-0.079532021566916,-0.1106023926764296,-13.558167035356188,22.555485825996502,39.918048360099895,1.4867902736428646,-2.2678767364576378,0.154289698684008,4608.844455295139,11.897111111111112,0.1177777777777777,179.2822219468995,-8.92066874160298,103.62677403705749,1342.0,1435.0,1200.0,1528.0,1293.0,997.6,110.0,292.15,1649404528.5808742,1649404529.7082586,91eebd86-2cda-4779-9081-97286d875930
-0.5529246081078781,-0.8744629560196222,-0.0540104010691868,0.2438601604270749,0.0027525221727885,0.8961011816297926,-0.0473440118381739,-0.0715113168514855,-14.13459805954487,24.501685537979792,36.87454628658758,1.6220685242393005,-3.539577561344679,0.0656766387965412,4622.376302083333,11.805666666666667,0.09,179.410791910016,-8.911502058554394,103.37150254701744,1227.0,1435.0,1200.0,1528.0,1189.0,997.6,110.0,292.15,1649404531.635917,1649404532.7743275,288942c2-1a83-4eec-9b6a-9ed8085fc9d2
-0.5505972882491368,-0.8838511300936507,-0.0536159401969818,0.2491853821058097,0.0051324362076376,0.900348210170301,-0.0467523204928718,-0.0757451968764632,-14.272896117454374,24.631800801818464,36.87068525286402,1.6204117291530808,-3.574404297567655,0.0598101333388012,4613.806477864583,11.812111111111111,0.09,179.44089483041796,-8.91428185068285,103.07601566205425,1227.0,1435.0,1200.0,1528.0,1189.0,997.6,110.0,292.15,1649404532.8832407,1649404534.001642,288942c2-1a83-4eec-9b6a-9ed8085fc9d2
-0.5468762061253643,-0.8879140793970136,-0.0579681587925656,0.2551285925095143,0.0018978569041324,0.8995987345418064,-0.0522221783049524,-0.0777175019006091,-14.33217927927947,24.722841855878528,36.93757234867219,1.6056887620417473,-3.59082215456818,0.0775122209650535,4610.77294921875,11.805,0.08,179.4584666304227,-8.917198720913397,102.84351754052682,1227.0,1435.0,1200.0,1528.0,1189.0,997.6,110.0,292.15,1649404534.1109805,1649404535.1186523,288942c2-1a83-4eec-9b6a-9ed8085fc9d2
0.0883505349447735,0.239047737858071,0.0875221670836006,-0.2099933953924407,-0.0970855319439631,0.2538400203665032,-0.1431717152234682,-0.1719805111290208,-12.000003983061164,20.049491733947363,41.47667682329714,1.181945718812671,0.6456438413799042,0.285739852987567,4605.8173828125,11.953888888888889,0.1277777777777777,179.0751503429223,-8.954916543330022,102.44692108855024,1553.0,1435.0,1200.0,1528.0,1471.0,997.6,110.0,292.15,1649404537.165395,1649404538.1196277,986dec96-1ab2-4fc3-9bc7-0c09e70d4662
0.1073898468752976,0.243689227393452,0.0848924278575482,-0.2107560198698014,-0.1001754757299624,0.2513023221225512,-0.1444208414460363,-0.1678912660876864,-11.79325730925699,19.8801427004368,41.64850101767264,1.176841348115928,0.6599903854106247,0.2963229454850665,4614.913031684027,11.951444444444446,0.1244444444444444,178.96743674189145,-8.943645592834644,102.76823291876524,1553.0,1435.0,1200.0,1528.0,1471.0,997.6,110.0,292.15,1649404538.242135,1649404539.3239317,986dec96-1ab2-4fc3-9bc7-0c09e70d4662
0.1021435171347225,0.2434262534838104,0.0868647323014004,-0.2106245328905187,-0.0993734052031068,0.2517362290730506,-0.1446443693061826,-0.1733611242321987,-11.894556806289158,20.072963392788782,41.69569179528723,1.1788527627150855,0.6594149104647454,0.2927461975020269,4623.20703125,11.95,0.13,178.91272996227923,-8.92638703289436,103.03972155462462,1553.0,1435.0,1200.0,1528.0,1471.0,997.6,110.0,292.15,1649404539.436576,1649404540.4431925,986dec96-1ab2-4fc3-9bc7-0c09e70d4662
0.1065746276797505,0.2366415265659591,0.0638282166250884,-0.4664456100168948,-0.1441710161971086,0.5057032779881632,-0.0925755288696118,-0.117281930632927,-11.811676042549136,19.20449313876648,43.48657861838053,2.3200432441961043,0.6475307942785342,0.3109048045136272,4613.25439453125,11.942777777777778,0.1288888888888889,178.8093846466775,-8.779552669618548,103.48684546935124,1553.0,1522.0,1200.0,1528.0,1471.0,997.6,110.0,292.15,1649404542.0800192,1649404543.217595,df4a5e54-40cb-4aec-a493-3482d3ca2c5a
0.1077711590461547,0.2353529543994898,0.0669313089319207,-0.4633162195453037,-0.1418699941948315,0.5038230145994632,-0.0904848860809778,-0.1149151655996809,-11.752106852476407,19.319837940861905,43.46775284620699,2.309705035690924,0.6422564821986767,0.3004035309486975,4614.91064453125,11.941666666666666,0.12,178.77348972585938,-8.749838311089361,103.6062880230069,1553.0,1522.0,1200.0,1528.0,1471.0,997.6,110.0,292.15,1649404543.325959,1649404544.4513042,df4a5e54-40cb-4aec-a493-3482d3ca2c5a
0.1058251520207511,0.2396394291607988,0.070718133434944,-0.4631321377324821,-0.139279700833868,0.4992735661116266,-0.0882890536766234,-0.1138369720554381,-11.72661825625694,19.338902385501893,43.46484295149631,2.2993938795585023,0.6583964804037049,0.2891133758102126,4612.978678385417,11.939222222222222,0.12,178.7528883575028,-8.73206786641628,103.7423226239763,1553.0,1522.0,1200.0,1528.0,1471.0,997.6,110.0,292.15,1649404544.5598977,1649404545.6755517,df4a5e54-40cb-4aec-a493-3482d3ca2c5a
0.1139641948599788,0.2328809996284998,0.0470373315049773,-0.7753480355471116,-0.1968315491832412,0.8076236123442991,-0.027989130363908,-0.0458056143938137,-11.614154073668503,19.045465864751183,45.62992030614013,3.693857542625461,0.649997487377094,0.3136237936339571,4613.25439453125,11.929333333333334,0.1144444444444444,178.7701505222651,-8.590867460568344,103.8559936677833,1553.0,1613.0,1200.0,1528.0,1471.0,997.6,110.0,292.15,1649404546.6783457,1649404547.8278053,53e888fc-20a5-4c5d-afe0-78d4dd087fac
0.1296505891673535,0.241125231759926,0.0454857853582595,-0.7820670223608522,-0.1987381102984619,0.8069135828124342,-0.0285413755999765,-0.0451744769064339,-11.602440333211714,18.81802972424039,45.79225217193178,3.705865214296316,0.680121754284215,0.320390937263214,4610.77294921875,11.929666666666666,0.1133333333333333,178.7640185302103,-8.571687625332778,103.83871936046242,1553.0,1613.0,1200.0,1528.0,1471.0,997.6,110.0,292.15,1649404547.9376996,1649404548.952628,53e888fc-20a5-4c5d-afe0-78d4dd087fac
0.1225502933472905,0.2361944709198299,0.0491937177311945,-0.7760580654473458,-0.1949512853968452,0.8063087428404744,-0.0260825693278752,-0.042045087129568,-11.616928942891644,18.99392564059207,45.82774674948029,3.6923003539277386,0.6609145775371291,0.3061018119576659,4621.268988715277,11.930777777777775,0.1111111111111111,178.75459590479528,-8.563950349095494,103.8271573680174,1553.0,1613.0,1200.0,1528.0,1471.0,997.6,110.0,292.15,1649404549.061118,1649404550.190036,53e888fc-20a5-4c5d-afe0-78d4dd087fac
0.1302948752690753,0.2443335134792233,0.0359003857599576,-1.0187699819357137,-0.2372900918003759,1.0327292743909535,0.0215288606660431,0.0026604812890028,-11.48516245603952,18.74379247224286,47.51017459263508,4.746610573770834,0.7046330727610117,0.315524967167555,4623.20703125,11.9055,0.11,178.77931872313354,-8.456089875281487,103.84159003205232,1553.0,1710.0,1200.0,1528.0,1471.0,997.6,110.0,292.15,1649404551.183881,1649404552.225728,402985c2-8886-4e6f-90f6-6a55a448c4ec
0.1274942030146386,0.2389293995955393,0.0390560728914393,-1.01465443732897,-0.2348444340053342,1.0324005570049324,0.0234748677288366,0.0009774478521261,-11.45541430655564,18.96438837631284,47.26642587597315,4.738183850151921,0.6860112319293609,0.3040903125056238,4623.20703125,11.899625,0.11,178.8046126211774,-8.452688974683351,103.7669633851808,1553.0,1710.0,1200.0,1528.0,1471.0,997.6,110.0,292.15,1649404552.3336773,1649404553.4544537,402985c2-8886-4e6f-90f6-6a55a448c4ec
0.1404588172065032,0.2430054952277597,0.0381093667481759,-1.014680734809628,-0.2366984003957369,1.0293763570521202,0.0209503180097235,-0.0081345986326904,-11.460458064104849,18.98629236920729,47.38715438977419,4.731562160227647,0.7002083466385539,0.3121511046338999,4615.186686197917,11.89788888888889,0.11,178.82622941099055,-8.460484746273371,103.69936452864648,1553.0,1710.0,1200.0,1528.0,1471.0,997.6,110.0,292.15,1649404553.5629609,1649404554.686332,402985c2-8886-4e6f-90f6-6a55a448c4ec
0.1200257437304583,0.2421245326246979,0.027353733130067,-1.0942435509584445,-0.2621411307489275,1.108045002704552,0.0233433807433222,-8.704257061054599e-06,-11.572028913850472,19.66917750005921,47.99247787544586,5.091847030680943,0.7014545226150637,0.3577501760161914,4608.29345703125,11.870444444444445,0.0944444444444444,178.86696921265994,-8.413742156960911,103.54990481140842,1553.0,1814.0,1200.0,1528.0,1471.0,997.6,110.0,292.15,1649404556.6216729,1649404557.9635136,c7774a09-cdbf-43fd-ad14-e5fddb1fc939
0.1428913259614122,0.2433868073905293,0.0326395090707829,-1.0961764101737683,-0.2575785325578594,1.1075585008441882,0.0283530340400018,0.0062763726985014,-11.584489857479031,19.68721126576353,47.88567201288392,5.095473299249089,0.7077970057946097,0.337167011021207,4605.8173828125,11.875111111111112,0.1,178.8817512598437,-8.403358846466416,103.40422598333096,1553.0,1814.0,1200.0,1528.0,1471.0,997.6,110.0,292.15,1649404558.072696,1649404559.192686,c7774a09-cdbf-43fd-ad14-e5fddb1fc939
0.1211170854723964,0.2352214674291945,0.0268540826444296,-1.103171521986035,-0.2610497888897919,1.1212462931464289,0.0285239671342251,0.0058161683280135,-11.585019241475951,19.522106302945943,47.75890649809692,5.140607804620397,0.6787909655931723,0.3483770479663258,4599.776041666667,11.874444444444444,0.1,178.8887074280584,-8.400749050157302,103.31715321397182,1553.0,1814.0,1200.0,1528.0,1471.0,997.6,110.0,292.15,1649404559.301199,1649404560.42257,c7774a09-cdbf-43fd-ad14-e5fddb1fc939
0.0715596499923771,0.2444387030442895,0.1124389461216278,0.1059566390000207,-0.0484353536468339,-0.0566927351825051,-0.2139511533847829,-0.2354492741294047,-12.0948627685331,21.54347282518092,39.24955829537808,-0.2178270099767364,0.64897823704754,0.2858890154065001,4588.55810546875,11.952222222222222,0.12,178.88993230864958,-8.781294178129423,103.25768882814776,1553.0,1349.0,1200.0,1528.0,1471.0,997.6,110.0,292.15,1649404561.084031,1649404562.265023,69d0a5ae-a14e-4037-bfbb-cd84679ce793
0.0911512072300998,0.249198530837918,0.1090465825638898,0.1037213606707948,-0.0523273678698566,-0.0558380698899351,-0.2175933426256643,-0.2489398381387251,-12.112498922615728,21.49402094575744,39.71476815360983,-0.2112956826726711,0.6628914805258322,0.3022203864502978,4589.923394097223,11.951,0.12,178.86585513291533,-8.800913232474116,103.4644211993962,1553.0,1349.0,1200.0,1528.0,1471.0,997.6,110.0,292.15,1649404562.3759997,1649404563.3312042,69d0a5ae-a14e-4037-bfbb-cd84679ce793
0.0934785264354529,0.2512497273419251,0.110677020859942,0.0985539231189467,-0.0513412156213166,-0.0559432594696567,-0.2145296960784266,-0.2378554859305687,-12.024311352266208,21.390446925628712,39.32816506913029,-0.2004982397575767,0.6741248246854923,0.2940545619008898,4600.324815538194,11.948777777777778,0.1211111111111111,178.8292286229461,-8.807394038495335,103.65489696151006,1553.0,1349.0,1200.0,1528.0,1471.0,997.6,110.0,292.15,1649404563.4391491,1649404564.5131862,69d0a5ae-a14e-4037-bfbb-cd84679ce793
0.0772398867493589,0.2486594343197311,0.1219454533117856,0.3775823925952208,-0.0144196754769382,-0.3217704766753924,-0.2829686683479996,-0.3078723026531995,-12.200386081260174,22.428276007524502,37.47353634709658,-1.4202106384230364,0.6484709747121182,0.3248167437291734,4605.8173828125,11.951333333333334,0.12,178.79551329138312,-8.895140530125104,103.91473708919494,1553.0,1264.0,1200.0,1528.0,1471.0,997.6,110.0,292.15,1649404565.080365,1649404566.2434185,3dacec05-ac72-48bb-9ff3-5c0f81182eb4
0.0634732018390525,0.2514995525546073,0.1336214953298437,0.3716260336449286,-0.0036114469278095,-0.3198113206330472,-0.2704116617449916,-0.2888329877023511,-12.245414197752435,22.37536155265792,37.46211419686935,-1.4021659408674063,0.6610157337240071,0.2765668599225702,4601.971137152777,11.939444444444442,0.12,178.7955026666444,-8.893365250123331,104.05195179507096,1553.0,1264.0,1200.0,1528.0,1471.0,997.6,110.0,292.15,1649404566.3520355,1649404567.384621,3dacec05-ac72-48bb-9ff3-5c0f81182eb4
0.0799222207610564,0.250000601267039,0.1250616942745527,0.3655907825238573,-0.0104750665041724,-0.313578837636692,-0.2758157765986553,-0.2976689129409132,-12.290453228136894,22.18491834137502,37.29814766233441,-1.3762841722322146,0.6573629545408393,0.304858730372055,4600.324544270833,11.941444444444445,0.12,178.7914136600613,-8.89930704038255,104.15368898057812,1553.0,1264.0,1200.0,1528.0,1471.0,997.6,110.0,292.15,1649404567.505338,1649404568.5013237,3dacec05-ac72-48bb-9ff3-5c0f81182eb4
0.0499957882131937,0.2486725830140773,0.1454290242589502,0.6491686890628344,0.0317716951387616,-0.5870191877635742,-0.3424928253427562,-0.3713147730697514,-12.60625004153908,23.732419401119746,35.169210135747335,-2.619649029966756,0.6398888451979388,0.3129552124438232,4605.8173828125,11.933555555555554,0.12,178.77931967177088,-8.979731094903375,104.39967748462622,1553.0,1178.0,1200.0,1528.0,1471.0,997.6,110.0,292.15,1649404570.5992663,1649404571.6842062,fd924148-b4e1-4fcb-a734-22d4f90feb38
0.0669839037326864,0.2545763473168554,0.1498995808578299,0.6500496516249652,0.0341647578631045,-0.5913845563256882,-0.3396921525882445,-0.3714857058111982,-12.499022343363942,23.77937952798426,35.51294566847857,-2.6308031543518564,0.6584018406651474,0.3008769552116153,4601.426974826389,11.927222222222222,0.1155555555555555,178.78954370604853,-8.990958123487843,104.48176876935072,1553.0,1178.0,1200.0,1528.0,1471.0,997.6,110.0,292.15,1649404571.7924006,1649404572.8019545,fd924148-b4e1-4fcb-a734-22d4f90feb38
0.0510871299618849,0.2545237525350636,0.1517272495838467,0.6472489795978058,0.0349405309535465,-0.588833708421257,-0.3369835207080624,-0.3636490814807565,-12.421532474402785,23.809038098549355,35.518312911229074,-2.6184259506469534,0.6580697443891775,0.2934911634942179,4593.47607421875,11.930111111111112,0.1122222222222222,178.79271443164322,-8.997878243481928,104.55699874959892,1553.0,1178.0,1200.0,1528.0,1471.0,997.6,110.0,292.15,1649404572.9103675,1649404574.029763,fd924148-b4e1-4fcb-a734-22d4f90feb38
0.0641306366363824,0.257508506418611,0.1565922670079739,0.7470344257620809,0.0443287000519269,-0.6902101922509222,-0.368330018125563,-0.3984405382440805,-12.636848038826423,24.70046342009474,34.47407608350809,-3.0654471950093023,0.6680811913860455,0.3179501635671301,4593.47607421875,11.880666666666668,0.0933333333333333,178.81332794255832,-9.02034653021164,104.6303177946994,1553.0,1088.0,1200.0,1528.0,1471.0,997.6,110.0,292.15,1649404575.257556,1649404576.3981905,a9aaba1f-8e30-4e49-9286-ca169116e941
0.0442892540118573,0.2591915394462061,0.1531078625952399,0.7423797877401241,0.0410283772765124,-0.6862524332353837,-0.3690006017271885,-0.3901568581950511,-12.53475518479253,24.532933583368944,34.64718754087973,-3.0472589487637483,0.6724860696246919,0.3286968640870231,4595.93896484375,11.9,0.1,178.8299389626198,-9.052565386300234,104.58154113710664,1553.0,1088.0,1200.0,1528.0,1471.0,997.6,110.0,292.15,1649404576.5096614,1649404577.6236963,a9aaba1f-8e30-4e49-9286-ca169116e941
0.0493252046696388,0.2556150942593612,0.1513064912542591,0.7302566909507445,0.0385301249828198,-0.6673051547105041,-0.367251824805576,-0.3944433343480789,-12.672746000079206,24.6157052682865,35.254730553517746,-2.976848755814104,0.6560440715022053,0.3322525235738112,4594.297037760417,11.898666666666664,0.11,178.83873624627077,-9.033855221433846,104.56383045658876,1553.0,1088.0,1200.0,1528.0,1471.0,997.6,110.0,292.15,1649404577.7362244,1649404578.9460237,a9aaba1f-8e30-4e49-9286-ca169116e941
0.0905332185030847,0.2405861352437719,0.0848266843833294,-0.1851686544777692,-0.0967699632137095,0.2270561274742091,-0.1513370561964519,-0.183209498655611,-11.86836618068043,19.944150501436287,41.09207650376156,1.0649326206339835,0.6506616471354206,0.3006066408569261,4591.836642795139,11.952222222222222,0.1211111111111111,178.8419692024779,-8.808396937938465,104.5754546796462,1553.0,1435.0,1200.0,1528.0,1471.0,997.6,110.0,292.15,1649404579.603695,1649404580.560273,7e2a55d0-8604-4a90-b0a3-17c7c7412b03
0.10281410063134,0.2460033978175719,0.0901782037115191,-0.1826966993607792,-0.0942980081759051,0.2219544335691429,-0.1487336141366344,-0.1711915895129003,-11.744017296386028,20.10073651483417,41.47284059675387,1.049320095723976,0.6667624248721925,0.2874751842432333,4601.971788194444,11.950111111111111,0.12,178.8568271406524,-8.77722556725008,104.61065975135818,1553.0,1435.0,1200.0,1528.0,1471.0,997.6,110.0,292.15,1649404580.69261,1649404581.7205942,7e2a55d0-8604-4a90-b0a3-17c7c7412b03
0.0912695454726548,0.2445833386951096,0.0851028070170487,-0.1805666103731676,-0.0994259999886125,0.2218360953103039,-0.1558339106521675,-0.1859444277131299,-11.85235671794997,20.24504635923092,41.48901087760552,1.044901183828367,0.6614782575429311,0.3112219926831919,4609.119954427083,11.951,0.12,178.8597276943199,-8.765035766583855,104.66112877804534,1553.0,1435.0,1200.0,1528.0,1471.0,997.6,110.0,292.15,1649404581.8293908,1649404582.9486153,7e2a55d0-8604-4a90-b0a3-17c7c7412b03
0.1473092877647616,0.2672385411003335,0.2445175952091164,-0.1942675531342518,0.0447231610048134,0.2042562892063518,0.0095635469407125,-0.0050972498703002,-10.679339245335912,20.120979847339,41.59775402452857,1.044026124004633,0.7489737464709272,-0.3342592559668016,4618.22509765625,11.950444444444445,0.12,178.82278396000925,-8.768634991685236,104.68877207143618,1553.0,1435.0,1200.0,1424.0,1471.0,997.6,110.0,292.15,1649404584.6009328,1649404585.8169832,63dc5c05-fc58-410a-b904-98ece23e18c8
0.1483085886666764,0.2630441072344274,0.2463452638816061,-0.1920322745630922,0.0469058445770294,0.2052029953028039,0.0114043644342971,-0.0175753626804808,-10.691966838227456,20.20108769229597,41.45401604723518,1.0417040394067438,0.7344474027325884,-0.3430767614336596,4616.567545572917,11.946000000000002,0.12,178.84619936630386,-8.768214650460063,104.70463935978802,1553.0,1435.0,1200.0,1424.0,1471.0,997.6,110.0,292.15,1649404585.9259317,1649404586.9324403,63dc5c05-fc58-410a-b904-98ece23e18c8
0.1371979406253197,0.2660420098079578,0.2452802195413324,-0.1911644605316866,0.0449992836155008,0.2022313900746142,0.0093400190864818,-0.0181013105363792,-10.633383047507843,20.213313049696595,41.55019107354551,1.0331417015617268,0.7442501643121946,-0.3355470423584447,4615.73876953125,11.947333333333331,0.1188888888888888,178.84862787800876,-8.771051171104126,104.750361405002,1553.0,1435.0,1200.0,1424.0,1471.0,997.6,110.0,292.15,1649404587.0413697,1649404588.1613114,63dc5c05-fc58-410a-b904-98ece23e18c8
0.2052424413796522,0.3008071605999771,0.4851650163006251,-0.2078633063964297,0.2590074576974077,0.1722786611686496,0.2521306899359957,0.2273453986958077,-9.010573884518392,20.47598439784795,41.79503290575269,1.0180442768401583,0.8782526025599295,-1.2942729170888851,4628.19970703125,11.943555555555555,0.1144444444444444,178.81152629043726,-8.771133892284077,104.75596595467093,1553.0,1435.0,1200.0,1304.0,1471.0,997.6,110.0,292.15,1649404590.2083476,1649404591.341531,efb1828b-cc75-40de-bf3d-e882294030de
0.2025864048597396,0.2972701615314861,0.4770654201374665,-0.2102432206563204,0.253511302967283,0.173922248146643,0.2468843604084939,0.2318554011774569,-9.026137977098545,20.252778073985564,41.17623062873443,1.0251166969913783,0.8703570551108435,-1.2695175460526196,4622.377278645833,11.942,0.1166666666666666,178.8272569750057,-8.766249548117608,104.75577698610392,1553.0,1435.0,1200.0,1304.0,1471.0,997.6,110.0,292.15,1649404591.450055,1649404592.4627964,efb1828b-cc75-40de-bf3d-e882294030de
0.2149856248738211,0.2969677415372616,0.4743567889396808,-0.2097961649324187,0.2520517977422243,0.1735014898830494,0.2449515021400396,0.22383469696413,-9.046186340857636,20.14456438408277,41.11638943680588,1.0222908845660783,0.8696664744909259,-1.2611721875046311,4607.743218315973,11.94211111111111,0.1177777777777777,178.83614988130506,-8.77964070316785,104.7528210320131,1553.0,1435.0,1200.0,1304.0,1471.0,997.6,110.0,292.15,1649404592.5791647,1649404593.6912775,efb1828b-cc75-40de-bf3d-e882294030de
0.2630704046250579,0.3280381087330553,0.6829345377311501,-0.1864177807379812,0.4372643200425433,0.1107559130480527,0.4406566833865321,0.417922589479325,-7.636597149461915,20.96758724792812,41.12384066399738,0.8451097249247629,0.9865147717914844,-2.071772261736989,4598.40478515625,11.909333333333333,0.1066666666666666,178.8005372749726,-8.789405881542459,104.70671346056598,1553.0,1435.0,1200.0,1166.0,1471.0,997.6,110.0,292.15,1649404595.6604235,1649404596.7047892,dcb27974-d802-4c12-9e87-8c74acdbf8f7
0.2841477634807029,0.3240409053431272,0.681751155183277,-0.1861548067896349,0.4385528921697448,0.1136880722570352,0.4427999206951057,0.4251149257310559,-7.606899118571911,20.76409510791169,41.02437059123683,0.8496966679722929,0.972083385224752,-2.075483140655757,4595.93896484375,11.913222222222222,0.11,178.80771049142095,-8.801165854609668,104.65253412333972,1553.0,1435.0,1200.0,1166.0,1471.0,997.6,110.0,292.15,1649404596.8145046,1649404597.8991766,dcb27974-d802-4c12-9e87-8c74acdbf8f7
0.2781388096532461,0.3256056000922162,0.6785560223080802,-0.1838932308427439,0.4356996253179162,0.1106770208757533,0.4371854278684993,0.4157267573069187,-7.751960311912285,20.81905629971151,41.07648680919065,0.8379694078410853,0.9780366739149297,-2.059089067355218,4593.749728732639,11.918888888888889,0.0988888888888888,178.80037638607214,-8.808228080483984,104.62096195335629,1553.0,1435.0,1200.0,1166.0,1471.0,997.6,110.0,292.15,1649404598.0079224,1649404599.1336238,dcb27974-d802-4c12-9e87-8c74acdbf8f7
0.021344778916308,0.2117115996622912,-0.0962440153445327,-0.1361766083089408,-0.2608788557261233,0.2186409622677519,-0.3516048734106533,-0.3705652968223593,-13.194464306801454,20.64486888370331,40.81777044328688,0.9304263526170982,0.5366825447579014,1.0514207810403746,4599.776041666667,11.95022222222222,0.1155555555555555,178.9315084290373,-8.818153578576613,104.67000650614652,1553.0,1435.0,1200.0,1623.0,1471.0,997.6,110.0,292.15,1649404601.2674732,1649404602.4022782,96cc964f-380c-40b1-9de1-e9362318217e
0.0201613962479041,0.2087794405290957,-0.0950211865363077,-0.1350458203450956,-0.2570262872371034,0.2191143153150685,-0.3478969404220377,-0.3679618546395662,-13.213338106961809,20.433463213078003,40.64639903439971,0.9275618963100024,0.5272723211841673,1.038714271640074,4598.40478515625,11.94811111111111,0.1122222222222222,178.9324236743861,-8.814557199387385,104.67122683327824,1553.0,1435.0,1200.0,1623.0,1471.0,997.6,110.0,292.15,1649404602.5115206,1649404603.5214412,96cc964f-380c-40b1-9de1-e9362318217e
0.0293128889000992,0.2213890396565537,-0.0919706888304642,-0.1424090907676685,-0.26048439477823,0.2130659153154896,-0.3499086912973986,-0.3669888508368638,-13.10871361204168,20.722302671082232,40.57907936698383,0.932688648223592,0.5755269905512277,1.043451353408635,4598.40478515625,11.950555555555557,0.1122222222222222,178.92854564475738,-8.830441752939635,104.66583022492402,1553.0,1435.0,1200.0,1623.0,1471.0,997.6,110.0,292.15,1649404603.6301863,1649404604.6748664,96cc964f-380c-40b1-9de1-e9362318217e
-0.0067145392873559,0.1950653509196976,-0.2399329800498264,-0.1039097056692783,-0.3925104749644205,0.2128686848789584,-0.510559496982533,-0.5303614389640068,-14.258430487828832,21.143135244016364,40.7369527669283,0.8402689081615398,0.4694223569948672,1.6500953761111292,4600.324544270833,11.93077777777778,0.11,178.9765482142442,-8.84927562012099,104.70375143519593,1553.0,1435.0,1200.0,1712.0,1471.0,997.6,110.0,292.15,1649404606.5917654,1649404607.7305765,67b306c0-2b48-419c-8b68-a99b57e6d228
-0.0166286565003804,0.1966563431020986,-0.2386707050810438,-0.104343612658512,-0.3924052853967671,0.213552417055106,-0.508744976454492,-0.5306901566452186,-14.12494196580974,21.1539530613692,41.00979782676738,0.8430293868014738,0.4721601553720013,1.6463104352623157,4599.776041666667,11.932888888888888,0.11,178.97457808412364,-8.845358506631989,104.66255628758184,1553.0,1435.0,1200.0,1712.0,1471.0,997.6,110.0,292.15,1649404607.8391342,1649404608.845602,67b306c0-2b48-419c-8b68-a99b57e6d228
-0.0293302973895473,0.1893193708884121,-0.2357253967972552,-0.1017401706648242,-0.3874745233552873,0.2147226509656624,-0.5048266639438428,-0.5316631601977985,-14.207020815455442,21.156605732139663,40.522118614078224,0.839831517634715,0.4494114936012505,1.6283896734585177,4600.873046875,11.931888888888889,0.11,178.9617494710425,-8.841278227512813,104.62802892241751,1553.0,1435.0,1200.0,1712.0,1471.0,997.6,110.0,292.15,1649404608.953881,1649404610.081849,67b306c0-2b48-419c-8b68-a99b57e6d228
-0.0647528863278684,0.1713976985573386,-0.3860676126865839,-0.055075445486744,-0.5238265351729331,0.1986943909298024,-0.6752075239333147,-0.69969040586154,-15.416726628389046,21.76995128254893,40.62009916986901,0.6945362768280258,0.3746220078926439,2.2589061979836824,4594.297960069444,11.927,0.11,178.98442569908696,-8.851580619238394,104.51891437369684,1553.0,1435.0,1200.0,1801.0,1471.0,997.6,110.0,292.15,1649404612.122218,1649404613.1463616,872e5c76-975d-4347-9ff3-3465a26b1932
-0.061174417926795,0.1693449848526036,-0.3903722944609759,-0.0521473318731794,-0.5269164797075271,0.2036200946283496,-0.6796184075840278,-0.7048537998037074,-15.547675124938188,21.8169412371643,41.38382558925191,0.6991528677519395,0.3604484063310268,2.276006330926527,4605.267686631944,11.923,0.1,178.9925187143435,-8.864418528965864,104.46253495664794,1553.0,1435.0,1200.0,1801.0,1471.0,997.6,110.0,292.15,1649404613.2544603,1649404614.488266,872e5c76-975d-4347-9ff3-3465a26b1932
-0.0745618141395751,0.1784322508008513,-0.3838191851163304,-0.0615577529894002,-0.5243919292041441,0.1991808926754839,-0.6732089212969753,-0.6977969927701619,-15.315494224662343,21.783415353417645,40.836055354572366,0.7105386028738333,0.3993162209546063,2.2549300460865345,4621.822482638889,11.92988888888889,0.1055555555555555,178.9808390908628,-8.872951522241456,104.45078779018542,1553.0,1435.0,1200.0,1801.0,1471.0,997.6,110.0,292.15,1649404614.5974042,1649404615.8179195,872e5c76-975d-4347-9ff3-3465a26b1932
0.072624694361009,0.2255571761704918,0.0175974003596982,-0.1438685963551108,-0.1296680033422426,0.2219544335568666,-0.1913090962274919,-0.2219718592920542,-11.49100107771512,16.987977310722716,43.29931597567984,0.9379030246258836,0.5626632738797198,0.4971014460159951,7565.248046875,11.653,7.526666666666666,-179.2518154625344,-8.956417192808917,91.39365934675452,1553.0,1435.0,1350.0,1528.0,1471.0,997.6,110.0,292.15,1649404620.6763065,1649404621.6560688,b6ab5d29-73b1-429f-b968-4652dd0ff00f
0.0810464342750977,0.226529168208164,0.0039242731966206,-0.154783026462044,-0.1438342074070962,0.2221673412830583,-0.2014735451493597,-0.2307926125666555,-11.25520569608302,16.758693579504715,41.94675913701397,0.9607040449896936,0.5771007184818919,0.5478795648928487,7571.93115234375,11.651000000000002,7.483333333333332,-178.77601689585225,-8.8599785265504,86.40659217081027,1553.0,1435.0,1350.0,1528.0,1471.0,997.6,110.0,292.15,1649404621.764448,1649404622.8816164,b6ab5d29-73b1-429f-b968-4652dd0ff00f
0.0865623122914325,0.2284498892059863,0.0157697315103165,-0.145656819197976,-0.1282742414817795,0.2157482492161369,-0.1893104942373504,-0.2119262543658144,-11.376949283875197,16.47082658119057,42.59259620450318,0.9244161875405036,0.5790646489697274,0.4944784031779353,7572.675021701389,11.649333333333333,7.583333333333333,-178.4944719448049,-8.781533993660283,80.9345701801465,1553.0,1435.0,1350.0,1528.0,1471.0,997.6,110.0,292.15,1649404622.9899893,1649404624.1149447,b6ab5d29-73b1-429f-b968-4652dd0ff00f
0.2756537061997216,0.5860943992879113,0.0680752454351449,-0.3156431834909098,-0.166523801688485,0.0249869678113324,-0.2193684168490373,-0.2370271178624803,-10.729098861895858,16.15970270584866,43.12425245060941,0.8801505564248642,1.9353911999366928,0.5611887600560754,7598.7822265625,11.634333333333334,7.59111111111111,-178.8159689490374,-8.674918819857137,72.25914317524236,1658.0,1435.0,1350.0,1528.0,1551.0,997.6,110.0,292.15,1649404626.1404314,1649404627.185442,0639c2bc-3f33-4d83-9866-a4ac4e44ace5
0.2723533836253468,0.5813608690920866,0.0622109269091367,-0.3182203283757572,-0.1693902177328878,0.0261966478633962,-0.2209462605817479,-0.2474540353083262,-10.659549522861823,15.85539289699429,42.27467466757589,0.8862725478310783,1.9246154913494664,0.5737130703603661,7598.7822265625,11.634,7.623333333333333,-179.0181152277131,-8.63681717875465,69.4923891190013,1658.0,1435.0,1350.0,1528.0,1551.0,997.6,110.0,292.15,1649404627.2936509,1649404628.4105046,0639c2bc-3f33-4d83-9866-a4ac4e44ace5
0.2652040333226784,0.5793314185947745,0.060375166605759,-0.3059551215428413,-0.1688167322651381,0.0207900050510861,-0.2251791298192558,-0.2409322812429558,-10.781888848920683,15.880241537036476,42.805638665718725,0.8465521701634857,1.911537719762024,0.5819761131625969,7598.7822265625,11.625333333333334,7.59,-179.23428919712418,-8.654652889679802,67.19964411987984,1658.0,1435.0,1350.0,1528.0,1551.0,997.6,110.0,292.15,1649404628.5184689,1649404629.642606,0639c2bc-3f33-4d83-9866-a4ac4e44ace5
0.4294276977448475,0.87210481299761,0.1083759989537615,-0.4495626804380059,-0.2026432736161335,-0.1381489129070763,-0.2514512394101649,-0.2720158029628228,-10.190937369298313,16.36361485856225,42.267701838964825,0.8191448492763627,3.030933423508884,0.6336471684343399,7598.7822265625,11.582333333333333,7.593333333333334,-179.88133730231652,-8.683731756024962,64.12009927386832,1767.0,1435.0,1350.0,1528.0,1630.0,997.6,110.0,292.15,1649404630.758817,1649404631.783631,7676e242-d152-4aad-b6e3-edbe00e21150
0.4481352566042054,0.861105423820158,0.0896057296247324,-0.4596811101718605,-0.2121568619968389,-0.1350094085977868,-0.2597956053350373,-0.2806565204525032,-10.26161719368024,15.489260919635752,39.76536766413844,0.8418591361440824,3.0123984374194115,0.679432016814071,7598.7822265625,11.582444444444445,7.588888888888889,179.88755277446126,-8.688355509501845,62.67205135850142,1767.0,1435.0,1350.0,1528.0,1630.0,997.6,110.0,292.15,1649404631.8923657,1649404633.1213114,7676e242-d152-4aad-b6e3-edbe00e21150
0.4312948124411938,0.8524869599013618,0.0939650280460296,-0.4532706136198765,-0.2094280015657939,-0.1265649107132148,-0.2577626143756051,-0.2813776763590601,-10.352979811298036,15.993968019139407,40.62302622432327,0.8500280951958267,2.972614840150139,0.6668304520538914,7598.7822265625,11.582,7.64777777777778,179.67833952672433,-8.728047161724866,61.39479991242976,1767.0,1435.0,1350.0,1528.0,1630.0,997.6,110.0,292.15,1649404633.2301643,1649404634.2379637,7676e242-d152-4aad-b6e3-edbe00e21150
0.5751020902728097,1.102088643356722,0.1241149879993704,-0.5681508036860999,-0.2480720242112133,-0.2851382036739014,-0.2985761731387964,-0.3180625441373276,-10.049324234212245,16.521117855422034,37.76192463930838,0.7575268788644935,3.948046078391369,0.7616323243667371,7598.7822265625,11.509888888888888,7.644444444444444,179.14868719516633,-8.754499440879203,59.74293156313062,1886.0,1435.0,1350.0,1528.0,1710.0,997.6,110.0,292.15,1649404635.1515338,1649404636.1977406,ec2d7266-bc8a-46a1-bc26-8ac3a9510ee8
0.5590738310780775,1.101983453786026,0.1280332994812812,-0.5680982083834919,-0.2441668608417816,-0.2884122293895889,-0.2943685896510065,-0.31702379663512,-9.986504320012036,16.471385663735216,37.320544118777526,0.7498777521918382,3.95135995507558,0.7444111058469557,7598.7822265625,11.518,7.654444444444445,178.99191765769655,-8.77458702722821,58.910636585089,1886.0,1435.0,1350.0,1528.0,1710.0,997.6,110.0,292.15,1649404636.3062935,1649404637.3149517,ec2d7266-bc8a-46a1-bc26-8ac3a9510ee8
0.5807034343368492,1.0989592538107358,0.1324381125440892,-0.5602615831965865,-0.2385129209315669,-0.2869395752406783,-0.2900426680985385,-0.3111857749932053,-10.016107483919251,16.517514292487228,38.167210972165336,0.7361546809085627,3.932038071102712,0.7254040981169926,7598.7822265625,11.515666666666666,7.636666666666667,178.81165682294142,-8.777067524261787,58.10201352489081,1886.0,1435.0,1350.0,1528.0,1710.0,997.6,110.0,292.15,1649404637.423437,1649404638.5407465,ec2d7266-bc8a-46a1-bc26-8ac3a9510ee8
-0.1791728484773792,-0.2038661023275867,-0.0434125516119273,0.0394242362848737,-0.0903665478991942,0.4577368383493856,-0.155373706302889,-0.1779105737308506,-12.135285558789626,17.914339323197975,40.89440972557281,1.0566692519873284,-1.0484796630888351,0.4209945844948191,7598.7822265625,11.624888888888888,7.639999999999999,179.4102333523239,-8.758178730975853,56.941232741275954,1449.0,1435.0,1350.0,1528.0,1386.0,997.6,110.0,292.15,1649404639.7694423,1649404640.794968,c85b0f11-f72e-46de-bad2-2814c8dd2e8e
-0.1756884436755096,-0.2087705665161313,-0.0450955847420047,0.0453148521784296,-0.0916682688794448,0.4625755581355171,-0.1581875274839167,-0.1871146617271832,-12.233431210957972,18.12847327019206,41.65041659725907,1.0556615390145792,-1.0737085293694626,0.4294359864338455,7598.7822265625,11.624222222222222,7.614444444444445,179.2740849148683,-8.761035362732473,56.53476325085408,1449.0,1435.0,1350.0,1528.0,1386.0,997.6,110.0,292.15,1649404640.9038956,1649404642.1357028,c85b0f11-f72e-46de-bad2-2814c8dd2e8e
-0.1761092019788946,-0.2100459901838284,-0.0462263727758608,0.0462747070072234,-0.0905637784360104,0.4640482119955904,-0.1576089848931055,-0.1711652923143535,-12.294053242601452,17.959384046572488,41.80789938347364,1.0556229610348138,-1.0796515739462975,0.4287525059045641,7598.7822265625,11.626333333333331,7.606666666666666,179.15437294819537,-8.756529904337464,56.14388746176232,1449.0,1435.0,1350.0,1528.0,1386.0,997.6,110.0,292.15,1649404642.2442958,1649404643.3704383,c85b0f11-f72e-46de-bad2-2814c8dd2e8e
-0.3720642484235522,-0.5722663460459393,-0.0931935177391585,0.2059919169458216,-0.0600719503615875,0.6730598678118013,-0.1324555270516016,-0.1525335877116191,-13.123985803899066,19.792989453315773,41.87298703846647,1.1744263146178875,-2.4555119250814044,0.3717603357912678,7598.7822265625,11.588,7.559999999999999,178.96096931165732,-8.721206442679883,55.50983530928573,1342.0,1435.0,1350.0,1528.0,1293.0,997.6,110.0,292.15,1649404645.077079,1649404646.0336006,f54171f8-46c4-4745-9cbf-d856dde8f851
-0.388260916661478,-0.5681705258973232,-0.0909612735958632,0.198297401374983,-0.0571665941030701,0.6766444043464338,-0.1274109788366267,-0.1525452192654537,-13.152615567572424,19.537025215384467,41.977002230223256,1.198254690912883,-2.439784827927729,0.3582378429260243,7598.7822265625,11.576666666666666,7.563333333333333,178.83943292556611,-8.713093031719554,55.28499231199808,1342.0,1435.0,1350.0,1528.0,1293.0,997.6,110.0,292.15,1649404646.1478398,1649404647.2563505,f54171f8-46c4-4745-9cbf-d856dde8f851
-0.3902094527062691,-0.5747777477677234,-0.1060923894659037,0.18662388812943,-0.0692891868019203,0.6774778293197546,-0.1357689987325065,-0.1514027997926696,-12.96553947540583,19.08622268777949,39.562489255289485,1.2224275230007455,-2.444019856148792,0.4032832262895949,7598.7822265625,11.581333333333331,7.586666666666667,178.76055031193175,-8.697727762271704,55.11687441522233,1342.0,1435.0,1350.0,1528.0,1293.0,997.6,110.0,292.15,1649404647.3655574,1649404648.372058,f54171f8-46c4-4745-9cbf-d856dde8f851
-0.5933174153076639,-0.9406535295156152,-0.1436056223800166,0.3341522519674171,-0.0318548472418355,0.8842147612371227,-0.1014377506851542,-0.1249476210977887,-13.807922304573458,21.06237904810714,37.27097148501766,1.3646481242934732,-3.810513169445488,0.3069409877102168,7598.7822265625,11.477666666666668,7.545555555555556,178.75478715009206,-8.687346823370667,54.742750803434895,1239.7777777777778,1435.0,1350.0,1528.0,1200.5555555555557,997.6,110.0,292.15,1649404650.080201,1649404651.0136058,adfe793c-eaf8-437b-a327-f037b77de245
-0.5946322853388203,-0.9354334940646194,-0.1287212971302092,0.3479846794726305,-0.0213753360379596,0.8803358961583367,-0.0970460858863491,-0.1207663354822331,-14.103254841599004,21.7885352608116,39.32320373686272,1.3304626211641908,-3.807780620232797,0.2692685863060402,7598.7822265625,11.483,7.563333333333333,178.75941042925024,-8.666142880547318,54.55454228467051,1227.0,1435.0,1350.0,1528.0,1189.0,997.6,110.0,292.15,1649404651.1219783,1649404652.1766722,adfe793c-eaf8-437b-a327-f037b77de245
-0.5798794435118277,-0.9385628855832094,-0.1365316233029771,0.3426200117275544,-0.0264507329474365,0.8786265658034634,-0.0991893235069598,-0.1263150855580198,-13.876151569504932,21.34752771118361,37.90868139428625,1.335299344238367,-3.8084303531852752,0.2877983712016068,7598.7822265625,11.476777777777777,7.556666666666666,178.74686716629446,-8.650987354825228,54.41303290762638,1227.0,1435.0,1350.0,1528.0,1189.0,997.6,110.0,292.15,1649404652.284938,1649404653.409209,adfe793c-eaf8-437b-a327-f037b77de245
0.0641043392621866,0.2336173265800123,0.0056583839482823,-0.1416596152126069,-0.1370312737834391,0.2039670179018325,-0.2028273552860145,-0.2312153939105757,-11.496633331063288,16.35811163765721,42.07216450946488,0.8875315905468838,0.602770289688434,0.5393226552223375,7598.7822265625,11.637666666666666,7.615555555555555,178.2678007335494,-8.682046311983523,54.202729865261865,1553.0,1435.0,1350.0,1528.0,1471.0,997.6,110.0,292.15,1649404655.098479,1649404656.1545043,37bd7a4a-3332-40de-a1c5-40f2f8a5ef7f
0.0628026183426606,0.2287391605099771,0.0055794917841565,-0.1357032553997013,-0.1367945972321644,0.2043746274588311,-0.2051152286508258,-0.2334638208753326,-11.61873612026433,16.58173811847178,42.21910550298522,0.8764519336915072,0.5833015160663559,0.5418573208583091,7598.7822265625,11.63122222222222,7.584444444444445,178.23093592586915,-8.666302061900474,54.21609199200813,1553.0,1435.0,1350.0,1528.0,1471.0,997.6,110.0,292.15,1649404656.2634342,1649404657.3825493,37bd7a4a-3332-40de-a1c5-40f2f8a5ef7f
0.0606856782384691,0.22428175269737,0.0089718554613579,-0.1313510366356662,-0.135216753595559,0.2097787413823017,-0.2027879091974965,-0.2333454825609705,-11.56435584412288,16.906027173112747,42.953582175016265,0.8812412818758818,0.5593736944613402,0.5322101322910613,7598.7822265625,11.636111111111113,7.582222222222222,178.2270988773754,-8.64114201659161,54.2592276722564,1553.0,1435.0,1350.0,1528.0,1471.0,997.6,110.0,292.15,1649404657.490711,1649404658.515975,37bd7a4a-3332-40de-a1c5-40f2f8a5ef7f
0.0858259852929708,0.215971777050545,-0.0157476938723795,-0.4862081054201349,-0.1929526834783131,0.5682253227969171,-0.1270382638283035,-0.1421724144783187,-11.657272930343677,16.1090657973457,46.50403539501027,2.4811943864960866,0.5395061973010676,0.5378454499662615,7598.7822265625,11.624888888888888,7.59111111111111,178.25760250220867,-8.540890302365192,54.36752942846584,1553.0,1522.0,1350.0,1528.0,1471.0,997.6,110.0,292.15,1649404660.6574624,1649404661.7993877,e4c351c0-7c4b-462c-8857-b0b7a7ec8e79
0.0820523095087608,0.2088057379127194,-0.0208625368572663,-0.483907083063309,-0.1928474939314896,0.5633340082551154,-0.1279060778297948,-0.1469716888576694,-11.614631313946838,15.680864865398974,45.09449613230456,2.461715902186883,0.5242052767820105,0.5432804694132082,7598.7822265625,11.626111111111111,7.585555555555555,178.27079842768515,-8.519852655675384,54.373445890106886,1553.0,1522.0,1350.0,1528.0,1471.0,997.6,110.0,292.15,1649404661.9080515,1649404663.0213282,e4c351c0-7c4b-462c-8857-b0b7a7ec8e79
0.0826965956012324,0.2186935570512851,-0.0192978419875574,-0.4908232989944894,-0.1951222185862881,0.5603624031903014,-0.1279060778464759,-0.1439869344847852,-11.483031676819232,15.724770362779417,45.14872755938286,2.471083452403007,0.5608300007801278,0.5455321602208331,7598.7822265625,11.625555555555556,7.596666666666668,178.29035250036898,-8.532403318002759,54.43353599714989,1553.0,1522.0,1350.0,1528.0,1471.0,997.6,110.0,292.15,1649404663.1296873,1649404664.1420994,e4c351c0-7c4b-462c-8857-b0b7a7ec8e79
0.1108085078361164,0.2151434092263684,-0.0371800694335875,-0.8785785005086617,-0.2540941277880993,0.9374143819202272,-0.0395468347556648,-0.0616629426890808,-11.230566819990996,15.046421252154628,47.77271869709064,4.188208417452832,0.5690673591003998,0.5247511695534904,7598.7822265625,11.625555555555556,7.57888888888889,178.32586644841342,-8.408433392428519,54.53282683656931,1553.0,1613.0,1350.0,1528.0,1471.0,997.6,110.0,292.15,1649404665.164728,1649404666.30149,bdea9525-4676-486e-87b0-f81ba634d927
0.1119261469730153,0.2216520135712857,-0.0348133040050769,-0.8771452918411745,-0.2525294327272301,0.9303009378070852,-0.039744065176085,-0.0572975753277541,-11.260565784520008,15.02922494664635,47.864348255417866,4.16899394940944,0.5928520874311556,0.5205900730080578,7598.7822265625,11.616222222222223,7.58,178.33766446183972,-8.381237191837082,54.5689494303598,1553.0,1613.0,1350.0,1528.0,1471.0,997.6,110.0,292.15,1649404666.409742,1649404667.5266788,bdea9525-4676-486e-87b0-f81ba634d927
0.0914799246357559,0.2153932344442115,-0.0336430699805859,-0.8693086648745784,-0.2502810053926211,0.932707149033956,-0.0412035704927563,-0.0651341985784591,-11.498971802748372,15.29152348397371,48.35718224008984,4.158479148472583,0.5658110429105311,0.5177426234862798,7598.7822265625,11.617666666666668,7.573333333333333,178.34975845013014,-8.366673520979322,54.617204716845926,1553.0,1613.0,1350.0,1528.0,1471.0,997.6,110.0,292.15,1649404667.6401622,1649404668.760134,bdea9525-4676-486e-87b0-f81ba634d927
0.1269814038956021,0.2171683083558706,-0.0510782417999386,-1.2200766710381854,-0.3074120983476996,1.2694583938833333,0.0352166535220872,0.0163614229609256,-11.15719932008076,14.79242757517412,50.7888920653659,5.70283378860314,0.5905707729901063,0.5115299576507729,7598.7822265625,11.581333333333331,7.563333333333334,178.40454567419252,-8.265073887892953,54.70651627043302,1553.0,1710.0,1350.0,1528.0,1471.0,997.6,110.0,292.15,1649404669.6694105,1649404670.8151226,2d8fb306-4d92-4851-a31e-3c36227d5788
0.1258243186330219,0.2118562353123509,-0.0545757951547979,-1.2209576345157886,-0.3092397674157627,1.26981340866104,0.0340464195575077,0.0053822613998104,-11.103582350513893,14.674972787006968,49.96777063103664,5.704562113103018,0.5774301074607122,0.5187301191548805,7598.7822265625,11.58025,7.54875,178.43388532095474,-8.254555325423329,54.730875713221046,1553.0,1710.0,1350.0,1528.0,1471.0,997.6,110.0,292.15,1649404670.95127,1649404672.043267,2d8fb306-4d92-4851-a31e-3c36227d5788
0.112701920040956,0.2098050387885973,-0.0579024153867558,-1.215053864945968,-0.3136182839245508,1.272377404442658,0.0254340234553775,0.0098659668895642,-11.396230076273802,15.109203310392672,50.76927000107555,5.699699671604671,0.5637740872292705,0.5420417256187663,7598.7822265625,11.579666666666668,7.559999999999999,178.45686036977537,-8.26505168977815,54.73098542313459,1553.0,1710.0,1350.0,1528.0,1471.0,997.6,110.0,292.15,1649404672.156675,1649404673.266075,2d8fb306-4d92-4851-a31e-3c36227d5788
0.1323460718387348,0.2239135892145203,-0.0583100250248807,-1.2994291237613351,-0.3327627887121362,1.335780419028341,0.0370311735578314,0.0188596752361793,-11.125600053086298,15.597461121429465,50.738343354512544,6.0358523450762505,0.6254192191460224,0.5530735539460806,7598.7822265625,11.53722222222222,7.528888888888888,178.49535835157718,-8.261197565811493,54.80394512439372,1553.0,1814.0,1350.0,1528.0,1471.0,997.6,110.0,292.15,1649404674.1759408,1649404675.220853,f67c92b2-940c-40ed-8add-f448cef0fea8
0.116607082736795,0.2209551326991349,-0.0596774895737732,-1.288778669421487,-0.3345510118059944,1.3312046723108089,0.0305488662463434,0.0036860795567806,-11.265687717851852,15.943126810747842,51.03616252558533,6.003745542171998,0.6112830241530446,0.5665182315912415,7598.7822265625,11.534555555555556,7.561111111111113,178.5097351408701,-8.264271530392953,54.79784083255049,1553.0,1814.0,1350.0,1528.0,1471.0,997.6,110.0,292.15,1649404675.3310845,1649404676.2900436,f67c92b2-940c-40ed-8add-f448cef0fea8
0.1111503739178907,0.2187330031351867,-0.0548519177979177,-1.2660839993402322,-0.3264645622470741,1.3124677797423514,0.0317453976626872,0.0101157918672206,-11.201947822592166,15.883249544392688,51.05743862309466,5.91032645149967,0.5998196828168265,0.5472520723787677,7598.7822265625,11.528444444444444,7.542222222222222,178.5350296080964,-8.24732412351486,54.7863592845557,1553.0,1814.0,1350.0,1528.0,1471.0,997.6,110.0,292.15,1649404676.4000714,1649404677.454147,f67c92b2-940c-40ed-8add-f448cef0fea8
0.0617244252307651,0.2351951700535121,0.0276298556175282,0.1854142081627064,-0.0859485858012738,-0.1109048124838035,-0.2753950183656504,-0.2963277457706426,-11.708933559127097,17.564304127192344,40.13892848432236,-0.5491508738800416,0.5884685350224956,0.5428061067443436,7598.7822265625,11.628,7.614444444444445,178.61773257420657,-8.710688994859186,54.83011271746889,1553.0,1400.6666666666667,1350.0,1528.0,1471.0,997.6,110.0,292.15,1649404679.0781672,1649404680.230586,37af6af2-2853-4e3d-99c3-c234b6f89f11
0.0557812145418089,0.2352346161370648,0.0255392129358423,0.1872287281201986,-0.0891042730481852,-0.1122854256771075,-0.2794711147175137,-0.300377544783853,-11.718324560451864,17.719539794298736,40.1601135891231,-0.5554227827498207,0.5881418768208715,0.5557378192931606,7598.7822265625,11.642,7.573333333333333,178.60421031746975,-8.800047031678124,55.01116888980741,1553.0,1349.0,1350.0,1528.0,1471.0,997.6,110.0,292.15,1649404680.3446352,1649404681.4533863,37af6af2-2853-4e3d-99c3-c234b6f89f11
0.0529673935539388,0.2309349926763524,0.0314429776051263,0.1984051195151065,-0.0825299245616395,-0.1098134706303124,-0.2760261558228752,-0.30211317347882,-11.870226774012371,17.975706253027262,41.40863874195091,-0.5729644855603125,0.5610277129048002,0.5349582615042291,7598.7822265625,11.644666666666666,7.569999999999999,178.62193541727586,-8.79028906294764,55.14398040039849,1553.0,1349.0,1350.0,1528.0,1471.0,997.6,110.0,292.15,1649404681.5649598,1649404682.6859443,37af6af2-2853-4e3d-99c3-c234b6f89f11
0.0372132325441913,0.2356447542997621,0.0593131565600842,0.5195301422344023,-0.027784314203838,-0.4244324816963774,-0.3451989286941435,-0.359144135232396,-12.24243440064999,19.35777456740768,39.2035439517848,-1.994324005240723,0.5631231721392638,0.520337852864248,7598.7822265625,11.62511111111111,7.585555555555555,178.66053205736569,-8.903072466753734,55.37344819466414,1553.0,1264.0,1350.0,1528.0,1471.0,997.6,110.0,292.15,1649404683.8017056,1649404684.939423,a81ce96f-770e-4f3f-a14e-8c8f2f4d38bc
0.0388062476594489,0.2369176491726337,0.0437370086817512,0.5048880588696695,-0.0424526967505257,-0.4229234156314071,-0.3553654012387915,-0.379887724955765,-12.049699746935458,18.942077897290773,37.58449100080643,-1.9615963398703744,0.5816910579826425,0.5740711144281443,7598.7822265625,11.622333333333334,7.607777777777778,178.68974553535574,-8.919624386706138,55.49186773776411,1553.0,1264.0,1350.0,1528.0,1471.0,997.6,110.0,292.15,1649404685.047714,1649404686.1685593,a81ce96f-770e-4f3f-a14e-8c8f2f4d38bc
0.0309170298757473,0.2347875604836395,0.0476684688548424,0.5051378840723336,-0.0365094858849505,-0.422450062469529,-0.3503820445172276,-0.3660684420463546,-12.17062855825643,18.82299329354493,37.4242839374449,-1.9617762727349748,0.5761942010595152,0.5530047929527613,7598.7822265625,11.628444444444444,7.592222222222222,178.7099947695151,-8.925426916997278,55.60356220071627,1553.0,1264.0,1350.0,1528.0,1471.0,997.6,110.0,292.15,1649404686.2764318,1649404687.4078052,a81ce96f-770e-4f3f-a14e-8c8f2f4d38bc
0.0290499149811848,0.2429134543563124,0.0746758908951029,0.845597043713894,0.0136922375066955,-0.7540734357013784,-0.431430623967362,-0.4586352831119697,-12.54518632893411,20.819163293026595,35.7519037156656,-3.460848211155769,0.5839727056745481,0.5637385139893752,7598.7822265625,11.621333333333334,7.62,178.7265298985858,-9.042728206348125,55.73692543881031,1553.0,1178.0,1350.0,1528.0,1471.0,997.6,110.0,292.15,1649404688.7158546,1649404689.7408695,049527ad-4eda-401c-bb80-2fa5d5c2a53c
0.0358214936070908,0.2387058717750362,0.0740184560584994,0.8373528118988517,0.0136001966091825,-0.7437122586163878,-0.4280908544159066,-0.4529287474660257,-12.553899384156011,20.73759729767466,35.571008310215696,-3.4195749640797493,0.5708286333102326,0.5591957546511614,7598.7822265625,11.612666666666668,7.623333333333335,178.75360476845572,-9.060819669912195,55.804669531728216,1553.0,1178.0,1350.0,1528.0,1471.0,997.6,110.0,292.15,1649404689.8495915,1649404690.9702904,049527ad-4eda-401c-bb80-2fa5d5c2a53c
0.0369128353958127,0.2373778535180846,0.0686800854298756,0.8357881171869225,0.0089981528896196,-0.7448956417806216,-0.4313911778662171,-0.447629821365993,-12.41809486640131,20.590618348040184,34.98111507064449,-3.419970444430195,0.5699665058370523,0.576588540860206,7598.7822265625,11.611444444444444,7.63111111111111,178.7691411720878,-9.051611341682417,55.83757207078,1553.0,1178.0,1350.0,1528.0,1471.0,997.6,110.0,292.15,1649404691.0795991,1649404692.1074753,049527ad-4eda-401c-bb80-2fa5d5c2a53c
0.0174527647657227,0.2365363370046098,0.0842744390800778,1.008430485371532,0.0334678768620016,-0.9108585670661168,-0.4727043909806683,-0.495030883132156,-12.561598125906652,21.993858076577407,33.75626459062501,-4.172538926019134,0.5584382331091807,0.5798323906626538,7598.7822265625,11.588333333333331,7.638888888888889,178.8151584332559,-9.124868820216609,55.934983090357846,1553.0,1088.0,1350.0,1528.0,1471.0,997.6,110.0,292.15,1649404694.1337988,1649404695.1786785,afd8e3bf-c5c9-4c58-9396-a03cbe73a4bc
0.0091559373374794,0.2465424943362995,0.0815000641904802,1.0143999930833945,0.0291682531663528,-0.9211671507360952,-0.4795680121303852,-0.5001720247260777,-12.500048246040802,22.013812327362704,34.427930714212025,-4.209037252912136,0.5886682956360498,0.6014880128394302,7598.7822265625,11.574111111111112,7.61888888888889,178.83222479926204,-9.142121878060058,55.93256520339166,1553.0,1088.0,1350.0,1528.0,1471.0,997.6,110.0,292.15,1649404695.2876692,1649404696.4132185,afd8e3bf-c5c9-4c58-9396-a03cbe73a4bc
0.0266831496309229,0.2418089639315357,0.0961345630057523,1.0180947764488726,0.0445522278999073,-0.9162495355966996,-0.4660117030078328,-0.4932163630623482,-12.758921439182927,22.197579730336948,35.05866817319073,-4.204404091448095,0.5676326681407048,0.5413775349066541,7598.7822265625,11.571444444444444,7.615555555555555,178.83397180986972,-9.129892708942366,55.95777353434342,1553.0,1088.0,1350.0,1528.0,1471.0,997.6,110.0,292.15,1649404696.521745,1649404697.5192144,afd8e3bf-c5c9-4c58-9396-a03cbe73a4bc
0.0613825591516765,0.2278187518209302,0.0057898709737338,-0.1661819356113864,-0.138385589520698,0.2386795743695891,-0.1958979916451771,-0.2204466100236343,-11.76434923636695,16.482040437813733,43.015610890497946,1.0216954022492502,0.577584854574377,0.5312980365115516,7598.7822265625,11.635333333333335,7.617777777777778,178.87220872666325,-8.789793684505334,55.97155116426418,1553.0,1435.0,1350.0,1528.0,1471.0,997.6,110.0,292.15,1649404699.7764032,1649404700.9135685,9f430339-4fec-40ae-9029-4ef9190019ea
0.0685748959476267,0.2280817257287989,0.0041725813052389,-0.1699030169758748,-0.1397267566472672,0.2374961917713832,-0.1948592445419384,-0.2245884500402314,-11.589619340320349,16.28896015251661,42.39644280351478,1.0260588042701215,0.5831744852043187,0.5331776915558865,7598.7822265625,11.641111111111112,7.601111111111111,178.9197984491603,-8.777544688866303,55.97101992732874,1553.0,1435.0,1350.0,1528.0,1471.0,997.6,110.0,292.15,1649404701.021249,1649404702.1421895,9f430339-4fec-40ae-9029-4ef9190019ea
