raw_voltage_G-,raw_voltage_G0,raw_voltage_G1,raw_voltage_G2,raw_voltage_G3,raw_voltage_G4,raw_voltage_G5,raw_voltage_G6,load_x,load_y,load_z,load_l,load_m,load_n,rpm,voltage,current,roll,pitch,yaw,aileron1_pwm,elevator_pwm,throttle_pwm,rudder_pwm,aileron2_pwm,pbaro,pdiff,Tt,sample_start_time,sample_end_time,uid
-0.0670028306297558,0.0838152462493912,-0.0933507962770669,-0.0140034686540562,-0.2674951793702039,-0.042146736606271,-0.4720459444993234,-0.5026040284788128,-16.66284112109563,27.642924542583486,1.428595698304244,0.1073191665138947,0.4159070081948819,1.1527142437527502,4523.976616753473,11.965333333333332,0.1588888888888888,178.80164224779836,6.129611544202665,78.72383450347948,1553.0,1435.0,1200.0,1528.0,1471.0,999.0,110.0,293.85,1649418061.8008137,1649418062.7787943,da7b27c5-a5b4-4cb8-9882-d2943b30b6af
-0.0742593941660369,0.080658547741256,-0.0990709851888616,-0.017535916546219,-0.2709639070486329,-0.0347607091026278,-0.4735722050743388,-0.5011187306818509,-16.65438293692817,27.423248574894743,1.5510923379798236,0.1301675920609601,0.4029904848660092,1.1672650043862052,4533.813802083333,11.963555555555557,0.16,178.69772774976573,6.074198883512521,78.56640167875031,1553.0,1435.0,1200.0,1528.0,1471.0,999.0,110.0,293.85,1649418062.8878028,1649418064.008416,da7b27c5-a5b4-4cb8-9882-d2943b30b6af
-0.0612629187467458,0.0843968231886211,-0.0933507962848562,-0.0169745683519525,-0.2677480389495453,-0.037532049785018,-0.4706552166846965,-0.4950688116334004,-16.645355471047644,27.61240236585922,1.782101772503888,0.124253874504942,0.4151966890930001,1.1516462117123998,4535.14599609375,11.965,0.151111111111111,178.6304443151619,6.0168653269820505,78.45633849264492,1553.0,1435.0,1200.0,1528.0,1471.0,999.0,110.0,293.85,1649418064.118662,1649418065.23649,da7b27c5-a5b4-4cb8-9882-d2943b30b6af
0.1455635455313507,0.4497156286202726,-0.083223771064439,-0.2364187377247795,-0.3441116324233555,-0.1860870404456303,-0.5288887845397011,-0.5561470511958381,-16.51925277567744,26.44525974685894,2.650419292630543,0.2784122776151229,1.804416400931608,1.368835524263034,4535.14599609375,11.964,0.16,178.26468616728786,5.951639439433759,78.18764795761551,1658.0,1435.0,1200.0,1528.0,1551.0,999.0,110.0,293.85,1649418067.3763783,1649418068.5133553,76a9ea2c-b6ae-42c3-a36e-9e466bc1e123
0.1377375428836884,0.443444712483864,-0.0850317169023226,-0.2292628118219276,-0.3448828541747629,-0.1846330979129347,-0.5325299629851937,-0.5577653526160495,-16.66158553078862,26.652411528156463,2.897516069267477,0.2667884175197099,1.7787218878781736,1.3770025625200295,4535.679524739583,11.931,0.14,178.26631934140943,5.940151393272881,78.15027543920692,1658.0,1435.0,1200.0,1528.0,1551.0,999.0,110.0,293.85,1649418068.6220226,1649418069.7432492,76a9ea2c-b6ae-42c3-a36e-9e466bc1e123
0.1287696265452429,0.4497687291192748,-0.0844759315876472,-0.2342790399979708,-0.3437419517076725,-0.185720899770528,-0.5296251117232119,-0.5554754562829662,-16.589691757498564,26.341060268168786,2.9837353003485028,0.2736729858989617,1.8018153484748405,1.3715760162108523,4539.9501953125,11.935,0.15,178.2548643552614,5.919939820017691,78.10875244251268,1658.0,1435.0,1200.0,1528.0,1551.0,999.0,110.0,293.85,1649418069.8521097,1649418070.9724562,76a9ea2c-b6ae-42c3-a36e-9e466bc1e123
0.3210824488792143,0.8258871497638368,-0.0755479663960427,-0.4554401486323819,-0.4293662781389258,-0.3447018066810677,-0.5988267207584819,-0.61573594984791,-16.433198107485303,25.80628582395122,3.5949861372095806,0.4123826173919805,3.233749561805489,1.6193202341619843,4539.9501953125,11.931571428571427,0.1485714285714285,177.96039343383333,5.928859111988307,78.07459173924953,1767.0,1435.0,1200.0,1528.0,1630.0,999.0,110.0,293.85,1649418071.7874465,1649418073.02681,430bd0f3-1ea2-479a-8d17-da920adc9093
0.3386622545573397,0.836642782327684,-0.0635958010013234,-0.4610546432394858,-0.4230154564920078,-0.3512761559299868,-0.5913582589205778,-0.6138556855014698,-16.368662509789043,26.053456507955616,3.495090386232971,0.4125243250671025,3.275971489578915,1.5847995680189226,4533.28125,11.895444444444443,0.1388888888888889,177.97246335383804,5.933416257568819,78.09322818143916,1767.0,1435.0,1200.0,1528.0,1630.0,999.0,110.0,293.85,1649418073.1617768,1649418074.246226,430bd0f3-1ea2-479a-8d17-da920adc9093
0.360924007135683,0.8315840747591904,-0.0627295041866141,-0.4551928519677911,-0.4206395877386782,-0.3495228275694116,-0.5898658814638389,-0.6125726757718704,-16.378420320383313,26.079054844258664,3.815680971183606,0.4035005454612139,3.253559578405855,1.5781319909016551,4537.813910590277,11.904,0.14,177.99939858428493,5.92591329476556,78.10971474027575,1767.0,1435.0,1200.0,1528.0,1630.0,999.0,110.0,293.85,1649418074.3588126,1649418075.4770343,430bd0f3-1ea2-479a-8d17-da920adc9093
0.4581575965644533,1.0611173081070917,-0.0520249479262814,-0.5700310671678982,-0.4706663425252385,-0.4708767218114013,-0.64205964863693,-0.6594553802582271,-16.619700163106565,26.538899321148843,3.3393714989594208,0.3932330190533348,4.1352034494772445,1.731728933013155,4539.9501953125,11.881777777777778,0.1355555555555555,177.86322282607267,5.912203350122183,78.07120765155503,1886.0,1435.0,1200.0,1528.0,1710.0,999.0,110.0,293.85,1649418077.41228,1649418078.5490315,21ca2558-c01a-4da5-bd61-68768ad2dd4a
0.4608920194176443,1.042924064995674,-0.0608204145801157,-0.5587262193643484,-0.4737021749616947,-0.464536014321248,-0.6476695924415897,-0.6696051657765094,-16.716604778043838,26.515598953696944,3.131936296156078,0.3813062063118034,4.067542236844226,1.7533873641962667,4537.546875,11.850666666666664,0.1222222222222222,177.91583197869977,5.917403969992717,78.10864847185532,1886.0,1435.0,1200.0,1528.0,1710.0,999.0,110.0,293.85,1649418078.6575172,1649418079.9819586,21ca2558-c01a-4da5-bd61-68768ad2dd4a
0.4485777607467033,1.0506362805655447,-0.0508071762981847,-0.5620766092134731,-0.4652566641897597,-0.467203683134177,-0.6385034307831704,-0.663422747603214,-16.722378723161253,26.45915771440415,3.462711665353904,0.3830435146163921,4.094623280439914,1.7165739245830829,4528.490776909723,11.846888888888891,0.1222222222222222,177.93391983744175,5.913584139267517,78.11307671116722,1886.0,1435.0,1200.0,1528.0,1710.0,999.0,110.0,293.85,1649418080.0909417,1649418081.2120187,21ca2558-c01a-4da5-bd61-68768ad2dd4a
-0.3423481896702787,-0.3786780438576802,-0.1132452805796163,0.2637935828551342,-0.1773846256297534,0.1529632269787189,-0.4053041589907477,-0.4315095162249351,-16.94448012986278,29.168020437152062,1.2729213850145191,-0.0719319341882111,-1.3507890166829175,0.9075042674925028,4531.150716145833,11.888666666666667,0.1333333333333333,179.026575555365,5.863863397749456,78.02817670087406,1449.0,1435.0,1200.0,1528.0,1386.0,999.0,110.0,293.85,1649418082.3250802,1649418083.4719694,24f64544-c7c8-412f-9371-9459bafdd0c3
-0.3407703458844077,-0.3851472036447855,-0.1176632427727569,0.2633202298005358,-0.181973520999225,0.1549355313439368,-0.4104584489834882,-0.4272493376979284,-17.004192067832594,29.35762775712732,0.5518645437301981,-0.0655401877023688,-1.3684575438269149,0.9251918055118789,4535.4140625,11.946222222222223,0.1455555555555555,179.02088524887648,5.856440499941467,77.91135542203986,1449.0,1435.0,1200.0,1528.0,1386.0,999.0,110.0,293.85,1649418083.58542,1649418084.701233,24f64544-c7c8-412f-9371-9459bafdd0c3
-0.3273849708885682,-0.3824451460415021,-0.1158805828770489,0.2670119789229392,-0.1789437576815703,0.1522137513092098,-0.4065805942374659,-0.4349008692427473,-16.8345460689408,29.11180478192785,1.048125911363224,-0.0813603956297386,-1.3642679408342813,0.9143927373746494,4542.089084201389,11.955888888888888,0.16,179.0335878829129,5.877838344246255,77.80346271827072,1449.0,1435.0,1200.0,1528.0,1386.0,999.0,110.0,293.85,1649418084.8359363,1649418085.9229171,24f64544-c7c8-412f-9371-9459bafdd0c3
-0.5523667997710897,-0.7802439042106143,-0.1268926166958627,0.5163314693331732,-0.0987367048424955,0.3143599255120246,-0.3484987462736273,-0.364150754737125,-16.987784846488225,30.882296479700468,1.486697127965904,-0.2682187269323038,-2.8904222463571303,0.6912993958951812,4544.7646484375,11.957,0.16,179.20923302760897,5.859010121457339,77.57461798903935,1342.0,1435.0,1200.0,1528.0,1293.0,999.0,110.0,293.85,1649418086.8173363,1649418087.7642791,503590f9-d3fa-42e7-bf53-641872193d24
-0.5629742607706435,-0.781394415643468,-0.1279166979028131,0.5163188263507744,-0.0975988368308099,0.3156874380088376,-0.3475884517364228,-0.3745938558562079,-17.03694144459091,30.69682585997496,1.5155429874885955,-0.2665077551653236,-2.894711615669635,0.6897925543566896,4539.9501953125,11.918333333333331,0.14,179.21785727980094,5.868761781749217,77.49352770648323,1342.0,1435.0,1200.0,1528.0,1293.0,999.0,110.0,293.85,1649418087.8733928,1649418088.9939568,503590f9-d3fa-42e7-bf53-641872193d24
-0.5413294775304118,-0.7734925513656958,-0.1267914728989997,0.5112869218973812,-0.1014928740319552,0.310617604500195,-0.3510905570804752,-0.3776281710518681,-16.994135955112213,30.990136198445427,1.2240420411876505,-0.2645741057500919,-2.862098378776577,0.6989592447664015,4539.9501953125,11.915444444444445,0.1422222222222222,179.2406443086919,5.870026884565486,77.40427762459868,1342.0,1435.0,1200.0,1528.0,1293.0,999.0,110.0,293.85,1649418089.102194,1649418090.2210455,503590f9-d3fa-42e7-bf53-641872193d24
-0.7496817692560954,-1.1191340499075972,-0.1242770374248453,0.7382642461796993,-0.0257275545345109,0.4536607428664092,-0.2925014744783924,-0.3182992203642806,-16.81873229854418,33.14616091400867,3.333879961755261,-0.440299943705723,-4.206154851065265,0.4712993516071158,4539.9501953125,11.811,0.11,179.42275840144188,5.889378423167685,77.22959781330533,1227.0,1435.0,1200.0,1528.0,1189.0,999.0,110.0,293.85,1649418091.8267698,1649418092.8856142,d886f77e-07b9-4a23-9bd6-0c4e52b1d7d5
-0.7594082686412806,-1.1230457899251003,-0.1317854491804033,0.7350928820965764,-0.0319312107297746,0.4629528245477702,-0.2964855300034548,-0.3183325978005452,-16.7944734258975,33.05192303973709,3.651375825382903,-0.4132013361422296,-4.223899039296999,0.4956585074566076,4542.896267361111,11.799666666666669,0.1011111111111111,179.4288175381456,5.897069216173119,77.11249725562509,1227.0,1435.0,1200.0,1528.0,1189.0,999.0,110.0,293.85,1649418092.9943826,1649418094.1147244,d886f77e-07b9-4a23-9bd6-0c4e52b1d7d5
-0.7249182123585415,-1.111237240571502,-0.1255651040059651,0.72759559736215,-0.027885457930185,0.4569094819825884,-0.2901766835143128,-0.3206589064595248,-16.660238704442552,32.84271522838224,3.505776548920175,-0.4109022675142834,-4.177955572418952,0.4740240577324395,4544.7646484375,11.808,0.11,179.43738866664404,5.9189394818955,77.02202836442864,1227.0,1435.0,1200.0,1528.0,1189.0,999.0,110.0,293.85,1649418094.223611,1649418095.3385818,d886f77e-07b9-4a23-9bd6-0c4e52b1d7d5
-0.0692153517018892,0.0856484779243501,-0.1003676489881443,-0.0056717465282649,-0.2709467125890636,-0.0503646720350041,-0.4780513601045086,-0.495637745855394,-16.58912651549136,27.297522269570816,1.5599110338716689,0.067476977157417,0.4196206610408112,1.176203924781864,4539.9501953125,11.964333333333334,0.16,179.0942126419859,5.966016987636636,76.90736770210191,1553.0,1435.0,1200.0,1528.0,1471.0,999.0,110.0,293.85,1649418097.4829652,1649418098.6256993,4183e438-63f0-49b3-8e41-911329719b02
-0.0886835145732379,0.086417676642443,-0.0979796433262685,-0.0082003420070408,-0.2694781041587063,-0.0506180373040994,-0.4762939858348963,-0.4996855223306514,-16.613252674807836,27.35369270521701,1.3155899947974052,0.0730517001214644,0.4253054577968866,1.168132769402511,4544.4970703125,11.96388888888889,0.1588888888888889,179.1098689533834,5.965682924981605,76.87829765808442,1553.0,1435.0,1200.0,1528.0,1471.0,999.0,110.0,293.85,1649418098.7400408,1649418099.855912,4183e438-63f0-49b3-8e41-911329719b02
-0.0572677378041175,0.0904654521623459,-0.0955127454911634,-0.0097427852882828,-0.2679376836219757,-0.0519450442832516,-0.4748021141715716,-0.4986594180391174,-16.636583152596483,27.35908616586155,1.5040344398849812,0.0737259965069547,0.4393284134677536,1.161271412378377,4545.9708251953125,11.96575,0.16,179.1209016061677,5.978684427226071,76.83978184189976,1553.0,1435.0,1200.0,1528.0,1471.0,999.0,110.0,293.85,1649418099.9645722,1649418101.078211,4183e438-63f0-49b3-8e41-911329719b02
-0.0882051042930918,0.0648128516978196,-0.1182321767788102,-0.2585439504715333,-0.3114548171671257,0.215529778551563,-0.422131459338755,-0.4373788933807417,-16.69795540040183,26.9661848520847,3.5044510853010182,1.23256422773937,0.355006095118734,1.1741748844396254,4545.836805555556,11.962222222222222,0.1522222222222222,179.1453677232297,6.067423810174562,76.79116872939213,1553.0,1522.0,1200.0,1528.0,1471.0,999.0,110.0,293.85,1649418102.9210749,1649418103.872718,b03cf82a-4ebf-4af3-8455-072ef0921d40
-0.0690919562710477,0.0726641404741642,-0.1197538855939309,-0.2645867885474698,-0.3141310829648367,0.2157876952916088,-0.4233310252617629,-0.452008338456585,-16.6740493532925,26.84067433245772,3.834391902544336,1.245931796118509,0.3820051492171215,1.1830328430401382,4548.784830729167,11.961333333333334,0.1533333333333333,179.1470100042701,6.074204195881876,76.74837683533207,1553.0,1522.0,1200.0,1528.0,1471.0,999.0,110.0,293.85,1649418103.9838045,1649418104.970295,b03cf82a-4ebf-4af3-8455-072ef0921d40
-0.0719189261235888,0.0751623927510393,-0.1161774400056799,-0.26332451358588,-0.3118169120871757,0.2093579831021972,-0.4216216943955731,-0.4506671708153927,-16.612220105329865,26.89436100710668,3.4531812735870493,1.2291403259211868,0.3943883871538501,1.172368943902583,4549.58935546875,11.964333333333334,0.15,179.175409930839,6.071992447819392,76.70088653003297,1553.0,1522.0,1200.0,1528.0,1471.0,999.0,110.0,293.85,1649418105.0783222,1649418106.1937425,b03cf82a-4ebf-4af3-8455-072ef0921d40
-0.0751009106963297,0.0613562617635895,-0.1476554209675853,-0.566849081543726,-0.3720248023228136,0.5175371035256828,-0.3665417949904701,-0.3839769696532978,-16.549868564920324,26.347407599496943,5.7031724858503,2.601533853902933,0.3575896365003594,1.2179698022587966,4549.58935546875,11.958222222222226,0.1455555555555555,179.1635906679353,6.1761618447172415,76.57659833661617,1553.0,1613.0,1200.0,1528.0,1471.0,999.0,110.0,293.85,1649418108.3354125,1649418109.479866,72d14b10-f275-4529-a098-56a39ffea985
-0.047279785480083,0.0603245948242879,-0.1453640076056405,-0.5640362711462663,-0.3717491853641472,0.516445256117544,-0.3657816990632202,-0.3877804834192104,-16.43510791331674,26.560001396535565,5.780997498986219,2.594328896276505,0.3520208010962226,1.213391337649901,4552.005859375,11.958222222222222,0.1444444444444445,179.15979915403602,6.182016218041458,76.51995330109952,1553.0,1613.0,1200.0,1528.0,1471.0,999.0,110.0,293.85,1649418109.587825,1649418110.7129266,72d14b10-f275-4529-a098-56a39ffea985
-0.06544976723971,0.0614877487223913,-0.1428824438706741,-0.5623390774470218,-0.368277423213261,0.5151571897183438,-0.3626366314964124,-0.3874087798635405,-16.432860460276114,26.44159791699276,6.005016118966191,2.586981481430504,0.3543283061004114,1.2013238695625466,4552.005859375,11.949888888888886,0.1422222222222222,179.16588561149644,6.184338577223,76.45525395473163,1553.0,1613.0,1200.0,1528.0,1471.0,999.0,110.0,293.85,1649418110.8255043,1649418111.9160435,72d14b10-f275-4529-a098-56a39ffea985
-0.0512117515183069,0.0518664431127765,-0.1726601974971,-0.8594142653650312,-0.4301218226245853,0.8130241859762813,-0.3130604755138566,-0.331354866389125,-16.423945529006634,26.29311286242948,8.19709677599391,3.924344093172149,0.3334371523235063,1.2549526005236549,4556.84521484375,11.934666666666669,0.1388888888888889,179.14651671283008,6.292252483037702,76.3318627928258,1553.0,1710.0,1200.0,1528.0,1471.0,999.0,110.0,293.85,1649418113.8667946,1649418115.0038464,db9a0e9a-73db-4226-8c3b-8da745d83870
-0.0673168821834248,0.049167420352206,-0.1718753213961753,-0.8576852109511034,-0.4292873859425068,0.8137114581541538,-0.312145629538741,-0.331671446668744,-16.39765922644751,26.35012917113489,8.15093807503321,3.922411085865058,0.3233750717055997,1.2510621071275174,4554.423828125,11.935,0.14,179.15761045786198,6.280671422981253,76.27041385759293,1553.0,1710.0,1200.0,1528.0,1471.0,999.0,110.0,293.85,1649418115.1123135,1649418116.2299106,db9a0e9a-73db-4226-8c3b-8da745d83870
-0.0701635750348456,0.051803228222876,-0.172078620511389,-0.8541294982872945,-0.428516164195898,0.8088393609247309,-0.3124915414591651,-0.3380809312932151,-16.359887472008303,26.213579906688324,8.290175412488392,3.90256790030785,0.3313065693757726,1.251410248051975,4556.84521484375,11.931,0.13,179.15446857084376,6.288698175916487,76.17353445440547,1553.0,1710.0,1200.0,1528.0,1471.0,999.0,110.0,293.85,1649418116.3393414,1649418117.4574668,db9a0e9a-73db-4226-8c3b-8da745d83870
-0.0652833856405219,0.0495022063770503,-0.1443778553318299,-0.9090506204661286,-0.4174535568333977,0.8596641245761637,-0.2781658535110533,-0.3014542207245708,-16.15981189949316,27.174977376033794,8.231576552535532,4.148510431449303,0.3303139640870162,1.1486136353480505,4555.76904296875,11.923333333333334,0.1311111111111111,179.16945400588278,6.332272221500229,76.02488525294895,1553.0,1814.0,1200.0,1528.0,1471.0,999.0,110.0,293.85,1649418119.39485,1649418120.5358431,315ece95-8f26-441a-b9d6-273604455e5c
-0.0607066277396177,0.0452035941411128,-0.1418871886777425,-0.9189500771321704,-0.4151146055856974,0.8760747075307385,-0.270251348821921,-0.2931983554985532,-16.119305272278883,27.12283794109322,8.710014726915075,4.207592987156444,0.311040318986788,1.1308818672951426,4552.005859375,11.903444444444444,0.1211111111111111,179.17603830824268,6.31644240432508,76.00017362853183,1553.0,1814.0,1200.0,1528.0,1471.0,999.0,110.0,293.85,1649418120.6449566,1649418121.7635336,315ece95-8f26-441a-b9d6-273604455e5c
-0.0381793702114089,0.0486677698897746,-0.1464062947443587,-0.9128177238870256,-0.4175981925099165,0.8675816618987519,-0.2766835907271989,-0.2989969313527134,-16.214141167205256,26.97477098686948,8.748041860707813,4.173426641855969,0.3233232535820957,1.1501038004165531,4549.58935546875,11.907333333333334,0.1222222222222222,179.17259892854062,6.337574677594014,75.9648858356399,1553.0,1814.0,1200.0,1528.0,1471.0,999.0,110.0,293.85,1649418121.871871,1649418122.9927423,315ece95-8f26-441a-b9d6-273604455e5c
-0.0846731620565417,0.0865097175098282,-0.0789929249889878,0.3271177000515023,-0.2197365803416244,-0.3722351815422018,-0.5546602365017855,-0.5775652723094409,-16.95690713898469,28.604721612913423,-0.7378780602268042,-1.3973220034989238,0.406222849609445,1.18538010180744,4553.080512152777,11.922777777777778,0.1288888888888889,179.18569316008947,5.936460197777052,75.94883413218048,1553.0,1349.0,1200.0,1528.0,1471.0,999.0,110.0,293.85,1649418124.926603,1649418126.0186834,1cdcd996-1fc0-48da-97ec-43dc8c8d6564
-0.0829112366844209,0.0915062220291189,-0.0677507891867253,0.3253294774869986,-0.210032841487923,-0.3743652706879604,-0.5419454435734469,-0.557434612253579,-16.738722882432654,28.48744992827851,-0.4864794997203722,-1.398142528311693,0.4221212568599418,1.1398800198760934,4560.887044270833,11.963666666666663,0.1433333333333333,179.2095426628513,5.9230812801490735,76.0697087488321,1553.0,1349.0,1200.0,1528.0,1471.0,999.0,110.0,293.85,1649418126.1493692,1649418127.0915458,1cdcd996-1fc0-48da-97ec-43dc8c8d6564
-0.0905243321920769,0.0891263080399802,-0.0693417815023697,0.3241592435975759,-0.2100854362868701,-0.3706178915674814,-0.5427606629629668,-0.5649688178960914,-16.890050870003602,28.44416303739351,-0.4464065556039156,-1.3875178677448596,0.4139535155205551,1.1429512795000931,4567.368489583333,11.963,0.1433333333333333,179.22200548135686,5.9168216963659725,76.16866225279753,1553.0,1349.0,1200.0,1528.0,1471.0,999.0,110.0,293.85,1649418127.1998131,1649418128.144531,1cdcd996-1fc0-48da-97ec-43dc8c8d6564
-0.1042910178694181,0.104510282431241,-0.045923952583365,0.603503271437249,-0.1646829839441362,-0.6574567773653609,-0.6049934613079797,-0.6283061075653977,-16.978994419565094,29.42296175829878,-2.6719271548087824,-2.654959736873053,0.4591149627381413,1.1385046231181408,4561.69580078125,11.96,0.1455555555555555,179.23730965855714,5.831587481122169,76.45808696541737,1553.0,1264.0,1200.0,1528.0,1471.0,999.0,110.0,293.85,1649418129.8235369,1649418130.984175,e67ac484-96af-495b-89e3-be079d6bd96b
-0.0792665190021541,0.1002131874250872,-0.0464200630214066,0.609674560852355,-0.1639871144222097,-0.6566587523450937,-0.6065166877026111,-0.6373276338926874,-17.07982885933855,29.52980337365812,-2.357884060763394,-2.6664045192589545,0.4401391126009911,1.1402645525062096,4561.69580078125,11.92988888888889,0.13,179.24945828836087,5.821735787018071,76.5727878499692,1553.0,1264.0,1200.0,1528.0,1471.0,999.0,110.0,293.85,1649418131.0932837,1649418132.2051146,e67ac484-96af-495b-89e3-be079d6bd96b
-0.0754164794222453,0.1058514494316258,-0.0447011238056171,0.6015572645804397,-0.1658926641070637,-0.6563654352187974,-0.6053221788194476,-0.637602239633735,-16.946970377344442,29.618893980594866,-2.5838545251495817,-2.646727724199744,0.4634583494217439,1.139164842914801,4556.84521484375,11.931666666666665,0.1333333333333333,179.23916291655195,5.818087185340815,76.7248104059658,1553.0,1264.0,1200.0,1528.0,1471.0,999.0,110.0,293.85,1649418132.3169508,1649418133.4363658,e67ac484-96af-495b-89e3-be079d6bd96b
-0.1043881159369022,0.1133239545239097,-0.0240040638371175,0.8213179782610324,-0.1306222951983608,-0.8750030645722724,-0.6546232323164538,-0.6706545333650283,-17.116026046344857,30.848159146911065,-3.979529469757007,-3.624890052974238,0.4793268362178677,1.1333469918251746,4556.84521484375,11.920375,0.13,179.23877018067466,5.728132384459082,77.00730162280445,1553.0,1178.0,1200.0,1528.0,1471.0,999.0,110.0,293.85,1649418135.3718746,1649418136.5090086,3da980d3-995f-49db-bc77-900e83892d4d
-0.0822881906951949,0.1164973417333786,-0.0300094781672271,0.8182078061732714,-0.1372345727364034,-0.8755846418614729,-0.6611849398889719,-0.6868249071278544,-17.12649140514134,30.829116007266784,-4.075362674131217,-3.6196269617384553,0.4921543007153053,1.160103709718151,4561.69580078125,11.901555555555554,0.12,179.23028822409037,5.7228235962107545,77.11164424088874,1553.0,1178.0,1200.0,1528.0,1471.0,999.0,110.0,293.85,1649418136.6170418,1649418137.737827,3da980d3-995f-49db-bc77-900e83892d4d
-0.1087625862894216,0.1156123333446652,-0.0265832312599854,0.8140609100235315,-0.13380832566939,-0.8706412350894814,-0.6572656155192106,-0.6822102186784035,-17.258454212169738,30.859653859095108,-4.010160482554264,-3.598847074727659,0.4899193914678506,1.145030100263767,4556.84521484375,11.906,0.12,179.22282510405728,5.7269891103989465,77.22372385061911,1553.0,1178.0,1200.0,1528.0,1471.0,999.0,110.0,293.85,1649418137.8457725,1649418138.966426,3da980d3-995f-49db-bc77-900e83892d4d
-0.0887993242641171,0.1301391137968284,-0.0079980543811564,0.9220192827569732,-0.1134531311068647,-0.9886634944593852,-0.678493182051253,-0.6969013640344102,-17.19309675519532,31.724349001621857,-4.652798598015544,-4.100998443708135,0.5375376311169652,1.1236842449846027,4556.84521484375,11.896222222222224,0.12,179.21687980383973,5.6782314729857255,77.38053133358426,1553.0,1088.0,1200.0,1528.0,1471.0,999.0,110.0,293.85,1649418139.8784585,1649418141.015674,2814e621-807c-4c8a-bf02-3461a6bb0875
-0.1151093612007074,0.1224268978938761,-0.01115879878404,0.9276959790939758,-0.1152990059169452,-0.9876646988365853,-0.6835124460096094,-0.7064973872777299,-17.374650832670383,31.93212832848966,-4.8748306478628445,-4.11046602531901,0.5109692187153612,1.1362443947903005,4545.568359375,11.89,0.1166666666666666,179.21667338034482,5.674154608961135,77.47156637157191,1553.0,1088.0,1200.0,1528.0,1471.0,999.0,110.0,293.85,1649418141.1242385,1649418142.1428802,2814e621-807c-4c8a-bf02-3461a6bb0875
-0.1038444678958753,0.1240957708438713,-0.0160263450641974,0.9358254127564528,-0.1161587284054507,-0.9934931150449124,-0.6867869783204108,-0.7064215294319298,-17.34650170948754,31.562164290687647,-4.434058783976036,-4.14451174185977,0.5118069663486972,1.149779014328579,4542.3564453125,11.883444444444445,0.11,179.19140926951482,5.68578068186149,77.54908977756148,1553.0,1088.0,1200.0,1528.0,1471.0,999.0,110.0,293.85,1649418142.251094,1649418143.4821854,2814e621-807c-4c8a-bf02-3461a6bb0875
-0.0713535321352708,0.0770032102088459,-0.10058308532693,-0.0132362927930677,-0.2700040520853873,-0.033406393374692,-0.4722573351168979,-0.4947679090428034,-16.568318516121984,27.23965031216129,1.7981501529851067,0.1223023400835438,0.3858535881934351,1.1662261071074431,4542.8916015625,11.912666666666668,0.1266666666666666,179.2074040547312,5.980687996814477,77.65965612093574,1553.0,1435.0,1200.0,1528.0,1471.0,999.0,110.0,293.85,1649418144.2841623,1649418145.525945,0f992ee9-d56a-43d1-9600-e32e6bbe1fbe
-0.0833451436831906,0.0768322771673755,-0.1033180142998581,-0.0094231708024293,-0.2726074942892892,-0.0376271249919962,-0.4765043650446939,-0.4953201541849891,-16.562136526589626,27.283238365126444,1.6461391520653563,0.104347973276617,0.385873882803861,1.1793317510866916,4556.84521484375,11.96,0.14,179.2092876691223,5.973535745252351,77.55925006340682,1553.0,1435.0,1200.0,1528.0,1471.0,999.0,110.0,293.85,1649418145.6465375,1649418146.9536984,0f992ee9-d56a-43d1-9600-e32e6bbe1fbe
-0.0766114937114545,0.0798706374088765,-0.0981171989283615,-0.0127770998452898,-0.2704409934351782,-0.0390239211393814,-0.4737653898030516,-0.4997972868674203,-16.561877127909195,27.494732555003004,1.4598759979483105,0.1104062536053756,0.3996648219099616,1.165380804466336,4565.205729166667,11.955555555555556,0.1311111111111111,179.1874857052916,5.9790123237381,77.44876720012242,1553.0,1435.0,1200.0,1528.0,1471.0,999.0,110.0,293.85,1649418147.0620048,1649418148.1823616,0f992ee9-d56a-43d1-9600-e32e6bbe1fbe
-0.0386527233022815,0.1078237538372428,0.0691665872886475,-0.0255040266861119,-0.1196881421057736,-0.0633591244655969,-0.3028363512031173,-0.3203635660544096,-15.3961131942274,27.393329517815783,1.5251215362640969,0.0926852504081241,0.5078468811671982,0.4928768524023298,4583.344177246094,11.964375,0.14,179.14427109841296,5.972035504873328,77.24314549352405,1553.0,1435.0,1200.0,1424.0,1471.0,999.0,110.0,293.85,1649418150.2941506,1649418151.320423,50a2819a-1d79-47e4-83d4-97956b316c59
-0.0322219991981621,0.1059025270559178,0.0709699815253844,-0.0270257354625381,-0.1168540921826503,-0.0608583434933991,-0.2980153304677995,-0.315690215401104,-15.299321678916714,27.234521843590223,1.4407708614678445,0.100809759472964,0.5010026312176409,0.4794625287358192,4577.123697916667,11.963666666666668,0.14,179.13910064521122,5.981696398354439,77.20634329591115,1553.0,1435.0,1200.0,1424.0,1471.0,999.0,110.0,293.85,1649418151.4291422,1649418152.687728,50a2819a-1d79-47e4-83d4-97956b316c59
-0.0324116438708589,0.1076472578824143,0.0693896094051409,-0.0245856408117965,-0.1199389787912004,-0.0636397985817714,-0.3018967250080854,-0.3281309067000796,-15.264774224118844,27.385381482455248,1.5846931747345328,0.0900169099480428,0.5056282778170085,0.4917424973774751,4579.025770399306,11.963333333333331,0.1388888888888889,179.12335630026448,5.959861516806508,77.15602377447586,1553.0,1435.0,1200.0,1424.0,1471.0,999.0,110.0,293.85,1649418152.795848,1649418153.9166164,50a2819a-1d79-47e4-83d4-97956b316c59
0.0423958417449961,0.1388678250190882,0.2657527384928887,-0.0328409994039209,0.0573064633070926,-0.0951263760957464,-0.1039491517764914,-0.1297863419581843,-13.99494038112719,27.42015973369661,1.8874323317229065,0.0485800150012689,0.6245190217002765,-0.2941658826656885,4574.681477864583,11.962666666666667,0.14,179.05013060108266,5.978637185084311,77.02119735807962,1553.0,1435.0,1200.0,1304.0,1471.0,999.0,110.0,293.85,1649418155.8516462,1649418156.9901953,90608639-1931-427f-8bd7-4f22a6c54271
0.0368592291842481,0.1507092370992315,0.2821835506610251,-0.0373297621401553,0.0696803978826385,-0.1029468164700026,-0.0888751821268028,-0.1093820922301365,-13.780151850475931,27.386884312601023,1.9579921564658185,0.0418489149407135,0.6683796504713786,-0.353221919212096,4571.969346788194,11.962555555555554,0.14,179.0575087232061,5.969585998637314,77.00966875767054,1553.0,1435.0,1200.0,1304.0,1471.0,999.0,110.0,293.85,1649418157.099496,1649418158.2143478,90608639-1931-427f-8bd7-4f22a6c54271
0.0484968368395659,0.1461390538538471,0.2740890114442147,-0.0356942665635072,0.0646302871130665,-0.0991104312652563,-0.0938509524744576,-0.1183338265013191,-13.77674525666858,27.18845168560511,2.032880815446052,0.0450756720231476,0.6498329569020287,-0.3285745069013424,4566.556640625,11.96,0.14,179.04914705384215,5.966952723552928,76.99614194747429,1553.0,1435.0,1200.0,1304.0,1471.0,999.0,110.0,293.85,1649418158.3228505,1649418159.368081,90608639-1931-427f-8bd7-4f22a6c54271
0.1024590858504675,0.173185921185314,0.4489798074033095,-0.0314209401747051,0.2205869692145489,-0.1364527309608662,0.0781865928367107,0.0530594343665197,-12.47767176036936,27.509701949778304,2.375837274599127,-0.036930448188823,0.7496074705858213,-1.019762881431842,4443.214409722223,11.949,0.1355555555555555,179.00417253488737,5.945860577645367,76.90174873314471,1553.0,1435.0,1200.0,1166.0,1471.0,999.0,110.0,293.85,1649418161.3839073,1649418162.525816,e1641f87-f1f1-45a6-a458-58947938b8f1
0.0778578754553788,0.1665852758958693,0.4376324835131296,-0.0291462156399519,0.2110673135671416,-0.131811240839912,0.0668129706748588,0.0481944167675887,-12.62354367421064,27.595523229278218,2.326328200092021,-0.0317090429651992,0.7253243091841008,-0.9761212965387256,4421.300672743056,11.933777777777776,0.1311111111111111,178.99481365790464,5.9294051815468585,76.88966764632279,1553.0,1435.0,1200.0,1166.0,1471.0,999.0,110.0,293.85,1649418162.6386049,1649418163.754132,e1641f87-f1f1-45a6-a458-58947938b8f1
0.1188949558728991,0.1743167090217536,0.4521486429266727,-0.0331697168451526,0.2210603222564879,-0.1366499614224287,0.0789492172150421,0.0568725563338065,-12.482583232979165,27.75603485990172,2.2886343264734057,-0.0316544551429478,0.7550766289691204,-1.02591892601108,4424.853678385417,11.942555555555556,0.1322222222222222,178.99279799318958,5.919306367404043,76.90078491756182,1553.0,1435.0,1200.0,1166.0,1471.0,999.0,110.0,293.85,1649418163.8714955,1649418164.9770992,e1641f87-f1f1-45a6-a458-58947938b8f1
-0.1391613625687547,0.0421460165399791,-0.298615619109084,0.0210818049640253,-0.4504304942333324,-0.0192320984350074,-0.6837015848397294,-0.703897990313733,-17.982265664918053,27.90174744236954,1.87328795171374,0.0705693090590427,0.2476912745477723,1.9778937561094307,4461.96044921875,11.95322222222222,0.1344444444444444,179.17056808562742,5.921301826142809,77.0678862545161,1553.0,1435.0,1200.0,1623.0,1471.0,999.0,110.0,293.85,1649418166.9114425,1649418168.0490215,af43ae0a-f1f8-4b3d-b1aa-c4ed18d222f5
-0.1553737062608593,0.0458670975857073,-0.294933983623804,0.018715039622601,-0.4479190926818057,-0.0236237630638454,-0.6804933017289531,-0.6967976915807609,-17.905842355722072,27.86059492653225,1.484315254552573,0.0659264759211556,0.2650782382833933,1.9648379723168503,4470.235405815973,11.961666666666666,0.14,179.15787152287027,5.8979848884087245,77.04638330118911,1553.0,1435.0,1200.0,1623.0,1471.0,999.0,110.0,293.85,1649418168.157891,1649418169.2750845,af43ae0a-f1f8-4b3d-b1aa-c4ed18d222f5
-0.1317323486551687,0.0471556698163162,-0.2937374520826951,0.0224755668053589,-0.4471301707085503,-0.0249517814310441,-0.6817029822129576,-0.7052260091437307,-18.001782543757646,27.989098151909392,1.9659076536210307,0.0553993307955752,0.2659368990406082,1.964603055382264,4496.814724392361,11.963666666666668,0.14,179.1682367143907,5.909330733825631,77.05171464329123,1553.0,1435.0,1200.0,1623.0,1471.0,999.0,110.0,293.85,1649418169.387229,1649418170.5120904,af43ae0a-f1f8-4b3d-b1aa-c4ed18d222f5
-0.2265319284424093,0.0165798936430922,-0.4882668882067139,0.0731319305793196,-0.6230031354017626,-0.0344092343676602,-0.8970018563571376,-0.9211373131011256,-19.51120366711598,28.70362882991286,1.415623756423512,-0.0859182541085926,0.1482627188171895,2.7704726779154294,4516.0302734375,11.948333333333332,0.13,179.1936495715626,5.898517690595854,77.04825932648112,1553.0,1435.0,1200.0,1712.0,1471.0,999.0,110.0,293.85,1649418172.4390938,1649418173.5787723,7a686259-7170-4518-a8f2-9b0fad80633c
-0.2303475793948816,0.0074597555082538,-0.4985810316923216,0.0778184293488397,-0.6300417361300191,-0.02865971388716,-0.9067298741083684,-0.935288858491237,-19.71844612806096,28.7484909166079,1.4994565287064243,-0.0838770433663698,0.1135503500856771,2.806861894847862,4513.65283203125,11.936,0.13,179.19677476256282,5.89450319947931,77.02826432714086,1553.0,1435.0,1200.0,1712.0,1471.0,999.0,110.0,293.85,1649418173.6863005,1649418174.8125029,7a686259-7170-4518-a8f2-9b0fad80633c
-0.2335487815410723,0.0071608755323948,-0.5080531526187306,0.0775316866432115,-0.6386425035665094,-0.0296807607388167,-0.9136905954270048,-0.9370421874258444,-19.511204431568903,28.555962551170406,1.2132544586183,-0.0872138949357777,0.1129307214549134,2.8411801833569283,4527.16845703125,11.937666666666669,0.1266666666666666,179.20327254919326,5.900848018331428,76.9772951788245,1553.0,1435.0,1200.0,1712.0,1471.0,999.0,110.0,293.85,1649418174.9211404,1649418176.038932,7a686259-7170-4518-a8f2-9b0fad80633c
-0.2743223879721594,-0.0162033467230145,-0.6557105288803977,0.1408730010921198,-0.7711030277733547,-0.0574447395487525,-1.0868236343037938,-1.1139934122989332,-20.83498865521848,29.433625770704165,1.065179643587426,-0.2947099283772774,0.0188380080644591,3.4656075201770054,4553.349500868056,11.925222222222224,0.1222222222222222,179.22866719252735,5.887835938780124,76.92659240788576,1553.0,1435.0,1200.0,1801.0,1471.0,999.0,110.0,293.85,1649418177.971159,1649418179.310151,9a2dda28-0147-4e55-9d4b-a7f72deb63ea
-0.2842440921227476,-0.0167338460519463,-0.6541564535685166,0.1403404789294266,-0.7694968632510624,-0.0549308098728445,-1.0839086673533904,-1.1073133634992018,-20.77655304906064,29.395596275301195,1.2961643289860458,-0.2879680374540307,0.01455094875477,3.457464595768956,4560.078287760417,11.917,0.12,179.24747753350155,5.896227822244738,76.94177819514044,1553.0,1435.0,1200.0,1801.0,1471.0,999.0,110.0,293.85,1649418179.4177113,1649418180.7463388,9a2dda28-0147-4e55-9d4b-a7f72deb63ea
-0.2729099143486583,-0.0144328241581722,-0.6541827508706172,0.1344893092627305,-0.7701937443549841,-0.0547730254805872,-1.0833432729212655,-1.1038026589233625,-20.77044661566861,29.33320988461004,0.8762049946417858,-0.274893416108318,0.027577728099517,3.4573092975209043,4561.69580078125,11.915666666666668,0.12,179.2555599240194,5.911434526953733,76.94713989363889,1553.0,1435.0,1200.0,1801.0,1471.0,999.0,110.0,293.85,1649418180.8546093,1649418181.9764907,9a2dda28-0147-4e55-9d4b-a7f72deb63ea
-0.1053034675298074,0.0541244788359707,-0.1412388567940927,-0.0144722702822816,-0.2753818696699494,-0.0170888608665478,-0.4798309860935024,-0.4985021398012976,-17.026094578626683,24.134598312694703,0.6240774864066809,0.1387323391511253,0.3112123947659784,1.2362715912391813,7501.24951171875,11.652666666666669,7.606666666666667,178.42655254369828,5.694333264499076,67.01640228700691,1553.0,1435.0,1350.0,1528.0,1471.0,999.0,110.0,293.85,1649418186.935901,1649418187.9135828,0a418f8a-1c64-4bc1-a724-b512e4a44cbc
-0.0774150813649938,0.0657742236844983,-0.1260521115649237,-0.023728952710447,-0.2624829969541007,-0.0208756854986708,-0.4638553162653677,-0.4944523408642666,-16.93597137679749,23.91841821607786,0.6188015171594903,0.1504712854825158,0.3564136999783919,1.1767284702133451,7508.551052517361,11.654666666666666,7.631111111111112,178.26052885881305,5.621740401316627,63.5292188498606,1553.0,1435.0,1350.0,1528.0,1471.0,999.0,110.0,293.85,1649418188.0222368,1649418189.1445167,0a418f8a-1c64-4bc1-a724-b512e4a44cbc
-0.1013032293456523,0.0542433228209209,-0.1383218688645998,-0.0202111706025519,-0.2705927092588348,-0.0147746902779031,-0.4724125909803662,-0.4912253461823674,-16.95862507526297,23.79114363000616,0.2621434900459291,0.1547228545351573,0.3152740894639366,1.2148519201548915,7503.4384765625,11.656666666666668,7.59,178.18491411124157,5.588164234857968,59.53603602625204,1553.0,1435.0,1350.0,1528.0,1471.0,999.0,110.0,293.85,1649418189.252906,1649418190.5255804,0a418f8a-1c64-4bc1-a724-b512e4a44cbc
0.1235232968490943,0.4211571684943715,-0.1262887880888969,-0.2214196137055346,-0.34550387733915,-0.1676282921562943,-0.5386977146983649,-0.562878174127122,-17.298747658924828,23.183160323733503,3.099607293669645,0.261967224448991,1.694208614582843,1.4415031811531829,7496.147135416667,11.636444444444445,7.592222222222222,177.97594371467514,5.629514721843787,55.04626961140705,1658.0,1435.0,1350.0,1528.0,1551.0,999.0,110.0,293.85,1649418191.4868095,1649418192.4316556,fd5982ca-d1db-4d8f-947d-8913899ae72f
0.1297851104495002,0.4288926470005947,-0.116259872215349,-0.2216770247089616,-0.3381567891924764,-0.16602263391715,-0.5323403182577929,-0.5563114097974006,-17.468996877603853,23.40246101607806,4.432197463302606,0.2682358763597959,1.7132868229666949,1.4113782604527942,7498.332194010417,11.610444444444443,7.604444444444444,178.02383244767583,5.67003899309938,53.02973328831643,1658.0,1435.0,1350.0,1528.0,1551.0,999.0,110.0,293.85,1649418192.5402396,1649418193.8611643,fd5982ca-d1db-4d8f-947d-8913899ae72f
0.1278886639158903,0.4250618252394628,-0.1249455981289101,-0.2254446323794766,-0.3465517275173722,-0.1649479807756392,-0.5382193043371152,-0.5682969560348681,-17.277357283539406,23.30139356669791,3.502852962800822,0.2779954094023477,1.705710821567626,1.4413906690677527,7499.060546875,11.620555555555557,7.622222222222222,178.13247647225364,5.720922194868684,51.20566866039714,1658.0,1435.0,1350.0,1528.0,1551.0,999.0,110.0,293.85,1649418193.974119,1649418195.0914052,fd5982ca-d1db-4d8f-947d-8913899ae72f
0.3203198245426298,0.8208511995593167,-0.1289448249142069,-0.4635528961857404,-0.4501806690068224,-0.3257545322749128,-0.6237698058320587,-0.6434928569870266,-17.175160315631928,22.75824684251349,4.263660885582367,0.4501285237186145,3.2117487494197907,1.7569643440494889,7507.089246961806,11.605555555555554,7.6755555555555555,178.0170159188841,5.84539281125458,49.26092938858691,1767.0,1435.0,1350.0,1528.0,1630.0,999.0,110.0,293.85,1649418195.7829683,1649418196.9258316,9b5d46f4-0a90-40ce-af2e-ccc9ec41b42b
0.3143725684874664,0.8241120759330539,-0.1251605287333325,-0.4620453472459659,-0.4477208508066423,-0.3223151362459389,-0.6229272775264441,-0.6460007188155618,-17.369482064850782,22.975349484692515,5.419692072696255,0.456170738541905,3.21516647931881,1.7490692576371347,7510.012858072917,11.586333333333336,7.66,178.1380499066164,5.898374066895808,48.244047409860826,1767.0,1435.0,1350.0,1528.0,1630.0,999.0,110.0,293.85,1649418197.0338414,1649418198.155015,9b5d46f4-0a90-40ce-af2e-ccc9ec41b42b
0.3108922099648418,0.8237439124707557,-0.1389378347838563,-0.4727438370934712,-0.4609363050614951,-0.3248867181947305,-0.6325005431426874,-0.6485945532751453,-17.11916963417054,22.644293189981184,3.5162501249370983,0.4714671737034495,3.2293223414572183,1.7969673901569263,7518.794921875,11.583625,7.6525,178.23002295725007,5.951301985400078,47.39456867193671,1767.0,1435.0,1350.0,1528.0,1630.0,999.0,110.0,293.85,1649418198.264248,1649418199.379636,9b5d46f4-0a90-40ce-af2e-ccc9ec41b42b
0.5376151608243707,1.189251347689423,-0.1193068299545025,-0.6765881375925755,-0.5353316475836869,-0.4746372497365337,-0.6956143082519892,-0.7165996358139657,-17.316017998505977,22.715463510796635,6.28645949214766,0.5965723226774771,4.603381703284206,2.007577246477479,7515.134168836806,11.55011111111111,7.63111111111111,178.355330366673,6.103805571698542,45.69898839260994,1886.0,1435.0,1350.0,1528.0,1710.0,999.0,110.0,293.85,1649418201.5209591,1649418202.6598425,1c56863a-e2e5-42a1-90fe-29c92708d76c
0.5119226107239977,1.1823219849399509,-0.1274853195575348,-0.6760490408428184,-0.5431814214834088,-0.4690359037797411,-0.7028460940239861,-0.7263428236473287,-17.29336257524022,22.842359045578625,6.127231367582215,0.6083632186885547,4.578060570376852,2.038619085150734,7512.20556640625,11.526666666666667,7.606666666666667,178.28148387918665,6.150237007948812,45.258957629336365,1886.0,1435.0,1350.0,1528.0,1710.0,999.0,110.0,293.85,1649418202.7683623,1649418203.892907,1c56863a-e2e5-42a1-90fe-29c92708d76c
0.5388738955094442,1.1912261806769202,-0.12217678597539,-0.6857502537759442,-0.5388767394251285,-0.4749159010655286,-0.6959152112738864,-0.7144624660839436,-17.16733859578215,22.532957032598954,5.31233872908984,0.6151804441118832,4.61931283666842,2.015709865867625,7512.20556640625,11.528555555555556,7.635555555555555,178.3717364810594,6.204738549862798,44.83305359454115,1886.0,1435.0,1350.0,1528.0,1710.0,999.0,110.0,293.85,1649418204.0008326,1649418205.3213427,1c56863a-e2e5-42a1-90fe-29c92708d76c
-0.3448069963122006,-0.412088887616444,-0.1381883590244933,0.2551154438058615,-0.1646961327171663,0.1890300995624501,-0.3861202074150652,-0.4046730216292436,-17.16895121218849,25.74392217409117,0.6309301294867515,0.0045348097643255,-1.4693921549303872,0.8931324406590323,7518.794921875,11.587444444444444,7.668888888888889,179.59584905538836,6.218025354800719,44.24032332763322,1449.0,1435.0,1350.0,1528.0,1386.0,999.0,110.0,293.85,1649418206.4361525,1649418207.5751562,4954f8ec-8f7c-4e73-8773-9317f3128ffb
-0.3488962415043372,-0.4031872184338179,-0.13195587657673,0.2532483290275039,-0.1597390738156023,0.1818509116852492,-0.3813077836614487,-0.410603084853837,-17.13266961520995,25.63234724675732,0.6495126911362417,-0.0077941127401414,-1.4358038766168104,0.8721914275078825,7518.794921875,11.646,7.699999999999999,179.6009580368875,6.248655338133641,43.96525149864425,1449.0,1435.0,1350.0,1528.0,1386.0,999.0,110.0,293.85,1649418207.6837804,1649418208.7320492,4954f8ec-8f7c-4e73-8773-9317f3128ffb
-0.3432817472940415,-0.4086702258826717,-0.1384513329795275,0.2488040699253305,-0.1655639467356035,0.189306222170831,-0.3860544639118742,-0.4118653603130726,-17.20366826960732,25.67025130411956,0.320679254888993,0.0188238084018204,-1.452815485771004,0.8945059880542447,7518.794921875,11.643,7.686666666666667,179.66263919855217,6.263451662310004,43.764858301855526,1449.0,1435.0,1350.0,1528.0,1386.0,999.0,110.0,293.85,1649418208.842104,1649418210.03551,4954f8ec-8f7c-4e73-8773-9317f3128ffb
-0.5716347027022488,-0.8011680410289508,-0.1470834526933254,0.4827011531332518,-0.0862833717369919,0.3571564002192623,-0.3209623375081322,-0.3435300553987825,-17.01526246671829,27.274133025835244,0.3262165028054768,-0.1213107192772822,-2.9556212625319325,0.6596520485988504,7518.794921875,11.626666666666669,7.699999999999999,179.84435410469064,6.285088278644528,43.38927189122083,1342.0,1435.0,1350.0,1528.0,1293.0,999.0,110.0,293.85,1649418211.9677408,1649418213.1042192,17bcef47-6950-4533-ba54-38663e77b0bc
-0.544970655984934,-0.8005232488855513,-0.1378161497761802,0.4839148788241294,-0.0778757915442604,0.3586482714125197,-0.3122386819301882,-0.3430369796711626,-17.035564546199723,27.364141297932782,0.8549667598727013,-0.1195639614785587,-2.957305918565565,0.6239309184714725,7518.794921875,11.596222222222222,7.690000000000001,179.88007295841015,6.293724436235709,43.287243284309085,1342.0,1435.0,1350.0,1528.0,1293.0,999.0,110.0,293.85,1649418213.2135031,1649418214.3341732,17bcef47-6950-4533-ba54-38663e77b0bc
-0.5844683399048651,-0.810810085665814,-0.1499169969595524,0.4893331526394571,-0.0856198682680656,0.3594108957435329,-0.3234666588427682,-0.3377461456295086,-17.21233685186731,27.3003414437356,0.1521218859606222,-0.1312990395790558,-2.9898426801958147,0.66467372681879,7522.462456597223,11.597444444444443,7.6755555555555555,179.91132335059268,6.285330702928193,43.243341105053965,1342.0,1435.0,1350.0,1528.0,1293.0,999.0,110.0,293.85,1649418214.4463568,1649418215.562606,17bcef47-6950-4533-ba54-38663e77b0bc
-0.7504312452571762,-1.1682444679039816,-0.1471952165843865,0.7265356102586928,-0.0093179812401763,0.5049406536664869,-0.2631404317817639,-0.2849409730474256,-16.77083079669086,29.6529757760654,2.3150082705254658,-0.3230464283105925,-4.38172566475893,0.4323699863219102,7532.00927734375,11.570666666666666,7.646666666666667,-179.95907092635056,6.268924493678085,43.18723223938717,1227.0,1435.0,1350.0,1528.0,1189.0,999.0,110.0,293.85,1649418217.293101,1649418218.4264076,71f8be5c-9083-46a7-83f9-ef5146c83e9b
-0.7519994808236967,-1.173149946893541,-0.1425699095238685,0.7387214161958316,-0.0015248499862956,0.5080503200473762,-0.2613759776914395,-0.2914283388237901,-17.185239221913303,29.816189704754773,3.692986751305489,-0.3422234560418197,-4.4106084467553295,0.4140384586669406,7532.00927734375,11.481222222222224,7.601111111111111,-179.92896648812876,6.253890962723672,43.24182290578345,1227.0,1435.0,1350.0,1528.0,1189.0,999.0,110.0,293.85,1649418218.5346692,1649418219.66615,71f8be5c-9083-46a7-83f9-ef5146c83e9b
-0.758106041439058,-1.1725177975275742,-0.1483856794269831,0.7353963135260735,-0.0089209917658928,0.512108715343716,-0.2666733858049594,-0.2961820987083776,-17.084201785959802,29.894474178139408,3.878319447803704,-0.3252933094627245,-4.41055318927392,0.4399294453903196,7533.481282552083,11.489333333333333,7.605555555555556,-179.9317395449318,6.253032019003673,43.32646450725301,1227.0,1435.0,1350.0,1528.0,1189.0,999.0,110.0,293.85,1649418219.7779872,1649418220.8886652,71f8be5c-9083-46a7-83f9-ef5146c83e9b
-0.0960943224636975,0.0624359720056227,-0.1376517910423081,-0.0253821484165697,-0.2716167905466382,-0.0151413366213541,-0.4725769497214859,-0.4981663418539019,-16.97329315712756,23.747942855751788,0.6765651740451109,0.165369070221704,0.3431107178959515,1.217105327568861,7525.396484375,11.509111111111112,7.640000000000001,179.6072114545276,6.283229565984769,43.49824945670315,1553.0,1435.0,1350.0,1528.0,1471.0,999.0,110.0,293.85,1649418222.8226776,1649418223.7992344,12ea6cd2-dd75-446d-be65-4e8184066383
-0.0769154308699686,0.0671153906952546,-0.1265123159422166,-0.0196660054324478,-0.2596954729556229,-0.0236106143696227,-0.4626850819949781,-0.4894952805324583,-16.980916119872536,23.61366247080464,0.955118625058468,0.1331483305957047,0.3582466507576219,1.1726588044731747,7525.396484375,11.648333333333332,7.713333333333332,179.61078440237347,6.276691130242428,43.45629426081644,1553.0,1435.0,1350.0,1528.0,1471.0,999.0,110.0,293.85,1649418223.9302084,1649418224.8721411,12ea6cd2-dd75-446d-be65-4e8184066383
-0.0895513285947575,0.0638676627343701,-0.124632052263785,-0.0125262632089199,-0.2583937518743747,-0.0212964437811925,-0.4640393980422612,-0.4847617484112131,-17.13306471143863,23.93898127822919,1.7647804172174846,0.1245457509947233,0.3392122153928553,1.170822729453339,7525.396484375,11.650777777777778,7.704444444444444,179.59962690890927,6.2672394290916,43.42565099656013,1553.0,1435.0,1350.0,1528.0,1471.0,999.0,110.0,293.85,1649418224.9803874,1649418226.219699,12ea6cd2-dd75-446d-be65-4e8184066383
-0.0612882046971752,0.0555076205357651,-0.1611803733329938,-0.3205956911321798,-0.3242242261681302,0.2775688642638789,-0.4138503076477838,-0.4376191097794887,-16.906218820765424,23.17949935772309,2.818430751981956,1.4844927418829932,0.3325130300014253,1.2370907069050934,7525.396484375,11.64911111111111,7.717777777777779,179.54787987793742,6.335563756065876,43.43665025730853,1553.0,1522.0,1350.0,1528.0,1471.0,999.0,110.0,293.85,1649418228.3519104,1649418229.486006,3bef2ac7-b200-4640-9a38-66aa4ad1f7c2
-0.0710511120836278,0.0487992568557316,-0.159186828521059,-0.3102785144589198,-0.319074993605896,0.2811630096102025,-0.4113920066230138,-0.4304707690465703,-17.04347207163609,23.19608663250335,3.762630716999975,1.4695868889364487,0.2988120079943232,1.2243674159704805,7525.396484375,11.650555555555556,7.71,179.56013627294809,6.331495002890924,43.429736588048655,1553.0,1522.0,1350.0,1528.0,1471.0,999.0,110.0,293.85,1649418229.5951302,1649418230.7185166,3bef2ac7-b200-4640-9a38-66aa4ad1f7c2
-0.0869741840214953,0.049075379473719,-0.1534539965152784,-0.3084639940802017,-0.3158667112558205,0.2832273548000135,-0.4090252408306579,-0.4344022301655194,-17.137942748044928,23.54365507958787,4.3592300713911865,1.47276971204301,0.2953745501073445,1.2094954255381607,7525.396484375,11.651666666666667,7.696666666666668,179.5529736812384,6.322366312769595,43.43181713956084,1553.0,1522.0,1350.0,1528.0,1471.0,999.0,110.0,293.85,1649418230.826513,1649418231.8632152,3bef2ac7-b200-4640-9a38-66aa4ad1f7c2
-0.0845133547901762,0.0440277972588683,-0.1921430271097731,-0.6741566393212225,-0.389335570006024,0.6339111457122044,-0.346589656409383,-0.3682217941424734,-16.99609500853861,22.60344242128834,5.738866482889026,3.077848112573469,0.3057673700320042,1.2720188542482893,7525.396484375,11.645666666666664,7.696666666666668,179.50688356471923,6.439368591616776,43.438469743812426,1553.0,1613.0,1350.0,1528.0,1471.0,999.0,110.0,293.85,1649418232.8580437,1649418233.9967682,f4cd0a7f-a0e6-4d33-848f-757274c48260
-0.0632225802871985,0.042548568929289,-0.1908660862869761,-0.6695419508743495,-0.3884379184503436,0.6336709291704852,-0.3472976632514931,-0.3709526777270282,-17.056115985084357,22.77640412790221,6.102970581684927,3.06813670184499,0.2969328503444199,1.2703257115228654,7525.396484375,11.633444444444445,7.692222222222223,179.48635201607416,6.447691936030343,43.45255169660622,1553.0,1613.0,1350.0,1528.0,1471.0,999.0,110.0,293.85,1649418234.105367,1649418235.2222607,f4cd0a7f-a0e6-4d33-848f-757274c48260
-0.0519071152842363,0.0488447715711787,-0.1811815648704265,-0.6638146801476613,-0.3807257008803055,0.6269575089512631,-0.3407865288951968,-0.3667046365941227,-16.995981573483437,22.88639762158582,6.8355979038143655,3.041489870483875,0.3135392270776158,1.2391921304047917,7525.396484375,11.6315,7.69,179.47645734869653,6.43411589155382,43.44590696604493,1553.0,1613.0,1350.0,1528.0,1471.0,999.0,110.0,293.85,1649418235.353347,1649418236.4518807,f4cd0a7f-a0e6-4d33-848f-757274c48260
-0.0510853217362759,0.037263804454973,-0.2421712930222016,-1.05119569982422,-0.4813511780192445,1.003882553813877,-0.2986980513372355,-0.3176498769542215,-16.91802448676543,22.434660117784667,8.02686641057479,4.756525078578052,0.3028144256976496,1.3965805636161737,7525.396484375,11.617111111111113,7.685555555555556,179.43224932874855,6.541653378054263,43.49621216305572,1553.0,1710.0,1350.0,1528.0,1471.0,999.0,110.0,293.85,1649418238.3869562,1649418239.5263608,93095be7-2bfc-41cb-97b6-2ced595ff76f
-0.0674878152580821,0.0500878290875151,-0.219552498664075,-1.0429241528850253,-0.4609888998615972,0.9869323683414928,-0.2819036238626047,-0.299417689958094,-16.929898518812035,22.47480149370878,8.637263782985999,4.701260856008174,0.3460026072300642,1.3165631789619343,7525.396484375,11.611666666666666,7.690000000000001,179.42464808711227,6.538946488708822,43.52220786303678,1553.0,1710.0,1350.0,1528.0,1471.0,999.0,110.0,293.85,1649418239.639065,1649418240.7530682,93095be7-2bfc-41cb-97b6-2ced595ff76f
-0.0637535853579553,0.0463141532560879,-0.2316887466533603,-1.0501822381047916,-0.4735722052188472,0.9939932177416468,-0.2915284708676182,-0.3152092762906038,-16.84013513923098,22.48243954099644,8.081247688319099,4.732902871236636,0.3362660437420034,1.3627040415081542,7525.396484375,11.607,7.703333333333333,179.40940765834424,6.555592086602966,43.53483574444728,1553.0,1710.0,1350.0,1528.0,1471.0,999.0,110.0,293.85,1649418240.8611214,1649418241.9972074,93095be7-2bfc-41cb-97b6-2ced595ff76f
-0.0404399346294987,0.0448495907718606,-0.207946750147606,-1.2384889070681149,-0.4795811608693082,1.187509145569274,-0.2252676306829267,-0.2559394974478507,-16.94558795077026,23.303508817840232,11.072224647596316,5.599581566640047,0.3297140819600621,1.2461636624852312,7525.396484375,11.583222222222222,7.666666666666667,179.35639628346604,6.624349798566453,43.56846759592042,1553.0,1814.0,1350.0,1528.0,1471.0,999.0,110.0,293.85,1649418242.8937604,1649418244.0334513,69232e8d-306c-4f97-ab44-1797805fc638
-0.0539679206476374,0.0508423619632193,-0.2131935862163146,-1.2434196731108134,-0.4851440722354688,1.1784441313084073,-0.2300340335849238,-0.2434988060590545,-16.787661517700304,23.05279866853871,9.937139896457158,5.588309181156752,0.3614032900722009,1.2669731995310718,7525.396484375,11.550555555555556,7.641111111111111,179.35899023753083,6.599729006178936,43.59878452891638,1553.0,1814.0,1350.0,1528.0,1471.0,999.0,110.0,293.85,1649418244.1446068,1649418245.2661922,69232e8d-306c-4f97-ab44-1797805fc638
-0.034905344754942,0.0385958685384058,-0.2156078894067964,-1.2393658246608297,-0.485892536681768,1.1869503259735137,-0.2306368508135794,-0.2559349454847628,-16.82491188049374,23.21125702002273,9.957880403938692,5.599194026079633,0.3149018381284681,1.2706337653504225,7525.396484375,11.560666666666668,7.656666666666666,179.3525303963958,6.6349356905744585,43.64722536887498,1553.0,1814.0,1350.0,1528.0,1471.0,999.0,110.0,293.85,1649418245.3751793,1649418246.485997,69232e8d-306c-4f97-ab44-1797805fc638
-0.1050404936114338,0.0686143420621619,-0.1014114533131063,0.3742031778970826,-0.1988695973539161,-0.4069477463309525,-0.5522803218593255,-0.5775389756973867,-17.299994480247957,25.03306723639268,-2.033027884092911,-1.6067114507172733,0.3457324612468723,1.181775704090246,7525.396484375,11.58525,7.67,179.31177124252375,6.102695476230938,43.68234079435409,1553.0,1349.0,1350.0,1528.0,1471.0,999.0,110.0,293.85,1649418247.3991916,1649418248.3291037,afd6d3e7-338e-447a-9d59-98ba7779faa6
-0.1016875759122497,0.0645513949393652,-0.0906426705003912,0.3788972621029198,-0.1883111932610092,-0.4020301329680444,-0.5424187968388058,-0.5658366318500743,-17.412329917544433,25.25131746874891,-1.2084951396716486,-1.604191711654023,0.3240896515346753,1.1392193683145506,7529.070258246527,11.65188888888889,7.7155555555555555,179.2940730840194,6.065586868742781,43.70605758274584,1553.0,1349.0,1350.0,1528.0,1471.0,999.0,110.0,293.85,1649418248.437858,1649418249.5667305,afd6d3e7-338e-447a-9d59-98ba7779faa6
-0.1001228809381242,0.0598310129998211,-0.098584483462595,0.3767803221635798,-0.1947803524345294,-0.3955609731203842,-0.547730871663668,-0.5647058435664881,-17.414997670467315,25.1822756981195,-1.2736167707500852,-1.585744206996594,0.306737403486764,1.1657643187957916,7525.396484375,11.648999999999996,7.71,179.28920088241142,6.057150921071647,43.71757859405583,1553.0,1349.0,1350.0,1528.0,1471.0,999.0,110.0,293.85,1649418249.6752367,1649418250.7912838,afd6d3e7-338e-447a-9d59-98ba7779faa6
-0.1342174524240343,0.0638413653416679,-0.075390182096932,0.7199875601568557,-0.140568273223035,-0.7391496590937762,-0.6248611480291335,-0.6479502665970402,-17.565797102568617,26.28325193972382,-4.849345614408768,-3.1242177783192795,0.3137704887509332,1.168020157494316,7525.396484375,11.648111111111112,7.703333333333333,179.30852879994276,5.920955051746822,43.76451185948262,1553.0,1264.0,1350.0,1528.0,1471.0,999.0,110.0,293.85,1649418251.9042866,1649418253.041992,89cf0b5e-483c-475f-a262-18ebaf330c52
-0.1069470546647719,0.0588448607798091,-0.0701438520573627,0.7202373853622465,-0.1341122629008716,-0.7278680729994315,-0.6185234742738763,-0.6447945785021953,-17.791808099122907,26.387066856337206,-3.864875244783189,-3.0984374965534447,0.2882084641722195,1.1436374747478226,7525.396484375,11.617777777777778,7.688888888888889,179.29377559133556,5.912666901780228,43.8205220668614,1553.0,1264.0,1350.0,1528.0,1471.0,999.0,110.0,293.85,1649418253.1514184,1649418254.475309,89cf0b5e-483c-475f-a262-18ebaf330c52
-0.1302596945738701,0.0732163857236684,-0.0596774894061076,0.7163322229530773,-0.1295759623838031,-0.7345344647482022,-0.611620406446703,-0.6360243949122788,-17.5760730153542,26.541628849475448,-3.258454639765469,-3.102857651690885,0.3363557520448987,1.116011018914243,7525.396484375,11.608666666666668,7.690000000000001,179.30882629262663,5.909404869837246,43.89538890871877,1553.0,1264.0,1350.0,1528.0,1471.0,999.0,110.0,293.85,1649418254.5850165,1649418255.7097108,89cf0b5e-483c-475f-a262-18ebaf330c52
-0.1358817740742074,0.0713871997866026,-0.0583803199130684,0.9770668011445606,-0.1054121972173603,-0.9922920310453912,-0.6913637377387329,-0.718584078418578,-18.021168908637723,27.79872950242044,-6.337039390509252,-4.262543379236375,0.3279324368394999,1.1917639624170986,7525.396484375,11.611,7.690000000000001,179.25611544607193,5.812003905815665,43.98452287738744,1553.0,1178.0,1350.0,1528.0,1471.0,999.0,110.0,293.85,1649418257.2818491,1649418258.371053,0a59fff4-cfaf-40b5-9fe5-10ac0cef59ac
-0.1216735954038035,0.0775028606703891,-0.0485142458786053,0.9662626193377668,-0.0988343086811179,-0.9867397375484216,-0.6785209965898353,-0.7000980155024297,-17.78602243949073,27.725454777823543,-6.0233373085149085,-4.2255211569922295,0.3483796807293778,1.152352998079902,7525.396484375,11.591666666666669,7.6755555555555555,179.26799390394845,5.785282782826498,44.037232585577286,1553.0,1178.0,1350.0,1528.0,1471.0,999.0,110.0,293.85,1649418258.4795272,1649418259.5987651,0a59fff4-cfaf-40b5-9fe5-10ac0cef59ac
-0.12102627494155,0.0808062177137695,-0.0341690177782055,0.9833756462834246,-0.0851075747767824,-0.9977664434359456,-0.6705533893834213,-0.6948658437560981,-17.887815318418994,27.990317671482856,-4.808039686525482,-4.286289843269709,0.349525513843159,1.104842324760248,7525.396484375,11.584,7.68,179.26108782378768,5.789048493788898,44.07660065758838,1553.0,1178.0,1350.0,1528.0,1471.0,999.0,110.0,293.85,1649418259.707475,1649418261.0303235,0a59fff4-cfaf-40b5-9fe5-10ac0cef59ac
-0.1345163324205081,0.0802246407616065,-0.0326139316322058,1.0799174144094708,-0.0817698287577463,-1.093650847871281,-0.7052583751886904,-0.7230849802619636,-17.972079736046094,29.150741808418367,-6.022409795564668,-4.711995448221409,0.3469354873187119,1.146117112184446,7525.396484375,11.576777777777778,7.665555555555555,179.2527701711984,5.760227751676122,44.20289540880136,1553.0,1088.0,1350.0,1528.0,1471.0,999.0,110.0,293.85,1649418262.963831,1649418264.1003387,40c36269-cb23-4d46-9bb9-e8d91f18dc32
-0.1412388567612029,0.0814606182007319,-0.043780715294049,1.08804583674548,-0.088788704439475,-1.1040656340104338,-0.7176383839994912,-0.7346659523255551,-18.09973409228377,28.875303278355705,-6.353207151683712,-4.7562335281277,0.3536931403910134,1.1883031616215582,7525.396484375,11.571333333333332,7.667777777777776,179.26605261240437,5.745955312495472,44.255573622230045,1553.0,1088.0,1350.0,1528.0,1471.0,999.0,110.0,293.85,1649418264.208727,1649418265.3406413,40c36269-cb23-4d46-9bb9-e8d91f18dc32
-0.110668135919956,0.0900204193615154,-0.035812604981146,1.0834832393570295,-0.0845416751962855,-1.1114683552713098,-0.7123000107414507,-0.7443696947416211,-17.99109393939838,28.955020610251257,-6.760596254568586,-4.761661368334486,0.3897075911598175,1.164520839072828,7525.396484375,11.55488888888889,7.654444444444445,179.27254888121493,5.7412324264118855,44.30240177863461,1553.0,1088.0,1350.0,1528.0,1471.0,999.0,110.0,293.85,1649418265.453952,1649418266.557006,40c36269-cb23-4d46-9bb9-e8d91f18dc32
-0.1033311629797164,0.0614220052439485,-0.1279323752460102,-0.0241760083678883,-0.2621016846960333,-0.0109221221904568,-0.4633293682930922,-0.4874309343643678,-17.096957503783678,23.861221553896275,1.364920848149125,0.1734118305489755,0.334551691536307,1.1784559675841917,7526.865993923611,11.584555555555555,7.668888888888889,179.26076756380658,6.088336663616409,44.388421939951655,1553.0,1435.0,1350.0,1528.0,1471.0,999.0,110.0,293.85,1649418268.2840743,1649418269.4268444,ca724c04-da5d-45a1-85c9-6f15f647c5ec
-0.0849755820582104,0.0478525507216331,-0.1355849169939361,-0.0044924096495144,-0.2647971677755149,-0.0105802560972493,-0.471994361190027,-0.5014342996885602,-17.254988584964952,23.987372487735747,2.0362044015346967,0.1302613550595012,0.2759204596522371,1.2042108522434902,7532.00927734375,11.653666666666668,7.693333333333334,179.25211295521825,6.0883045522409365,44.30788224653362,1553.0,1435.0,1350.0,1528.0,1471.0,999.0,110.0,293.85,1649418269.5345094,1649418270.6613567,ca724c04-da5d-45a1-85c9-6f15f647c5ec
