raw_voltage_G-,raw_voltage_G0,raw_voltage_G1,raw_voltage_G2,raw_voltage_G3,raw_voltage_G4,raw_voltage_G5,raw_voltage_G6,load_x,load_y,load_z,load_l,load_m,load_n,rpm,voltage,current,roll,pitch,yaw,aileron1_pwm,elevator_pwm,throttle_pwm,rudder_pwm,aileron2_pwm,pbaro,pdiff,Tt,sample_start_time,sample_end_time,uid
-0.3088190089143865,-0.0676850457312902,-0.7378873839150246,0.0196880430876248,-0.7996468374909904,0.132648491780504,-1.1307575063338469,-1.1616175212857134,-27.4658247743689,27.06284347635754,4.630112296055688,0.3832409347050822,-0.1492434631488023,3.673125873921045,3954.308675130209,11.951666666666666,0.1766666666666666,178.55379896793562,5.939685043134552,81.3672148527426,1553.0,1435.0,1200.0,1528.0,1471.0,999.7000000000002,107.0,293.9,1649423627.9389627,1649423628.921672,b2da7155-8920-46be-971a-2dd3e916e155
-0.3132632689254181,-0.0709722199042966,-0.7364015804663069,0.0269987183107489,-0.7960046468013838,0.1286249908368124,-1.129823948055316,-1.1555559664980313,-27.526497728621724,27.02153247694312,4.567445569205526,0.3574680955074859,-0.1613941321977638,3.664363067928469,4004.7250162760415,11.958333333333334,0.17,178.47144510038302,5.852444317526448,81.33992141681922,1553.0,1435.0,1200.0,1528.0,1471.0,999.7000000000002,107.0,293.9,1649423629.0296345,1649423630.1000383,b2da7155-8920-46be-971a-2dd3e916e155
-0.3082404662181715,-0.0708538816219791,-0.725856321743352,0.0209503179629711,-0.7873528007342208,0.1335820492179291,-1.1164648627042693,-1.1382785668089883,-27.33973173368901,27.0072820407,4.588045711752799,0.3827788895300245,-0.1610417949967368,3.619310900588214,4005.966498480903,11.962222222222222,0.18,178.40008176611497,5.772678617350624,81.31322448408338,1553.0,1435.0,1200.0,1528.0,1471.0,999.7000000000002,107.0,293.9,1649423630.2084951,1649423631.3765342,b2da7155-8920-46be-971a-2dd3e916e155
-0.0925300563528054,0.2988764938231396,-0.6593896364512639,-0.2343716287898512,-0.8186669833420882,0.0173437401633274,-1.1059250791484838,-1.131400698328479,-26.5068583297366,25.94890075554521,6.444370508057742,0.6945282622696313,1.2389557545812455,3.6024878718770084,3968.86669921875,11.957333333333333,0.1777777777777777,178.2275284203832,5.702159854946135,81.25563688246127,1658.0,1435.0,1200.0,1528.0,1551.0,999.7000000000002,107.0,293.9,1649423633.3096085,1649423634.4430609,d9ee2505-b74c-4a4a-9ee6-7a4a5fd26305
-0.0830657338832629,0.2951784232264742,-0.6582391251648634,-0.2420006128131212,-0.8164207466695207,0.0273422280328141,-1.1003916655968242,-1.1318115951994523,-26.52495191999236,25.80708072729816,6.379536559494245,0.7333030212972975,1.2267982473994457,3.589421492072773,3966.41650390625,11.93211111111111,0.17,178.21729376136688,5.673579734705993,81.27610771831372,1658.0,1435.0,1200.0,1528.0,1551.0,999.7000000000002,107.0,293.9,1649423634.551494,1649423635.679283,d9ee2505-b74c-4a4a-9ee6-7a4a5fd26305
-0.0881608539516843,0.2985203833228362,-0.6556778678005447,-0.2435894138030863,-0.8153935043404986,0.0260136618336782,-1.0992137607343089,-1.1343180669554,-26.52697390191821,25.88073155963193,6.461661259207129,0.7345293485507086,1.2389783061427175,3.5833286243378875,3961.732069227431,11.920888888888888,0.1622222222222222,178.2086148676615,5.652778298724981,81.29538934234067,1658.0,1435.0,1200.0,1528.0,1551.0,999.7000000000002,107.0,293.9,1649423635.787925,1649423636.9080515,d9ee2505-b74c-4a4a-9ee6-7a4a5fd26305
0.1391307989216922,0.6655125169023034,-0.6138030909564367,-0.5059837497517334,-0.8721750819620914,-0.0803998356671045,-1.1164254168100118,-1.135688271223525,-26.054658983895344,25.16641135451656,8.203767130541857,1.085166568457148,2.6315876493399584,3.673278932564561,3960.917724609375,11.920333333333334,0.1688888888888889,178.077098816283,5.696787958595789,81.26633902998077,1767.0,1435.0,1200.0,1528.0,1630.0,999.7000000000002,107.0,293.9,1649423638.7978191,1649423639.7744875,660773d1-6903-4706-9b22-9a651f97a979
0.1115711321731601,0.6623831275009607,-0.6207719020369944,-0.5055761399157968,-0.8783812695771087,-0.0789008841717196,-1.124038517298023,-1.1407242255495291,-26.162852260996587,25.234809818968703,7.978069188114476,1.087631426806933,2.6221258460552685,3.701273530326088,3959.698323567709,11.894666666666666,0.15,178.0753715373329,5.679270705240691,81.2681839399666,1767.0,1435.0,1200.0,1528.0,1630.0,999.7000000000002,107.0,293.9,1649423639.8832018,1649423641.001999,660773d1-6903-4706-9b22-9a651f97a979
0.1354754614324785,0.6734017338803693,-0.6252819064731713,-0.5144120660930613,-0.8855736103409712,-0.0809783782526601,-1.1320329307360175,-1.158974630626314,-26.336030629916745,25.2963253342048,8.012873205068955,1.102996304910593,2.665172590700056,3.729758243666764,3969.487386067709,11.904,0.1566666666666666,178.10113045742276,5.677643839557759,81.26497147432696,1767.0,1435.0,1200.0,1528.0,1630.0,999.7000000000002,107.0,293.9,1649423641.1111383,1649423642.2311642,660773d1-6903-4706-9b22-9a651f97a979
0.3434483796359787,1.0370420464810344,-0.5842448122772956,-0.7689446179687068,-0.9474119636501628,-0.1910329737099745,-1.1617095611632344,-1.177369670482704,-26.29634994072549,25.49024504311647,9.739810084806106,1.433476158864114,4.047401433092224,3.844452041989584,4005.339599609375,11.886222222222225,0.1555555555555555,177.9515720818967,5.727264974150424,81.23502337154618,1886.0,1435.0,1200.0,1528.0,1710.0,999.7000000000002,107.0,293.9,1649423644.370577,1649423645.5062816,72637f77-5b9c-44ca-8031-aef8e572a562
0.3522054106461121,1.045746482893286,-0.5717403988342994,-0.7783722377565635,-0.939023091074994,-0.1903492414750507,-1.1473643232255657,-1.1752921765524893,-25.994472093482425,25.424533401973296,9.91777387067614,1.4566463489255097,4.07828679664696,3.797016297461904,4005.963704427084,11.845,0.1433333333333333,177.96979502660233,5.710389047099268,81.24733137243055,1886.0,1435.0,1200.0,1528.0,1710.0,999.7000000000002,107.0,293.9,1649423645.6147776,1649423646.7367656,72637f77-5b9c-44ca-8031-aef8e572a562
0.3356001256743137,1.0530637319348903,-0.5711289836920833,-0.7704076638661056,-0.9387616335804564,-0.205380225522758,-1.152086730981207,-1.1756406158559498,-26.05780094014002,25.451280475626763,9.827063849082824,1.4050650095798634,4.10604172059775,3.8033224778363888,4010.3369140625,11.847,0.13,178.01793419987254,5.713411832693823,81.23375750982001,1886.0,1435.0,1200.0,1528.0,1710.0,999.7000000000002,107.0,293.9,1649423646.8448188,1649423647.9636526,72637f77-5b9c-44ca-8031-aef8e572a562
-0.5735812160831317,-0.512426612357526,-0.7840261791035702,0.3789235594781709,-0.7299981627628762,0.2269903839646124,-1.1222634422061708,-1.156726202703588,-27.899408892880064,28.82364618151179,2.956366727253045,-0.2062174386207002,-1.846516244710183,3.5750098629164007,4012.422824435764,11.867666666666668,0.1288888888888889,178.89482879537456,5.616599735328808,81.09439357108516,1449.0,1435.0,1200.0,1528.0,1386.0,999.7000000000002,107.0,293.9,1649423649.8989182,1649423651.046842,8eabbe1c-0746-4286-82f4-cf77ccd3a850
-0.582719562770559,-0.522840382596289,-0.791915400564075,0.3798702654376624,-0.7357178480593863,0.2370228386094517,-1.1263658387423463,-1.1509144734633576,-27.86155404568544,28.81681716365061,3.009633036203984,-0.186219264998076,-1.8869310500348024,3.5982477334169043,4017.4396701388887,11.943888888888887,0.17,178.93746283617372,5.624481726199133,81.02235556590904,1449.0,1435.0,1200.0,1528.0,1386.0,999.7000000000002,107.0,293.9,1649423651.159271,1649423652.264228,8eabbe1c-0746-4286-82f4-cf77ccd3a850
-0.5658760777654308,-0.5094813036253908,-0.7751639539050089,0.3799360090096029,-0.7228321204034234,0.2229800317908795,-1.1136247424797296,-1.1466411441368074,-27.721263212693167,28.833925327029466,2.995331918090455,-0.2169077668965847,-1.836638427125232,3.541410177638789,4020.580783420138,11.944222222222225,0.1622222222222222,178.98450917917685,5.641895340919951,80.88989391278544,1449.0,1435.0,1200.0,1528.0,1386.0,999.7000000000002,107.0,293.9,1649423652.373355,1649423653.4964588,8eabbe1c-0746-4286-82f4-cf77ccd3a850
-0.7902055212497053,-0.888204446640599,-0.803737727624814,0.6960492652460927,-0.6571844898639179,0.2981368796320526,-1.1006655972125594,-1.1253331185371238,-27.90395401887504,30.82921484918357,2.225185528662538,-0.7495048481166124,-3.2896595405435094,3.427407152564337,3983.623155381944,11.938555555555554,0.1677777777777778,179.1692991882616,5.625350346020457,80.60153926313556,1342.0,1435.0,1200.0,1528.0,1293.0,999.7000000000002,107.0,293.9,1649423655.3993156,1649423656.3382874,7e690c82-c3f8-4a23-b67a-7778634f65b9
-0.7873265033535328,-0.8831016540275489,-0.8114017775697739,0.6889434913427205,-0.6645307787060976,0.3014908926492598,-1.109535495058498,-1.1409609025894654,-28.19583979071997,30.78542361239785,2.4208830492926148,-0.7267266964967375,-3.2698012619322285,3.461133850289508,3980.540473090278,11.908222222222223,0.16,179.19487596997357,5.608545519341287,80.51328638886983,1342.0,1435.0,1200.0,1528.0,1293.0,999.7000000000002,107.0,293.9,1649423656.4468825,1649423657.5964515,7e690c82-c3f8-4a23-b67a-7778634f65b9
-0.7842749086544293,-0.8820820816914777,-0.8065729165333311,0.6947343957408091,-0.6600881613226224,0.2939046433375912,-1.105240251060293,-1.1393173145366045,-28.000330204748536,30.75468976531508,2.2770524371427974,-0.7567246794050214,-3.26649362894303,3.4425056848634306,3975.0020887586807,11.90977777777778,0.1577777777777777,179.2372079646295,5.636414778157185,80.42108945981337,1342.0,1435.0,1200.0,1528.0,1293.0,999.7000000000002,107.0,293.9,1649423657.7286303,1649423658.8193529,7e690c82-c3f8-4a23-b67a-7778634f65b9
-1.0152198317049008,-1.2616791813028656,-0.8602097619727205,1.038882864062718,-0.61948332940463,0.3529154401632045,-1.131138818784139,-1.1553324385885264,-28.51453656890576,33.4313775794204,2.506690890138273,-1.3855830699552143,-4.7343363368744615,3.4531393658079104,3967.65283203125,11.877,0.1333333333333333,179.38031560593942,5.616255237662545,80.22713333686242,1227.0,1435.0,1200.0,1528.0,1189.0,999.7000000000002,107.0,293.9,1649423660.9581673,1649423662.0923836,c0e5800b-e37e-4617-8e4c-f7e39903ec48
-1.016179687111416,-1.2736971003270128,-0.8772504812590936,1.0406316405769205,-0.63294759898746,0.3632240172600958,-1.1462466822500892,-1.1623012529405836,-28.71921296587266,33.480272206976444,2.4038752300468023,-1.3670069361129606,-4.778345711559436,3.5144698915829498,3975.615234375,11.812,0.13,179.42057274090746,5.626256484450344,80.13698394673715,1227.0,1435.0,1200.0,1528.0,1189.0,999.7000000000002,107.0,293.9,1649423662.2018776,1649423663.3231132,c0e5800b-e37e-4617-8e4c-f7e39903ec48
-1.0138129202923911,-1.2697261904237076,-0.8757120830999776,1.045273130029838,-0.6306465764657212,0.3558081531404053,-1.1478771218925252,-1.177606347192884,-28.8837788986314,33.46750768147231,2.510965906220585,-1.394215219056945,-4.763710926809081,3.512122581701936,3990.629150390625,11.818555555555555,0.13,179.4384814969113,5.624735581563286,80.03259133546266,1227.0,1435.0,1200.0,1528.0,1189.0,999.7000000000002,107.0,293.9,1649423663.4313018,1649423664.4695776,c0e5800b-e37e-4617-8e4c-f7e39903ec48
-0.3170177279758249,-0.068798133452817,-0.7204299536671827,0.0295263023269738,-0.7809645542879172,0.1235521228193241,-1.11232453751576,-1.1396713175095092,-27.255224266375592,26.907209474449992,4.608768214839664,0.340547632061023,-0.1548268571788631,3.597771537882436,4004.508110894097,11.90011111111111,0.1566666666666666,179.06262377598452,5.785127917773441,79.84311202205771,1553.0,1435.0,1200.0,1528.0,1471.0,999.7000000000002,107.0,293.9,1649423666.4864025,1649423667.62512,0be712f0-db23-44e6-ae88-cbdea005af37
-0.2986419164954143,-0.0661597968580562,-0.7197158780695477,0.0229620685455567,-0.7809362340280179,0.1281779352056115,-1.1087597211107785,-1.130520829457536,-27.135844889662422,26.76814460584164,4.79196816545145,0.3649527273569003,-0.1465490174596883,3.592344692261085,4003.6766221788193,11.963111111111113,0.17,179.09957054593485,5.799586005290282,79.77958746822705,1553.0,1435.0,1200.0,1528.0,1471.0,999.7000000000002,107.0,293.9,1649423667.7353363,1649423668.8560512,0be712f0-db23-44e6-ae88-cbdea005af37
-0.3080432356904173,-0.0634774627138878,-0.7128917020288508,0.0243426815761776,-0.7736255556805625,0.1240492446176763,-1.102553531974636,-1.1208959772983098,-27.18436690331318,26.68395992638697,4.810822502949715,0.352320992329245,-0.1360511065662477,3.564612768754472,4009.7122395833335,11.961999999999998,0.1766666666666666,179.11319146095968,5.786774040795284,79.72377571578916,1553.0,1435.0,1200.0,1528.0,1471.0,999.7000000000002,107.0,293.9,1649423668.964449,1649423670.0804644,0be712f0-db23-44e6-ae88-cbdea005af37
-0.2921990544167513,-0.0657390385700056,-0.7345739109587593,-0.2389731252739685,-0.8243795467821485,0.3804093620421353,-1.0526410461047906,-1.073442298277126,-26.903856749513714,26.31506984581867,6.580693378022428,1.5192706366173008,-0.1311660746162358,3.5924934171944893,3978.692626953125,11.954,0.1655555555555555,179.12905116021244,5.869820982821129,79.59735726226121,1553.0,1522.0,1200.0,1528.0,1471.0,999.7000000000002,107.0,293.9,1649423670.993502,1649423672.12803,1792faf9-9c33-45d1-9404-a2624ba804a0
-0.296262002147964,-0.0729182270323211,-0.7403593397610816,-0.2324382223998703,-0.8267594619920214,0.3832231828443337,-1.057703297562134,-1.0918636358274345,-27.05491904722436,26.2843688702974,6.795443182995388,1.510319123085762,-0.1600984089768758,3.6102271520050335,3979.306640625,11.947,0.1633333333333333,179.14347196628006,5.890467411453478,79.49282425265379,1553.0,1522.0,1200.0,1528.0,1471.0,999.7000000000002,107.0,293.9,1649423672.2372882,1649423673.5652854,1792faf9-9c33-45d1-9404-a2624ba804a0
-0.2939790594141649,-0.070862099567232,-0.7378572513039415,-0.2330293659540606,-0.8251591552455801,0.3824254953177995,-1.055891515480643,-1.0751488910963063,-27.043934938587523,26.32104038903026,6.907101512795852,1.510251103064825,-0.1532220252329371,3.602450986174764,3972.7502170138887,11.94722222222222,0.17,179.15654646617128,5.884533020565861,79.40728296348856,1553.0,1522.0,1200.0,1528.0,1471.0,999.7000000000002,107.0,293.9,1649423673.6738586,1649423674.7946205,1792faf9-9c33-45d1-9404-a2624ba804a0
-0.2882538971416117,-0.0790389454248635,-0.7712905652343766,-0.5261905619998627,-0.888286626031194,0.6772575886800296,-1.010706538751253,-1.0357849555405307,-27.19045041173789,26.035186350522977,9.352655131751272,2.8308343833025784,-0.1705579718820542,3.669576623284566,3970.0908203125,11.94511111111111,0.1611111111111111,179.1863610008083,5.998615867861552,79.26190238700484,1553.0,1613.0,1200.0,1528.0,1471.0,999.7000000000002,107.0,293.9,1649423676.932771,1649423678.076526,eb6bc60d-2992-4e38-ad80-eea387ff2e34
-0.2956774329780863,-0.0856817766512017,-0.7754954108348376,-0.5263686171498486,-0.8910944222863552,0.681667880116425,-1.011103739467373,-1.0439618056258422,-27.026392710387835,25.92918088466854,9.013910699404684,2.840263034194501,-0.193877944683453,3.67857326236742,3968.2529296875,11.945,0.16,179.2010641213616,6.0095641393505215,79.13873813916145,1553.0,1613.0,1200.0,1528.0,1471.0,999.7000000000002,107.0,293.9,1649423678.1856663,1649423679.2988255,eb6bc60d-2992-4e38-ad80-eea387ff2e34
-0.2936640385472433,-0.0887224128124379,-0.7700715711169573,-0.5294229505363535,-0.8865334657345746,0.6893105590645474,-1.0040774003206734,-1.0377024741794607,-27.007987086574577,26.02556371612897,9.323510628488032,2.865294603445077,-0.2074348948997405,3.6549790538900258,3963.15966796875,11.93988888888889,0.16,179.19397742064277,5.999340816550959,79.05018853112176,1553.0,1613.0,1200.0,1528.0,1471.0,999.7000000000002,107.0,293.9,1649423679.4075992,1649423680.5284357,eb6bc60d-2992-4e38-ad80-eea387ff2e34
-0.302284105917001,-0.1025816872511897,-0.8416569423769604,-0.836686732772702,-0.9846490938169372,1.0016983532729469,-0.9957466003691858,-1.0209526682448906,-27.683069283430992,25.733552919453604,11.341516790140847,4.254865114653093,-0.2392354071534032,3.872456417195621,3990.437418619792,11.936333333333332,0.1566666666666666,179.21349506565102,6.121656508253717,78.95423196238215,1553.0,1710.0,1200.0,1528.0,1471.0,999.7000000000002,107.0,293.9,1649423681.4382057,1649423682.5728395,607b6b23-65b6-4bda-9291-3145519ee3fe
-0.309209634845394,-0.1034736072088712,-0.8529083968868824,-0.8472791083708033,-0.9972428132408944,1.0102072027532951,-1.0052690016864934,-1.0232525956839995,-27.6717240985266,25.7804059769118,10.95991302522529,4.2975746680501965,-0.2386871426337757,3.917754048643801,4040.373996310764,11.92388888888889,0.15,179.2268382196496,6.124182729609236,78.85649574990882,1553.0,1710.0,1200.0,1528.0,1471.0,999.7000000000002,107.0,293.9,1649423682.6823952,1649423683.813516,607b6b23-65b6-4bda-9291-3145519ee3fe
-0.2978398459378739,-0.1038308134863192,-0.8550291733187827,-0.8396977856928797,-0.996246251172656,1.0063661401213633,-1.009579037788039,-1.0428978558935358,-27.956324038413303,25.720978272346585,11.333801715811108,4.271258466639502,-0.242395197837867,3.925800071295236,4076.0354817708335,11.923666666666666,0.1444444444444444,179.22631608963306,6.130543343273811,78.76898584844281,1553.0,1710.0,1200.0,1528.0,1471.0,999.7000000000002,107.0,293.9,1649423683.9254854,1649423685.0350816,607b6b23-65b6-4bda-9291-3145519ee3fe
-0.2860045004387168,-0.1102038857830955,-0.8627267274358904,-1.0849904018212109,-1.036087332186925,1.2498010931557515,-0.9544768635434788,-0.9810650603354992,-27.69909249230966,26.00168275433297,13.1190103098111,5.373500948531712,-0.2542234261655082,3.9117645923980793,4073.4450954861113,11.901222222222223,0.14,179.23583737333604,6.2190210920315945,78.61139517045282,1553.0,1814.0,1200.0,1528.0,1471.0,999.7000000000002,107.0,293.9,1649423686.9687588,1649423688.1012976,2db95118-2898-413d-900b-27c38414e39c
-0.2856757829699782,-0.1083580109923565,-0.8510572533788878,-1.0857869095023562,-1.0266683078805896,1.247538000173138,-0.941530447149986,-0.9634786685174188,-27.4075729772323,25.996129973585973,13.043468623194382,5.370891156172375,-0.2478562974168573,3.8649117925623178,4056.52001953125,11.878666666666668,0.1311111111111111,179.2331508322625,6.238776275840994,78.50651685683737,1553.0,1814.0,1200.0,1528.0,1471.0,999.7000000000002,107.0,293.9,1649423688.209298,1649423689.347623,2db95118-2898-413d-900b-27c38414e39c
-0.3092003211411983,-0.112969157913079,-0.8599073420181966,-1.0921134599549809,-1.033759505723677,1.260661916172678,-0.9471752868992956,-0.96934400199265,-27.57038562887338,25.9373297264699,13.3842393157556,5.413795391370421,-0.2668019079175663,3.89444843431234,4052.046061197917,11.877,0.13,179.20640988275198,6.238148230460437,78.400164740181,1553.0,1814.0,1200.0,1528.0,1471.0,999.7000000000002,107.0,293.9,1649423689.461797,1649423690.767753,2db95118-2898-413d-900b-27c38414e39c
-0.3277005397163357,-0.0692760380168161,-0.7082896564276366,0.3832494802386156,-0.7328908770776702,-0.2154895510413092,-1.1997750668723763,-1.223258658453391,-27.63388875673379,27.880120794528946,2.350520612219776,-1.212733640735397,-0.1766891683837623,3.63945029275196,4038.693115234375,11.900333333333334,0.1466666666666667,179.23552470245403,5.785158985647792,78.3329374649103,1553.0,1349.0,1200.0,1528.0,1471.0,999.7000000000002,107.0,293.9,1649423691.8830445,1649423693.0252297,6bef6201-57b2-4be3-9147-4d4e006cdac1
-0.3251628409110141,-0.0607819798801179,-0.7083291025401924,0.3768329169397086,-0.7354680226436071,-0.2163179189805884,-1.2014975475310514,-1.2244814878429249,-27.65546270724042,27.911739182229947,2.5687591482042773,-1.1998893326983866,-0.1458247817112834,3.646717936158983,4041.64306640625,11.955555555555556,0.16,179.25052228005157,5.752465336548141,78.50487685252665,1553.0,1349.0,1200.0,1528.0,1471.0,999.7000000000002,107.0,293.9,1649423693.1344242,1649423694.2526977,6bef6201-57b2-4be3-9147-4d4e006cdac1
-0.3181808821100169,-0.0566313745996351,-0.6889468209577535,0.3748786921035572,-0.7192162273512753,-0.218469922563651,-1.1818177682950617,-1.216593359367066,-27.43552674207616,27.962100708297807,2.7336684719038,-1.1988809611214586,-0.1318055339294256,3.570993223818153,4040.585015190972,11.960444444444445,0.17,179.26376981140177,5.739866578305359,78.61596684373727,1553.0,1349.0,1200.0,1528.0,1471.0,999.7000000000002,107.0,293.9,1649423694.361941,1649423695.4835808,6bef6201-57b2-4be3-9147-4d4e006cdac1
-0.3199340418710376,-0.0437976987512831,-0.6556367781284494,0.6088021955089721,-0.6700729561398052,-0.4591321938699475,-1.2209077786385567,-1.2412060966814062,-27.38845613810005,28.959235916720672,0.8975310046650478,-2.259355579868037,-0.0944033611085182,3.5149468065492555,3990.014458550347,11.949444444444444,0.1555555555555555,179.27177327528918,5.66413519576742,78.84145643226637,1553.0,1264.0,1200.0,1528.0,1471.0,999.7000000000002,107.0,293.9,1649423697.4134653,1649423698.5493152,14c99341-b820-4f30-a072-6be2cc6d7af0
-0.3193450897390705,-0.0497557019314998,-0.6601566440746183,0.6105827479536523,-0.6714015228001419,-0.4537357485493105,-1.2240305966430665,-1.2606689240250146,-27.596639374789504,28.89066255905458,1.040296841422938,-2.2520072134252467,-0.1170482781830035,3.5267422725485584,3983.0048828125,11.941555555555556,0.1588888888888889,179.27999378741026,5.65610929660583,78.95186719910953,1553.0,1264.0,1200.0,1528.0,1471.0,999.7000000000002,107.0,293.9,1649423698.6573474,1649423699.9832046,14c99341-b820-4f30-a072-6be2cc6d7af0
-0.3107436496280925,-0.0384149510429511,-0.652692017088918,0.6115825966342109,-0.667566485092983,-0.4662817991925485,-1.2212227998623086,-1.244794598390888,-27.493150308772886,28.98609530691916,1.00518419056088,-2.2814044576512864,-0.0745831016115294,3.508710680454441,3981.361219618056,11.930444444444444,0.15,179.27018715358196,5.657799388970456,79.06273634753698,1553.0,1264.0,1200.0,1528.0,1471.0,999.7000000000002,107.0,293.9,1649423700.0912445,1649423701.2088764,14c99341-b820-4f30-a072-6be2cc6d7af0
-0.2914364298940106,-0.0219670272959042,-0.6086225029138302,0.8154602346077914,-0.6137373473808906,-0.6842406816748007,-1.2427581911960563,-1.2760901663043165,-27.23821643599604,30.02078280776693,-0.9256980630380138,-3.2222112004365813,-0.0198747670853212,3.4067917646156185,4003.46875,11.923,0.15,179.26715303177065,5.57463007272198,79.22606210770006,1553.0,1178.0,1200.0,1528.0,1471.0,999.7000000000002,107.0,293.9,1649423702.796285,1649423703.7506373,88004773-4ed6-41ce-9247-2ec75d8b3cf2
-0.3100812839463339,-0.0229663282366722,-0.6168930355599467,0.8065585680818598,-0.6216660138740098,-0.6730511371052045,-1.2493456937083527,-1.2752880946214566,-27.42434105332617,30.01939711921711,-0.6958123065097204,-3.177464869453751,-0.0237712260452187,3.438239416080572,3991.661051432292,11.907000000000002,0.1433333333333333,179.26824130857838,5.585241767666848,79.35191745007643,1553.0,1178.0,1200.0,1528.0,1471.0,999.7000000000002,107.0,293.9,1649423703.8588734,1649423705.1040118,88004773-4ed6-41ce-9247-2ec75d8b3cf2
-0.3188909117890902,-0.0271739111484406,-0.6152100018618728,0.8004838709649971,-0.6187075562347146,-0.6612041574010373,-1.243441923870224,-1.2665442035333496,-27.479633345408946,29.91475165097786,-0.3623877415786461,-3.137724682375777,-0.0412631625282546,3.4234221850009514,3988.56494140625,11.901111111111112,0.14,179.26500987019108,5.562220994524275,79.46918041447694,1553.0,1178.0,1200.0,1528.0,1471.0,999.7000000000002,107.0,293.9,1649423705.2117243,1649423706.3372028,88004773-4ed6-41ce-9247-2ec75d8b3cf2
-0.3000356785082154,-0.0153532329191168,-0.5646401001424638,0.8960222895199916,-0.5707016508961336,-0.7689840641096855,-1.2278081109398056,-1.2475311735345005,-27.122411181416577,30.881952057824748,-1.2893138356877818,-3.586469997971787,0.0002180006425113,3.2676583479677586,3984.448052300347,11.899555555555557,0.1444444444444445,179.2549436891743,5.524847622342041,79.65713507787717,1553.0,1088.0,1200.0,1528.0,1471.0,999.7000000000002,107.0,293.9,1649423708.4725096,1649423709.615548,cfe380d1-8772-4a04-b3bb-662dfc7ee81d
-0.3068598528555543,-0.0086868437824991,-0.564705843658996,0.8807961005531098,-0.5718061417300597,-0.7620941442632672,-1.226480091363992,-1.2424163247892728,-27.29861114545814,30.75180802161143,-1.367063004524407,-3.5376079786173538,0.0290254968041221,3.267855166586203,3986.7099609375,11.869,0.14,179.24694174310667,5.491335156883768,79.74566191861959,1553.0,1088.0,1200.0,1528.0,1471.0,999.7000000000002,107.0,293.9,1649423709.7247286,1649423710.7425826,cfe380d1-8772-4a04-b3bb-662dfc7ee81d
-0.3109622467348125,-0.0101200517138759,-0.5627992824321613,0.9036748300877928,-0.5681113572743791,-0.7786878062167116,-1.2291098332802806,-1.254684069002341,-27.192982600340823,30.831710870842745,-0.9352503692219636,-3.625758337346298,0.016380697924742,3.2646453690773,3979.922607421875,11.868666666666666,0.1333333333333333,179.24423547037551,5.506447424741112,79.7888105003363,1553.0,1088.0,1200.0,1528.0,1471.0,999.7000000000002,107.0,293.9,1649423710.8503888,1649423712.0717704,cfe380d1-8772-4a04-b3bb-662dfc7ee81d
-0.3042958567299292,-0.0685265622863644,-0.7159947955845695,0.0412519051300968,-0.773125905015744,0.112136526087562,-1.1081943268419048,-1.1305602758980102,-27.22907502846528,26.651511283917568,4.59463930199146,0.2869818725281992,-0.1550349976509419,3.5754078393674984,3985.476019965278,11.901777777777776,0.1433333333333333,179.25997222622323,5.781888890287039,79.86517125634714,1553.0,1435.0,1200.0,1528.0,1471.0,999.7000000000002,107.0,293.9,1649423714.0047145,1649423715.1415112,a86eb4e8-8760-4c75-94db-149575036cad
-0.3046377228783081,-0.0657390385681723,-0.7148114124106059,0.0363211440474517,-0.7749667232773182,0.1121891209051261,-1.1063798053643352,-1.1412370260468918,-26.98049835771274,26.710707766834894,4.354577239706117,0.298760854167884,-0.1435286831305821,3.573823538117756,3984.8564453125,11.96,0.17,179.24017226672927,5.765316147744041,79.79634723463045,1553.0,1435.0,1200.0,1528.0,1471.0,999.7000000000002,107.0,293.9,1649423715.2503078,1649423716.369072,a86eb4e8-8760-4c75-94db-149575036cad
-0.3114881946221477,-0.0688158336209648,-0.7194923504831656,0.0403446449654895,-0.7776753562018939,0.1153842538999901,-1.1111133397858974,-1.1345837803745504,-27.127131614088547,26.71687560437665,4.871069873128544,0.2966810406619269,-0.1594003832842259,3.590919350041492,3992.280517578125,11.958777777777776,0.16,179.230134924289,5.76862618073869,79.72897273083764,1553.0,1435.0,1200.0,1528.0,1471.0,999.7000000000002,107.0,293.9,1649423716.4844768,1649423717.8145497,a86eb4e8-8760-4c75-94db-149575036cad
-0.2405772662862078,-0.0342347612400248,-0.5097442776449838,0.011141390313682,-0.5905824856150873,0.0957795481679141,-0.8928842894272683,-0.906440604055888,-25.55009299086016,26.563950464125064,4.719328472827645,0.3287019839596329,-0.022627486659798,2.7443505789653875,3996.003173828125,11.96,0.16,179.2095274846532,5.764990148506782,79.62770758729312,1553.0,1435.0,1200.0,1424.0,1471.0,999.7000000000002,107.0,293.9,1649423718.8982685,1649423719.8594515,5a458f17-f01a-49ac-9209-d98f983b0d28
-0.2366041680877725,-0.032237802937257,-0.5150826497760678,0.0139059038994343,-0.594522712870802,0.0948114754607413,-0.8998328312389551,-0.9175835817200438,-25.73824925925568,26.53507595181739,5.175524533262627,0.3198113092819561,-0.0185284940582961,2.7676769071980503,3998.903211805556,11.961111111111112,0.1655555555555555,179.2044685912079,5.755794057699267,79.56984905483392,1553.0,1435.0,1200.0,1424.0,1471.0,999.7000000000002,107.0,293.9,1649423719.9676187,1649423721.0861552,5a458f17-f01a-49ac-9209-d98f983b0d28
-0.2482188511422608,-0.0387710615732567,-0.5210680474733768,0.0190695065367387,-0.5971661494898864,0.0944005787176912,-0.9037226559972305,-0.9287325867557656,-25.728925758905323,26.378432450419737,4.847048120843095,0.3058560376078141,-0.0412047462940315,2.783836673500987,3997.86669921875,11.961,0.16,179.2037278951379,5.773337351150577,79.47991974858192,1553.0,1435.0,1200.0,1424.0,1471.0,999.7000000000002,107.0,293.9,1649423721.1975298,1649423722.3072784,5a458f17-f01a-49ac-9209-d98f983b0d28
-0.1649854039956663,0.010944160067464,-0.257341855987393,0.0151648915684145,-0.361374356448451,0.0345592187232897,-0.6428091245276106,-0.670658073398557,-23.8355659000264,26.49386916806712,4.762298606303157,0.1950289734319443,0.1498094922994153,1.738845096842282,3994.140869140625,11.963,0.16,179.1951081964054,5.773207008373915,79.41370334130836,1553.0,1435.0,1200.0,1304.0,1471.0,999.7000000000002,107.0,293.9,1649423723.42153,1649423724.7648456,433058a1-3667-40f5-a635-9bb5aae26953
-0.1540823946480616,0.0142757110254197,-0.2573818499868448,0.0137415451904651,-0.3613113522932334,0.034354866083042,-0.6425291668563644,-0.657266669743473,-23.84326348731466,26.39985426303588,5.012922284595619,0.1971913349662505,0.1603091588176369,1.7391925219867124,3993.520751953125,11.960666666666668,0.16,179.1803504343387,5.762747996616118,79.38369376682505,1553.0,1435.0,1200.0,1304.0,1471.0,999.7000000000002,107.0,293.9,1649423724.8736794,1649423725.994952,433058a1-3667-40f5-a635-9bb5aae26953
-0.1529411972982503,0.0061317371712061,-0.2576837221948252,0.0158617724227686,-0.359770215265237,0.0389377345748201,-0.641257577979675,-0.6754836475712623,-23.90503755629121,26.430280480720903,4.811406183469504,0.2028303887321144,0.1317078927309498,1.7343877114750206,3990.8350965711807,11.962777777777776,0.16,179.17100977119375,5.769484839867474,79.3679911619232,1553.0,1435.0,1200.0,1304.0,1471.0,999.7000000000002,107.0,293.9,1649423726.111397,1649423727.218503,433058a1-3667-40f5-a635-9bb5aae26953
-0.0804392816338542,0.0491148255620254,-0.0528138697085904,0.0346249620276534,-0.1773188821563252,-0.0314209403051666,-0.446959237781631,-0.4686545916706528,-22.32952968127093,26.743893072945674,4.77734427112627,0.0154676606176576,0.2927542647589535,0.9362733152179528,3997.86669921875,11.96,0.16,179.16792404350866,5.760255831342708,79.294357169211,1553.0,1435.0,1200.0,1166.0,1471.0,999.7000000000002,107.0,293.9,1649423728.795619,1649423729.8926551,07af86ee-768b-4bff-a645-16102991d8af
-0.0967173684326865,0.0419619347795081,-0.065305131624923,0.0386747606580872,-0.1883769366952828,-0.0297510557294628,-0.4598186655832708,-0.4773064357919264,-22.37866701539788,26.852842456830228,4.450089231973019,0.0101081170742047,0.2678861619496921,0.9853002017863004,3995.5945095486113,11.951222222222222,0.1555555555555555,179.16679478556594,5.787892436840004,79.29038048129425,1553.0,1435.0,1200.0,1166.0,1471.0,999.7000000000002,107.0,293.9,1649423730.0007184,1649423731.1157172,07af86ee-768b-4bff-a645-16102991d8af
-0.1055795901706842,0.037977879799401,-0.0594539615618206,0.0373993370081887,-0.1823285358659256,-0.0274105878010214,-0.4523633531019997,-0.4771486513887905,-22.341440980636808,26.854456357853287,4.112124554845488,0.0185114173513827,0.2562034214755788,0.9575269430888964,3995.1759168836807,11.952555555555556,0.1577777777777777,179.15608960240678,5.759065196561142,79.24763715746832,1553.0,1435.0,1200.0,1166.0,1471.0,999.7000000000002,107.0,293.9,1649423731.224013,1649423732.5481975,07af86ee-768b-4bff-a645-16102991d8af
-0.3722088841396186,-0.0922205140542916,-0.9149478138787152,0.1272969725003682,-0.954998765689838,0.0659320079578114,-1.3410184876852405,-1.3624903296624833,-28.49203881279915,27.75076785674213,4.320969859536785,-0.0142412355738622,-0.2557251573260986,4.421979228772779,3998.6959092881934,11.935444444444446,0.1488888888888889,179.24106322696102,5.797213890077909,79.32729461811853,1553.0,1435.0,1200.0,1623.0,1471.0,999.7000000000002,107.0,293.9,1649423733.4582405,1649423734.6022322,28d8ff3d-e870-4ae0-9dc4-b45262b011f5
-0.3732344826522061,-0.0965990301375768,-0.905927803215535,0.1344893092165998,-0.944624438191154,0.0624081574065814,-1.333287046749682,-1.3490523503612235,-28.5918760720958,27.820938812417737,4.215901557012217,-0.0375366437482579,-0.2708219334237589,4.383832282265344,4002.0147840711807,11.930777777777775,0.14,179.2407308244214,5.782276313794961,79.2951669260826,1553.0,1435.0,1200.0,1623.0,1471.0,999.7000000000002,107.0,293.9,1649423734.7146733,1649423735.9484377,28d8ff3d-e870-4ae0-9dc4-b45262b011f5
-0.3649902486147015,-0.0846074185492011,-0.9031008319191076,0.1276914334330271,-0.9456763344890576,0.057898154610043,-1.3322482986853423,-1.3629768317180149,-28.458188179812264,27.822395671219,4.36926515429362,-0.0320947158244065,-0.2271353632354922,4.3816331549717855,4001.599365234375,11.93188888888889,0.15,179.24285728998302,5.762967511306943,79.24928930433754,1553.0,1435.0,1200.0,1623.0,1471.0,999.7000000000002,107.0,293.9,1649423736.0576117,1649423737.0058067,28d8ff3d-e870-4ae0-9dc4-b45262b011f5
-0.4007437519637054,-0.1021724340604818,-1.0050361600131603,0.1876604437152693,-1.0353603604295925,0.0237263364834084,-1.4557902874631488,-1.4871691387945738,-29.35453851466259,28.47027829543888,4.0441420455983526,-0.2454425815889273,-0.2976237829335342,4.815681727264785,4008.253038194444,11.89011111111111,0.1277777777777777,179.26464103997588,5.75178786715984,79.2419104233042,1553.0,1435.0,1200.0,1712.0,1471.0,999.7000000000002,107.0,293.9,1649423737.9637687,1649423739.100819,f62a2a97-a55f-47ec-80d5-9246bae83735
-0.4004561241596351,-0.0993372462823154,-0.9963936264809644,0.1914680867483216,-1.0279231246656748,0.016590429282936,-1.4485448004307069,-1.478581386678644,-29.2250417968912,28.49415552862704,3.983296778799129,-0.269422915879103,-0.2872878877282531,4.783826576434975,4004.50843641493,11.872555555555554,0.12,179.25868815065925,5.755230282501525,79.22199359168445,1553.0,1435.0,1200.0,1712.0,1471.0,999.7000000000002,107.0,293.9,1649423739.208047,1649423740.5356624,f62a2a97-a55f-47ec-80d5-9246bae83735
-0.4113722836036062,-0.1077058440547321,-1.023499132886888,0.1810176130253439,-1.051631882910266,0.0352862320433738,-1.4726233763968688,-1.4978524676004137,-29.62810964996021,28.466398988034864,3.912838793482604,-0.2055850426519845,-0.3156300732214273,4.885875222920062,4001.807074652778,11.871666666666666,0.1288888888888889,179.24312290845072,5.744957203671135,79.19619065481996,1553.0,1435.0,1200.0,1712.0,1471.0,999.7000000000002,107.0,293.9,1649423740.6444256,1649423741.7631817,f62a2a97-a55f-47ec-80d5-9246bae83735
-0.4206996419564888,-0.1044597594836204,-1.0565626473481902,0.267593555789942,-1.0781895282960987,-0.0482216873974908,-1.5371753307085794,-1.5674447632955557,-29.945321458440823,29.13020954737146,3.4450350644084,-0.5860127122910788,-0.3098081469685378,5.059022947012878,3994.761637369792,11.865666666666666,0.1266666666666666,179.27053625213952,5.723023331812109,79.19654886029643,1553.0,1435.0,1200.0,1801.0,1471.0,999.7000000000002,107.0,293.9,1649423742.879284,1649423744.00964,6410abbc-71bf-40e6-ba20-d30c3e72a754
-0.4156730038756457,-0.0993920325180512,-1.060740101003426,0.2635119815492823,-1.0842845014823164,-0.0500981160342953,-1.5434757556147565,-1.5670064737553366,-29.97942555018493,29.21240307758736,3.308805847591731,-0.5807242878031548,-0.2891132183930522,5.082316997622207,3994.762939453125,11.853111111111112,0.1177777777777777,179.26776926661577,5.721710939422212,79.21902094157568,1553.0,1435.0,1200.0,1801.0,1471.0,999.7000000000002,107.0,293.9,1649423744.1181858,1649423745.457304,6410abbc-71bf-40e6-ba20-d30c3e72a754
-0.4188316416039608,-0.0972321904700842,-1.0490969644586938,0.2672142664342954,-1.0715761932176404,-0.0533610579447413,-1.5322993503448277,-1.5616816646686251,-30.06782278328819,29.120175760247573,3.719635939203197,-0.5964186453723145,-0.2837473022479147,5.034073402087094,3983.827799479168,11.856555555555556,0.12,179.26275438994514,5.731929234443635,79.23251663646572,1553.0,1435.0,1200.0,1801.0,1471.0,999.7000000000002,107.0,293.9,1649423745.566426,1649423746.6801157,6410abbc-71bf-40e6-ba20-d30c3e72a754
-0.3265697515911762,-0.1060003484902434,-0.7411877082338844,-0.008055706767973,-0.7578076673339413,0.1992071899363691,-1.0766768794992123,-1.100804754792278,-28.188405159531552,22.88795018022829,5.372397855171137,0.5673047088014769,-0.2912779328382838,3.541014476281373,7351.1376953125,11.637,7.779999999999999,178.55982319478355,5.700269979548287,69.4750540988878,1553.0,1435.0,1350.0,1528.0,1471.0,999.7000000000002,107.0,293.9,1649423751.433658,1649423752.4126823,2a871a66-fa7c-4e55-9446-65cf65c03abc
-0.3292126399735921,-0.1116542882087978,-0.7441461663225959,-0.0143670811527638,-0.760621489709117,0.2089503734722465,-1.0751647784020093,-1.089155001360521,-28.05339820064761,22.832163626414825,5.138265484601952,0.6029493671983118,-0.3107755124180109,3.5457744187111744,7357.447265625,11.634333333333334,7.833333333333333,178.36626929408374,5.664981807201418,65.45506430060674,1553.0,1435.0,1350.0,1528.0,1471.0,999.7000000000002,107.0,293.9,1649423752.5250366,1649423753.644982,2a871a66-fa7c-4e55-9446-65cf65c03abc
-0.3195877927879056,-0.1107338794375411,-0.7354680227980448,-0.0201130613431413,-0.7562955664931207,0.2134209299991526,-1.069694916787515,-1.0970047787589277,-28.152368191037613,23.25477023014292,5.199694646509779,0.6291504252057114,-0.3059026114679684,3.520170143554893,7357.447265625,11.638222222222222,7.763333333333334,178.31622373912515,5.678140261501185,61.98551261734787,1553.0,1435.0,1350.0,1528.0,1471.0,999.7000000000002,107.0,293.9,1649423753.7535946,1649423754.871899,2a871a66-fa7c-4e55-9446-65cf65c03abc
-0.1014876061758517,0.2611287805650622,-0.6803590760758609,-0.2911575686661501,-0.7955334854673852,0.1088641443451498,-1.0643012086783752,-1.0873662305210336,-27.51406690838144,21.698446116024844,6.899072894521453,0.9986265618004104,1.1060677674445445,3.536915379584624,7357.447265625,11.622666666666667,7.819999999999999,178.24199627886512,5.92916114457964,55.50937313315189,1658.0,1435.0,1350.0,1528.0,1551.0,999.7000000000002,107.0,293.9,1649423757.0108044,1649423758.1481323,5c8b9296-6c36-4fb7-90e6-6d2e98e105b3
-0.1006932057108615,0.2583894689896593,-0.6788387573477848,-0.2762420140836417,-0.7947938708755012,0.1129868083817084,-1.068492358292281,-1.0852569584969476,-27.758772287315264,22.21380709667791,9.039630739532226,0.9779550323236048,1.0768226341552696,3.5422386900604272,7357.447265625,11.595666666666666,7.816666666666666,178.34920292807763,6.012237968683105,53.41509977093268,1658.0,1435.0,1350.0,1528.0,1551.0,999.7000000000002,107.0,293.9,1649423758.2563446,1649423759.3784015,5c8b9296-6c36-4fb7-90e6-6d2e98e105b3
-0.0992687635356928,0.2570882960140451,-0.6729355384024344,-0.2942392945673045,-0.7900822526719037,0.1195063701471433,-1.055384743098257,-1.0714097277379453,-27.459099938180447,21.91612069999019,7.505369751411876,1.031429632685567,1.0860045880772604,3.506964667699988,7357.447265625,11.594555555555557,7.847777777777777,178.41859461440532,6.102714496410503,51.86307209128114,1658.0,1435.0,1350.0,1528.0,1551.0,999.7000000000002,107.0,293.9,1649423759.4950693,1649423760.820544,5c8b9296-6c36-4fb7-90e6-6d2e98e105b3
0.1149897931317285,0.6444877536549238,-0.6383385670807958,-0.5524249584003602,-0.8594734355220508,0.0036729308269038,-1.0909695229646483,-1.1124282111877282,-27.229452723700195,21.6114457904362,11.198256636896248,1.3539472674544262,2.5386090191280952,3.65508934318285,7360.256510416667,11.581444444444443,7.856666666666666,178.47660416993614,6.2899720061966935,49.67069861928779,1767.0,1435.0,1350.0,1528.0,1630.0,999.7000000000002,107.0,293.9,1649423761.929889,1649423763.0631988,8d89a9da-1fbe-4fbc-9378-580231ec218a
0.118095624666423,0.6442625822540418,-0.6325169792891469,-0.5443248116563186,-0.8543054468538495,0.0003189175271768,-1.0888865485052843,-1.1117461228519174,-27.331978120183205,21.85020569754284,11.778198442211927,1.330051887108194,2.532725934831054,3.6378412228949486,7363.76806640625,11.562111111111111,7.83888888888889,178.59361289951752,6.360389928447187,48.81155568543866,1767.0,1435.0,1350.0,1528.0,1630.0,999.7000000000002,107.0,293.9,1649423763.1723137,1649423764.2900972,8d89a9da-1fbe-4fbc-9378-580231ec218a
0.1291903847783907,0.6514960080712555,-0.6363005181761275,-0.5556858357973217,-0.8583820928143973,0.0053165178937214,-1.0909037792460397,-1.1124150626266205,-27.424556441586056,21.642663513829785,11.98950916834612,1.3653327148126724,2.5597934937705284,3.652517351623368,7363.76806640625,11.553625,7.8325,178.65303877066373,6.425794640071482,48.08075807737334,1767.0,1435.0,1350.0,1528.0,1630.0,999.7000000000002,107.0,293.9,1649423764.3994286,1649423765.5167768,8d89a9da-1fbe-4fbc-9378-580231ec218a
0.3511666637777002,1.0770535269256858,-0.5984585579583891,-0.856015326929267,-0.9405088946232726,-0.1242901862378247,-1.1346889701098768,-1.1613676950015503,-27.29281951539129,21.762451167329985,13.500275862451923,1.7545443978789974,4.1809486362169626,3.826168003310473,7376.44287109375,11.547,7.809999999999999,178.55361682955774,6.61005217306324,46.785231701267406,1886.0,1435.0,1350.0,1528.0,1710.0,999.7000000000002,107.0,293.9,1649423767.2947133,1649423768.2329311,e498ffda-f1a6-469c-adc1-12d3900a984d
0.3494704820638483,1.0561208036595833,-0.646043705757556,-0.8859286269113272,-0.985740436897398,-0.1014114535942751,-1.1710319947917869,-1.1913073014017508,-27.14827206973491,21.543996095513016,9.602232630949052,1.869066844042808,4.136626002513661,3.996281269902699,7382.7958984375,11.507666666666664,7.806666666666666,178.6637559066539,6.6607505328381285,46.42146379462657,1886.0,1435.0,1350.0,1528.0,1710.0,999.7000000000002,107.0,293.9,1649423768.3408537,1649423769.410848,e498ffda-f1a6-469c-adc1-12d3900a984d
0.3828813167446804,1.0739241373965842,-0.619693709141453,-0.8947251092713894,-0.9626381632244594,-0.1245926065800951,-1.144366417695089,-1.1684942937119642,-26.74030396184407,21.068563674133248,7.843892701915776,1.8349038332909409,4.218841374328708,3.891008613602965,7384.210286458333,11.508555555555557,7.797777777777778,178.76005246703224,6.735900353227363,46.13652917247609,1886.0,1435.0,1350.0,1528.0,1710.0,999.7000000000002,107.0,293.9,1649423769.520941,1649423770.8455925,e498ffda-f1a6-469c-adc1-12d3900a984d
-0.5904904447490896,-0.5668885277134461,-0.7763473374650189,0.3960563092341199,-0.6727224197615976,0.2640828541417557,-1.065553074866224,-1.0809502100816248,-28.5303305955566,25.01214408314854,3.183126001324839,-0.1866789874115466,-2.050013044044272,3.400790884918805,7389.16064453125,11.55,7.800000000000001,179.6991852640712,6.601024939710206,45.61160484964356,1449.0,1435.0,1350.0,1528.0,1386.0,999.7000000000002,107.0,293.9,1649423771.9622862,1649423773.102046,3a225974-6df3-4a1b-b2b4-8fae19b8b6a8
-0.5882814630855755,-0.5702677436074524,-0.7785300217900182,0.3903497755096985,-0.6747473195586964,0.2694475218742838,-1.065631966835203,-1.0873536288717751,-28.533361337371048,24.99096661172361,2.7198958076405115,-0.1620757590345791,-2.057996243087457,3.40553074191528,7389.16064453125,11.628555555555556,7.878888888888889,179.79876638653033,6.637424203593936,45.35963689443207,1449.0,1435.0,1350.0,1528.0,1386.0,999.7000000000002,107.0,293.9,1649423773.2100534,1649423774.3283615,3a225974-6df3-4a1b-b2b4-8fae19b8b6a8
-0.6038100783278203,-0.5767106067390294,-0.7781092637519993,0.4105856173882427,-0.674536940733503,0.26890842531116,-1.0710492339742883,-1.0952954471157184,-28.657787662138272,25.52012457777868,4.368865109725983,-0.2052052572316721,-2.0983508287148616,3.4138030708521216,7389.16064453125,11.629444444444443,7.865555555555555,179.85028878016945,6.647497214799888,45.17944701775329,1449.0,1435.0,1350.0,1528.0,1386.0,999.7000000000002,107.0,293.9,1649423774.43691,1649423775.556081,3a225974-6df3-4a1b-b2b4-8fae19b8b6a8
-0.8382667682740831,-0.9810808638766948,-0.8076549452239105,0.747767465523503,-0.5994397791136136,0.33409034357882,-1.055727156714568,-1.0781484391560594,-28.95252296226972,27.222376315422867,1.3771184788042856,-0.8101444322327295,-3.629741781244867,3.2788799178054666,7389.16064453125,11.613333333333332,7.866666666666666,-179.92197237441866,6.645604588353625,44.92242282528121,1342.0,1435.0,1350.0,1528.0,1293.0,999.7000000000002,107.0,293.9,1649423776.3776505,1649423777.61177,9cf3f000-f275-484f-91de-faf74213b441
-0.836992987755017,-0.9854637654053864,-0.8155304704477216,0.7601491533319203,-0.6053977842765726,0.3300635555939389,-1.0661228523404234,-1.089913792079473,-29.023891444928463,27.339851997970538,1.7434065818976154,-0.8467141413842271,-3.65094332517965,3.312528124983675,7389.16064453125,11.58477777777778,7.804444444444444,-179.8488787255608,6.632505281594796,44.8199183818573,1342.0,1435.0,1350.0,1528.0,1293.0,999.7000000000002,107.0,293.9,1649423777.7248294,1649423778.8342364,9cf3f000-f275-484f-91de-faf74213b441
-0.842005930689346,-0.9885180998520235,-0.8206529858148924,0.7486166520741522,-0.6089178008703057,0.3340629504310832,-1.0665063558733163,-1.096337482089664,-28.99530180054636,27.049201700171977,0.3598358803669619,-0.8141004506967223,-3.649248506280569,3.3225682788528537,7391.994194878473,11.585111111111113,7.848888888888887,-179.84176166844566,6.630482027780655,44.749445248911016,1342.0,1435.0,1350.0,1528.0,1293.0,999.7000000000002,107.0,293.9,1649423778.9423687,1649423780.063516,9cf3f000-f275-484f-91de-faf74213b441
-1.0545739055474712,-1.3514191162508635,-0.8411178457568528,1.0998139191979408,-0.5390264324232549,0.3696800266715782,-1.062870738847993,-1.0792934720085836,-29.1411434437282,29.588460522321448,0.7532041773003846,-1.5104757831901252,-5.057296341161962,3.2086721530019555,7389.16064453125,11.564333333333334,7.83,-179.73021253674082,6.540188160181687,44.68635668882237,1227.0,1435.0,1350.0,1528.0,1189.0,999.7000000000002,107.0,293.9,1649423780.972701,1649423782.1096325,fc01bac7-b63e-4823-a32b-7fcd6dfeef6c
-1.0553628279775915,-1.3523921206564111,-0.8382382796438889,1.105862319256542,-0.539302555058066,0.3765699429958694,-1.063738553277192,-1.0973334968176585,-29.196489352039272,30.089383476357945,2.38991985369748,-1.5049398257443896,-5.075613787322003,3.20835810892302,7389.16064453125,11.492666666666668,7.800000000000001,-179.68007135913388,6.542682791912296,44.7476143787585,1227.0,1435.0,1350.0,1528.0,1189.0,999.7000000000002,107.0,293.9,1649423782.2187395,1649423783.3143442,fc01bac7-b63e-4823-a32b-7fcd6dfeef6c
-1.0535088604904248,-1.3481845338403071,-0.8353192677481345,1.1110955001627791,-0.5357655548219324,0.366734718952661,-1.0614243813170616,-1.0925999620804996,-29.070567303711524,29.917980902121663,2.2844903277932347,-1.5397899825711707,-5.060251778311558,3.1968314759422736,7389.16064453125,11.501555555555557,7.794444444444445,-179.70155306298344,6.514890230428953,44.7813642407223,1227.0,1435.0,1350.0,1528.0,1189.0,999.7000000000002,107.0,293.9,1649423783.4235983,1649423784.567268,fc01bac7-b63e-4823-a32b-7fcd6dfeef6c
-0.3203767147131799,-0.1041463822106161,-0.7328119852816198,-0.0078847735359895,-0.7542049230993777,0.2105676630887608,-1.0729689446894206,-1.1039867410838573,-28.387325587188425,23.50156736874543,7.307027343949326,0.5971406825728789,-0.2995427573709209,3.521974570395864,7389.16064453125,11.552444444444443,7.825555555555557,179.86529850032554,6.603243755121206,44.85722715183363,1553.0,1435.0,1350.0,1528.0,1471.0,999.7000000000002,107.0,293.9,1649423785.4443989,1649423786.620847,ad04e0f9-d440-4138-b637-cf696859ad5f
-0.3370624129024683,-0.1121407900077852,-0.7589910507787638,-0.0372589618298493,-0.7750456158245946,0.211974573449965,-1.0856837432243305,-1.1161229966509232,-28.089664307979888,22.514820693972705,2.411762259666355,0.6580878660177086,-0.2863065660254373,3.5966323804657545,7389.16064453125,11.643666666666666,7.877777777777778,179.8691173349815,6.603752367055026,44.83452815649196,1553.0,1435.0,1350.0,1528.0,1471.0,999.7000000000002,107.0,293.9,1649423786.729613,1649423787.8441496,ad04e0f9-d440-4138-b637-cf696859ad5f
-0.3260963984222405,-0.1086432365862128,-0.736348986021502,-0.0238604399573111,-0.7577287752103676,0.2151171117502079,-1.070904597875493,-1.0883923765510977,-28.223921351042595,23.2662357645188,5.233650487191898,0.6414166751635367,-0.2974502151645852,3.525258661447152,7389.16064453125,11.639777777777775,7.874444444444445,179.81889267728465,6.5817643280013325,44.81933705686794,1553.0,1435.0,1350.0,1528.0,1471.0,999.7000000000002,107.0,293.9,1649423787.953786,1649423789.0732434,ad04e0f9-d440-4138-b637-cf696859ad5f
-0.3153593906434338,-0.1117326325559031,-0.7733587467560487,-0.2805701269873162,-0.8153113250746283,0.4712339738409226,-1.0307446171401136,-1.0553436533571576,-28.050626035258286,22.169929955904816,7.630793841483222,1.7873785895759735,-0.3022680481351559,3.598284719696211,7392.702582465277,11.63577777777778,7.853333333333334,179.7923702938276,6.648460034313514,44.86580283379153,1553.0,1522.0,1350.0,1528.0,1471.0,999.7000000000002,107.0,293.9,1649423791.4164352,1649423792.4605024,8b567c51-d471-42e0-9b29-a8a229ff5a3f
-0.31472277440591,-0.1079332069504558,-0.7685107109286694,-0.282863479283463,-0.8093505801670413,0.4610371608061194,-1.0257913906211775,-1.0622264536334267,-28.04924003105843,21.90339361357243,6.451894926087962,1.767925502667903,-0.2769939704438588,3.575392474304637,7389.16064453125,11.62277777777778,7.868888888888888,179.80807365763934,6.6558108831121325,44.89173402643044,1553.0,1522.0,1350.0,1528.0,1471.0,999.7000000000002,107.0,293.9,1649423792.5692616,1649423793.5181816,8b567c51-d471-42e0-9b29-a8a229ff5a3f
-0.3147622205776414,-0.1078937608753866,-0.766985461629896,-0.2719500598774165,-0.8102578407932697,0.4629042754899604,-1.0304986271288503,-1.0552970847298089,-28.22013478503384,22.440868903015897,8.132612138647088,1.7513239861262275,-0.2917704944904062,3.583382080846866,7389.16064453125,11.629777777777775,7.871111111111111,179.81620158275166,6.63186784470413,44.92499021749924,1553.0,1522.0,1350.0,1528.0,1471.0,999.7000000000002,107.0,293.9,1649423793.6318436,1649423794.8082542,8b567c51-d471-42e0-9b29-a8a229ff5a3f
-0.3122776644440779,-0.1259222681225767,-0.8070796896958582,-0.5928517327561796,-0.8798769350389325,0.7862821846128019,-0.9770540734845014,-0.9966401650755498,-27.969831716418128,21.74130762608112,9.642160680485905,3.1956056045611843,-0.3375827920035163,3.654361087436021,7392.702582465277,11.61911111111111,7.864444444444445,179.7844214714535,6.6892569439534775,45.022964727683615,1553.0,1613.0,1350.0,1528.0,1471.0,999.7000000000002,107.0,293.9,1649423796.9468992,1649423798.0838163,a7db5422-c76a-47b2-892e-1169b14273a8
-0.3179891302846221,-0.1258263922493977,-0.8062989854448253,-0.6011244570788848,-0.8801097766045961,0.7976640237585819,-0.9769718943670288,-1.005323789132581,-28.283149234615696,21.92893417818534,10.19299942186455,3.2410561198573427,-0.3388164607401432,3.653916893237737,7395.5361328125,11.619999999999996,7.85,179.75523834985975,6.657491678830387,45.06256920013099,1553.0,1613.0,1350.0,1528.0,1471.0,999.7000000000002,107.0,293.9,1649423798.1926622,1649423799.3100767,a7db5422-c76a-47b2-892e-1169b14273a8
-0.3060046396740432,-0.1220735349416755,-0.803450100144194,-0.5964265359783214,-0.8774937327796885,0.7872409436412497,-0.9747804436648074,-1.007104342487281,-28.078581926695666,21.806348575972944,9.868976098952732,3.206417251597068,-0.3237169201751793,3.643581895700631,7395.5361328125,11.619777777777776,7.860000000000001,179.75659528077483,6.6488670946153,45.07894078411656,1553.0,1613.0,1350.0,1528.0,1471.0,999.7000000000002,107.0,293.9,1649423799.418515,1649423800.455438,a7db5422-c76a-47b2-892e-1169b14273a8
-0.2990878765561928,-0.1298531807281822,-0.827254730385938,-0.8916148925218982,-0.9363204843754424,1.086195705601282,-0.9247879752815718,-0.9495102787939808,-28.306728890247072,22.10570345938188,12.739278155035612,4.545222977023927,-0.3418799733133784,3.685212087940524,7389.16064453125,11.617,7.866666666666666,179.67376329998038,6.7110054994993975,45.17875413300749,1553.0,1710.0,1350.0,1528.0,1471.0,999.7000000000002,107.0,293.9,1649423802.4744558,1649423803.6204312,a93118fc-2fd5-4233-9d2e-fb55bdaa7a74
-0.3134604994030645,-0.1305358172291616,-0.8302701657968861,-0.8777106865345705,-0.9363276062063264,1.0808929460976762,-0.927899286977599,-0.9403379609870142,-28.245530996456505,21.95776701373039,13.687784215516908,4.500993651914052,-0.355185580955969,3.695242614924583,7389.16064453125,11.605,7.86,179.6865812883228,6.693704914922972,45.21582839982232,1553.0,1710.0,1350.0,1528.0,1471.0,999.7000000000002,107.0,293.9,1649423803.7335713,1649423804.8426244,a93118fc-2fd5-4233-9d2e-fb55bdaa7a74
-0.3018370501643764,-0.127958672607538,-0.8234459895022026,-0.8732138301990787,-0.9309103406422772,1.0763829435851575,-0.9233366873810795,-0.9399566487995572,-28.1966381555759,22.07708962575381,14.036215046900285,4.481926223657592,-0.349072926154118,3.672893744567869,7389.16064453125,11.586888888888886,7.831111111111111,179.6358830708435,6.659752376581923,45.214787554883806,1553.0,1710.0,1350.0,1528.0,1471.0,999.7000000000002,107.0,293.9,1649423804.951965,1649423806.072394,a93118fc-2fd5-4233-9d2e-fb55bdaa7a74
-0.2851382035203289,-0.1249081748807897,-0.8241691680322083,-1.158922035898423,-0.9697910581953948,1.3184504365631085,-0.8531883549728727,-0.8711757813058759,-27.390669821889148,21.88478276698752,11.739050468968166,5.669100602660357,-0.287848750682755,3.6222267863037576,7382.7958984375,11.598444444444445,7.832222222222223,179.58789264391518,6.69284801077335,45.27871850497007,1553.0,1814.0,1350.0,1528.0,1471.0,999.7000000000002,107.0,293.9,1649423807.8070335,1649423808.9465003,3d4a30f6-9786-4295-a651-3bd013cf321c
-0.2832579397169428,-0.1355191734421308,-0.8534513290159567,-1.174490104485712,-0.9967327533750052,1.3393174179575271,-0.8789203669017931,-0.8977624585247717,-27.75952792916913,21.93094022948281,10.979578342985947,5.749650433841643,-0.3182433650244433,3.732705562112834,7382.7958984375,11.575333333333331,7.85,179.5723850788596,6.680333254370986,45.325304948569006,1553.0,1814.0,1350.0,1528.0,1471.0,999.7000000000002,107.0,293.9,1649423809.059642,1649423810.1689951,3d4a30f6-9786-4295-a651-3bd013cf321c
-0.2812987836856665,-0.1306673042275664,-0.8280874812671364,-1.1538334872242482,-0.9688706488382012,1.3199888343391415,-0.8555682700170398,-0.8793674225876686,-27.62314470277187,21.68415286264712,11.801042044591115,5.659446822932053,-0.3092313289414484,3.629057701906203,7382.7958984375,11.567555555555556,7.85,179.52821045094765,6.704068398896126,45.32905699915307,1553.0,1814.0,1350.0,1528.0,1471.0,999.7000000000002,107.0,293.9,1649423810.278354,1649423811.3953447,3d4a30f6-9786-4295-a651-3bd013cf321c
-0.324597446872609,-0.0946135769210623,-0.6894344188259356,0.3101164367392609,-0.6821105921642467,-0.1092086306575929,-1.115084248645612,-1.1314938351446535,-27.950026496427217,24.005408207852074,4.801971080570165,-0.8334514265706917,-0.2810760908906157,3.425121908522448,7376.44287109375,11.564,7.864444444444445,179.52059403111312,6.21596795004073,45.370006259957016,1553.0,1349.0,1350.0,1528.0,1471.0,999.7000000000002,107.0,293.9,1649423812.3074982,1649423813.440684,38819610-c0bf-439f-9ff5-a0caaa5b156e
-0.3151040867085914,-0.0977955615916975,-0.693997018321624,0.2996369264860612,-0.6854240650025,-0.1085906418615474,-1.116964513723414,-1.1493103309765418,-28.00023197735034,23.811654428585165,3.0536356211089632,-0.8102390867425853,-0.2761619513176436,3.435633031932349,7382.7958984375,11.613666666666669,7.88,179.4944617273487,6.164459738530501,45.43127874863634,1553.0,1349.0,1350.0,1528.0,1471.0,999.7000000000002,107.0,293.9,1649423813.5484982,1649423814.674534,38819610-c0bf-439f-9ff5-a0caaa5b156e
-0.3339461713799438,-0.0938509525007311,-0.6905520584398995,0.311234075842005,-0.6821894843794131,-0.1145075556976616,-1.1155444534878476,-1.1464044670984253,-27.875710695036496,23.841425689569395,4.29702366717109,-0.8490657324255766,-0.2744776771540287,3.4269172277167126,7382.7958984375,11.611333333333333,7.88,179.4785124767268,6.128636819289862,45.49420300472994,1553.0,1349.0,1350.0,1528.0,1471.0,999.7000000000002,107.0,293.9,1649423814.7832537,1649423815.9020774,38819610-c0bf-439f-9ff5-a0caaa5b156e
-0.3368629910025386,-0.086654232386874,-0.6751954713129654,0.6120345829953372,-0.6396391923267454,-0.4178781506471694,-1.193117438543176,-1.2184013072285846,-28.402486900512724,24.976165633475887,1.3005713073111569,-2.201768047434354,-0.2532419375753698,3.4569247884252974,7389.16064453125,11.61988888888889,7.844444444444444,179.4289860161451,6.007731371923235,45.57073755110966,1553.0,1273.4444444444443,1350.0,1528.0,1471.0,999.7000000000002,107.0,293.9,1649423817.792751,1649423818.977894,fe24ce42-a4eb-4bf4-bc30-5b16b9c47fc3
-0.3453959484953454,-0.0932285808761185,-0.6802084136833089,0.6076927743511962,-0.6447891001360793,-0.4105094006529046,-1.1967881193250591,-1.2185930593237522,-28.43551806258081,25.10055297762089,0.8295238067044538,-2.1749321728244007,-0.2732721877335695,3.4744265210491787,7391.994194878473,11.596444444444444,7.845555555555555,179.4273528420236,6.01788183937165,45.622208338875055,1553.0,1264.0,1350.0,1528.0,1471.0,999.7000000000002,107.0,293.9,1649423819.0866215,1649423820.2034595,fe24ce42-a4eb-4bf4-bc30-5b16b9c47fc3
-0.3412184973823111,-0.0895579029506973,-0.676387072239493,0.6151437014946386,-0.6400911788067717,-0.413330892201255,-1.1941446811403595,-1.2264138006262837,-28.468962194272816,25.04811736328689,1.9401067529352776,-2.1980770335247626,-0.2697872782634008,3.46112917502796,7395.5361328125,11.604888888888889,7.85,179.38180458717846,6.007954254276775,45.680239143883306,1553.0,1264.0,1350.0,1528.0,1471.0,999.7000000000002,107.0,293.9,1649423820.3115208,1649423821.4284952,fe24ce42-a4eb-4bf4-bc30-5b16b9c47fc3
-0.3457011078402399,-0.0755479664532797,-0.6282929595268895,0.8398247667148475,-0.5786434661929103,-0.6505274124653202,-1.217368037519308,-1.2477021056266318,-28.3928738020414,26.105212823575005,-0.3319895316600036,-3.228836226598141,-0.2222387115721012,3.345022706288395,7395.5361328125,11.592,7.826666666666666,179.4052564211487,5.908440200480721,45.79090528391043,1553.0,1178.0,1350.0,1528.0,1471.0,999.7000000000002,107.0,293.9,1649423823.3682516,1649423824.6543903,b05b8243-3769-41ab-8184-cf3f41d2cf96
-0.3479495352419521,-0.087894592797761,-0.6443606716569377,0.8181031223839499,-0.5950004492596986,-0.6334603988994512,-1.2278870032101248,-1.247241900896254,-28.44340159997465,26.153523871339253,-2.5703295350996007,-3.142347704279237,-0.2466934813400734,3.3992837899552404,7394.739196777344,11.552125,7.8325,179.39465217300727,5.878898991990181,45.8317513803988,1553.0,1178.0,1350.0,1528.0,1471.0,999.7000000000002,107.0,293.9,1649423824.7631462,1649423825.9399807,b05b8243-3769-41ab-8184-cf3f41d2cf96
-0.3286039648095367,-0.0748477983340064,-0.6295722184504852,0.8275773050043642,-0.5838393943483355,-0.6413786558135036,-1.21919570797424,-1.242192249574445,-28.43634841872901,26.38850121290515,-0.5521527292854446,-3.178893200761374,-0.2159220210387744,3.3559658753958908,7389.16064453125,11.58188888888889,7.856666666666667,179.37432325330758,5.887125267083357,45.87044018061056,1553.0,1178.0,1350.0,1528.0,1471.0,999.7000000000002,107.0,293.9,1649423826.0490656,1649423827.1662958,b05b8243-3769-41ab-8184-cf3f41d2cf96
-0.2991152696268411,-0.0558011524272062,-0.5566274853902352,0.9270764734234545,-0.5138942105141362,-0.7486996628889503,-1.1841619902181917,-1.2086388131694668,-28.37305980580583,27.433057574975635,0.2715631425208794,-3.633783765929064,-0.1598424880657052,3.115340153060962,7395.5361328125,11.566222222222224,7.822222222222223,179.3350678794178,5.850621795382916,45.95593441736151,1553.0,1088.0,1350.0,1528.0,1471.0,999.7000000000002,107.0,293.9,1649423829.3064811,1649423830.440182,89ce0942-51b1-4baa-8131-7d0592e2989a
-0.3004807113353894,-0.0527036229040315,-0.551342718903915,0.9261156071840418,-0.5081037249754111,-0.7512788312950415,-1.1739717416707298,-1.2000036522677364,-27.98364866200908,27.05231053159359,0.2726695729647653,-3.63947669893193,-0.1505439596888071,3.0865373684857293,7389.16064453125,11.548777777777778,7.83,179.33954393005388,5.85342909799553,46.00215961984435,1553.0,1088.0,1350.0,1528.0,1471.0,999.7000000000002,107.0,293.9,1649423830.5482626,1649423831.7021446,89ce0942-51b1-4baa-8131-7d0592e2989a
