raw_voltage_G-,raw_voltage_G0,raw_voltage_G1,raw_voltage_G2,raw_voltage_G3,raw_voltage_G4,raw_voltage_G5,raw_voltage_G6,load_x,load_y,load_z,load_l,load_m,load_n,rpm,voltage,current,roll,pitch,yaw,aileron1_pwm,elevator_pwm,throttle_pwm,rudder_pwm,aileron2_pwm,pbaro,pdiff,Tt,sample_start_time,sample_end_time,uid
-0.0417426670250688,0.1031691154425482,-0.0088314794419158,-0.0062148888303238,-0.1927423042135185,-0.070880179024354,-0.3833721293099387,-0.4101691776454729,-15.196715752257308,27.31946691566593,1.7219718385162144,0.0280311910183058,0.4799123719390304,0.8134183161729561,4524.241753472223,11.964000000000002,0.1577777777777777,178.6309983193945,5.959795918531354,79.95361537590962,1553.0,1435.0,1200.0,1528.0,1471.0,999.0,108.0,293.85,1649416794.8357933,1649416795.9681346,8ab80162-522d-4a2a-9901-de54253b332d
-0.0368513518634443,0.1035898737165499,-0.0137490919397882,-0.0102515386589472,-0.1968052517434023,-0.0658179307441353,-0.3858703820742397,-0.4151393860080792,-15.193193104433696,27.1750608750088,1.944833883987211,0.0473475812031492,0.4796731167162451,0.8296040000926073,4529.820258246527,11.966555555555557,0.15,178.60443191916286,5.92742978648878,79.40644057349093,1553.0,1435.0,1200.0,1528.0,1471.0,999.0,108.0,293.85,1649416796.0766504,1649416797.39405,8ab80162-522d-4a2a-9901-de54253b332d
-0.0446616777075453,0.0964632804549093,-0.0210992133312317,-0.0052418852910562,-0.2017886081173472,-0.0639245184239505,-0.394075170149293,-0.425277033360304,-15.39081371696906,27.266614198043285,1.817264300470759,0.0404228994266732,0.4543922137929638,0.8569183110726354,4527.958984375,11.962666666666667,0.1566666666666666,178.59206168766602,5.899263414443986,79.00455679618682,1553.0,1435.0,1200.0,1528.0,1471.0,999.0,108.0,293.85,1649416797.5034206,1649416798.6264412,8ab80162-522d-4a2a-9901-de54253b332d
0.1354491640769939,0.4575416308064247,-0.0091106363846213,-0.2161267571283161,-0.2779003509598309,-0.2160635422426607,-0.4533216909097208,-0.4765342024746018,-15.157368719825127,26.41814680200013,2.704730410612645,0.1694821384619671,1.8258477692583293,1.072202560590088,4532.481825086806,11.931333333333336,0.15,178.34886597207856,5.894893279171908,78.28891689570956,1646.3333333333333,1435.0,1200.0,1528.0,1542.111111111111,999.0,108.0,293.85,1649416800.332761,1649416801.2886353,984d6de6-e8d2-47a5-baa2-d1f37fae08af
0.1469016781984467,0.4610634582175016,-0.0003900162819282,-0.2184611566614507,-0.2685839927057089,-0.2155684431785777,-0.443159263544198,-0.4560975840899428,-15.187057697514556,26.240279957682432,3.034885718722596,0.1751533374305687,1.837177975278452,1.0340806133212446,4534.3466796875,11.927666666666669,0.14,178.3561469537338,5.895614670471121,78.11790717273021,1658.0,1435.0,1200.0,1528.0,1551.0,999.0,108.0,293.85,1649416801.3972893,1649416802.5147965,984d6de6-e8d2-47a5-baa2-d1f37fae08af
0.1669681052210434,0.458477211035138,-0.0025868600340845,-0.2124476503897631,-0.2715156466314368,-0.220918445969446,-0.4484035716526764,-0.4759146965120686,-15.176802023292968,26.455618339266103,2.670223248142598,0.1508313191190665,1.8297613755383684,1.0476792088502558,4527.163465711806,11.92511111111111,0.1355555555555555,178.3749785441854,5.891346561149771,77.94113884137067,1658.0,1435.0,1200.0,1528.0,1551.0,999.0,108.0,293.85,1649416802.6226912,1649416803.7464154,984d6de6-e8d2-47a5-baa2-d1f37fae08af
0.3628427052040235,0.8347362215418932,0.0109441600555055,-0.4180058021865286,-0.3520913752490411,-0.3927997463707824,-0.5176466461787558,-0.5463108120797391,-15.006672024041109,26.06218380399173,3.5253070944813683,0.2265674893883112,3.25833843400731,1.2827808738129338,4530.35205078125,11.903,0.13,178.09328940025557,5.903367077474694,77.79545849547337,1767.0,1435.0,1200.0,1528.0,1630.0,999.0,108.0,293.85,1649416804.3347156,1649416805.3856592,8404ad9e-9831-4f07-8700-68940278309b
0.3581172663907889,0.8423306043863577,0.0105618364204675,-0.4202223693836182,-0.3530881477382598,-0.3984764442157691,-0.5203421296295532,-0.545172943701099,-15.109554879039695,26.000467610745385,3.4754539371817588,0.218323327143706,3.28823963677083,1.289280010850029,4529.820258246527,11.909444444444444,0.1377777777777778,178.13813945798557,5.912599121639088,77.73588710335235,1767.0,1435.0,1200.0,1528.0,1630.0,999.0,108.0,293.85,1649416805.4942982,1649416806.615373,8404ad9e-9831-4f07-8700-68940278309b
0.3636710730136765,0.8500938973933347,0.0127192340764077,-0.4240147576326059,-0.3535377320797963,-0.4027270139872325,-0.5202369400289668,-0.5451800241530335,-15.063018320435775,26.04167521903092,3.464082472382263,0.2177286349263148,3.3177325068005104,1.2877075234726851,4537.295464409723,11.899444444444445,0.1211111111111111,178.17188969940423,5.906996232085563,77.62011995038006,1767.0,1435.0,1200.0,1528.0,1630.0,999.0,108.0,293.85,1649416806.723386,1649416807.8502014,8404ad9e-9831-4f07-8700-68940278309b
0.4789841181702569,1.0335682623332212,0.0216750134642026,-0.5142861420147751,-0.3950754826942719,-0.5038430401144001,-0.5648959938851693,-0.5910290358099268,-15.27499940640705,26.65342899709924,2.685597857933676,0.1984080764398306,4.025965429500763,1.4155723120439063,4578.75390625,11.845,0.1233333333333333,178.1116808229607,5.943906384632835,77.50165335486582,1886.0,1435.0,1200.0,1528.0,1710.0,999.0,108.0,293.85,1649416809.985648,1649416811.3256085,7d77178d-14c6-44e9-89da-27dbb4eb49bd
0.4727789454677876,1.0420779970181495,0.0288921306170125,-0.5208154829797541,-0.3889208802043585,-0.5083505155351054,-0.557500355744205,-0.5854807898590174,-15.249403309513742,26.462718093908137,2.433994381817249,0.2020756668472038,4.061189094861781,1.3875357185825823,4576.30859375,11.846444444444444,0.12,178.15393692662585,5.957392118830333,77.43747234396494,1886.0,1435.0,1200.0,1528.0,1710.0,999.0,108.0,293.85,1649416811.4336026,1649416812.548848,7d77178d-14c6-44e9-89da-27dbb4eb49bd
0.4769339331798711,1.013742558218972,0.0317059516269047,-0.5109145119849045,-0.3821361516399117,-0.4942156633290333,-0.5491772285952478,-0.5804579866452014,-15.169383395600011,26.692407588662235,1.832667450954616,0.2131115761664288,3.958640410881471,1.3583805596248857,4573.86669921875,11.850111111111111,0.12,178.17386893644377,5.96518953867781,77.37471732478078,1886.0,1435.0,1200.0,1528.0,1710.0,999.0,108.0,293.85,1649416812.661203,1649416813.7097762,7d77178d-14c6-44e9-89da-27dbb4eb49bd
-0.2970114779118479,-0.3547211149502585,-0.033800854254718,0.2308692491785316,-0.1145075554657187,0.1550933157174198,-0.3148148153158748,-0.3311323503059212,-15.439959453087424,28.94129877590033,1.2517094051686484,0.0103306827205698,-1.262310395702489,0.5884597700975028,4576.311360677083,11.950333333333331,0.1466666666666666,179.21081307803692,5.94769415141443,77.22005831576455,1449.0,1435.0,1200.0,1528.0,1386.0,999.0,108.0,293.85,1649416815.923252,1649416817.0614898,fdebff31-bfd7-4dd1-9bdc-1284be44767d
-0.3013899944209235,-0.3587577654062392,-0.0331697168121291,0.2320394830984049,-0.1133767675158883,0.1558822374607949,-0.3128425105635379,-0.3321053536949778,-15.356621747283391,28.932577126282304,0.9646419071740826,0.0094335336234367,-1.275600078986309,0.5824299462918021,4583.378200954861,11.951,0.15,179.23987477404543,5.94958326790237,77.04427429055538,1449.0,1435.0,1200.0,1528.0,1386.0,999.0,108.0,293.85,1649416817.1702292,1649416818.2949994,fdebff31-bfd7-4dd1-9bdc-1284be44767d
-0.2995491766530481,-0.3639777987555676,-0.037521935392884,0.2357342665641643,-0.115546302519693,0.1583936383798694,-0.3165767408471966,-0.3335385617381247,-15.45610495944096,28.92212727079521,1.0476971275531826,0.006419637928437,-1.2959413680038026,0.5960868641727336,4587.739583333333,11.954333333333333,0.15,179.2501822884129,5.947754911638922,76.90479955097398,1449.0,1435.0,1200.0,1528.0,1386.0,999.0,108.0,293.85,1649416818.4071517,1649416819.5132265,fdebff31-bfd7-4dd1-9bdc-1284be44767d
-0.5112037832732517,-0.7655522524759067,-0.0472519709464371,0.4685976605031902,-0.035917794407289,0.3430539187898277,-0.2511225218917667,-0.2740669997958982,-15.56030127234343,30.73074290053589,2.038994681312036,-0.0922962111137529,-2.8393947214250863,0.361734404761324,4588.55810546875,11.908777777777775,0.13,179.4072705680439,5.947178472132094,76.70355713399846,1342.0,1435.0,1200.0,1528.0,1293.0,999.0,108.0,293.85,1649416820.4269264,1649416821.5959585,ea57da2a-a197-4f07-89ac-485b3ad31ae9
-0.5157926794992682,-0.7710615586375483,-0.0473834579141868,0.469794191759232,-0.0369433927406609,0.3434878257371203,-0.2522007151123852,-0.2805098621251048,-15.537155591714022,30.94417610939885,1.4829044137437832,-0.0926889113316537,-2.855445209080844,0.3633337931639377,4586.648220486111,11.906333333333334,0.13,179.41506609061662,5.951825941543596,76.602620598444,1342.0,1435.0,1200.0,1528.0,1293.0,999.0,108.0,293.85,1649416821.7047727,1649416822.7937355,ea57da2a-a197-4f07-89ac-485b3ad31ae9
-0.5410386889687983,-0.7697502284517269,-0.0499727397394877,0.465607849516525,-0.0376711225370699,0.3472443068337725,-0.2512868806330744,-0.2731465909159408,-15.527090465132448,30.65452696470957,1.648442542906499,-0.0768218281543366,-2.8517189529420364,0.3670347159699998,4586.648220486111,11.90311111111111,0.1222222222222222,179.42389828412337,5.9470758295670665,76.5063422519035,1342.0,1435.0,1200.0,1528.0,1293.0,999.0,108.0,293.85,1649416822.9021122,1649416824.022544,ea57da2a-a197-4f07-89ac-485b3ad31ae9
-0.6994678891267032,-1.1026905817728945,-0.0564838732094084,0.6660369475442871,0.0255311215553562,0.5057366554372199,-0.1981737277534576,-0.2284536615960345,-15.401880134840052,32.6363019536539,4.194629722563542,-0.1595051788303966,-4.148956978087012,0.1785414954424864,4588.55810546875,11.812777777777775,0.1044444444444444,179.57538125517553,5.955401782733443,76.22321573260834,1227.0,1435.0,1200.0,1528.0,1189.0,999.0,108.0,293.85,1649416825.9571517,1649416827.0938046,b15c8ec1-185a-4e49-a1a1-9b3de6347824
-0.6923534302491112,-1.0954137846066727,-0.0421371279477693,0.6628433318248539,0.0367287536295876,0.5016534799092046,-0.184511219640355,-0.2092044735899228,-15.236063880686126,32.651757665008816,4.316393166006229,-0.1605568974280627,-4.122614385752058,0.1254150661448012,4588.831163194444,11.814333333333334,0.1088888888888888,179.5764209617492,5.946022794638155,76.17200828658092,1227.0,1435.0,1200.0,1528.0,1189.0,999.0,108.0,293.85,1649416827.2022002,1649416828.324098,b15c8ec1-185a-4e49-a1a1-9b3de6347824
-0.6873043289643382,-1.0968864396463545,-0.0472388222628925,0.6633298335383053,0.0322844942755144,0.5012590190501706,-0.1915720701533358,-0.2226555915351725,-15.432181673564678,32.7438014585242,4.072136436140508,-0.1623222498453777,-4.12496658074403,0.1477822709640862,4589.650987413194,11.81088888888889,0.1044444444444444,179.60115383564374,5.95986697147147,76.11897945677485,1227.0,1435.0,1200.0,1528.0,1189.0,999.0,108.0,293.85,1649416828.432434,1649416829.549132,b15c8ec1-185a-4e49-a1a1-9b3de6347824
-0.0630041096284946,0.1024064910685056,-0.0240708187548602,-0.0170888608692858,-0.2076923733261163,-0.061518306914908,-0.397151965668116,-0.4110895868923417,-15.365705004877396,27.296039448555984,1.4127989299735628,0.0725491147463338,0.4813606514787704,0.8734410526709138,4602.245659722223,11.956666666666669,0.15,179.1865355500871,6.028413848776203,75.97745566044246,1553.0,1435.0,1200.0,1528.0,1471.0,999.0,108.0,293.85,1649416831.4872465,1649416832.6238992,e5c52972-6b11-4c08-ab48-4a72832b012a
-0.0565597310677605,0.107798973599811,-0.0180997933466601,-0.0232834141221604,-0.2037113522660767,-0.0607951285904421,-0.389929789956341,-0.4135468760270209,-15.22466508476337,27.220005244347423,1.5067271191307885,0.0880268333412984,0.5008949342939508,0.8504572462090322,4605.8173828125,11.955,0.14,179.17788245931857,6.025079340937029,75.97653130817478,1553.0,1435.0,1200.0,1528.0,1471.0,999.0,108.0,293.85,1649416832.7326496,1649416833.8538733,e5c52972-6b11-4c08-ab48-4a72832b012a
-0.0363436098754197,0.0952571404399519,-0.0268740197236257,-0.0150022638709771,-0.2107914201971195,-0.0558770102952709,-0.3992855949093541,-0.4267714330683982,-15.309034451212153,27.48529149523635,1.4704441962187682,0.0816717193714407,0.4532028279100835,0.8837174568595518,4613.25439453125,11.9525,0.14875,179.17955073302335,6.029489348624182,75.97617016192243,1553.0,1435.0,1200.0,1528.0,1471.0,999.0,108.0,293.85,1649416833.9619668,1649416835.0818968,e5c52972-6b11-4c08-ab48-4a72832b012a
-0.0514332564884697,0.0928868351203661,-0.0428603062474475,-0.2586567257591189,-0.2493342989720734,0.1825740899603843,-0.345582769487044,-0.3688954121603051,-15.19994964596352,26.742104391896383,3.294936033344811,1.161751008117394,0.4563432714122509,0.8820753345941399,4603.34375,11.964,0.15,179.20370057438123,6.148015915808088,75.92047594565649,1553.0,1522.0,1200.0,1528.0,1471.0,999.0,108.0,293.85,1649416836.9323728,1649416837.8785565,67ca91b1-4132-4ab5-8ced-4dd46679ce9a
-0.0337265135246262,0.0891126536273977,-0.042450168064536,-0.2581014461609859,-0.2492007891298422,0.1864635753058491,-0.3456793618619065,-0.3731651995533956,-15.272025581101229,26.90334937448938,3.3944317461818447,1.1703075399085758,0.441776472267752,0.881043892789566,4603.34375,11.963,0.1455555555555555,179.19640441452782,6.136508232853348,75.88582260144749,1553.0,1522.0,1200.0,1528.0,1471.0,999.0,108.0,293.85,1649416837.986348,1649416839.1837945,67ca91b1-4132-4ab5-8ced-4dd46679ce9a
-0.0580516024223955,0.092791759923938,-0.035774675919913,-0.2612242619059381,-0.2447504606327507,0.185401565261702,-0.3395222309420533,-0.3583096982684857,-15.18399707356626,26.95997273271735,3.3953846432920165,1.1757175899943113,0.4557525044780961,0.8575739676244821,4603.34375,11.965444444444444,0.1488888888888888,179.20732209246114,6.165818519288511,75.86041277991521,1553.0,1522.0,1200.0,1528.0,1471.0,999.0,108.0,293.85,1649416839.297299,1649416840.4074528,67ca91b1-4132-4ab5-8ced-4dd46679ce9a
-0.0425513118650943,0.0879747856928988,-0.0510221068670792,-0.5514817911305775,-0.2891526021771859,0.4727764169483116,-0.2729443032429994,-0.2954488056929639,-15.015474574084877,26.341380859959976,5.783672496124524,2.471842721385265,0.4500856443854762,0.8446547766281982,4593.47607421875,11.962,0.15,179.20059966849806,6.2824737391484895,75.75270600907346,1553.0,1613.0,1200.0,1528.0,1471.0,999.0,108.0,293.85,1649416842.341465,1649416843.4749324,475a2aa5-d769-43b7-b48c-6f23aaaebfc7
-0.0485536919025004,0.0819734173537765,-0.0617549834387012,-0.5467184216863336,-0.299509730545702,0.4746592089419665,-0.2842835381271201,-0.3056633213073839,-14.985633320905668,26.505906405630288,5.751843326009305,2.465894793650788,0.4263836667587179,0.8887603580959765,4547.19873046875,11.957333333333334,0.1433333333333333,179.20660568150822,6.322021815103333,75.68124173978764,1553.0,1613.0,1200.0,1528.0,1471.0,999.0,108.0,293.85,1649416843.5841367,1649416844.7072208,475a2aa5-d769-43b7-b48c-6f23aaaebfc7
-0.0190985885500206,0.0843968231970777,-0.0647270946343237,-0.5509381429631658,-0.3031104509728395,0.4771508866563848,-0.285890713610717,-0.3090652941116702,-14.907408080388848,26.431494767067377,5.874002804871811,2.480430158015967,0.4341664167219182,0.9005180329802418,4526.896918402777,11.958666666666666,0.1422222222222222,179.21543483937532,6.328184590441323,75.58059510781794,1553.0,1613.0,1200.0,1528.0,1471.0,999.0,108.0,293.85,1649416844.815644,1649416845.8721075,475a2aa5-d769-43b7-b48c-6f23aaaebfc7
-0.0377090514526079,0.0774684717683615,-0.0760678456579802,-0.838452198684253,-0.3492826109566947,0.7609604108888447,-0.223902188903259,-0.2372911033785588,-14.868632949130264,26.59015206300805,7.809474444049631,3.767564430679108,0.4254352910878475,0.8899389561908622,4520.79443359375,11.9335,0.13375,179.21774685840933,6.442899674909016,75.47910399884839,1553.0,1710.0,1200.0,1528.0,1471.0,999.0,108.0,293.85,1649416846.84739,1649416848.1864278,0ae861a9-f75f-4284-83c4-180a2d3e9fcb
-0.0034273651639055,0.0794620163936015,-0.0731549035823815,-0.8314404000673278,-0.342321892269282,0.7571194747924155,-0.2188556176064366,-0.2487163103546261,-14.891869896105502,26.203641856280942,8.494021513859598,3.740796680724304,0.4263244450319173,0.8707128760680424,4518.4111328125,11.933333333333334,0.1333333333333333,179.21733363196458,6.460729012176737,75.38827215898856,1553.0,1710.0,1200.0,1528.0,1471.0,999.0,108.0,293.85,1649416848.29642,1649416849.6193192,0ae861a9-f75f-4284-83c4-180a2d3e9fcb
-0.0362551090368474,0.0764823195580363,-0.0755494835620019,-0.8301710446009015,-0.344857568194901,0.7574835925013256,-0.2214241651164915,-0.2350912252884397,-14.860063376192784,26.28581451360749,8.276770226536541,3.739158424753488,0.4165424493727592,0.8804203891098072,4518.4111328125,11.935,0.13,179.22477853815988,6.467784455293752,75.26153344547951,1553.0,1710.0,1200.0,1528.0,1471.0,999.0,108.0,293.85,1649416849.7286675,1649416850.851838,0ae861a9-f75f-4284-83c4-180a2d3e9fcb
-0.0322887541194025,0.0738869692253526,-0.0566401404124892,-0.888952827193593,-0.3412568476907088,0.8138955398928917,-0.1948066497312078,-0.2199864055978228,-14.807309450076978,27.167188733115687,8.404170068439752,4.0053520611876685,0.413756781414117,0.8108682951651034,4516.0302734375,11.901333333333334,0.1255555555555555,179.20540660385393,6.517430396754028,75.13299915112867,1553.0,1814.0,1200.0,1528.0,1471.0,999.0,108.0,293.85,1649416851.9680097,1649416853.0094025,f9f55a6f-6211-4f90-bb1d-6868b2860438
-0.0255171753757256,0.0807111425221383,-0.0552595272530194,-0.8877562953536681,-0.3396132603902053,0.8075710176025913,-0.193728456545204,-0.2164757033579145,-14.747897956876914,26.972627307459053,8.623618348980012,3.987284794136331,0.4369230210201685,0.8064797537036199,4516.0302734375,11.89611111111111,0.12,179.2092588305458,6.516914432880476,75.0928573704666,1553.0,1814.0,1200.0,1528.0,1471.0,999.0,108.0,293.85,1649416853.1173334,1649416854.1289947,f9f55a6f-6211-4f90-bb1d-6868b2860438
-0.0306977618455841,0.0662607254389858,-0.0590332032374653,-0.8916877575450992,-0.3424007844910494,0.8236913177212145,-0.1943069992733256,-0.2181850340532174,-14.858221104596918,27.18875071383419,8.369186376935227,4.033526388923155,0.3860095169673289,0.8139364396995333,4516.0302734375,11.896,0.12,179.21290766938242,6.514721088383256,75.04783731691731,1553.0,1814.0,1200.0,1528.0,1471.0,999.0,108.0,293.85,1649416854.237448,1649416855.3576748,f9f55a6f-6211-4f90-bb1d-6868b2860438
-0.0627279870320595,0.1064825868410618,0.0085773947015388,0.3219765601698496,-0.1457225624620283,-0.389933330004914,-0.4604761004780899,-0.4893900905853543,-15.341413148343628,28.41887622259787,-0.4515766065422582,-1.4215076918345917,0.4733430249709343,0.8350856793671966,4544.767415364583,11.961666666666666,0.14,179.2119468894392,6.085615022959636,74.94074450419096,1553.0,1349.0,1200.0,1528.0,1471.0,999.0,108.0,293.85,1649416857.4964714,1649416858.6360383,b154e36d-47c6-4329-9592-848c07d39c52
-0.0546283898657965,0.1103877495607741,0.0082881233823836,0.3220817497264879,-0.1478789488028445,-0.395955434073068,-0.4642629258835845,-0.4809749228722882,-15.377979052105523,28.56491584267556,-0.767012062117766,-1.434392423703125,0.4910154478424274,0.8437517413962717,4561.69580078125,11.961,0.14,179.2355019351568,6.091347543811785,75.12467011489079,1553.0,1349.0,1200.0,1528.0,1471.0,999.0,108.0,293.85,1649416858.7487042,1649416859.869841,b154e36d-47c6-4329-9592-848c07d39c52
-0.0557328803651852,0.1135434366035126,0.0159932594860677,0.3208589210670471,-0.1398976895978396,-0.3964287872198257,-0.4566235315770065,-0.4788842798477737,-15.470846821925576,28.485333746716428,-0.4944540887431495,-1.4328449045117253,0.5017304849616496,0.8122244122949545,4568.990234375,11.959555555555555,0.14,179.245959713686,6.092953302312907,75.23502320458095,1553.0,1349.0,1200.0,1528.0,1471.0,999.0,108.0,293.85,1649416859.9835594,1649416861.0238984,b154e36d-47c6-4329-9592-848c07d39c52
-0.0852780020808415,0.1158707557980903,0.0287080488838673,0.6136014691776911,-0.1018322115352411,-0.6821237406596642,-0.5307033051033387,-0.5457585670417537,-15.688400410213603,29.65535096037074,-2.7105267349770408,-2.7272685463464192,0.4964231527613407,0.8476104981793527,4571.42724609375,11.923666666666668,0.1266666666666666,179.24680362150343,6.007043657251178,75.46657800109301,1553.0,1264.0,1200.0,1528.0,1471.0,999.0,108.0,293.85,1649416862.0028846,1649416863.147836,f6bac0b7-c48c-4f32-ba79-65b617299889
-0.0564206583138107,0.1210488134173598,0.0274654970794286,0.6066023176997613,-0.1051087656818934,-0.6786322547704027,-0.5327575366086078,-0.5653005694824061,-15.752423742123986,29.722545029118773,-2.4224889174801496,-2.7032370864350685,0.5145284003265616,0.857590883715535,4571.42724609375,11.92777777777778,0.1277777777777777,179.2615112955162,6.004641043346889,75.59599946112606,1553.0,1264.0,1200.0,1528.0,1471.0,999.0,108.0,293.85,1649416863.2562406,1649416864.3709376,f6bac0b7-c48c-4f32-ba79-65b617299889
-0.0608077715571189,0.1188110065015766,0.0324974020050463,0.6075631838690158,-0.0976114798248779,-0.6800609117983245,-0.5236545905753334,-0.5521139402133629,-15.604015743642682,29.400578793832327,-2.753802746954765,-2.710476854534897,0.5082165270107767,0.8270659008252488,4573.86669921875,11.922444444444446,0.13,179.2760474558898,5.99880796693196,75.7445249602676,1553.0,1264.0,1200.0,1528.0,1471.0,999.0,108.0,293.85,1649416864.479594,1649416865.593981,f6bac0b7-c48c-4f32-ba79-65b617299889
-0.0945518791595465,0.1195948710755968,0.0403486908794025,0.8574389607770061,-0.0717565902418265,-0.9211373132039335,-0.5952770773694728,-0.6106003709989505,-15.956348113367376,30.941248057435857,-4.466756972584125,-3.805712435822516,0.4985908898552623,0.8821146931197279,4578.75390625,11.915333333333336,0.1266666666666666,179.27633735947455,5.935361248798719,75.95500027518119,1553.0,1178.0,1200.0,1528.0,1471.0,999.0,108.0,293.85,1649416866.508631,1649416867.646088,e5f7412c-0212-4890-96b1-8b406305bae5
-0.0640691540713511,0.1176852758425978,0.0459459897490944,0.8548011302480905,-0.0656995924886128,-0.9149478138381362,-0.586558983296589,-0.6177214039916223,-15.898342501324588,30.847493588363868,-4.142423885706972,-3.786115407381936,0.4888216635639532,0.8541046969024255,4579.297634548611,11.907222222222224,0.12,179.28094546043465,5.905098340701816,76.09469889318535,1553.0,1178.0,1200.0,1528.0,1471.0,999.0,108.0,293.85,1649416867.754884,1649416868.8750584,e5f7412c-0212-4890-96b1-8b406305bae5
-0.0765609217746009,0.1306448328721511,0.0514112959046444,0.8444799103218733,-0.0642972334175153,-0.921908535136792,-0.582596167295459,-0.6015479963838307,-15.75933207893762,30.781825591591293,-4.641257991077957,-3.778647662170977,0.5424812749321023,0.840000827129542,4578.75390625,11.905,0.1133333333333333,179.26250850313505,5.893750455714531,76.22255244534892,1553.0,1178.0,1200.0,1528.0,1471.0,999.0,108.0,293.85,1649416868.9839966,1649416870.0632718,e5f7412c-0212-4890-96b1-8b406305bae5
-0.0901693173265375,0.1297294813452425,0.0612642207890308,0.9505893746708828,-0.0495135468669608,-1.0197166891901484,-0.6082280419489585,-0.631317160140397,-15.914888478226873,31.75701740460861,-4.854252630897584,-4.230949579969547,0.5296137215389602,0.8429388072128475,4586.1025390625,11.898,0.11,179.2325649538137,5.848604328256824,76.50309791204775,1553.0,1088.0,1200.0,1528.0,1471.0,999.0,108.0,293.85,1649416871.8318803,1649416872.7811844,60e98c02-a862-4401-9e57-c2e139cfe34d
-0.0898107624866795,0.1306069039425008,0.0657484319603555,0.9562058904366748,-0.0446374032366578,-1.0281728236667205,-0.6050880309797331,-0.6219284823399924,-15.85452534867192,31.718302936825506,-5.169226379827228,-4.262674309214189,0.5348610639436652,0.8254834174895554,4593.47607421875,11.890333333333333,0.11,179.23988691660395,5.856140303641071,76.61288181930709,1553.0,1088.0,1200.0,1528.0,1471.0,999.0,108.0,293.85,1649416872.8908129,1649416873.9907162,60e98c02-a862-4401-9e57-c2e139cfe34d
-0.0959299637541121,0.1245003461079506,0.058605149903518,0.9507441246753412,-0.0519071153246923,-1.0152643354941953,-0.6112072338047214,-0.6242042193461034,-16.020726252457653,31.909603079460933,-4.952343848655033,-4.220483432273612,0.5114347226478756,0.8531589177712934,4588.55810546875,11.894333333333334,0.11,179.2327425387321,5.841617471622724,76.71335390199798,1553.0,1088.0,1200.0,1528.0,1471.0,999.0,108.0,293.85,1649416874.0996466,1649416875.2220104,60e98c02-a862-4401-9e57-c2e139cfe34d
-0.0519723530683208,0.0913747350706712,-0.0184168792174392,-0.0028751199219648,-0.2013941471828284,-0.0622283365301855,-0.3915374712524004,-0.4114577504729895,-15.175987878108224,27.526977505195745,1.6753302791937912,0.0408406587110858,0.4349276097608405,0.848359808867558,4591.835774739583,11.962333333333332,0.14,179.21113637365767,6.122522946209053,76.84289754652617,1553.0,1435.0,1200.0,1528.0,1471.0,999.0,108.0,293.85,1649416877.3628914,1649416878.5077362,92de3291-e946-4e45-a34b-54d251d54857
-0.0463578595649647,0.1037871041583536,-0.0125920066397747,-0.0075034610909375,-0.1977125118685192,-0.0709722199012085,-0.3872378467424747,-0.4062508653459647,-15.091762039017492,27.37204279637633,1.595807845402037,0.0309250686697741,0.4825267021700377,0.8307552428645864,4601.696614583333,11.962666666666664,0.13,179.1801364217447,6.128031066887846,76.74788733844156,1553.0,1435.0,1200.0,1528.0,1471.0,999.0,108.0,293.85,1649416878.6158082,1649416879.7298582,92de3291-e946-4e45-a34b-54d251d54857
-0.0594145154315886,0.0919401290039253,-0.0192715444993275,0.0006881767995038,-0.2013415523993131,-0.0667777856415619,-0.3939831292393702,-0.4135746906629066,-15.262105271564026,27.5138690865008,1.561775865071545,0.0223886102653485,0.4381710067885078,0.8528199251271663,4608.29345703125,11.963111111111113,0.13,179.1750653857409,6.1375301524760415,76.67311346304788,1553.0,1435.0,1200.0,1528.0,1471.0,999.0,108.0,293.85,1649416879.8381789,1649416880.9587429,92de3291-e946-4e45-a34b-54d251d54857
0.0158486238392209,0.1262713743168428,0.1355017588485758,-0.0206653063489726,-0.065489213344243,-0.08894648854458,-0.23546242279911,-0.2580650343755899,-13.990987891755983,27.40171043823383,1.5978026303277515,0.0283495561378239,0.5700570601006694,0.236063991627952,4608.29345703125,11.961111111111112,0.1388888888888889,179.11999888283242,6.151914341140611,76.57378733431776,1553.0,1435.0,1200.0,1424.0,1471.0,999.0,108.0,293.85,1649416881.872216,1649416883.0078084,47fad898-ac19-4176-b879-c953b88871a3
0.0187165568114404,0.123501550939536,0.1379019015746846,-0.017897505710064,-0.06236285782863,-0.0893682582665996,-0.2331694922116608,-0.2581140891712498,-14.022541636379088,27.42764812484143,1.5323191841847676,0.0214234364811605,0.560284066811951,0.2248335282568222,4617.120496961806,11.963111111111113,0.1377777777777778,179.1076240978762,6.134388644912789,76.47954590196974,1553.0,1435.0,1200.0,1424.0,1471.0,999.0,108.0,293.85,1649416883.1165123,1649416884.4513705,47fad898-ac19-4176-b879-c953b88871a3
-0.0053076287693434,0.1275467978202636,0.1361460449527284,-0.0225192725528419,-0.0648317784959422,-0.0885651763159981,-0.2340949582349722,-0.2531474214915597,-13.972145749025792,27.33477335256738,1.59542172658755,0.0329859614040139,0.574996387541206,0.2325186921044663,4618.22509765625,11.961666666666666,0.14,179.11731234175892,6.13681298261319,76.40917825750063,1553.0,1435.0,1200.0,1424.0,1471.0,999.0,108.0,293.85,1649416884.5861466,1649416885.6694686,47fad898-ac19-4176-b879-c953b88871a3
0.05445319624334,0.1529632270074701,0.3436850561673966,-0.0256749597385337,0.1231156872744977,-0.1222258406460746,-0.0251621605684335,-0.0463315621702838,-12.596633091056624,27.51545706689017,1.5314342164692425,-0.0233215592413523,0.6747034928432556,-0.6000016086534035,4612.702962239583,11.959666666666667,0.1377777777777778,179.04967221949835,6.131221002389588,76.31426063642478,1553.0,1435.0,1200.0,1304.0,1471.0,999.0,108.0,293.85,1649416886.3312404,1649416887.5143468,51e806c9-6a6f-4d19-a3e4-c98f2914cdbb
0.0868622037163872,0.1622775608557541,0.346030581126418,-0.028441748946935,0.1235394798661172,-0.1281189855561872,-0.024054635734189,-0.0540184928245567,-12.499070268390977,27.43184977292133,1.6425971092027725,-0.030693664854456,0.7084500750752982,-0.6039908142091575,4600.873046875,11.955,0.14,179.03931158143735,6.123949744267549,76.28910125516208,1553.0,1435.0,1200.0,1304.0,1471.0,999.0,108.0,293.85,1649416887.622956,1649416888.9539366,51e806c9-6a6f-4d19-a3e4-c98f2914cdbb
0.0818050128996112,0.1531746175780078,0.3365862778488028,-0.0264947304135008,0.1164214838617533,-0.1203435541015017,-0.0318174239311162,-0.0593285432909935,-12.604209493729568,27.481798997256103,1.6685569870721544,-0.017801159033652,0.673984980071904,-0.5715114628034835,4593.47607421875,11.95022222222222,0.1344444444444444,179.05182752363646,6.115368370485335,76.25727560926946,1553.0,1435.0,1200.0,1304.0,1471.0,999.0,108.0,293.85,1649416889.062745,1649416890.172351,51e806c9-6a6f-4d19-a3e4-c98f2914cdbb
0.1479272764871324,0.1998251787612254,0.5470296264546323,-0.0225850160402825,0.3013199597106719,-0.1803956773099642,0.1691098254644464,0.1490449156267775,-11.111303496678222,27.89785271036468,1.7122461561202604,-0.1475704566339178,0.8508659827823515,-1.389671019161678,4591.015625,11.935666666666666,0.1233333333333333,178.99773394322978,6.11421359419691,76.15342865421866,1553.0,1435.0,1200.0,1166.0,1471.0,999.0,108.0,293.85,1649416891.9055164,1649416893.044913,ec20e2c2-d026-4661-9ee7-dd184b2d20d1
0.1477957895317753,0.1936452917789991,0.5442552518085819,-0.0222694473365858,0.3009780936273805,-0.1741368973609191,0.1696357733039822,0.1480193173464127,-11.123986838404546,27.777611277027034,1.7753145978639069,-0.1351495594042359,0.8270016717895794,-1.386788012819427,4594.844346788194,11.938333333333333,0.1255555555555555,179.0006648532936,6.100477135138631,76.17136548988903,1553.0,1435.0,1200.0,1166.0,1471.0,999.0,108.0,293.85,1649416893.1533158,1649416894.2585666,ec20e2c2-d026-4661-9ee7-dd184b2d20d1
0.1295059534867755,0.1930930465591802,0.543979129211801,-0.0218223916523363,0.3002943614630315,-0.1738476260113105,0.1679527402223119,0.1504781232256481,-11.206694097903114,27.89082465360786,1.7895638570063637,-0.1348105813756138,0.8253188804805132,-1.3832311875249366,4597.583658854167,11.938,0.1233333333333333,179.0162118816644,6.101598803982329,76.16176831519526,1553.0,1435.0,1200.0,1166.0,1471.0,999.0,108.0,293.85,1649416894.3665276,1649416895.5022972,ec20e2c2-d026-4661-9ee7-dd184b2d20d1
-0.0966253275283805,0.0676575215556131,-0.2085409700593065,0.0247851859000562,-0.3733927727265059,-0.0558896532469121,-0.5940759941804394,-0.6185401629647793,-16.596273456754766,27.7789112439851,1.386650721428495,-0.0158681107085755,0.3431304743426828,1.6260288676838834,4600.873046875,11.961333333333336,0.13,179.16660050462957,6.113782248778076,76.25399635955793,1553.0,1435.0,1200.0,1623.0,1471.0,999.0,108.0,293.85,1649416897.4350653,1649416898.5721648,a24e2116-2d13-46e7-94bb-4d1eb2b335b1
-0.1284583230779575,0.0562414189325633,-0.2218929667992458,0.0342436500337937,-0.3856205568297683,-0.0535501966812316,-0.6082148929644763,-0.6250846758886462,-16.555789383843518,28.03912815511484,1.258119150064504,-0.0308869581626681,0.2991592126614615,1.6794563865216718,4598.40478515625,11.96511111111111,0.1377777777777778,179.17773826643608,6.109983288075341,76.18798941141894,1553.0,1435.0,1200.0,1623.0,1471.0,999.0,108.0,293.85,1649416898.6808665,1649416899.8002102,a24e2116-2d13-46e7-94bb-4d1eb2b335b1
-0.1266832489552952,0.0611590313156166,-0.2175144504499061,0.0263149861409691,-0.3822939360238079,-0.0510519442952109,-0.602166490700837,-0.6320403387234466,-16.519886874322143,27.910523633294584,1.3018140737311723,-0.0079974046692281,0.3182134546089524,1.661010402241324,4600.873046875,11.963666666666663,0.14,179.19454812089344,6.10879597352462,76.141295961523,1553.0,1435.0,1200.0,1623.0,1471.0,999.0,108.0,293.85,1649416899.907874,1649416901.0321023,a24e2116-2d13-46e7-94bb-4d1eb2b335b1
-0.1643805638886013,0.0341910552666865,-0.4026744192536919,0.0752675823138493,-0.5496505818288338,-0.0595460023894437,-0.8075097614288361,-0.8309670467640404,-17.99659131582773,28.579521823848,1.242464229060351,-0.1430474074150768,0.2102909939476424,2.429489808791492,4595.391655815973,11.947777777777778,0.13,179.20526392879128,6.099719126436367,76.0920798950936,1553.0,1435.0,1200.0,1712.0,1471.0,999.0,108.0,293.85,1649416902.9615536,1649416903.8981447,80536cf3-0612-4e60-a7ee-938221af79e3
-0.1598781465096048,0.03529149999628,-0.3899297900048676,0.0731445735946861,-0.5364492870013902,-0.0578619577756582,-0.7925455266366488,-0.8172246297055253,-17.977082358516206,28.429267168502854,1.4654853464377426,-0.1347902344261168,0.2133704017369869,2.3733353547630025,4593.47607421875,11.946666666666664,0.1366666666666666,179.2079535055044,6.099225170950141,76.05068667199362,1553.0,1435.0,1200.0,1712.0,1471.0,999.0,108.0,293.85,1649416904.006981,1649416905.1249423,80536cf3-0612-4e60-a7ee-938221af79e3
-0.1815790600737635,0.0220285111337565,-0.4067899619970918,0.0792647859365749,-0.5503737603220238,-0.0512754721390867,-0.8089561186715737,-0.8333864080855747,-18.11089864566598,28.59207980488097,1.226373334974877,-0.1336609162545431,0.1648728792417965,2.436599638441771,4589.104546440973,11.950111111111111,0.1288888888888889,179.2316967608792,6.102851669376332,76.04497283929794,1553.0,1435.0,1200.0,1712.0,1471.0,999.0,108.0,293.85,1649416905.233199,1649416906.3546343,80536cf3-0612-4e60-a7ee-938221af79e3
-0.2472790563539941,0.0038610584323459,-0.5420754135126168,0.1400006357339437,-0.6720831902308089,-0.08204797414344,-0.9670945619553978,-0.989662289942069,-19.110652357327567,29.278209202995576,1.1393054800079605,-0.3425210411270561,0.0885389540679997,3.0091674126875487,4588.55810546875,11.921666666666663,0.1277777777777777,179.24093117663705,6.0885303279385,76.02690167657391,1553.0,1435.0,1200.0,1801.0,1471.0,999.0,108.0,293.85,1649416908.441039,1649416909.3976948,882e98b6-7a5e-49f2-98bf-e539ffe6a703
-0.2234971078657895,0.0059213580244529,-0.5544104112616832,0.1330166553238336,-0.6843327225142288,-0.0764815238891854,-0.9794948014791516,-1.0029257928581277,-19.28250842763292,29.26842121593817,1.2091229304065745,-0.3150128003892687,0.0969416332996889,3.060491342864147,4588.55810546875,11.923,0.12,179.25329078339513,6.088721004052831,76.029789328773,1553.0,1435.0,1200.0,1801.0,1471.0,999.0,108.0,293.85,1649416909.5099516,1649416910.6499815,882e98b6-7a5e-49f2-98bf-e539ffe6a703
-0.240186345326514,0.0078688822538857,-0.538383663057932,0.1298862542438135,-0.6698959543007544,-0.07853322632351,-0.9626695172505256,-0.9800283358597016,-19.16809856667718,29.243403002334,0.905300887140588,-0.3119204955024246,0.1075300409377103,2.994896067235324,4588.55810546875,11.92,0.12,179.24196329411163,6.09205574905135,75.9893515732469,1553.0,1435.0,1200.0,1801.0,1471.0,999.0,108.0,293.85,1649416910.758517,1649416911.8927994,882e98b6-7a5e-49f2-98bf-e539ffe6a703
-0.0662948238643635,0.0789856290195865,-0.070327933799641,-0.0191491604909889,-0.2174289839581066,-0.0432719615940528,-0.4066943810530554,-0.4342940062224505,-15.630779661616485,23.95606791757812,0.3021154488380834,0.0934437686250657,0.4025028407762659,0.9601094747261988,7512.20556640625,11.649,7.653333333333334,178.43233999065504,5.817521418004565,66.46096447351232,1553.0,1435.0,1350.0,1528.0,1471.0,999.0,108.0,293.85,1649416916.024558,1649416917.0034783,b2fde935-eef3-42eb-9f48-ad47951f1ae4
-0.0674220717893755,0.0740184561859345,-0.0644110202300547,-0.014971920773761,-0.2110321425555966,-0.0376665710580793,-0.3996633671676205,-0.4286036537171888,-15.620121694161403,24.04964459928793,1.0021549348467702,0.0976489094442,0.3774554360078568,0.9337126650612384,7505.62744140625,11.658333333333331,7.573333333333333,178.23547572493746,5.698148778924175,62.496221798697775,1553.0,1435.0,1350.0,1528.0,1471.0,999.0,108.0,293.85,1649416917.1116838,1649416918.238612,b2fde935-eef3-42eb-9f48-ad47951f1ae4
-0.0695390120100827,0.0714018656421274,-0.0658047820904725,-0.0139068764184814,-0.212596837572229,-0.0336956647413748,-0.4019643894817257,-0.4291690477150068,-15.722609486631978,24.20747857415543,1.325832380746947,0.1051464937792397,0.3652814588933463,0.9410326515775768,7504.168131510417,11.65277777777778,7.647777777777778,178.16167780768515,5.618065996702507,58.89729039545078,1553.0,1435.0,1350.0,1528.0,1471.0,999.0,108.0,293.85,1649416918.3514037,1649416919.4623432,b2fde935-eef3-42eb-9f48-ad47951f1ae4
0.1227869698828999,0.4406303860081779,-0.0647002915695699,-0.213714476863997,-0.2983526451884088,-0.1973574970439366,-0.4789500231809397,-0.4980682323831207,-15.785657925869025,23.415613314907088,3.0507388513399065,0.1831423464441024,1.759928519732524,1.2115792491415591,7504.806579589844,11.610625,7.645,177.96712897609626,5.62067152414339,52.97555380879456,1658.0,1435.0,1350.0,1528.0,1551.0,999.0,108.0,293.85,1649416921.3955653,1649416922.325236,a5d373f0-1a52-49da-ac97-17928e93b064
0.1237796964252494,0.4435837852208614,-0.0599986209831568,-0.2150773899285217,-0.2907961894378279,-0.2088064725730259,-0.473019453969013,-0.491528777295068,-15.810656372359244,22.998550320034592,1.7030447959632815,0.1577313047122533,1.7835858652003649,1.1850326179662156,7505.62744140625,11.615333333333332,7.66,178.05366064269117,5.638029169258508,51.388167899925286,1658.0,1435.0,1350.0,1528.0,1551.0,999.0,108.0,293.85,1649416922.4341164,1649416923.5607426,a5d373f0-1a52-49da-ac97-17928e93b064
0.1473841342026112,0.4413839073800719,-0.0699360014875296,-0.2252170587032127,-0.3037299570262222,-0.2004368208790614,-0.4794673739516496,-0.5128827716757657,-15.47448965792334,23.06776930972968,1.1936988565636328,0.1994637090405842,1.7780896078576078,1.224508286831289,7505.62744140625,11.616,7.695555555555556,178.20752810867356,5.682833455234629,49.83243901665352,1658.0,1435.0,1350.0,1528.0,1551.0,999.0,108.0,293.85,1649416923.668851,1649416924.8901083,a5d373f0-1a52-49da-ac97-17928e93b064
0.3708234575156395,0.8468947187353119,-0.0671798323775839,-0.4370375327046701,-0.3997407422696548,-0.3903849372341541,-0.5711542694970612,-0.6021675024828818,-15.70163727797062,22.762158543082027,2.607987458671686,0.2486624359240816,3.314323767378101,1.5312349848209772,7518.794921875,11.585333333333333,7.656666666666666,178.0989903314828,5.78314450672946,47.76341838161565,1767.0,1435.0,1350.0,1528.0,1630.0,999.0,108.0,293.85,1649416926.0048046,1649416927.1413896,436e93a6-3939-41d2-b4b1-0d20369379e6
0.3414234805758337,0.8437430776706057,-0.0637798828253917,-0.4286825458740385,-0.3960474750713011,-0.3893942333732225,-0.5694393755879896,-0.5868614036665748,-15.761301170259708,22.945402709634827,3.420855123284607,0.2335254615048308,3.294911026627526,1.5198499277382858,7525.396484375,11.592777777777776,7.647777777777778,178.2146011490141,5.81717521279101,46.84822198252299,1767.0,1435.0,1350.0,1528.0,1630.0,999.0,108.0,293.85,1649416927.25007,1649416928.5746565,436e93a6-3939-41d2-b4b1-0d20369379e6
0.3603181557114082,0.8457153819345996,-0.0534055610260218,-0.4213981665862233,-0.385226095876028,-0.3920371218331691,-0.5611951405138198,-0.5815230311223705,-15.878824982427597,23.00256882719209,4.344495744067447,0.2121383714871367,3.294715751079,1.4807310248970034,7525.396484375,11.589555555555556,7.65888888888889,178.35909152417597,5.887907750630147,45.90204194808038,1767.0,1435.0,1350.0,1528.0,1630.0,999.0,108.0,293.85,1649416928.682927,1649416930.015007,436e93a6-3939-41d2-b4b1-0d20369379e6
0.5263573492790322,1.1730329370774846,-0.052678336970112,-0.6044179529597413,-0.4692265600000785,-0.54495801302708,-0.6368345571855104,-0.6618550179157423,-15.808967764324352,22.98838719667593,3.951079790825216,0.2812671593303364,4.547927508389792,1.7393463380099194,7526.865993923611,11.52522222222222,7.623333333333333,178.26762163081116,5.97889251083641,45.066514013831615,1886.0,1435.0,1350.0,1528.0,1710.0,999.0,108.0,293.85,1649416930.9180987,1649416932.0571277,d3df5912-61b8-445d-9507-ffa879868eb5
0.5308435828881461,1.192827793000938,-0.0554699064366442,-0.6179712289275181,-0.4770566104939561,-0.5487827675935218,-0.6440188050621956,-0.6669501395835323,-15.914329821004326,23.022307620085417,4.351901264039546,0.30334201288969,4.620855812420995,1.7667992673010016,7532.00927734375,11.536222222222223,7.62,178.38128812115872,6.005227490978125,44.640397863717176,1886.0,1435.0,1350.0,1528.0,1710.0,999.0,108.0,293.85,1649416932.1649144,1649416933.4904263,d3df5912-61b8-445d-9507-ffa879868eb5
0.5209031694412335,1.168726233457227,-0.056009003061778,-0.6083858261479068,-0.4714026698033312,-0.5408935476115085,-0.6371946294634089,-0.6571149112524707,-15.76854998979756,22.87572423366592,3.396846292001491,0.2983704015183843,4.5366763147622615,1.7460999132879502,7532.00927734375,11.527666666666669,7.613333333333333,178.4622835399763,6.031470263566045,44.30744852952133,1886.0,1435.0,1350.0,1528.0,1710.0,999.0,108.0,293.85,1649416933.599149,1649416934.6444762,d3df5912-61b8-445d-9507-ffa879868eb5
-0.306938745058815,-0.3826226534755886,-0.0687632388813676,0.2193772891823944,-0.1130086040510578,0.1875442969329931,-0.3066231763226305,-0.3365233162920351,-15.582886241556007,25.47217981769972,0.4140661491603321,0.0842318437097998,-1.3593828739384517,0.6190781394438146,7532.00927734375,11.640777777777778,7.690000000000001,179.54053059439053,6.048897728392678,43.907709052161664,1449.0,1435.0,1350.0,1528.0,1386.0,999.0,108.0,293.85,1649416935.42494,1649416936.5632322,885343e7-da7a-468e-8462-23864d1f89e3
-0.3129082540718187,-0.3860807612474803,-0.0726158070403901,0.2157745465926104,-0.1162037374238,0.1928169239446843,-0.3079643435294354,-0.3313164317946425,-15.548159415959155,25.41114649634737,0.1910030995785543,0.1035925388479974,-1.370423358986494,0.6298757405868177,7525.396484375,11.643777777777778,7.7155555555555555,179.64291664786882,6.09624625983463,43.64748188042381,1449.0,1435.0,1350.0,1528.0,1386.0,999.0,108.0,293.85,1649416936.6711104,1649416937.7911556,885343e7-da7a-468e-8462-23864d1f89e3
-0.3125400905185836,-0.3851077575379814,-0.0694864172233538,0.2085822100634211,-0.115099246897,0.200811330933871,-0.3038750984230085,-0.3277531345698674,-15.550139388350226,25.515317640441243,0.5478238890504262,0.1386834563107556,-1.3688367995183215,0.6187972643637952,7523.195963541667,11.643666666666668,7.696666666666666,179.6813721307158,6.126898251554878,43.4232919251118,1449.0,1435.0,1350.0,1528.0,1386.0,999.0,108.0,293.85,1649416937.9001763,1649416939.0201197,885343e7-da7a-468e-8462-23864d1f89e3
-0.5349897813410941,-0.7773860843568964,-0.0844759316188889,0.4220381310518168,-0.042281763633565,0.3898632739392094,-0.2388547868714949,-0.2593141608410382,-15.479149978087827,26.93978666551712,0.8999104828119624,0.0907926125438942,-2.87094909840393,0.4018419948811964,7518.794921875,11.598333333333334,7.673333333333334,179.85176713666982,6.15955765484494,43.18040698313156,1342.0,1435.0,1350.0,1528.0,1293.0,999.0,108.0,293.85,1649416939.93004,1649416941.0665672,b115275c-ae08-4540-9209-655557be3052
-0.5341877105946068,-0.7712719378571289,-0.0701307033627711,0.4222222127817912,-0.033117122075955,0.3855636505963973,-0.2303212820426406,-0.252845001335057,-15.515151676934936,27.37525837051554,1.2472488645095734,0.0843538780641322,-2.849946839907904,0.3586828180054358,7518.794921875,11.598888888888888,7.680000000000001,179.8799682288429,6.186290114050855,43.05886414630614,1342.0,1435.0,1350.0,1528.0,1293.0,999.0,108.0,293.85,1649416941.175223,1649416942.3026178,b115275c-ae08-4540-9209-655557be3052
-0.5178175792745953,-0.7779777759435151,-0.0827797497092807,0.418461685975914,-0.0394942399196959,0.3915200095399004,-0.2362118985981485,-0.2611812757939191,-15.60046442739422,26.84406664656919,0.6035226767410342,0.1019247089371413,-2.8691365476238024,0.3914037593301237,7518.794921875,11.596,7.686666666666667,179.8782773775684,6.203063256241375,42.97479666018181,1342.0,1435.0,1350.0,1528.0,1293.0,999.0,108.0,293.85,1649416942.4164429,1649416943.5269182,b115275c-ae08-4540-9209-655557be3052
-0.7108010583749643,-1.116136144977878,-0.0787693971890677,0.63381101334254,0.0321004124883548,0.5451230656789433,-0.178738941484544,-0.1960294790985462,-15.523224637504338,29.38291508721664,3.731465730814945,-0.0211165215698033,-4.191922414040398,0.1709881760921998,7518.794921875,11.49,7.63,-179.9929016122195,6.218748074192271,42.90619651688792,1227.0,1435.0,1350.0,1528.0,1189.0,999.0,108.0,293.85,1649416944.4363072,1649416945.382747,2d7bf395-8d5e-4e71-ad4f-3a3f6d90a565
-0.7251725891710066,-1.1170171082445188,-0.0783354901948451,0.6265397850243519,0.0325606168571837,0.5493174993866018,-0.1737818825717812,-0.2004737384113642,-15.320362021801625,29.172999281332025,3.275663746605557,0.0033705474801849,-4.191703420955407,0.162126902512592,7518.794921875,11.50088888888889,7.624444444444445,-179.97636496532903,6.204149351183145,42.91973584909765,1227.0,1435.0,1350.0,1528.0,1189.0,999.0,108.0,293.85,1649416945.4931276,1649416946.598279,2d7bf395-8d5e-4e71-ad4f-3a3f6d90a565
-0.6949796305230435,-1.1148025627471772,-0.0830846983382425,0.621129097040806,0.0279585731589849,0.5512640119586868,-0.1766174497215586,-0.1976553656257534,-15.269972868576486,29.018213427507003,3.125037370903619,0.0186885885133241,-4.182056701217432,0.1790128282405557,7518.794921875,11.501222222222223,7.639999999999999,-179.97436144317248,6.201790896349114,42.96535468256417,1227.0,1435.0,1350.0,1528.0,1189.0,999.0,108.0,293.85,1649416946.7062085,1649416948.0300815,2d7bf395-8d5e-4e71-ad4f-3a3f6d90a565
-0.0522090296094432,0.0784495667870822,-0.0640691541203337,-0.0258195954301637,-0.2110321425756504,-0.0329461889689389,-0.3960474750063619,-0.4222265346993955,-15.575744653441475,23.8171164638472,0.888259461384648,0.1312056828247261,0.3961234676744433,0.9285052836460176,7523.929470486111,11.648444444444443,7.707777777777778,179.60665441465528,6.223791979166848,43.06532512580602,1553.0,1435.0,1350.0,1528.0,1471.0,999.0,108.0,293.85,1649416949.8481443,1649416950.8996544,823e36ec-7fe7-4c60-a78b-ffcfa82a1c7b
-0.0412617281482956,0.0803763564877357,-0.0659787494450985,-0.022588050399191,-0.2137245912387591,-0.0370895455661228,-0.3999430298775505,-0.4227888942950238,-15.543352721149155,23.895535826301384,0.9671408260330756,0.1150590792134765,0.4019041142705513,0.9406851239355408,7520.995442708333,11.646666666666668,7.696666666666666,179.56615139287712,6.229691033311885,43.0391825767578,1553.0,1435.0,1350.0,1528.0,1471.0,999.0,108.0,293.85,1649416951.0082123,1649416952.1343372,823e36ec-7fe7-4c60-a78b-ffcfa82a1c7b
-0.0425007399482346,0.0836382445660414,-0.0631214364949819,-0.0213616815585751,-0.2098558398253284,-0.040503149511192,-0.3982615135782507,-0.4293758872798317,-15.687442815049518,23.80788109311637,1.1159654125807963,0.1041342612230879,0.413867643067346,0.9296773467819782,7525.396484375,11.657,7.71,179.53735531533636,6.234004155477141,42.994982145908914,1553.0,1435.0,1350.0,1528.0,1471.0,999.0,108.0,293.85,1649416952.2494404,1649416953.359172,823e36ec-7fe7-4c60-a78b-ffcfa82a1c7b
-0.0613736712277897,0.0785153102726693,-0.0876184701500004,-0.3236901866877849,-0.2641660302227882,0.2536559386193556,-0.3385613645151308,-0.3623473602003714,-15.52478684767541,23.12691492180677,2.785044230097734,1.441741987619224,0.4143678623091172,0.9515182498632512,7540.845377604167,11.654,7.676666666666667,179.53569785609776,6.333440753030732,43.01840058784316,1553.0,1522.0,1350.0,1528.0,1471.0,999.0,108.0,293.85,1649416955.4956691,1649416956.6332133,48288e21-6be1-4149-876e-27d8464d71f1
-0.0685326309173439,0.0683655282749518,-0.095639175311628,-0.3195842527611077,-0.2711995722205301,0.2599066261936419,-0.3452621435739296,-0.3643277566180319,-15.474372316571028,23.281771730441964,2.738568264765065,1.447171292003701,0.3753437304347038,0.9802858002652683,7545.26953125,11.649,7.673333333333334,179.5180167730663,6.3154466196623344,42.99204971802525,1553.0,1522.0,1350.0,1528.0,1471.0,999.0,108.0,293.85,1649416956.741471,1649416957.741434,48288e21-6be1-4149-876e-27d8464d71f1
-0.0454086248076066,0.0708056228501709,-0.0881924613591874,-0.3223151362637191,-0.2651182994092774,0.2594261930792213,-0.33804300239384,-0.3664897065815485,-15.448278327643004,23.307601633437777,2.7086989193274595,1.4528022986482023,0.3853843632981172,0.9518105032457964,7545.26953125,11.652888888888889,7.676666666666667,179.48545498456315,6.311889182037749,42.984043218498186,1553.0,1522.0,1350.0,1528.0,1471.0,999.0,108.0,293.85,1649416957.8494089,1649416959.0911007,48288e21-6be1-4149-876e-27d8464d71f1
-0.0468969561242788,0.0764772623646646,-0.1061055381333666,-0.6822815251408598,-0.3239137146014536,0.6047392487652727,-0.2629563500425191,-0.2854406236097498,-15.384812032795375,22.905181338516563,5.689195253910352,3.037710234050669,0.4229683459987855,0.951345407296843,7545.26953125,11.638333333333334,7.67,179.47625092520158,6.404615118731804,43.0538223283338,1553.0,1613.0,1350.0,1528.0,1471.0,999.0,108.0,293.85,1649416960.001525,1649416961.1437745,b85a0433-ead1-4b32-a943-b8671b9ab5cc
-0.0513280669172763,0.0713229734704648,-0.111286124726489,-0.6853977674104113,-0.3281607441425086,0.6119973283894687,-0.264402706801991,-0.2794185202602169,-15.28113585516574,22.82054342582008,5.570139352302866,3.060263763330702,0.4040118429721662,0.9655393580711124,7545.26953125,11.633,7.664444444444445,179.45805530125267,6.406095514802535,43.05122875372397,1553.0,1613.0,1350.0,1528.0,1471.0,999.0,108.0,293.85,1649416961.2572958,1649416962.3680494,b85a0433-ead1-4b32-a943-b8671b9ab5cc
-0.0461474804138771,0.0641569340554198,-0.1138895667474691,-0.6770877881781532,-0.3307904838170692,0.6157710038464601,-0.2700434982188959,-0.2876101589573276,-15.442620606322562,23.19942568192928,6.160460819499462,3.052393274325909,0.3718640282944738,0.9804711587753632,7551.91748046875,11.639333333333331,7.650000000000001,179.44231095630593,6.3970053393590245,43.06378036468873,1553.0,1613.0,1350.0,1528.0,1471.0,999.0,108.0,293.85,1649416962.4764068,1649416963.797905,b85a0433-ead1-4b32-a943-b8671b9ab5cc
-0.0111714416849016,0.0606027403263377,-0.137778220770113,-1.0282739669572634,-0.3905998679105876,0.9631089553209564,-0.198679446882924,-0.223598757439215,-15.483792751469023,22.638190317196628,9.258177935350508,4.620661083322424,0.3730846624726606,0.9939506783276504,7532.00927734375,11.612,7.697777777777778,179.42865664924514,6.520869064978045,43.096804708780695,1553.0,1710.0,1350.0,1528.0,1471.0,999.0,108.0,293.85,1649416965.8985023,1649416966.848482,ead4e9d6-3a11-41e6-a3d5-ae7d48be5a23
-0.0139276107822983,0.0631313357487092,-0.1350346945844563,-1.028413039829198,-0.3909791573836045,0.9642721091420144,-0.1982116567194742,-0.2273157932291569,-15.42878295474492,22.897977538152954,9.76616921614879,4.625555997032266,0.3778722265554218,0.9910145885851944,7529.070258246527,11.61022222222222,7.690000000000001,179.415787055029,6.532348383674982,43.11376976031414,1553.0,1710.0,1350.0,1528.0,1471.0,999.0,108.0,293.85,1649416966.958647,1649416968.1029785,ead4e9d6-3a11-41e6-a3d5-ae7d48be5a23
-0.0264244354562743,0.064893261042366,-0.1399634331180723,-1.033220408631041,-0.3939305344776755,0.9577948595606592,-0.2028405039351888,-0.2283752747331483,-15.54652432897764,22.64098195201762,8.429218438139184,4.619623539813215,0.3974382989433763,1.0066519030699406,7525.396484375,11.61111111111111,7.690000000000001,179.38137959763014,6.528437246601503,43.1437098945409,1553.0,1710.0,1350.0,1528.0,1471.0,999.0,108.0,293.85,1649416968.2109325,1649416969.331679,ead4e9d6-3a11-41e6-a3d5-ae7d48be5a23
-0.0274105876709578,0.0622898191869773,-0.1368077458278387,-1.2517124610400252,-0.4247642335697385,1.1679899064881634,-0.148155071508738,-0.1693507715469568,-15.145193139337152,23.28871074354328,9.557896025204606,5.589657357549175,0.4019419316762558,0.9658625083700187,7532.00927734375,11.58211111111111,7.67,179.37335336644546,6.602819951369581,43.1728497582699,1553.0,1814.0,1350.0,1528.0,1471.0,999.0,108.0,293.85,1649416970.4477704,1649416971.5847156,43f5b9b0-c914-427e-a89d-834dc0fdbe74
-0.0143802293712829,0.0670759446050522,-0.1364264336113612,-1.262481252630542,-0.4261711443530259,1.1715663517394672,-0.1458409008072396,-0.1658400694176494,-15.062535120112242,23.187670487205327,9.33457626286628,5.62134105123883,0.4226353845371406,0.9642331158021362,7532.00927734375,11.575,7.649999999999999,179.3375449613568,6.615514332260742,43.17912859939191,1553.0,1814.0,1350.0,1528.0,1471.0,999.0,108.0,293.85,1649416971.6928122,1649416972.8094456,43f5b9b0-c914-427e-a89d-834dc0fdbe74
-0.026772875886225,0.0545720402242634,-0.1501683393497262,-1.2514353269870968,-0.43654445652854,1.1748914547466518,-0.1607884409779483,-0.1809413483279781,-15.261129687777684,23.3857294274979,9.399741896097144,5.604435221501276,0.374338388494824,1.0168314038111237,7534.953287760417,11.581333333333331,7.654444444444445,179.33912652960464,6.607731995747683,43.22176036346141,1553.0,1814.0,1350.0,1528.0,1471.0,999.0,108.0,293.85,1649416972.9169502,1649416974.243315,43f5b9b0-c914-427e-a89d-834dc0fdbe74
-0.0797686981186635,0.082591406074644,-0.0337614081999873,0.3799491577234162,-0.1441710162526797,-0.4281434491336888,-0.4845119230722355,-0.5151352451190289,-15.958439175767705,25.275214994648685,-1.835944265460729,-1.6616220793433456,0.3904983091771736,0.9214304172601084,7538.63330078125,11.652,7.696666666666668,179.33200795466962,6.064060084303937,43.32567372312911,1553.0,1349.0,1350.0,1528.0,1471.0,999.0,108.0,293.85,1649416976.3857543,1649416977.5223894,d136ed17-7f69-4308-b420-8177799f83ff
-0.0756663047262104,0.0929394299074936,-0.0305399775146694,0.3735720405279191,-0.1425537264824234,-0.4326928990294738,-0.4823160902496468,-0.5059837496301435,-15.967056141405967,25.143137969912576,-1.8536005340034247,-1.658182387606904,0.4305143071334067,0.9129295224235756,7538.63330078125,11.653,7.692222222222223,179.3121852278785,6.045739050492763,43.33910415176709,1553.0,1349.0,1350.0,1528.0,1471.0,999.0,108.0,293.85,1649416977.6308303,1649416978.7486124,d136ed17-7f69-4308-b420-8177799f83ff
-0.0688289823312089,0.0854315244325619,-0.0283309964670483,0.3772405264883708,-0.1393191469554531,-0.4271441480532642,-0.4774247740488712,-0.5052868687291071,-15.851771637367571,25.166505312544235,-1.6040656166186469,-1.6536261027868329,0.3990162845501285,0.8980953179106906,7538.63330078125,11.649333333333333,7.690000000000001,179.30177601958334,6.041988280569173,43.35887868777914,1553.0,1349.0,1350.0,1528.0,1471.0,999.0,108.0,293.85,1649416978.8570068,1649416979.9819715,d136ed17-7f69-4308-b420-8177799f83ff
-0.0981424848757707,0.0908068125395272,-0.0040155165156995,0.7270772353437694,-0.08682701977428,-0.7699778021488725,-0.5604962365392535,-0.5870212107050576,-16.268176373210842,26.814394891749902,-4.038919245699746,-3.201627933739351,0.4022011718867713,0.9110466682910048,7538.63330078125,11.622,7.688888888888889,179.27067285592295,5.906218017407005,43.44045998504558,1553.0,1264.0,1350.0,1528.0,1471.0,999.0,108.0,293.85,1649416981.9146528,1649416982.9583073,77ffd594-fe0a-42ba-9b84-a7e100f256ea
-0.0843110671400314,0.0923366127618997,-0.0047867381201502,0.726343942743147,-0.0865994461529694,-0.7695226548375094,-0.5609766697862776,-0.5829248847913079,-16.357311616078263,26.71703605217067,-3.860401161655865,-3.199651245302756,0.4070272704284913,0.9128800831891204,7538.63330078125,11.616666666666667,7.673333333333334,179.2669253587983,5.9077430942985565,43.52320279392588,1553.0,1264.0,1350.0,1528.0,1471.0,999.0,108.0,293.85,1649416983.0673065,1649416984.2813113,77ffd594-fe0a-42ba-9b84-a7e100f256ea
-0.0863971584878912,0.0856611208976895,-0.0149390490161586,0.7226774797162747,-0.0952093140623803,-0.7618989362001345,-0.5681831689309224,-0.5905612454068171,-16.371296098142047,26.669796836142982,-4.252369474825665,-3.175137282510464,0.3853701178233678,0.9473231594198224,7538.63330078125,11.618333333333332,7.676666666666667,179.2635831195645,5.900569261235927,43.6067132401779,1553.0,1264.0,1350.0,1528.0,1471.0,999.0,108.0,293.85,1649416984.3900898,1649416985.5107784,77ffd594-fe0a-42ba-9b84-a7e100f256ea
-0.0907610086984603,0.0953982360672088,0.0124825575107211,0.9976354063828394,-0.0481197849633599,-1.0401497761025988,-0.6260445310592437,-0.6470693037582628,-16.442426760422627,27.94438591972752,-6.589086167285549,-4.411235263471725,0.4110107201255236,0.9279095587140588,7538.63330078125,11.58788888888889,7.66,179.25400415870843,5.789088668582141,43.74764546623717,1553.0,1178.0,1350.0,1528.0,1471.0,999.0,108.0,293.85,1649416988.0599048,1649416989.2033927,14ec44ba-08d5-404b-af8c-48705191cc77
-0.1210768467999549,0.090237878575781,0.0129134301354116,0.9972702772249872,-0.0466982086000504,-1.0303347735237147,-0.6246972950339816,-0.6470627292988519,-16.623271371689448,28.05124011943789,-5.954246429267236,-4.387616031699403,0.3873837296006109,0.9235652727293722,7537.161295572917,11.586666666666666,7.611111111111111,179.27163970714548,5.77073078020857,43.81371616280844,1553.0,1178.0,1350.0,1528.0,1471.0,999.0,108.0,293.85,1649416989.3376513,1649416990.4262936,14ec44ba-08d5-404b-af8c-48705191cc77
-0.1200021936727029,0.0933354079446175,0.0101699040931048,1.0023780396350688,-0.0481268650326888,-1.0413088849565368,-0.6288821218435351,-0.652663570166869,-16.591472648453248,27.8913202304131,-6.438845681026695,-4.425056164766387,0.4022657634746215,0.935033158030654,7538.63330078125,11.593666666666666,7.626666666666667,179.26390337954552,5.758085111847114,43.86926685023806,1553.0,1178.0,1350.0,1528.0,1471.0,999.0,108.0,293.85,1649416990.5350676,1649416991.6622162,14ec44ba-08d5-404b-af8c-48705191cc77
-0.1188137537480151,0.1026532819755434,0.0192728477662485,1.0666928608802635,-0.0441063981616859,-1.1116671031801684,-0.6508050519740611,-0.6759266566900293,-16.611552559257014,29.120696257192847,-6.787655948474574,-4.719701717059802,0.4331264699970913,0.9490432187339236,7538.63330078125,11.560333333333332,7.633333333333334,179.22914075230975,5.731767112314586,43.96457417155156,1553.0,1088.0,1350.0,1528.0,1471.0,999.0,108.0,293.85,1649416992.973796,1649416994.1125572,7acab318-0c0b-48d8-8cb2-5f2516597bda
-0.0915302074679579,0.0982535259784153,0.0199302824822674,1.082003505398174,-0.0382526996382384,-1.118810390678564,-0.6508556242913873,-0.6814642833340362,-16.77545013160616,28.94055828080017,-6.406586323665957,-4.771473878471192,0.4125608810191404,0.9403447718398492,7532.745279947917,11.556,7.641111111111111,179.23122320109675,5.7062025680248745,44.01712299084095,1553.0,1088.0,1350.0,1528.0,1471.0,999.0,108.0,293.85,1649416994.2206228,1649416995.341342,7acab318-0c0b-48d8-8cb2-5f2516597bda
-0.1061712815596516,0.1066403711951521,0.01458634890302,1.0693878376397377,-0.0465024952994932,-1.1168724734707256,-0.6557737438957845,-0.6761016358078797,-16.701262735124832,28.88472272088363,-6.65342924591429,-4.739299501174079,0.4468928670769209,0.9664988564644044,7538.63330078125,11.553666666666668,7.624444444444445,179.24044547429608,5.723978467362917,44.0779682132422,1553.0,1088.0,1350.0,1528.0,1471.0,999.0,108.0,293.85,1649416995.4504662,1649416996.5700457,7acab318-0c0b-48d8-8cb2-5f2516597bda
-0.0582048353477743,0.0689299107656794,-0.0691445510901973,-0.0156950990574663,-0.2150161979428616,-0.0324333898046249,-0.4025823783383784,-0.4217400327555369,-15.597334954034084,24.06357893694025,0.9129435545015012,0.110893803122797,0.3587888905675973,0.9490098022880268,7535.689290364583,11.650777777777778,7.694444444444445,179.2541453159513,6.0742990596203486,44.10431073505112,1553.0,1435.0,1350.0,1528.0,1471.0,999.0,108.0,293.85,1649416997.48055,1649416998.6174734,df1e0a2d-55d4-409c-99f5-02bcbe0df25e
-0.0400990799284939,0.0838668295965521,-0.0534055610260137,-0.0203760350554209,-0.201709715955386,-0.0413745035366486,-0.3904987240667797,-0.4173878134894707,-15.732979787903025,23.991390309342773,1.218228757019453,0.1016465050711669,0.4146386106792446,0.8943590393961888,7538.63330078125,11.652666666666669,7.673333333333334,179.23776196886217,6.064930553968161,44.0188301586785,1553.0,1435.0,1350.0,1528.0,1471.0,999.0,108.0,293.85,1649416998.7261298,1649416999.847285,df1e0a2d-55d4-409c-99f5-02bcbe0df25e
