raw_voltage_G-,raw_voltage_G0,raw_voltage_G1,raw_voltage_G2,raw_voltage_G3,raw_voltage_G4,raw_voltage_G5,raw_voltage_G6,load_x,load_y,load_z,load_l,load_m,load_n,rpm,voltage,current,roll,pitch,yaw,aileron1_pwm,elevator_pwm,throttle_pwm,rudder_pwm,aileron2_pwm,pbaro,pdiff,Tt,sample_start_time,sample_end_time,uid
-0.0355496309319632,0.0832488408584069,-0.1095373480391056,-0.1725722032375126,-0.2205649483399172,0.3909020205368378,-0.2950654708086298,-0.3173656630443513,-15.378200343558548,18.226161701968792,42.854157606117376,1.382149049839769,0.0558739239820332,0.9206065559512452,4423.627549913194,11.945444444444442,0.14,-179.92887845457943,-11.328647190304054,111.4767749574953,1553.0,1435.0,1200.0,1528.0,1471.0,998.74,108.0,293.1,1649412205.9489124,1649412207.0045986,f4277560-3972-4fc5-91f6-b107ed4d9d1b
-0.0358783483389143,0.0782786337268114,-0.1163352244328718,-0.1686538910051538,-0.2253905204268866,0.3940577075597307,-0.3022841059416862,-0.3178258673037107,-15.54548871393506,18.285891029749926,43.06946869774154,1.3804091247286088,0.0355959903185903,0.9463183467885508,4465.837673611111,11.942333333333334,0.1444444444444445,-179.81234783823996,-11.337847549979797,111.0112254691177,1553.0,1435.0,1200.0,1528.0,1471.0,998.74,108.0,293.1,1649412207.112695,1649412208.2690945,f4277560-3972-4fc5-91f6-b107ed4d9d1b
-0.0523273678765879,0.0711388917151738,-0.1189386664575619,-0.1630262482510114,-0.222892267854156,0.398751791841711,-0.3023367007897446,-0.3257676811815307,-15.760389894265703,18.08245260325067,43.47208789178041,1.3767405277081917,0.0059088530134557,0.946225800780235,4482.183268229167,11.944333333333333,0.14,-179.72942478825655,-11.317521286464792,110.59292950614795,1553.0,1435.0,1200.0,1528.0,1471.0,998.74,108.0,293.1,1649412208.3832405,1649412209.597221,f4277560-3972-4fc5-91f6-b107ed4d9d1b
0.127218080421809,0.3908362773842896,-0.0638193289826504,-0.3432948965467284,-0.249268555636388,0.2534718566887684,-0.3047692101617073,-0.3199033620024899,-14.65965140239506,17.147170674910452,43.95993833753762,1.4540953478298098,1.2185272003910548,0.9494254132729012,4485.3095703125,11.942666666666668,0.1433333333333333,-179.83180477045562,-11.332283886582127,110.09567807419268,1658.0,1435.0,1200.0,1528.0,1551.0,998.74,108.0,293.1,1649412210.500177,1649412211.6553538,16175db6-912a-4217-89ff-538a612b1fb8
0.1487369327212843,0.3888144126323316,-0.0772309997311416,-0.3488527497816338,-0.2590370267171305,0.2612088527101862,-0.3127064722518022,-0.3438334876005205,-14.67239708488921,16.753946713159912,43.97323524409004,1.4807397291033264,1.21074373241058,0.9921908271122536,4491.839084201389,11.937,0.14,-179.8670424752936,-11.30728805040456,109.85228124747964,1658.0,1435.0,1200.0,1528.0,1551.0,998.74,108.0,293.1,1649412211.7902272,1649412212.8688605,16175db6-912a-4217-89ff-538a612b1fb8
0.1332138857426779,0.3867733305623539,-0.0669618674185953,-0.3497640561388257,-0.2525688787055056,0.2606641931803582,-0.305860551849216,-0.3268984694131226,-14.675687118873652,17.176681728714474,43.55328916228528,1.4848165880557291,1.2076040701173991,0.9586128284054388,4497.07568359375,11.939666666666666,0.1433333333333333,-179.9114311157996,-11.26931153457312,109.6185620399106,1658.0,1435.0,1200.0,1528.0,1551.0,998.74,108.0,293.1,1649412212.985693,1649412214.097974,16175db6-912a-4217-89ff-538a612b1fb8
0.2724191271193372,0.6402801712664103,-0.0224140831128637,-0.4867209049497999,-0.2753687210526785,0.1309391611897795,-0.3173919603645314,-0.333130952612503,-14.136058278156854,16.99943494953658,42.62143163643552,1.5034145001732246,2.182531928587997,0.9739710942792886,4490.270887586806,11.911333333333332,0.14,179.77906356750455,-11.255061957553444,109.22234883743744,1767.0,1435.0,1200.0,1528.0,1630.0,998.74,108.0,293.1,1649412216.0343993,1649412217.111173,0a4b1cfc-d2c4-4b06-be91-81e5b31895dd
0.2907352598902712,0.6265923798077513,-0.0134203745743047,-0.482565915752118,-0.2697279294902456,0.1323592204569904,-0.3153407632597799,-0.3449253348285641,-14.420158273924375,17.849172791164044,41.495134356696845,1.5029912197610742,2.1432605188719425,0.9473524879026014,4469.976128472223,11.910555555555554,0.14,179.73113233554906,-11.21759988777574,109.0516897308355,1767.0,1435.0,1200.0,1528.0,1630.0,998.74,108.0,293.1,1649412217.219515,1649412218.3126347,0a4b1cfc-d2c4-4b06-be91-81e5b31895dd
0.29624456328076,0.6339687976826167,-0.0314603862960296,-0.4963457532680154,-0.2855458132200332,0.1352387846487767,-0.3279372163550325,-0.3497772043693639,-14.35370928616458,17.264192452303,41.017121549968586,1.535726995577227,2.17523590808322,1.0118062900473834,4459.900227864583,11.909888888888888,0.14,179.70198260599125,-11.184585978695004,108.88462861610634,1767.0,1435.0,1200.0,1528.0,1630.0,998.74,108.0,293.1,1649412218.4222844,1649412219.5340457,0a4b1cfc-d2c4-4b06-be91-81e5b31895dd
0.4515569516484495,0.8945101895195164,0.025118454716758,-0.6471876422341407,-0.3042958568057138,0.0136133453095958,-0.3308825247613499,-0.3556546726362725,-13.81998101134616,17.61412776554137,40.471741482840144,1.607999479227171,3.1756452242045685,0.9940781886254748,4455.00390625,11.851111111111113,0.1222222222222222,179.4429621010068,-11.146466028890996,108.64097603675438,1886.0,1435.0,1200.0,1528.0,1710.0,998.74,108.0,293.1,1649412220.443777,1649412221.5804126,9c1df8a7-f796-4c21-b67b-e296f7ba6001
0.4305058907355699,0.8956935720837808,0.0300755131904813,-0.6360112465775686,-0.3003512473721053,0.0030943880572446,-0.3308956734742689,-0.3579951411986488,-13.819337235038963,17.84158992091095,40.62046928196879,1.5609295020573386,3.1777029562486097,0.9823252406436396,4454.747395833333,11.85688888888889,0.12,179.41397326034942,-11.114368598387642,108.41701337495977,1886.0,1435.0,1200.0,1528.0,1710.0,998.74,108.0,293.1,1649412221.6900642,1649412222.6975734,9c1df8a7-f796-4c21-b67b-e296f7ba6001
0.4347337019540961,0.9061649906179688,0.0345455642602199,-0.6363414818732542,-0.2983314050265499,-0.0019167827615416,-0.3298124230388143,-0.3522789971338693,-13.849089886056968,17.90207742515188,41.34380111697111,1.551137546268399,3.211101914730335,0.9741773639122588,4453.4609375,11.853666666666664,0.1266666666666666,179.3593196044308,-11.098539729849875,108.23076777667184,1886.0,1435.0,1200.0,1528.0,1710.0,998.74,108.0,293.1,1649412222.8058412,1649412223.8408787,9c1df8a7-f796-4c21-b67b-e296f7ba6001
-0.257262963825406,-0.2898585861589667,-0.1750836038078675,0.0459985843082635,-0.1922426539366184,0.5459908795060366,-0.2964197869377646,-0.3201268897582946,-16.411853499069295,19.41184140070364,41.27773426908848,1.241436919561612,-1.3532639485298106,0.9266431087635552,4452.435329861111,11.933333333333334,0.1422222222222222,179.91346195871284,-11.103976086110514,107.89252163077468,1449.0,1435.0,1200.0,1528.0,1386.0,998.74,108.0,293.1,1649412225.4274971,1649412226.495041,fc0d00b4-1e0c-48af-950d-0c1bb15c40e2
-0.2556193765689152,-0.2853485826914866,-0.1677729278967793,0.0431321683316292,-0.1895997655817934,0.5469375855159977,-0.2967090580995371,-0.3227960756721149,-16.763862803244795,19.99025632536756,41.686991354294335,1.2541166772394847,-1.3366583088003463,0.9141042419058242,4454.747395833333,11.943,0.15,179.8654229615504,-11.068336917931296,107.80629201032308,1449.0,1435.0,1200.0,1528.0,1386.0,998.74,108.0,293.1,1649412226.603825,1649412227.725135,fc0d00b4-1e0c-48af-950d-0c1bb15c40e2
-0.2478747935414505,-0.2896613556804327,-0.1708234257604757,0.0434214395592381,-0.1901125648703192,0.5518683461336119,-0.2950917681292396,-0.3184701536254363,-16.641698944269425,19.740462085011632,41.82183360287321,1.262819407877692,-1.3551268159869772,0.9165170069336204,4452.689453125,11.945,0.15,179.7906460505171,-11.026187820563148,107.71412543766291,1449.0,1435.0,1200.0,1528.0,1386.0,998.74,108.0,293.1,1649412227.833758,1649412228.956432,fc0d00b4-1e0c-48af-950d-0c1bb15c40e2
-0.4404637802212314,-0.6345588205371837,-0.2248756985998371,0.2397284353785987,-0.1626596019811953,0.6954571525576116,-0.29298342543166,-0.3163097214413344,-17.520283630479074,21.274628887329563,39.67841927973561,1.1493569460965074,-2.6510567719479963,0.9055238924387604,4454.746744791667,11.892222222222223,0.1388888888888889,179.82310310945297,-11.016529933076749,107.56267434082686,1342.0,1435.0,1200.0,1528.0,1293.0,998.74,108.0,293.1,1649412229.9563937,1649412231.093855,7a754815-6841-409a-ad54-d11f37ec18ed
-0.4683390226943784,-0.6447682809819076,-0.221590546795941,0.2519729052603259,-0.1558865055123138,0.7026312828321761,-0.2883990809257338,-0.304361600615753,-17.64168927095826,21.34507230847673,40.90841981503111,1.1386231638555793,-2.7006887408906244,0.8857865459138472,4448.0673828125,11.884222222222222,0.13,179.78582090132346,-10.997254570056542,107.34303063531742,1342.0,1435.0,1200.0,1528.0,1293.0,998.74,108.0,293.1,1649412231.2019386,1649412232.2499735,7a754815-6841-409a-ad54-d11f37ec18ed
-0.4600983282654222,-0.6387310043818519,-0.2244205511900787,0.252636914590921,-0.158272488401187,0.6944330714876347,-0.2904801151851886,-0.3209117658559458,-17.45859351194413,21.07352378903173,40.6543688320658,1.1168134712318591,-2.677355308560616,0.8964744062376631,4452.432508680556,11.889111111111111,0.1388888888888889,179.764354375672,-11.019293029187232,107.16080725954072,1342.0,1435.0,1200.0,1528.0,1293.0,998.74,108.0,293.1,1649412232.3575678,1649412233.3083546,7a754815-6841-409a-ad54-d11f37ec18ed
-0.6543577296846238,-0.9555768027784534,-0.2555475645946597,0.4298661561126677,-0.119951621878058,0.8234293552550535,-0.2759533324667894,-0.2912639802414701,-18.38736365753085,23.05600775814048,37.97772967514709,1.0175976145604708,-3.859183479171006,0.8240037682109597,4455.00390625,11.797,0.095,179.7890938900282,-10.976697550497704,106.798484791683,1241.375,1435.0,1200.0,1528.0,1202.0,998.74,108.0,293.1,1649412234.923874,1649412235.918177,a8aeb674-e700-4273-a6b8-74d9b3e4abd3
-0.6278064569043571,-0.9571288556236732,-0.2520297821262897,0.4184879831216201,-0.121739338913169,0.8287798628647508,-0.2751977881062679,-0.3026785674193455,-18.440168258926946,23.53692813396696,37.044214118653606,1.058475143258645,-3.854725096790116,0.818729333530269,4448.838216145833,11.784333333333333,0.1,179.8382980036266,-10.966585882318324,106.40210984653572,1227.0,1435.0,1200.0,1528.0,1189.0,998.74,108.0,293.1,1649412236.026577,1649412237.2376106,a8aeb674-e700-4273-a6b8-74d9b3e4abd3
-0.6335347390198987,-0.9570433890302248,-0.2643976496405323,0.4091443182528476,-0.1325060989695491,0.8332529476389869,-0.2828058268325288,-0.3095457273605231,-18.34264003194847,23.199673309111382,36.39589251411731,1.0866979875359866,-3.848988139227453,0.8603056752240092,4436.5556640625,11.795222222222222,0.0911111111111111,179.8151239306826,-11.007966488541108,106.01113539915596,1227.0,1435.0,1200.0,1528.0,1189.0,998.74,108.0,293.1,1649412237.3463776,1649412238.4685743,a8aeb674-e700-4273-a6b8-74d9b3e4abd3
-0.0304873827285845,0.0877588436265615,-0.1155726000831143,-0.1658926644648977,-0.2206569893252265,0.3864972078526131,-0.2985761732720544,-0.3243476217154988,-15.500685455028403,17.656522925125053,43.70080619940284,1.3531800298852394,0.0649376131187975,0.9359036586034368,4469.457573784723,11.936333333333332,0.14,179.42739837661804,-10.922173241286483,105.45621819785806,1553.0,1435.0,1200.0,1528.0,1471.0,998.74,108.0,293.1,1649412240.4232666,1649412241.5424843,3269c1e6-cb43-4508-a551-5ea624a0bc92
-0.0225850160239437,0.086891029671318,-0.1221469485613247,-0.1729798121463022,-0.2288354792374361,0.3865366539673318,-0.3062944590460356,-0.3392319488827007,-15.542637913067772,17.788609509843617,42.6020634712942,1.3696075349034451,0.0721758824609556,0.9651934373265082,4474.38330078125,11.939333333333332,0.1466666666666666,179.30341222934453,-10.909013364030638,105.68907452486197,1553.0,1435.0,1200.0,1528.0,1471.0,998.74,108.0,293.1,1649412241.6510231,1649412242.767279,3269c1e6-cb43-4508-a551-5ea624a0bc92
-0.0518803121856815,0.081749889494088,-0.1167691314681671,-0.1566622787965517,-0.2241939889568817,0.3840252532004922,-0.307043934814975,-0.333367628721685,-15.709141660574996,18.298419103283805,43.67690648360439,1.3308906158573333,0.0428861804515266,0.9533193879748184,4481.141167534723,11.946,0.1411111111111111,179.2296674357858,-10.91311005457657,105.8739381482078,1553.0,1435.0,1200.0,1528.0,1471.0,998.74,108.0,293.1,1649412242.8763168,1649412243.9964385,3269c1e6-cb43-4508-a551-5ea624a0bc92
-0.0258853388916936,0.0608303138930578,-0.1478263541454529,-0.4521266769686105,-0.2780116092837719,0.6930853302600011,-0.2485453773050196,-0.2767361864967075,-15.812506273433293,17.443086662153927,46.135668532131625,2.6850085338131064,-0.0222406803956681,0.9842905599593518,4492.36181640625,11.925888888888888,0.14,179.13239795290573,-10.770469237723669,106.1042377077324,1553.0,1522.0,1200.0,1528.0,1471.0,998.74,108.0,293.1,1649412245.0261948,1649412246.1565735,8966b628-351e-4aaf-aea1-3826fbaa18e8
-0.0327884046246721,0.0700212525450467,-0.1461301722675412,-0.4604235060834932,-0.2793922226495945,0.6871026740406146,-0.2469017901085104,-0.2682158294976049,-15.59149294990547,17.335853637279442,45.49265432513666,2.689662670370092,0.0174928958479431,0.9818498173624725,4484.788519965277,11.931333333333331,0.14,179.09173404222713,-10.772227631979996,106.16181089006623,1553.0,1522.0,1200.0,1528.0,1471.0,998.74,108.0,293.1,1649412246.266076,1649412247.4126856,8966b628-351e-4aaf-aea1-3826fbaa18e8
-0.0273842903300204,0.069613642948984,-0.1508768518476662,-0.4530733829523272,-0.2839285233602808,0.6850909237062228,-0.2538574511561955,-0.2856904490216922,-15.617784794939308,17.458014701012583,46.06532769840391,2.669213442061913,0.009870809713213,1.005156356334741,4489.48583984375,11.930666666666667,0.1422222222222222,179.07064241807012,-10.751433310779367,106.21942657135494,1553.0,1522.0,1200.0,1528.0,1471.0,998.74,108.0,293.1,1649412247.520603,1649412248.474863,8966b628-351e-4aaf-aea1-3826fbaa18e8
0.000877315769794,0.0671138735269824,-0.1539233039020633,-0.78545281360567,-0.3261838879865442,1.008130593972138,-0.1717499031934575,-0.2092489773955793,-15.61680197479517,17.40329023581936,48.433343569893104,4.144756778328544,0.0202294986915732,0.9501049052184718,4490.794650607639,11.93222222222222,0.14,179.01739426330067,-10.621712365923976,106.39429838685494,1553.0,1613.0,1200.0,1528.0,1471.0,998.74,108.0,293.1,1649412250.5493643,1649412251.575137,8456ce05-ae56-462d-beeb-327b5795e07a
-0.003977587544311,0.059882090617474,-0.1606493682882357,-0.7718742500805169,-0.3302802132083083,0.996005979690392,-0.1822562181213469,-0.2142935259398893,-15.714819500725625,17.51300383159796,47.413389523495375,4.087061704068001,0.0007431390760848,0.9775032501178842,4493.14697265625,11.932,0.14,178.99634058463906,-10.583877291926598,106.4295512698911,1553.0,1613.0,1200.0,1528.0,1471.0,998.74,108.0,293.1,1649412251.683932,1649412252.8105276,8456ce05-ae56-462d-beeb-327b5795e07a
-0.0109878656673485,0.0691402898990437,-0.171770131953944,-0.7656179964705683,-0.3354582718318729,0.9812652807456572,-0.1867333496934216,-0.2092307710422879,-15.275308981787264,16.50986932003598,47.37612494374914,4.032836468526105,0.031194254592923,1.0079308649435854,4471.533311631944,11.936666666666667,0.1477777777777777,178.98058409713377,-10.583333058658985,106.48153204511452,1553.0,1613.0,1200.0,1528.0,1471.0,998.74,108.0,293.1,1649412252.944269,1649412254.0313988,8456ce05-ae56-462d-beeb-327b5795e07a
-0.0177594443906916,0.0545978318938056,-0.1764905143263082,-1.0269484773318955,-0.3721036946478619,1.250103513373689,-0.1254472717163369,-0.1504692427404066,-15.476096468245496,16.986842448039052,49.57037229875905,5.229624984977517,-0.0094910213640515,0.9757269490384312,4440.897786458333,11.894333333333334,0.13,178.9759213546604,-10.46075070498738,106.50133504024814,1553.0,1710.0,1200.0,1528.0,1471.0,998.74,108.0,293.1,1649412255.967067,1649412257.0197294,e5f1b50e-caa0-481b-a983-e5b4c4e44027
-0.0129470214600155,0.0573722067739846,-0.1812634913811654,-1.0427400714048622,-0.3737472818929659,1.255402437776567,-0.1207400379745615,-0.1498249560682023,-15.274494955480924,16.24595337189534,48.65104551461764,5.271960172370617,0.0092647923335125,0.9771152370517724,4436.5556640625,11.896333333333336,0.13,178.98191977857147,-10.469333881180624,106.39621767001172,1553.0,1710.0,1200.0,1528.0,1471.0,998.74,108.0,293.1,1649412257.1524525,1649412258.2372792,e5f1b50e-caa0-481b-a983-e5b4c4e44027
-0.015418976411422,0.0534933413956665,-0.1864046322414747,-1.042792666226213,-0.3829776685855941,1.2586633144139308,-0.131548267145504,-0.1544401491302784,-15.4163417378955,16.88266058262481,48.49921227685107,5.28327564798725,-0.0032423075848236,1.0110394487443504,4453.462456597223,11.893222222222224,0.1277777777777777,179.01035006153668,-10.439888556213743,106.31470315681716,1553.0,1710.0,1200.0,1528.0,1471.0,998.74,108.0,293.1,1649412258.3460128,1649412259.3531864,e5f1b50e-caa0-481b-a983-e5b4c4e44027
0.0090375990695896,0.0465639784596049,-0.1631971813511526,-1.1437615782587778,-0.3802032931273467,1.3715711713484595,-0.0879997826829282,-0.11323213201257,-15.46585698726114,17.926208920486367,50.61090295873106,5.773140881363463,-0.0336766753478105,0.91441425227004,4471.78955078125,11.89277777777778,0.1277777777777777,179.00513938610987,-10.385541974216554,106.11166895354935,1553.0,1814.0,1200.0,1528.0,1471.0,998.74,108.0,293.1,1649412261.49615,1649412262.634683,c91ebbc2-df5d-4c99-91b2-be7d92a5cad3
-0.0184300279277004,0.0467612088985417,-0.180461420958773,-1.1407242270646158,-0.3862911406122417,1.369546272167118,-0.0936405735461967,-0.1107996230117462,-15.30916796811847,16.6717709041056,50.67415902172857,5.7526526339952975,-0.0360962826584207,0.9550345987129342,4477.760308159723,11.865333333333332,0.1188888888888888,179.01971349197888,-10.390011004935989,105.95216885823142,1553.0,1814.0,1200.0,1528.0,1471.0,998.74,108.0,293.1,1649412262.7432566,1649412263.8631318,c91ebbc2-df5d-4c99-91b2-be7d92a5cad3
-0.0125748122146314,0.057328209205968,-0.1752140793125296,-1.1595081654868968,-0.3895125719278483,1.369934664382104,-0.0908348439169778,-0.1108992500022535,-15.10386334580811,16.991426753345817,49.768949765681896,5.798236735505881,0.0127569238321043,0.9481244119049834,4470.493815104167,11.862,0.11,179.0229737689427,-10.389629842434807,105.8354432020456,1553.0,1814.0,1200.0,1528.0,1471.0,998.74,108.0,293.1,1649412263.9720678,1649412265.2125351,c91ebbc2-df5d-4c99-91b2-be7d92a5cad3
-0.0534581558000964,0.0925318203112701,-0.0875527267988037,0.1100064370343854,-0.176674596080878,0.1122022692183487,-0.3612691671056409,-0.3776392974790997,-15.752478873118026,19.568733018295607,41.33521113631192,0.1280095394317272,0.0734271745658487,0.92576462721189,4485.575737847223,11.884777777777778,0.1166666666666666,178.99143802663482,-10.77901665028751,105.72067325669217,1553.0,1349.0,1200.0,1528.0,1471.0,998.74,108.0,293.1,1649412266.0069485,1649412267.0535934,67b11cdf-74ae-4732-a9a3-44022ce8fe56
-0.0565597310814412,0.0903516653543599,-0.0888751823635151,0.1168134157672624,-0.1758209422530578,0.1078369021200286,-0.3628232425692976,-0.3797521920585998,-15.775674027959951,19.48134934864285,41.29215854512278,0.1021814353422466,0.0648726082086282,0.928372050989825,4502.329861111111,11.94588888888889,0.14,178.92703541404092,-10.790765903752268,105.90933901867598,1553.0,1349.0,1200.0,1528.0,1471.0,998.74,108.0,293.1,1649412267.1616583,1649412268.172804,67b11cdf-74ae-4732-a9a3-44022ce8fe56
-0.0464893465448017,0.0902176497837493,-0.0888281503998383,0.1198548103641847,-0.1755701054601567,0.1079552404781457,-0.3639909478485464,-0.3843977286627391,-15.852128427294772,19.55262984890982,41.68344692896984,0.0960854737288265,0.0610728443814286,0.930108463837616,4513.65283203125,11.946222222222222,0.14,178.89951885860464,-10.781472577612822,106.08352553852929,1553.0,1349.0,1200.0,1528.0,1471.0,998.74,108.0,293.1,1649412268.2807624,1649412269.2989094,67b11cdf-74ae-4732-a9a3-44022ce8fe56
-0.0418559481544757,0.1051692343752431,-0.0637282996087283,0.3751599981661486,-0.1294970703277715,-0.1543658085287746,-0.4146341729155504,-0.4352548728306201,-15.806817906478765,20.24577668446161,39.789922084498826,-1.0637251741571578,0.1037813621381643,0.9063708662360936,4525.834852430556,11.943,0.14,178.8271992978527,-10.84995281314128,106.38381252865918,1553.0,1264.0,1200.0,1528.0,1471.0,998.74,108.0,293.1,1649412270.906018,1649412272.1645353,e01c7971-b559-445f-9636-9c60ebc9581d
-0.0382400565156901,0.0986328152919103,-0.0610732741351598,0.3676374274422188,-0.1325945998078501,-0.1392195204151655,-0.4160881150745166,-0.4532458335890043,-16.022637719470328,21.04863271726727,40.04384984564623,-1.0073340943456843,0.0796509005459644,0.9080616669624582,4520.79443359375,11.941666666666666,0.14,178.8095986592715,-10.835438850882475,106.49133488439332,1553.0,1264.0,1200.0,1528.0,1471.0,998.74,108.0,293.1,1649412272.2731564,1649412273.4909627,e01c7971-b559-445f-9636-9c60ebc9581d
-0.0620594263398939,0.1011993396147608,-0.0619077106999331,0.3561449619677305,-0.1362484204987197,-0.1339726847906111,-0.4161513300608834,-0.4358617356478537,-15.977586126035078,21.123899284771102,39.63844358642223,-0.9692041121655502,0.0939145146613803,0.913904344173334,4520.79443359375,11.933222222222222,0.13,178.80448967777232,-10.826857951418958,106.61156366871342,1553.0,1264.0,1200.0,1528.0,1471.0,998.74,108.0,293.1,1649412273.5989678,1649412274.8318243,e01c7971-b559-445f-9636-9c60ebc9581d
-0.0694049963862411,0.1084184794518557,-0.036786114271218,0.6309274033776281,-0.0861316561056661,-0.401801548389087,-0.4697069935654682,-0.488443890214841,-16.128316334026763,21.920628177879728,38.42281468207557,-2.184630347654651,0.1006060852057008,0.8887877474353633,4520.529622395833,11.933666666666666,0.1388888888888889,178.7986840169778,-10.925363224220096,106.82348091245176,1553.0,1178.0,1200.0,1528.0,1471.0,998.74,108.0,293.1,1649412276.970617,1649412277.9939864,e2baa401-e149-4cc2-8190-7f155cbad352
-0.0442201849011193,0.1134883132078646,-0.0431834608735973,0.6198015845381838,-0.0938312295469027,-0.4009291830756089,-0.4729309535163745,-0.5057521311604245,-15.904582630047232,21.68594387814214,37.761567958769646,-2.159439985285569,0.1248584137749745,0.9124214135967944,4499.738830566406,11.932125,0.13375,178.8131998765114,-10.924178838587302,106.88651141593247,1553.0,1178.0,1200.0,1528.0,1471.0,998.74,108.0,293.1,1649412278.1018157,1649412279.221258,e2baa401-e149-4cc2-8190-7f155cbad352
-0.0727806714426503,0.115119257223653,-0.0450166925322755,0.6198647994150972,-0.0915428504746596,-0.401118828301794,-0.4708827905352735,-0.4954228151868157,-15.938866070658412,21.218880238567497,37.976559709428486,-2.163179231182576,0.1291807074331603,0.9095561493703832,4494.45556640625,11.927555555555555,0.1311111111111111,178.8312184847243,-10.909294255560257,106.95652844402416,1553.0,1178.0,1200.0,1528.0,1471.0,998.74,108.0,293.1,1649412279.329532,1649412280.4588668,e2baa401-e149-4cc2-8190-7f155cbad352
-0.0466208334886575,0.1215772898347401,-0.0269109372646302,0.747547224958021,-0.0700123650999777,-0.5342008610888886,-0.4989623441094494,-0.5212493901681275,-15.983250269596974,22.396220266926782,36.62015998532712,-2.741784882719192,0.1511854689179128,0.8950036444790674,4494.71728515625,11.915333333333333,0.1266666666666666,178.8318696294252,-10.963322474851134,107.00476703449232,1553.0,1088.0,1200.0,1528.0,1471.0,998.74,108.0,293.1,1649412281.4747972,1649412282.619648,87f5b0c4-8f29-4a37-a3e7-9afa9083c5f4
-0.0556671368775073,0.1153185105462585,-0.0285282271596127,0.7698605602783666,-0.0690130643242743,-0.5470471395389264,-0.5073775120557685,-0.5273503869593683,-16.211027973541583,22.68203333142036,36.802137547378656,-2.8192570934661787,0.124865603808368,0.9072469133254774,4495.241644965277,11.897777777777778,0.12,178.84689756341902,-10.984483349537218,106.95303366389886,1553.0,1088.0,1200.0,1528.0,1471.0,998.74,108.0,293.1,1649412282.755618,1649412283.9421566,87f5b0c4-8f29-4a37-a3e7-9afa9083c5f4
-0.0573435956873474,0.117205348421733,-0.0237891333340462,0.7577490951186017,-0.0705807934300202,-0.5398249644004465,-0.5027431010784486,-0.5249694607822423,-15.982273725929428,23.03075172506852,36.53702640270667,-2.773086843125535,0.1344705279937555,0.8960889468004584,4499.438802083333,11.894333333333334,0.12,178.85906288924073,-10.990603388761023,106.93211886575038,1553.0,1088.0,1200.0,1528.0,1471.0,998.74,108.0,293.1,1649412284.0511615,1649412285.0680258,87f5b0c4-8f29-4a37-a3e7-9afa9083c5f4
-0.0427682654151712,0.0885477653857956,-0.1133110242049866,-0.1767534884025586,-0.2252327361502853,0.3931767450195342,-0.3002197606059277,-0.3247552316897918,-15.518469133674907,18.256431158696444,43.33398599655253,1.3967112500807997,0.0727642818783329,0.9406175458042156,4491.838812934027,11.895666666666669,0.1166666666666666,178.89545869059802,-10.683237666466328,106.89479112302637,1553.0,1435.0,1200.0,1528.0,1471.0,998.74,108.0,293.1,1649412286.906705,1649412288.0306346,f0ed485e-1df2-4976-8b0f-5df4453fc833
-0.045227071653117,0.0901650550117995,-0.1186493953038781,-0.1778053841873623,-0.2282437880188148,0.3969241231812059,-0.300167165821001,-0.3251891384780747,-15.310389148226776,17.847862632022707,43.93737064036782,1.4047315881422209,0.0717937369896953,0.9532713003456144,4504.167643229167,11.948333333333332,0.1366666666666666,178.90440168495127,-10.711625165885502,106.92914545673167,1553.0,1435.0,1200.0,1528.0,1471.0,998.74,108.0,293.1,1649412288.1382265,1649412289.2679317,f0ed485e-1df2-4976-8b0f-5df4453fc833
-0.0354444413610854,0.088284791455947,-0.1087352775341611,-0.171388820024574,-0.2197365804160925,0.3882591329614384,-0.2970903702111971,-0.3235587007042844,-15.581905890638868,18.25584799292588,43.33055313283308,1.3737508377593344,0.0718869474571463,0.9224050042550332,4504.1650390625,11.946333333333332,0.1388888888888889,178.90516666613834,-10.69893818436594,106.95588716515208,1553.0,1435.0,1200.0,1528.0,1471.0,998.74,108.0,293.1,1649412289.377308,1649412290.3925858,f0ed485e-1df2-4976-8b0f-5df4453fc833
0.0176105491277407,0.1043919441522199,0.0314429776471716,-0.1861416583806887,-0.0929305437908352,0.3791602359195531,-0.1470374323191392,-0.169377069255293,-14.288802933184684,18.031464873826856,43.46255987051505,1.3927476262341418,0.1326754645782107,0.3479709804055126,4504.1650390625,11.946666666666664,0.1388888888888889,178.88671301282074,-10.68532542762263,106.99149066456566,1553.0,1435.0,1200.0,1424.0,1471.0,998.74,108.0,293.1,1649412292.4215071,1649412293.466588,28f34087-764e-4092-81f6-8e0a9f97604a
0.008327569454423,0.1050099328703158,0.0280374652805714,-0.1870226211481921,-0.0977429668578987,0.3780820429296188,-0.1530858331292553,-0.1711521434967689,-14.372742091761175,18.22074659436294,43.2419482306945,1.393319798798487,0.1374384582746123,0.3673989104892722,4507.850206163194,11.944333333333336,0.1344444444444444,178.8959459107588,-10.712547336287193,107.00391857321546,1553.0,1435.0,1200.0,1424.0,1471.0,998.74,108.0,293.1,1649412293.5746045,1649412294.7001507,28f34087-764e-4092-81f6-8e0a9f97604a
0.0245449693277144,0.114664110053998,0.0308791008386223,-0.1948359822917016,-0.0971310467403664,0.3771575883457782,-0.1508131315179837,-0.1765668781188337,-14.364042770105936,18.14763213476086,43.452850369962746,1.4085622622993612,0.1728575969666095,0.3608893464638302,4508.90380859375,11.941,0.13,178.90810364748145,-10.707392156147389,107.0069481415673,1553.0,1435.0,1200.0,1424.0,1471.0,998.74,108.0,293.1,1649412294.8087308,1649412296.022411,28f34087-764e-4092-81f6-8e0a9f97604a
0.0632956944269808,0.1260048603216403,0.2208398287257486,-0.1947474808136287,0.07780983211788,0.3590402035946687,0.0456966701963804,0.0296653750636492,-13.052782371638797,18.25696409008152,43.94789825724775,1.3785729613860735,0.2137573848825195,-0.4131685705285607,4508.90380859375,11.947,0.13,178.89911511853364,-10.727871624600024,106.98679908351578,1553.0,1435.0,1200.0,1304.0,1471.0,998.74,108.0,293.1,1649412297.9051716,1649412298.8828633,09db840d-f0d8-4ece-b96d-d02a5b46771e
0.0851948479005372,0.128966856962228,0.2244789830805303,-0.1824863203379208,0.0816446999169892,0.3473009473575261,0.0423038008081634,0.0216340501988864,-13.310734811103227,18.48487030194408,44.29606370129346,1.326152787440222,0.2223315724003713,-0.4178386077177428,4503.113606770833,11.94211111111111,0.1355555555555555,178.90311305592786,-10.72107454287474,106.969202998394,1553.0,1435.0,1200.0,1304.0,1471.0,998.74,108.0,293.1,1649412298.992223,1649412300.135992,09db840d-f0d8-4ece-b96d-d02a5b46771e
0.0529284531914055,0.1258152156927188,0.2231914223219299,-0.1985277312026582,0.075205378798198,0.3548933074334678,0.0425485688291852,0.0260747694908122,-13.083786383452049,18.761837227184404,42.82881358334908,1.381051614207963,0.2238070307729072,-0.4102078203358257,4505.351013183594,11.936625,0.13125,178.8825792305531,-10.691226699207553,106.97555488459464,1553.0,1435.0,1200.0,1304.0,1471.0,998.74,108.0,293.1,1649412300.2460432,1649412301.3431942,09db840d-f0d8-4ece-b96d-d02a5b46771e
0.1009338371056823,0.1434900973443807,0.3960335519483132,-0.1802712707017834,0.2327495125545389,0.309694667136064,0.2104093728478696,0.1973618209740734,-11.91745373010652,19.14261621521317,42.55635978035761,1.249976417881133,0.2929742846626328,-1.0968156623147045,4479.580295138889,11.936666666666667,0.13,178.88001942743415,-10.73805866201962,106.91062577825215,1553.0,1435.0,1200.0,1166.0,1471.0,998.74,108.0,293.1,1649412303.482341,1649412304.6214874,9baa4926-8223-4c91-9fd1-136eec3857a2
0.1298872656887133,0.1502020008446329,0.4023413856225452,-0.1793174847039363,0.2365889316993878,0.3062112741512022,0.2117773429020197,0.1905947942443301,-12.09363908990034,19.38173096919908,43.14818250644032,1.2419021225420344,0.3144361971449305,-1.111157189627602,4467.128309461806,11.931666666666665,0.13,178.90217959674132,-10.719442886573011,106.89305473715731,1553.0,1435.0,1200.0,1166.0,1471.0,998.74,108.0,293.1,1649412304.7307231,1649412305.8405836,9baa4926-8223-4c91-9fd1-136eec3857a2
0.135554353638956,0.1489528747518694,0.3960563093501629,-0.1804877189400854,0.2329993378532558,0.3122991201110515,0.2107911908387848,0.1832446733136154,-11.962304270258024,19.03816030435399,43.66156680619312,1.255779507748276,0.3040113609984256,-1.0955011802717056,4461.702582465277,11.928555555555556,0.13,178.90810516530124,-10.73019493241895,106.85955341818834,1553.0,1435.0,1200.0,1166.0,1471.0,998.74,108.0,293.1,1649412305.948293,1649412306.9835925,9baa4926-8223-4c91-9fd1-136eec3857a2
-0.0891568677055914,0.0621188861317741,-0.2969062886362705,-0.1378596421179201,-0.3917741480910218,0.3897712329258449,-0.4995145900143542,-0.5246549035845013,-16.794913767281226,18.7319335796932,42.78723051750073,1.294604280379163,-0.0288994041236833,1.696751071171641,4459.6396484375,11.93222222222222,0.1322222222222222,178.95246952069022,-10.737568880537887,106.90628405466974,1553.0,1435.0,1200.0,1623.0,1471.0,998.74,108.0,293.1,1649412308.9187005,1649412310.1567478,e784e3b6-6462-487d-bb51-bbbe935b8915
-0.098282063356973,0.063118187038287,-0.3010349797067593,-0.1374125861217653,-0.3951665122818015,0.3896397460371828,-0.5036432812254279,-0.5243130374551229,-16.834710453125737,18.67192590386537,42.9353064648865,1.292700555125884,-0.0264999372319516,1.7132083117051642,4464.2841796875,11.945666666666666,0.1388888888888889,178.96262373525627,-10.739855570953766,106.90217303969932,1553.0,1435.0,1200.0,1623.0,1471.0,998.74,108.0,293.1,1649412310.2645447,1649412311.378638,e784e3b6-6462-487d-bb51-bbbe935b8915
-0.1015034941446334,0.0519680926428461,-0.3079511949513973,-0.1336257614382286,-0.4002419100243669,0.3948334806055206,-0.510138738968529,-0.5425371355919537,-16.94093824768063,18.83304591392552,42.563470179784616,1.2964403789190642,-0.0651740984346137,1.736816081496406,4468.163248697917,11.943333333333332,0.1366666666666666,178.93417675627308,-10.771281745643686,106.908133518115,1553.0,1435.0,1200.0,1623.0,1471.0,998.74,108.0,293.1,1649412311.487113,1649412312.609068,e784e3b6-6462-487d-bb51-bbbe935b8915
-0.1640376863536515,0.0289826543496866,-0.4701115690106583,-0.0925542893100862,-0.5489911243011522,0.3884351231239104,-0.6924889641165024,-0.7084949790243061,-18.302708316677464,19.66535061765532,42.49959202682973,1.186162518301794,-0.1565018078078645,2.416283067174064,4467.904513888889,11.930555555555554,0.1244444444444444,178.95698503464146,-10.767284567159416,106.9287364042914,1553.0,1435.0,1200.0,1712.0,1471.0,998.74,108.0,293.1,1649412314.5414684,1649412315.7925656,865a2481-5cc6-4c2e-b4ab-62473b5d10f2
-0.132291168290896,0.0519549439249662,-0.4629429991023368,-0.0979907696139016,-0.5432512108784153,0.3749324246407338,-0.6841825245767363,-0.7190012974849758,-18.001638807585454,19.071986385352684,43.13295660996447,1.1647594959566194,-0.0769724120339635,2.390946307263998,4468.421983506944,11.90688888888889,0.12,178.95759975166675,-10.740335676334174,106.83706008743168,1553.0,1435.0,1200.0,1712.0,1471.0,998.74,108.0,293.1,1649412315.9017498,1649412317.0256205,865a2481-5cc6-4c2e-b4ab-62473b5d10f2
-0.1498775508125479,0.0309676017781877,-0.4755101215858597,-0.0934898692284423,-0.5541873894968837,0.3859823859105052,-0.6981783057232256,-0.7112637920332368,-18.29765178019713,19.59793506171053,42.26316471805377,1.1820104690757671,-0.1472255806194408,2.438749520310292,4468.939453125,11.906666666666666,0.12,178.97520342588757,-10.767936945088886,106.80636597621157,1553.0,1435.0,1200.0,1712.0,1471.0,998.74,108.0,293.1,1649412317.1338952,1649412318.250497,865a2481-5cc6-4c2e-b4ab-62473b5d10f2
-0.2090846181280556,0.0170729697271698,-0.6079453449002868,-0.0473303579718088,-0.6713119685741286,0.3608734349133788,-0.8458862734692438,-0.8668230542713075,-19.16054522537401,19.705328158589104,41.72590233580641,1.0150602858841808,-0.2025468975393863,2.9864240916274194,4468.939453125,11.906,0.12,179.0022813313972,-10.806802239286077,106.73912048710304,1553.0,1435.0,1200.0,1801.0,1471.0,998.74,108.0,293.1,1649412318.910909,1649412319.9556673,4ce3d244-2d67-4620-9cd6-94f16634c1e4
-0.1957462759292212,0.0195130643621686,-0.5986653967506824,-0.0350034546843871,-0.6668869249324065,0.3544002312501408,-0.8465563519020647,-0.866924198458696,-19.312677240344268,20.44047093932735,42.78369202432169,0.9781351274160756,-0.2026104082814686,2.970188628713819,4467.645779079861,11.896888888888888,0.12,179.01201359205456,-10.780180248903612,106.64831008644808,1553.0,1435.0,1200.0,1801.0,1471.0,998.74,108.0,293.1,1649412320.0640042,1649412321.209581,4ce3d244-2d67-4620-9cd6-94f16634c1e4
-0.2023671508521124,0.0224624181002256,-0.6142764440781251,-0.0402568645765822,-0.6782317252537818,0.3507853514954295,-0.8561468130677307,-0.8806428471007863,-19.13319826027945,19.75822833075059,41.90368189900386,0.9765124873950064,-0.1853737594764106,3.020050158049587,4465.061686197917,11.894333333333332,0.1122222222222222,179.02709616756175,-10.803977956064276,106.5728106931826,1553.0,1435.0,1200.0,1801.0,1471.0,998.74,108.0,293.1,1649412321.3178892,1649412322.3543117,4ce3d244-2d67-4620-9cd6-94f16634c1e4
-0.0599667607020544,0.074044753562779,-0.219184335328096,-0.1368603408770288,-0.2864530735694159,0.3880487539826885,-0.3720642485502921,-0.3921817578092625,-15.34155586587286,14.342653110918423,45.16789899957568,1.2643635009523535,-0.0108267823262509,1.27352157886692,7534.953287760417,11.62911111111111,7.558888888888889,-178.81030596330552,-10.785360662797853,93.7278484159398,1553.0,1435.0,1350.0,1528.0,1471.0,998.74,108.0,293.1,1649412327.5084114,1649412328.5898142,a6679acc-5353-42be-9539-107f2b26bc89
-0.0552332298569427,0.0720724491523665,-0.2101774774207303,-0.11989852150557,-0.2746981375226807,0.3782661247277868,-0.36851409990678,-0.3992689071189862,-15.673121341496604,14.48425952850716,45.77093022298817,1.2054353504770794,-0.0227370093062329,1.2406495435576907,7551.91748046875,11.63822222222222,7.543333333333332,-178.25815954208096,-10.681060923123344,88.93464781157735,1553.0,1435.0,1350.0,1528.0,1471.0,998.74,108.0,293.1,1649412328.702645,1649412329.721882,a6679acc-5353-42be-9539-107f2b26bc89
-0.0658705255695517,0.0648406662477896,-0.2057595150751544,-0.1125221024511521,-0.2669667031381792,0.3823027741637476,-0.3622421707627544,-0.3947326053878079,-15.77319379929893,14.420447528812067,46.34517885782167,1.1977049787882104,-0.0548710570176962,1.2151227549868993,7563.765625,11.636777777777777,7.586666666666667,-178.0322047417784,-10.581016106710534,84.71258990234112,1553.0,1435.0,1350.0,1528.0,1471.0,998.74,108.0,293.1,1649412329.83021,1649412330.8395543,a6679acc-5353-42be-9539-107f2b26bc89
0.1154762948911287,0.3773194186879127,-0.1691798386135903,-0.290161006600075,-0.3085428864397322,0.2384428978112363,-0.3836219546494896,-0.409866757592437,-14.898343676615458,13.48137703669334,46.23095090194284,1.271160854718953,1.1361088571981564,1.2894176648790494,7567.475748697917,11.629666666666669,7.569999999999999,-178.17076195928132,-10.438021448113131,77.75650592663679,1658.0,1435.0,1350.0,1528.0,1551.0,998.74,108.0,293.1,1649412331.950845,1649412333.0864055,566156ae-4ed2-4fcd-867a-5701de69fecf
0.1062691733865442,0.376386367045612,-0.1629377474623868,-0.2879894483730441,-0.3060941942927562,0.2427248211282659,-0.3818003542043666,-0.4013843297281243,-14.997946046087693,14.005490394568069,47.01875770846253,1.2797450737214402,1.1264692341003757,1.2757127423446977,7565.248046875,11.622222222222222,7.548888888888888,-178.29109016079934,-10.411531318327144,74.98122475867191,1658.0,1435.0,1350.0,1528.0,1551.0,998.74,108.0,293.1,1649412333.1944149,1649412334.2232969,566156ae-4ed2-4fcd-867a-5701de69fecf
0.1339633614195697,0.3848667697534501,-0.1652878243450871,-0.2981554152130324,-0.307596180342794,0.2391529273919531,-0.3811499993772904,-0.4090383896667968,-14.931493453009988,13.551223876723236,46.36041146868719,1.2914505826589815,1.1647354329962114,1.2802773138577372,7571.93115234375,11.623666666666669,7.532222222222223,-178.45118372366517,-10.374604374898164,72.63801300959305,1658.0,1435.0,1350.0,1528.0,1551.0,998.74,108.0,293.1,1649412334.3326795,1649412335.3370063,566156ae-4ed2-4fcd-867a-5701de69fecf
0.2887831843314931,0.6608912563415962,-0.1052731245688783,-0.4595926096912613,-0.3251598067351632,0.1210740993097629,-0.3823819312342292,-0.4102849877857689,-14.629238382140926,13.821533207485288,47.11011192129251,1.3953263469035024,2.214896786150223,1.2572882900180686,7571.93115234375,11.614444444444445,7.601111111111111,-179.20782904427955,-10.378126001461473,68.01664478654999,1767.0,1435.0,1350.0,1528.0,1630.0,998.74,108.0,293.1,1649412336.9185288,1649412338.1034613,53850a72-40dd-42a9-bff0-f2e21367b2f8
0.2874683147854247,0.6646335772158287,-0.1199136929872375,-0.4893036131729685,-0.343580627441805,0.1294184640459215,-0.3881092009555732,-0.4144065992104951,-14.064587192480264,13.442896899963197,44.85276995576141,1.4777833625135568,2.2476665723852136,1.308048035913802,7571.93115234375,11.583000000000002,7.512222222222222,-179.54514021317036,-10.360887552633748,66.29464101921351,1767.0,1435.0,1350.0,1528.0,1630.0,998.74,108.0,293.1,1649412338.2149055,1649412339.330532,53850a72-40dd-42a9-bff0-f2e21367b2f8
0.2698187197191039,0.6638117837807168,-0.1271834054619011,-0.4770272793379119,-0.3462356532763632,0.1158651928395392,-0.3980718690218828,-0.4128388699365345,-14.26109261346271,13.242419437073302,44.35604354468418,1.4177658816811214,2.248401897639337,1.3350108848133346,7578.6259765625,11.591,7.596666666666666,-179.78391603745493,-10.36131956209875,64.85816040866099,1767.0,1435.0,1350.0,1528.0,1630.0,998.74,108.0,293.1,1649412339.439023,1649412340.5627143,53850a72-40dd-42a9-bff0-f2e21367b2f8
0.4531873898273355,0.9412932470443252,-0.0521301376026065,-0.6257289630884876,-0.3552602118041552,-0.0113428805120933,-0.3941409137143438,-0.422607846948644,-13.92268136924871,14.325250310687448,45.74545103084987,1.4786541177273222,3.297501318253142,1.2734232887074333,7561.5419921875,11.541666666666666,7.57888888888889,179.4111410085736,-10.435194224115438,62.06793326897231,1886.0,1435.0,1350.0,1528.0,1710.0,998.74,108.0,293.1,1649412342.496466,1649412343.7571948,3bbf6047-6389-4a5c-bdbd-55e111b8184c
0.4399335051455247,0.95240389450485,-0.0612290358196113,-0.6435191553939772,-0.363767419850178,-0.0189954219382587,-0.3993872445905275,-0.4237254864662713,-13.791233675109355,13.705999033948052,43.82903850191337,1.4967906748444852,3.3568307926038936,1.3037144200404538,7558.5771484375,11.521444444444445,7.558888888888889,179.24001137782884,-10.438135474326774,61.32453851534776,1886.0,1435.0,1350.0,1528.0,1710.0,998.74,108.0,293.1,1649412343.8705332,1649412344.9795914,3bbf6047-6389-4a5c-bdbd-55e111b8184c
0.430308660309749,0.9360150573192224,-0.0619709256616258,-0.6343818194844763,-0.3598647848653051,-0.0129920305376384,-0.3975155778095207,-0.4135848051754627,-13.912052018437368,13.729454820067788,43.600639005232594,1.4896908307572647,3.2970704746473505,1.2944261237416603,7558.5771484375,11.517444444444443,7.572222222222223,178.97692615137828,-10.474034853740624,60.51468070872962,1886.0,1435.0,1350.0,1528.0,1710.0,998.74,108.0,293.1,1649412345.0881472,1649412346.237257,3bbf6047-6389-4a5c-bdbd-55e111b8184c
-0.2845596608602469,-0.3240714989004679,-0.2796551965873492,0.0506532228585837,-0.2552906592561807,0.5942991849497736,-0.3550103864199546,-0.3851735011602189,-16.376418042296855,15.869515611152393,43.40190978488106,1.3111593782981348,-1.507922932571382,1.238855518427296,7554.137369791667,11.566666666666666,7.610000000000001,179.34646518841282,-10.51420680107153,59.42596980450701,1449.0,1435.0,1350.0,1528.0,1386.0,998.74,108.0,293.1,1649412347.5257418,1649412348.671405,b23b0765-706d-4713-91fc-b3f5e3352cc1
-0.2945789687642791,-0.3251102460517729,-0.2699383088459345,0.0588711579182296,-0.2427993963900834,0.5889871121747585,-0.3451883086812441,-0.3764296169323032,-16.44637813469419,15.708422495364308,43.655223332177805,1.2801058873288982,-1.5139673540516485,1.194933067718651,7551.91748046875,11.633333333333333,7.643333333333334,179.20357307751672,-10.527561243854985,58.93810077574161,1449.0,1435.0,1350.0,1528.0,1386.0,998.74,108.0,293.1,1649412348.779168,1649412349.90121,b23b0765-706d-4713-91fc-b3f5e3352cc1
-0.2692778393721502,-0.3189141748338269,-0.2658263063991424,0.062448614713229,-0.2423609378993413,0.5871068487890837,-0.3459701505263979,-0.3687780853127066,-16.46858056494166,16.051056799786274,44.72745518638968,1.2704466766869242,-1.500248311954305,1.1919811666850162,7552.657443576389,11.633777777777778,7.665555555555555,179.0665215372709,-10.5398111881314,58.480881841421706,1449.0,1435.0,1350.0,1528.0,1386.0,998.74,108.0,293.1,1649412350.0101974,1649412351.1317098,b23b0765-706d-4713-91fc-b3f5e3352cc1
-0.4804661693869682,-0.6715774708912138,-0.3138569834362169,0.2428006788107564,-0.2072513864128967,0.7457888397542001,-0.328636625909105,-0.3558569608441868,-17.239215555861655,17.25621959736197,41.64512957272434,1.2249145320382164,-2.81540679986441,1.1384806976974469,7558.5771484375,11.590666666666667,7.627777777777778,178.88647775074935,-10.566011888651309,57.94000523232765,1342.0,1435.0,1350.0,1528.0,1293.0,998.74,108.0,293.1,1649412352.0333488,1649412353.1751049,3be367b9-be58-4460-9967-a55247466d01
-0.4708109781806465,-0.6651750648783522,-0.3204687558683979,0.2471078880881766,-0.2135172465653841,0.7401708069596502,-0.3372859409295843,-0.3664892005093637,-17.256584718278862,17.177560415030147,42.24402804401549,1.2018101146963558,-2.7975297668426213,1.170019668829898,7558.5771484375,11.548666666666668,7.615555555555556,178.84248981467465,-10.527419991748395,57.628904534921816,1342.0,1435.0,1350.0,1528.0,1293.0,998.74,108.0,293.1,1649412353.284824,1649412354.2444377,3be367b9-be58-4460-9967-a55247466d01
-0.4990412360677033,-0.6712892109034212,-0.3229012649889425,0.2367861619989369,-0.2157788225358346,0.7462849501358164,-0.3369309260097,-0.3519993348785455,-17.29075976409199,17.158280611072406,40.903624116787405,1.238352894158348,-2.807223392717104,1.173173506795442,7558.5771484375,11.563333333333334,7.593333333333334,178.77325446378794,-10.547185800296509,57.36285576528139,1342.0,1435.0,1350.0,1528.0,1293.0,998.74,108.0,293.1,1649412354.3522823,1649412355.3315337,3be367b9-be58-4460-9967-a55247466d01
-0.6547481449652348,-0.9428099169484772,-0.3242292834865199,0.4028278873163027,-0.1623162185709111,0.8426517359981228,-0.3086612245732134,-0.3203767152037471,-18.132789480450214,19.53086347031283,38.59953309788256,1.0952233474582167,-3.819697585864435,1.0257052265473583,7556.357259114583,11.499,7.586666666666667,178.76097681929988,-10.63310189609245,56.81732703845265,1227.0,1435.0,1350.0,1528.0,1189.0,998.74,108.0,293.1,1649412357.567613,1649412358.7017288,9be16189-f454-42ec-a7f4-af2dfc79bb6d
-0.6399295590822285,-0.943454203433392,-0.318746276396572,0.4089683279413207,-0.1518367068958122,0.8315673860672785,-0.3015740763278489,-0.3228486703198827,-18.19944290121738,19.08172593521415,37.79252025616538,1.0535974395376173,-3.814905804260533,0.9928426043692404,7551.91748046875,11.387555555555556,7.542222222222222,178.69038909095755,-10.643345662027654,56.57904905906759,1227.0,1435.0,1350.0,1528.0,1189.0,998.74,108.0,293.1,1649412358.8094475,1649412359.9287367,9be16189-f454-42ec-a7f4-af2dfc79bb6d
-0.6386409864491006,-0.9449663043762552,-0.3365890600301101,0.392821730242219,-0.1681410915112516,0.8307521669629904,-0.3129345515605996,-0.331737190537347,-17.94250798068038,18.59151877182605,35.24597136551,1.0837736076920406,-3.798977084935289,1.0520109888803182,7545.26953125,11.391333333333334,7.54,178.64335337269318,-10.633430219491304,56.40235396251413,1227.0,1435.0,1350.0,1528.0,1189.0,998.74,108.0,293.1,1649412360.0365422,1649412361.0671098,9be16189-f454-42ec-a7f4-af2dfc79bb6d
-0.0454243021053339,0.0756751919038319,-0.2043657530518313,-0.1164141168020675,-0.2690573460377189,0.3745581926726541,-0.3625445907147919,-0.3860018691622888,-15.552217873386214,14.391724916580474,46.247309200040974,1.1890559279716024,-0.0143645352099219,1.2178061554350783,7547.485514322917,11.477666666666668,7.576666666666666,178.29201603088683,-10.605010750992266,56.172294218520406,1553.0,1435.0,1350.0,1528.0,1471.0,998.74,108.0,293.1,1649412362.991862,1649412364.2348778,16374d9a-86c5-4cd8-a241-d984c9975248
-0.0462263726136107,0.0767533849796285,-0.2118605106981563,-0.115480559335148,-0.2765652526353075,0.374111137028436,-0.3722483303400905,-0.3892627465630298,-15.687594818123824,14.486891105864627,46.38942092785568,1.1861576447227902,-0.0112104781826079,1.2522697856646017,7570.446017795139,11.619666666666667,7.626666666666667,178.23827458467736,-10.60696285700255,56.23291176794932,1553.0,1435.0,1350.0,1528.0,1471.0,998.74,108.0,293.1,1649412364.3427155,1649412365.4587708,16374d9a-86c5-4cd8-a241-d984c9975248
-0.0435121781617281,0.0689976771133348,-0.2032688483378699,-0.1083200823413544,-0.264625223494619,0.3801919028695563,-0.3622037360484857,-0.394405405502102,-15.887826177606463,14.476635772312193,47.18336370365899,1.1840552469968388,-0.0462557208877774,1.2101026016894338,7578.6259765625,11.628875,7.60125,178.2298504949735,-10.61468631870792,56.3462918646704,1553.0,1435.0,1350.0,1528.0,1471.0,998.74,108.0,293.1,1649412365.5670536,1649412366.6797764,16374d9a-86c5-4cd8-a241-d984c9975248
-0.0514332565109659,0.0677728254999274,-0.2500574775022219,-0.4798835810895169,-0.3479363866604743,0.7425507207451969,-0.3057685109603865,-0.3268590234723504,-15.653142022236894,13.556605506250913,49.93079244459419,2.8286074502109404,-0.0340954205962,1.308012347025396,7585.3330078125,11.630222222222224,7.587777777777777,178.24936225842998,-10.430169861070986,56.55018999200448,1553.0,1522.0,1350.0,1528.0,1471.0,998.74,108.0,293.1,1649412368.4100971,1649412369.5562096,1010aeef-878f-4ba9-8544-a2def097c81b
-0.0538657653980755,0.0625001983084072,-0.2615888856822858,-0.4883644924950042,-0.3567854609516345,0.7493880421424941,-0.3128819567784011,-0.333617454066281,-15.712754904599862,13.310381595018924,48.99022025392039,2.860716307170556,-0.0448038092389337,1.3439321381024092,7598.7822265625,11.610888888888889,7.641111111111111,178.2460276082952,-10.445771720682588,56.59004262799168,1553.0,1522.0,1350.0,1528.0,1471.0,998.74,108.0,293.1,1649412369.682855,1649412370.7049549,1010aeef-878f-4ba9-8544-a2def097c81b
-0.0547335793706615,0.0676018924426132,-0.2465599238838795,-0.4764123244619319,-0.3416250114237839,0.7397369000180787,-0.301915942399438,-0.3260306552020809,-15.800669702091025,13.369739066030077,49.99267862674563,2.81332511278941,-0.0344496833799682,1.2892338006458854,7598.7822265625,11.610222222222225,7.642222222222222,178.27856662950114,-10.441465001819678,56.61288961076537,1553.0,1522.0,1350.0,1528.0,1471.0,998.74,108.0,293.1,1649412370.8175328,1649412371.8278415,1010aeef-878f-4ba9-8544-a2def097c81b
-0.0405592843292365,0.0714939065180723,-0.296327745853379,-0.8782366344023079,-0.4337710926255569,1.1091363442377713,-0.2486374180833895,-0.2640476925396363,-15.678126375247784,12.63054994428354,50.46860031068821,4.5425914532733245,0.0213679447948582,1.4047298686556318,7598.7822265625,11.613,7.739999999999999,178.3577270041618,-10.291214785048954,56.67402853130093,1553.0,1613.0,1350.0,1528.0,1471.0,998.74,108.0,293.1,1649412373.950215,1649412375.0743272,5ceb558d-e9f5-448c-88c6-5eb3df316a9a
-0.0460534166646219,0.0660012915400631,-0.2948672289023145,-0.8758754309932058,-0.4312091191861701,1.1177199139251106,-0.2456860411319951,-0.2592013859090639,-15.752105902349188,12.705046831061445,51.24886335641457,4.557207295953136,-0.0058214059101954,1.3954216688566066,7598.7822265625,11.59788888888889,7.731111111111113,178.37982342503668,-10.27891114789656,56.64389942850713,1553.0,1613.0,1350.0,1528.0,1471.0,998.74,108.0,293.1,1649412375.1819935,1649412376.2095115,5ceb558d-e9f5-448c-88c6-5eb3df316a9a
-0.0182262231115112,0.0663173659775996,-0.286522862711332,-0.859995843087612,-0.4231808268418712,1.1125615794702362,-0.2423230087785612,-0.2650677274806919,-15.84184977415067,12.996161191933895,52.67949252054349,4.512323571667034,-0.0181015714489445,1.3703373295779682,7598.7822265625,11.59811111111111,7.733333333333334,178.44360524932608,-10.303908501893948,56.63556735662963,1553.0,1613.0,1350.0,1528.0,1471.0,998.74,108.0,293.1,1649412376.3182497,1649412377.394698,5ceb558d-e9f5-448c-88c6-5eb3df316a9a
-0.0246362127144057,0.0626842800761702,-0.3273849710514212,-1.213988819945843,-0.4997249686833787,1.4567221321449102,-0.1899284830208487,-0.2090072431419068,-15.992649415556546,12.474791372036158,54.809409992341664,6.078992442362465,-0.0085531040680388,1.455263264310756,7598.7822265625,11.569333333333333,7.734444444444445,178.48534984771337,-10.129023500334275,56.653370624156224,1553.0,1710.0,1350.0,1528.0,1471.0,998.74,108.0,293.1,1649412378.4383576,1649412379.5922537,100f0312-efea-4c7e-b8b3-ae4c7ac16abc
-0.0307766540179455,0.0644199079693962,-0.3372990896474618,-1.229307063774674,-0.511361567903691,1.4629677632845273,-0.1961609656347386,-0.2122155255037561,-15.82614284039728,12.341609444730036,53.87291258459031,6.126139410613227,0.0063334588296957,1.492426450077179,7598.7822265625,11.557624999999998,7.69875,178.5075728168154,-10.127865225945497,56.63430770847832,1553.0,1710.0,1350.0,1528.0,1471.0,998.74,108.0,293.1,1649412379.700145,1649412380.7167785,100f0312-efea-4c7e-b8b3-ae4c7ac16abc
-0.0404905065570318,0.0610578874908384,-0.3359569110255362,-1.229613529811665,-0.5095323815191822,1.4681453156557036,-0.1939762590230418,-0.2176692005671875,-15.892778617710972,12.392574686176635,54.11370515154653,6.138874901656447,-0.0078149850177269,1.4848575458324809,7598.7822265625,11.555888888888887,7.720000000000001,178.54835910171667,-10.163769905870732,56.63283566041658,1553.0,1710.0,1350.0,1528.0,1471.0,998.74,108.0,293.1,1649412380.825096,1649412381.830815,100f0312-efea-4c7e-b8b3-ae4c7ac16abc
0.0036597822287798,0.080487614680967,-0.3546816690581869,-1.455951360323286,-0.5620366575301301,1.6561747289854842,-0.1660372998412852,-0.1908751892905829,-15.632253091531377,12.57368036678712,53.95323823347517,7.072338558117061,0.0913196368199787,1.542363035313384,7598.7822265625,11.549,7.7155555555555555,178.59253372962868,-10.14422228392111,56.667070086356496,1553.0,1814.0,1350.0,1528.0,1471.0,998.74,108.0,293.1,1649412383.9688342,1649412385.1222763,b84910cc-07e1-46bf-9fec-ba6fb6cbed37
-0.0193767340737689,0.0848140414154008,-0.3536444390587138,-1.44646608292102,-0.561090456868436,1.644224079231967,-0.1707637508299663,-0.196011778538459,-15.78227840451579,12.708292925227337,54.08355323584657,7.024976654617108,0.1063534283472148,1.5470201761710682,7598.7822265625,11.505,7.696666666666668,178.61614948813894,-10.151483818509956,56.659424827945536,1553.0,1814.0,1350.0,1528.0,1471.0,998.74,108.0,293.1,1649412385.2396,1649412386.2473545,b84910cc-07e1-46bf-9fec-ba6fb6cbed37
-0.0066224984360652,0.0815526590657803,-0.3547474125250081,-1.4500344409659234,-0.5652975351514903,1.6465893280569552,-0.1727299867981754,-0.1981201219835528,-15.655325246420611,12.9976027437262,53.4827849751704,7.040172114114556,0.0989216374462611,1.5557501415140984,7598.7822265625,11.515,7.703333333333333,178.65406159149197,-10.164914911194096,56.65497002678686,1553.0,1814.0,1350.0,1528.0,1471.0,998.74,108.0,293.1,1649412386.3545778,1649412387.3605366,b84910cc-07e1-46bf-9fec-ba6fb6cbed37
-0.0613999686330013,0.0740710509617497,-0.1664712070156936,0.2123164394765191,-0.2006709690749092,0.051691969993837,-0.418347668474443,-0.4356250590797074,-15.738003477066764,15.45514890064575,43.07943565299574,-0.2696652153437094,-0.0290427313849361,1.150112552217774,7598.7822265625,11.559,7.71,178.74430053298636,-10.723964566667298,56.740545087443,1553.0,1349.0,1350.0,1528.0,1471.0,998.74,108.0,293.1,1649412389.4977162,1649412390.6398172,8305e4e6-aa8f-4aee-841b-cde49cc944a7
-0.0691839971492717,0.0775686041441381,-0.1591342339227344,0.2222437046873682,-0.1938204976772031,0.0452754061943581,-0.4144819509536441,-0.4392541003995964,-15.760445259495796,15.573469812939006,43.99524575902326,-0.3051931843720258,-0.0246378721155465,1.1270145642131857,7598.7822265625,11.627999999999998,7.77888888888889,178.71196489963572,-10.735885713226171,56.88503811878958,1553.0,1349.0,1350.0,1528.0,1471.0,998.74,108.0,293.1,1649412390.7523878,1649412391.8644953,8305e4e6-aa8f-4aee-841b-cde49cc944a7
-0.0782303005621521,0.0721381926342528,-0.1661161921546932,0.2170368212109695,-0.1981332704003441,0.0518497543417302,-0.4196625383538139,-0.4425807214300372,-16.016314106491315,15.483675796034976,43.44778376148202,-0.2798332695969905,-0.0381451612349438,1.1481649830323952,7598.7822265625,11.624888888888888,7.777777777777778,178.73150834758084,-10.73703641037384,57.04633265658447,1553.0,1349.0,1350.0,1528.0,1471.0,998.74,108.0,293.1,1649412391.9728286,1649412393.2071395,8305e4e6-aa8f-4aee-841b-cde49cc944a7
-0.0847409283873558,0.0881517873552417,-0.1272339773103179,0.5110719912743037,-0.1393080213392807,-0.2561670704239212,-0.4694414907336113,-0.4826786914816,-15.63896653004209,16.546351349538728,40.327021168452426,-1.6265863476586455,0.0131849463137922,1.0858587104287634,7598.7822265625,11.614333333333333,7.776666666666666,178.73682527039475,-10.830007712127456,57.34751136585599,1553.0,1264.0,1350.0,1528.0,1471.0,998.74,108.0,293.1,1649412395.0316284,1649412396.2805383,81acf8f5-9b06-4891-82b3-c34679707e9e
-0.0855500789736979,0.088632220494056,-0.120166552571907,0.5258769161383582,-0.1335175373176367,-0.2553452768674793,-0.468746126752081,-0.4920850682995689,-15.876094520467475,17.02640198539776,42.472882250585386,-1.6543790283686597,-0.0037201410708375,1.0701997741214495,7598.7822265625,11.612222222222222,7.756666666666667,178.81046533438618,-10.858576780742064,57.452104329346135,1553.0,1264.0,1350.0,1528.0,1471.0,998.74,108.0,293.1,1649412396.3892145,1649412397.5038936,81acf8f5-9b06-4891-82b3-c34679707e9e
-0.0643715740998539,0.0790938528963969,-0.1254998664038595,0.5142236323079412,-0.1337703968984581,-0.2496235703941482,-0.4660774464807115,-0.4970294853261104,-15.90928192067803,16.51126697087888,40.42954937061947,-1.6192575171386718,-0.0200619901629143,1.070064390565932,7598.7822265625,11.611,7.7844444444444445,178.83305808234076,-10.862242410460375,57.56415054704056,1553.0,1264.0,1350.0,1528.0,1471.0,998.74,108.0,293.1,1649412397.6131077,1649412398.827564,81acf8f5-9b06-4891-82b3-c34679707e9e
-0.0947794527842554,0.0785810537436768,-0.0895326172177066,0.8298140581854205,-0.0781412942044719,-0.5562987668891447,-0.5278014883088171,-0.5525943737579415,-15.915236113046744,18.49337165433494,37.95261504832934,-3.005759606827763,-0.0365323393528,1.0315440293428677,7598.7822265625,11.607,7.785555555555555,178.8871349667295,-10.94450957255598,57.67152415643279,1553.0,1178.0,1350.0,1528.0,1471.0,998.74,108.0,293.1,1649412399.479891,1649412400.4626696,5b1b56a0-d8df-40c4-9cb0-41feb482ec1d
-0.0731680522669807,0.0801325998924727,-0.0828980881210907,0.8405873909258778,-0.0698151347272009,-0.5606691925135113,-0.5248126876590355,-0.5493481617453486,-16.176834937203722,18.565218123838907,38.99467445220733,-3.039041473643932,-0.0390019276157847,1.008443992648231,7598.7822265625,11.59388888888889,7.772222222222221,178.8860239226245,-10.944786195217366,57.73752579220244,1553.0,1178.0,1350.0,1528.0,1471.0,998.74,108.0,293.1,1649412400.5707138,1649412401.618387,5b1b56a0-d8df-40c4-9cb0-41feb482ec1d
-0.0702095954822703,0.0851948478963539,-0.0760739144516721,0.8443873637825909,-0.0639902620558564,-0.5640089623805702,-0.5199871148424825,-0.5451274291147652,-16.17934230443444,18.612080383368912,39.76629137631992,-3.0543459983106693,-0.0268709416001476,0.9860507801915126,7598.7822265625,11.595222222222224,7.762222222222221,178.88579321401252,-10.917469233086855,57.79751230804303,1553.0,1178.0,1350.0,1528.0,1471.0,998.74,108.0,293.1,1649412401.7268384,1649412402.8400383,5b1b56a0-d8df-40c4-9cb0-41feb482ec1d
-0.0817278539196403,0.0779236189315451,-0.0501578330746511,1.053030860341297,-0.0233213431500474,-0.7594907013372016,-0.5571716384478848,-0.5893333599087068,-16.343400469154563,19.96246772804912,38.218809575744935,-3.954355108742549,-0.063288652745175,0.9463726550684576,7598.7822265625,11.592333333333332,7.77,178.9097110186661,-11.029499039354526,57.89726418523143,1553.0,1088.0,1350.0,1528.0,1471.0,998.74,108.0,293.1,1649412403.948396,1649412405.083844,3b2e6258-9e91-4ffe-b845-cc58cb7fcd66
-0.0996217133080767,0.0721963503157627,-0.057027521511258,1.0374496563137514,-0.0282268185325818,-0.7452481285320118,-0.5560838363357028,-0.575111522585729,-16.292068161650647,19.631510496668174,37.388048249407845,-3.889845375956978,-0.0762924277006202,0.9590398287405028,7598.7822265625,11.554222222222222,7.741111111111111,178.93454710430808,-11.020183609964016,57.91466067704745,1553.0,1088.0,1350.0,1528.0,1471.0,998.74,108.0,293.1,1649412405.19267,1649412406.3097265,3b2e6258-9e91-4ffe-b845-cc58cb7fcd66
-0.1150598007426889,0.0688641672734185,-0.0470678894667226,1.0518080316863865,-0.0215199718446285,-0.7494450928274371,-0.554883764638315,-0.5708068410413607,-16.488494609397222,20.359179367318102,38.24159931696283,-3.926308579187239,-0.0960889785104376,0.9351106849600196,7598.7822265625,11.562666666666663,7.726666666666666,178.9266498878077,-11.008343951356489,57.93170882921581,1553.0,1088.0,1350.0,1528.0,1471.0,998.74,108.0,293.1,1649412406.4174025,1649412407.5396712,3b2e6258-9e91-4ffe-b845-cc58cb7fcd66
-0.0691708484461218,0.0716648395598604,-0.2214196138360777,-0.1528754540008907,-0.2838627799722004,0.3981995466754454,-0.3661341854201199,-0.3870932113796427,-15.516189204245258,13.7318565150076,44.20605079728311,1.3188982824542068,-0.0081723188601849,1.2629408526769197,7598.7822265625,11.590222222222224,7.753333333333334,178.93260125930453,-10.665490558272912,57.9811313191401,1553.0,1435.0,1350.0,1528.0,1471.0,998.74,108.0,293.1,1649412409.5692303,1649412410.670283,04ce4dc3-2ec2-4116-a008-a4b79ef41f3b
