raw_voltage_G-,raw_voltage_G0,raw_voltage_G1,raw_voltage_G2,raw_voltage_G3,raw_voltage_G4,raw_voltage_G5,raw_voltage_G6,load_x,load_y,load_z,load_l,load_m,load_n,rpm,voltage,current,roll,pitch,yaw,aileron1_pwm,elevator_pwm,throttle_pwm,rudder_pwm,aileron2_pwm,pbaro,pdiff,Tt,sample_start_time,sample_end_time,uid
-0.0389156972688702,0.0762405858421165,0.1106770208534959,0.1160285401161185,-0.062925217467501,-0.2866371551372322,-0.2869132777585934,-0.3188120202673914,-13.012085304235256,26.544813057764905,-15.858450939449384,-0.7334420508416362,0.5117788612335789,0.3112262057392825,4454.749674479167,11.955666666666666,0.16,178.51063520802077,12.90194967599158,59.22976806713895,1553.0,1435.0,1200.0,1528.0,1471.0,999.7000000000002,108.0,294.1,1649424976.8706276,1649424977.8144965,00ea8b0c-5e4f-4b8f-a692-660086446d27
-0.0410852322008983,0.0764115188906915,0.1050625276062427,0.114674224446318,-0.0681846962295586,-0.2871105082420186,-0.2916862552376151,-0.3229012655804472,-12.95663608645263,26.46379803576542,-16.118376168427464,-0.7322808786389321,0.5141406612578602,0.3325529147795625,4466.61083984375,11.965222222222222,0.1644444444444444,178.40729292805867,12.856810947905473,58.74865637219242,1553.0,1435.0,1200.0,1528.0,1471.0,999.7000000000002,108.0,294.1,1649424977.9233162,1649424979.083597,00ea8b0c-5e4f-4b8f-a692-660086446d27
-0.0367330136119185,0.0764772623691216,0.1051414198066303,0.1158313096833772,-0.0686580492898176,-0.288556865029215,-0.2916994038952699,-0.3219151125575905,-12.866523687618631,26.48615597114534,-16.163831570554986,-0.7379508800754994,0.5140152345111303,0.3331166521110174,4468.939453125,11.962,0.17,178.3142870010405,12.824480152605478,58.174442368669446,1553.0,1435.0,1200.0,1528.0,1471.0,999.7000000000002,108.0,294.1,1649424979.1913402,1649424980.308288,00ea8b0c-5e4f-4b8f-a692-660086446d27
0.138894122376834,0.396555959803616,0.1148583061757855,-0.0207573472232269,-0.1285503639742835,-0.470232435419682,-0.3585473862658435,-0.3778365275009774,-12.981103160451298,25.66139847625936,-15.496636515047683,-0.8430245015382917,1.7268215871452732,0.5353555682673303,4470.234754774306,11.939555555555554,0.1555555555555555,178.04013838595435,12.792640372015818,57.63636613713509,1658.0,1435.0,1200.0,1528.0,1551.0,999.7000000000002,108.0,294.1,1649424981.424535,1649424982.5736191,c2aa4694-23a6-4983-9b07-e1190145d8ad
0.1360381160574772,0.3974369223835217,0.1301896856868794,-0.0203217966501031,-0.1160196556242152,-0.4722808932338188,-0.3459575074113032,-0.3664886530211688,-13.00053100544694,25.92790359014841,-15.503715463378102,-0.8460909681088227,1.731248800354886,0.4794420939433378,4471.5302734375,11.937222222222225,0.151111111111111,178.07278213672757,12.777135368281195,57.40000744090681,1658.0,1435.0,1200.0,1528.0,1551.0,999.7000000000002,108.0,294.1,1649424982.706054,1649424983.79029,c2aa4694-23a6-4983-9b07-e1190145d8ad
0.1463379278414788,0.3998612130608916,0.1280119328940132,-0.0227049978963792,-0.1183343741971045,-0.4721576241686113,-0.3480941709389474,-0.3807056835288655,-13.020604514130474,25.877847448739946,-15.47640272484634,-0.8408840643797074,1.7403958838481597,0.4889229662765017,4473.6044921875,11.938333333333333,0.1544444444444444,178.13057312620492,12.777772757739992,57.24322538142357,1658.0,1435.0,1200.0,1528.0,1551.0,999.7000000000002,108.0,294.1,1649424983.8981683,1649424984.948927,c2aa4694-23a6-4983-9b07-e1190145d8ad
0.3075524413180257,0.7227487860981516,0.1408006833064808,-0.1648407683464643,-0.1841693534658524,-0.6463198276817613,-0.4191365902870254,-0.432403628346482,-13.171594758618092,25.948406557302345,-14.091354625819411,-0.9103769962361588,2.958525513042935,0.7019514897102346,4472.30810546875,11.90788888888889,0.14,177.88823194317365,12.76678298336544,57.070992295672895,1767.0,1435.0,1200.0,1528.0,1630.0,999.7000000000002,108.0,294.1,1649424985.929725,1649424986.9844563,23a21758-7483-4958-a09b-ecd6c57b4858
0.3299972643271822,0.7255626068235514,0.1470989086113145,-0.1711915891276103,-0.1771479490697023,-0.6452153367947484,-0.4094722965638627,-0.4411738103451402,-13.108626489964406,25.66235136607848,-14.309062946390789,-0.8951548542113542,2.971739265540408,0.6701821808508893,4478.27978515625,11.901777777777776,0.1322222222222222,177.93321708686716,12.7725857982478,57.01963154984412,1767.0,1435.0,1200.0,1528.0,1630.0,999.7000000000002,108.0,294.1,1649424987.093009,1649424988.2924416,23a21758-7483-4958-a09b-ecd6c57b4858
0.3254215183383032,0.7275480597650774,0.1431411511616795,-0.1705341542731304,-0.1835645133916409,-0.6479371178816399,-0.4172300289225761,-0.4491682194640185,-13.138785420870752,25.93316893444584,-14.381531198941572,-0.9011825923043084,2.979714410877559,0.6953735453589798,4475.94091796875,11.89711111111111,0.14,178.00644126822914,12.779261928706532,56.92403508385577,1767.0,1435.0,1200.0,1528.0,1630.0,999.7000000000002,108.0,294.1,1649424988.4004066,1649424989.536105,23a21758-7483-4958-a09b-ecd6c57b4858
0.4756322123645651,1.0053273931385678,0.1371584945317368,-0.3915374713863853,-0.2711479888206842,-0.6897368388213055,-0.4697722309473376,-0.4929007941568615,-13.13880837233878,26.21368730329925,-10.793078968635484,-0.4944491068711811,4.016587327873836,0.9342489247821402,4473.865397135417,11.846666666666668,0.13,177.99936822788862,12.79196636515397,56.95350735012437,1886.0,1435.0,1200.0,1528.0,1710.0,999.7000000000002,108.0,294.1,1649424991.4674065,1649424992.5961752,66484628-dd09-48b3-bcfa-85ab8cdeb081
0.4542918802207579,1.0021717062610316,0.1393148805498213,-0.3817285420537681,-0.2663092681188945,-0.6973104907477762,-0.468365320317456,-0.4923616968150163,-13.166344143544611,26.12134625852127,-11.010144848073464,-0.5341478840512676,4.00579777245448,0.9221325367264412,4471.011935763889,11.848999999999998,0.13,178.07641124390656,12.831468859082475,57.06394278153953,1886.0,1435.0,1200.0,1528.0,1710.0,999.7000000000002,108.0,294.1,1649424992.7044451,1649424993.8275871,66484628-dd09-48b3-bcfa-85ab8cdeb081
0.4702018012904002,1.0057087053102114,0.1418262815667877,-0.3901963041937343,-0.267098189883699,-0.692051010322727,-0.4676421416707041,-0.4894952803765763,-13.271360251568302,26.356337212156333,-10.86816969113952,-0.5015753288504993,4.019754382817458,0.919138197978601,4468.939453125,11.84488888888889,0.1255555555555555,178.1403418145379,12.83745077670307,57.14966962417722,1886.0,1435.0,1200.0,1528.0,1710.0,999.7000000000002,108.0,294.1,1649424993.935754,1649424994.984167,66484628-dd09-48b3-bcfa-85ab8cdeb081
-0.2648497624969801,-0.3419274313042922,0.10101272925656,0.2924314415486693,0.0154804603106948,-0.0419004514841489,-0.1978045527824538,-0.2296112525524489,-12.877401182679924,27.925644949701542,-15.93323771027058,-0.5726793672780305,-1.0792040943673888,0.0411068262749985,4477.240831163194,11.964222222222222,0.1622222222222222,179.1632977287109,12.81407227240272,57.2497057131261,1449.0,1435.0,1200.0,1528.0,1386.0,999.7000000000002,108.0,294.1,1649424996.9902146,1649424998.3310869,e46dd028-a096-4697-b66f-ba37e634c758
-0.264310665898659,-0.3413620372687104,0.1010521753485346,0.2917608581297497,0.0163877203697542,-0.0436229306655635,-0.1963187499673452,-0.2170410974756624,-12.81416247406834,27.76686522137576,-16.179536380196456,-0.5760953706164093,-1.0752658010696836,0.0375264102233236,4480.6201171875,11.963444444444445,0.1588888888888889,179.1909250849937,12.81656614522342,57.20366909975534,1449.0,1435.0,1200.0,1528.0,1386.0,999.7000000000002,108.0,294.1,1649424998.4418786,1649424999.5670216,e46dd028-a096-4697-b66f-ba37e634c758
-0.2536865179961616,-0.3404153309866071,0.1044313902359002,0.2956923180615274,0.0185309578825052,-0.0446353803264759,-0.1936758617602318,-0.2138196666749174,-12.692144225310084,27.86334362982556,-15.655893390219068,-0.5862861686155932,-1.0774879131480506,0.0271714007067503,4483.485134548611,11.962222222222222,0.1622222222222222,179.20121893898278,12.82804579594344,57.15964321818527,1449.0,1435.0,1200.0,1528.0,1386.0,999.7000000000002,108.0,294.1,1649424999.676117,1649425000.7893448,e46dd028-a096-4697-b66f-ba37e634c758
-0.4614491042124473,-0.6944966685447812,0.0898626349911475,0.4441936823730034,0.0763326266927538,0.1745270881291146,-0.1228832755258454,-0.1407918014431723,-12.39190797626724,29.19573642300632,-14.182710622094842,-0.4202884026020455,-2.4398746700629994,-0.1722921899751152,4482.9638671875,11.921333333333331,0.1422222222222222,179.33627151053156,12.821737547062504,57.09114211263434,1342.0,1435.0,1200.0,1528.0,1293.0,999.7000000000002,108.0,294.1,1649425001.9058049,1649425003.0240114,9503e454-de1f-4925-8889-5b3e5ce5ae17
-0.4549136528816302,-0.6947404674114425,0.0910175288090996,0.4457309839770821,0.0756499902289972,0.1717724363683643,-0.1244978259543084,-0.1513841728439883,-12.39671636374736,29.424248550526187,-14.41138104941502,-0.4284127799976548,-2.4388405164348987,-0.1710735742396509,4485.3095703125,11.913,0.14,179.36600408289848,12.849474945281925,57.130101891115046,1342.0,1435.0,1200.0,1528.0,1293.0,999.7000000000002,108.0,294.1,1649425003.1331787,1649425004.2742112,9503e454-de1f-4925-8889-5b3e5ce5ae17
-0.4560641640902766,-0.6997123201140143,0.0848677740293058,0.4480867918545088,0.0732256993509962,0.1756074726115924,-0.1288396353458008,-0.1442345685873091,-12.574847851854791,29.269662460732537,-14.28799944228559,-0.426510052601582,-2.458003277831488,-0.1536750447624523,4482.9638671875,11.918333333333331,0.14,179.39658967000184,12.85320195183903,57.16551414523183,1342.0,1435.0,1200.0,1528.0,1293.0,999.7000000000002,108.0,294.1,1649425004.382943,1649425005.4953785,9503e454-de1f-4925-8889-5b3e5ce5ae17
-0.6408894143599484,-1.0334439365082746,0.0743734709468056,0.5339466748877743,0.1153448079359232,0.4499133647060958,-0.0481329336569382,-0.0799396312287456,-11.960763925030326,31.361242352057825,-10.299772754646948,0.0105007026987756,-3.760594634392199,-0.3460797197998724,4479.579969618056,11.822777777777778,0.12,179.56392626902752,12.863828777550184,57.2664332258584,1227.0,1435.0,1200.0,1528.0,1189.0,999.7000000000002,108.0,294.1,1649425006.408489,1649425007.547548,6af9dbe5-9dd1-4ea6-96bc-f97f712e6126
-0.6239892879524535,-1.0310174947033697,0.0718297039481102,0.5375463829935613,0.1110608616125568,0.4438745736154522,-0.0555988648760903,-0.0826674802006303,-12.060583004809168,31.61896696643685,-10.390089456712438,-0.009672145141324,-3.75058712433822,-0.3261253026474439,4478.27978515625,11.817666666666666,0.1133333333333333,179.61229159745028,12.896503074447184,57.43661573703826,1227.0,1435.0,1200.0,1528.0,1189.0,999.7000000000002,108.0,294.1,1649425007.6560185,1649425008.775005,6af9dbe5-9dd1-4ea6-96bc-f97f712e6126
-0.6400873434921323,-1.0334176390979095,0.0844453721946253,0.5226387971517628,0.1224451037732775,0.4597091425397602,-0.0366804188601429,-0.0672248415355209,-11.974944635283522,31.51741197387321,-10.302748207662267,0.059550093389535,-3.758335869019187,-0.38595980532133,4480.6201171875,11.820625,0.12,179.65896683350843,12.911755989654782,57.65139843486092,1227.0,1435.0,1200.0,1528.0,1189.0,999.7000000000002,108.0,294.1,1649425008.8836915,1649425010.001931,6af9dbe5-9dd1-4ea6-96bc-f97f712e6126
-0.0578235231020829,0.0730323039796805,0.0872723418730159,0.1169358001607292,-0.0789140328010927,-0.288767244194446,-0.3038750983637248,-0.3262673315164724,-12.961064482240554,25.824992184082102,-16.63593260221243,-0.7463106305365507,0.5046678984897237,0.3879110135349569,4478.27978515625,11.961666666666666,0.16,179.20706558091234,12.861088259009453,57.94418075464026,1553.0,1435.0,1200.0,1528.0,1471.0,999.7000000000002,108.0,294.1,1649425011.9401357,1649425013.279621,8d75d70d-60da-4fec-a702-6881ce3facae
-0.0486851788877352,0.0735976979130862,0.0939518794822057,0.1167385697129276,-0.0811493112715258,-0.2883596345607881,-0.3068204067749471,-0.3324340717818876,-13.01966123515562,26.82467678047028,-16.522462106932572,-0.7380015556062741,0.5066622011245558,0.3858195464991702,4485.3095703125,11.95977777777778,0.16,179.14640287634387,12.85003094165311,57.803676174314006,1553.0,1435.0,1200.0,1528.0,1471.0,999.7000000000002,108.0,294.1,1649425013.3924248,1649425014.516884,8d75d70d-60da-4fec-a702-6881ce3facae
-0.0466471308805917,0.0784101207052007,0.1043787954365149,0.1150029418415703,-0.0722739409207139,-0.2923305413809535,-0.297668912862208,-0.322572547429297,-13.012681842235738,26.8366832407747,-16.56861252637934,-0.7424146225061147,0.5259462515328746,0.3469901072173496,4487.6572265625,11.959111111111111,0.1588888888888889,179.10426819826398,12.848878726685625,57.599527132391685,1553.0,1435.0,1200.0,1528.0,1471.0,999.7000000000002,108.0,294.1,1649425014.6369638,1649425015.7468748,8d75d70d-60da-4fec-a702-6881ce3facae
-0.0290804721749927,0.071796326539157,0.0869567731609558,-0.1615404452957416,-0.1146916372295448,-0.0181802026818507,-0.2326748988865577,-0.2533709493520517,-12.70438424893918,25.89754647711121,-14.52647649403228,0.4908394875512069,0.5137870671712698,0.33623131358947,4490.792805989583,11.964,0.16,179.0708807157812,12.910902820764866,57.37702233652991,1553.0,1522.0,1200.0,1528.0,1471.0,999.7000000000002,108.0,294.1,1649425017.878993,1649425019.0171397,939a3bbb-79d3-4443-a618-c35b2dc740fe
-0.0275815207582464,0.077818429377387,0.0953850873432777,-0.1632892221051159,-0.1069865007771429,-0.0223483395615416,-0.2247067880735851,-0.2473488458472163,-12.691250109636874,25.794808646299888,-14.444869689419338,0.485176171744284,0.5363052546289928,0.3037828185524011,4494.71728515625,11.963666666666668,0.1588888888888889,179.05904020339997,12.940439214920678,57.22845661516323,1553.0,1522.0,1200.0,1528.0,1471.0,999.7000000000002,108.0,294.1,1649425019.1261585,1649425020.2417057,939a3bbb-79d3-4443-a618-c35b2dc740fe
-0.0255040267080198,0.0751886901440915,0.0902439471881729,-0.1603176164577379,-0.111904113447953,-0.0218223916578348,-0.2297295905876341,-0.2471253182693217,-12.625464904799498,25.843515853428013,-14.38750537866137,0.4797639829207768,0.5247771406007836,0.3244549040285667,4490.00830078125,11.963333333333331,0.1533333333333333,179.03590559377122,12.930622430672338,57.11341004714839,1553.0,1522.0,1200.0,1528.0,1471.0,999.7000000000002,108.0,294.1,1649425020.349988,1649425021.4745295,939a3bbb-79d3-4443-a618-c35b2dc740fe
-0.0108574744708422,0.0729928578867759,0.0770059494983649,-0.4474627233203034,-0.1580133072439514,0.2588140622788951,-0.1683405132687689,-0.2014314023324226,-12.59410693974413,25.70022284910209,-12.201711175030503,1.7568757187345352,0.5314589118102723,0.3182773736152616,4492.36181640625,11.95011111111111,0.15,179.02890389096208,13.033828011987303,56.89490925996006,1553.0,1613.0,1200.0,1528.0,1471.0,999.7000000000002,108.0,294.1,1649425023.4068377,1649425024.5454457,97044001-9b0b-4ab6-91ff-969eeedc227b
-0.0104328811338028,0.0739242238622532,0.0796219921672343,-0.4446960177970647,-0.1554931402677095,0.2550749020003808,-0.165340966680518,-0.1857625377668139,-12.45168815710844,25.637000666300057,-12.2197255780989,1.7420122888732077,0.5339278868316163,0.3072452365644907,4493.93212890625,11.955,0.15,179.03243130421345,13.032047040161226,56.79294781657515,1553.0,1613.0,1200.0,1528.0,1471.0,999.7000000000002,108.0,294.1,1649425024.6540358,1649425025.779156,97044001-9b0b-4ab6-91ff-969eeedc227b
-0.0185960302413384,0.0687058350747893,0.0770607357326619,-0.4355467146725255,-0.156629954721705,0.2536367634166253,-0.1695047208329569,-0.1930628046005796,-12.522586563426769,25.765634036561465,-11.980555921985507,1.71886964245138,0.5114511394792318,0.3178969417255792,4493.670844184027,11.951444444444444,0.15,179.01476691719998,13.029256338702844,56.69371199812405,1553.0,1613.0,1200.0,1528.0,1471.0,999.7000000000002,108.0,294.1,1649425025.8874972,1649425027.010465,97044001-9b0b-4ab6-91ff-969eeedc227b
-0.0053996696584216,0.0653271680173969,0.0618164660907291,-0.7460921736769213,-0.2094411501192334,0.5567859581466219,-0.104212125695267,-0.1275905094575888,-12.2968791473631,25.74517187370176,-9.817570124307212,3.100164530402635,0.515279134115811,0.3177298039879936,4473.6044921875,11.948249999999998,0.14625,179.060821554681,13.13143973951984,56.5860989526559,1553.0,1710.0,1200.0,1528.0,1471.0,999.7000000000002,108.0,294.1,1649425028.9384334,1649425030.0823238,579a9946-2a9c-423a-a16e-22324e62e53c
-0.0019152651229851,0.0637887705575086,0.0635389452785881,-0.7419634813087451,-0.2064695444897,0.5551686686610884,-0.1026474307849163,-0.1178867712311296,-12.33648422333465,25.713879560418363,-9.708120320232332,3.0870927847208627,0.5084198073405402,0.3090962187694497,4468.421983506944,11.943,0.1422222222222222,179.05868503356317,13.147242354517983,56.50017213725752,1553.0,1710.0,1200.0,1528.0,1471.0,999.7000000000002,108.0,294.1,1649425030.1944094,1649425031.504996,579a9946-2a9c-423a-a16e-22324e62e53c
-0.0087345078272936,0.0646790468623288,0.0619671282301932,-0.7453492720663272,-0.2072524398493613,0.5571387814578723,-0.1025011515106558,-0.1300312363585975,-12.344731302635816,25.56940753387815,-9.750942697410744,3.098110439636271,0.5125115575567678,0.31216800571842,4466.61083984375,11.93911111111111,0.14,179.04509599275443,13.133161634952788,56.398864115303205,1553.0,1710.0,1200.0,1528.0,1471.0,999.7000000000002,108.0,294.1,1649425031.6132348,1649425032.743798,579a9946-2a9c-423a-a16e-22324e62e53c
0.0067234285145839,0.0624607522401641,0.0502061673066008,-0.9418369135031496,-0.2481640649145952,0.7512420081630298,-0.0705777590343249,-0.0867375079256418,-12.368648512594664,26.268635494068608,-8.119434679092262,3.9818119682581528,0.5133589802537332,0.3384766538575608,4468.680718315973,11.907888888888888,0.13,179.04143652917915,13.212992316789464,56.14939335314326,1553.0,1814.0,1200.0,1528.0,1471.0,999.7000000000002,108.0,294.1,1649425034.877781,1649425036.0175178,1e3021c2-0a85-4d1e-bb91-3bde5049b7b1
-0.0088972229070711,0.0596074851677681,0.0568331102025136,-0.9431517838591158,-0.244929485261708,0.7544502897400354,-0.0663964734604402,-0.0817015566900346,-12.372862398249096,26.67301781225898,-8.196091467684262,3.9949837667760857,0.5039555855763345,0.3184507220223459,4467.904947916667,11.903333333333332,0.1222222222222222,179.06431918071848,13.215267908147942,56.16913108202478,1553.0,1814.0,1200.0,1528.0,1471.0,999.7000000000002,108.0,294.1,1649425036.1258135,1649425037.244201,1e3021c2-0a85-4d1e-bb91-3bde5049b7b1
0.0124168140562009,0.0612642208882358,0.0503245055585982,-0.9470306512489316,-0.2463100985425915,0.7559886870382744,-0.065344577765823,-0.0954419449710073,-12.246659734555244,25.954747356039107,-8.267387088220921,4.002157100997532,0.5099607910457731,0.3281543832743777,4465.835286458333,11.9,0.13,179.08102126996891,13.21485449197568,56.16914891640761,1553.0,1814.0,1200.0,1528.0,1471.0,999.7000000000002,108.0,294.1,1649425037.3526497,1649425038.4688272,1e3021c2-0a85-4d1e-bb91-3bde5049b7b1
-0.0669092726089497,0.0713624195665382,0.1177115732166036,0.4651789997668995,-0.0222300012302964,-0.619417585919581,-0.3800981033501502,-0.4032266647656334,-13.38395803749581,27.81005013376948,-18.48318499378757,-2.2607099128670534,0.4768572632076184,0.3768741502538252,4461.96044921875,11.956,0.15,179.11513427032358,12.764020646164864,56.17290438208626,1553.0,1349.0,1200.0,1528.0,1471.0,999.7000000000002,108.0,294.1,1649425039.3816338,1649425040.4215434,1616d802-e1b9-4c69-b1ac-9d3f37de6626
-0.0557328803410065,0.0771346971796088,0.1251405864385125,0.4572634853250838,-0.015800288609253,-0.618497176865497,-0.3703417688996798,-0.3970467763195968,-13.284215597114953,27.609909464016607,-18.51643816779324,-2.2416981039231896,0.4995377181615005,0.3448331802716273,4467.3876953125,11.951666666666666,0.15,179.1525879920923,12.754622969913097,56.30290792601856,1553.0,1349.0,1200.0,1528.0,1471.0,999.7000000000002,108.0,294.1,1649425040.5296648,1649425041.651024,1616d802-e1b9-4c69-b1ac-9d3f37de6626
-0.0579550101173804,0.0780025111213727,0.1230236463912568,0.4563956714490925,-0.0170099686899573,-0.6187601508316297,-0.3722877763078787,-0.3904724269974215,-13.357507706541126,27.526957547159256,-18.560771563185,-2.2410307341902738,0.5036754543094335,0.3521547887205736,4468.939453125,11.951444444444444,0.1422222222222222,179.18622287920508,12.742238508855523,56.42141777939754,1553.0,1349.0,1200.0,1528.0,1471.0,999.7000000000002,108.0,294.1,1649425041.758399,1649425042.8799603,1616d802-e1b9-4c69-b1ac-9d3f37de6626
-0.075916129962391,0.0740064032166143,0.1346136740028525,0.7310713621614781,0.0192475618356644,-0.8785894574181216,-0.440121366188466,-0.465747634195186,-13.593363806370272,28.68099991052901,-20.32592969492389,-3.436675649500025,0.4729373646123647,0.3823494889453389,4477.240288628473,11.929777777777778,0.1355555555555555,179.22949592214664,12.67173056091722,56.65108592587885,1553.0,1264.0,1200.0,1528.0,1471.0,999.7000000000002,108.0,294.1,1649425043.9918537,1649425045.1288378,07cd45a2-f186-4553-80d4-1730855e784a
-0.0718619484210973,0.0725545680182767,0.1364764059367468,0.7355090467186628,0.0226032187340915,-0.8823697095897018,-0.4390530343715741,-0.4720617488969356,-13.672906087890468,28.644724237463496,-20.472399765039142,-3.455391821939352,0.4689243392681683,0.3733346944788788,4476.200792100694,11.920333333333334,0.1388888888888889,179.2607584568877,12.667622391858934,56.871181562238384,1553.0,1264.0,1200.0,1528.0,1471.0,999.7000000000002,108.0,294.1,1649425045.2375653,1649425046.353883,07cd45a2-f186-4553-80d4-1730855e784a
-0.0697389817337773,0.0775127221882688,0.1399279385958121,0.7328793077180751,0.0246577025319206,-0.8853829540789508,-0.4352727833777242,-0.452955044994852,-13.53035027007366,28.56496409678268,-20.526306209084225,-3.4565246481031373,0.4875304616014371,0.3610825992157486,4481.4013671875,11.923666666666668,0.1366666666666666,179.27644664250133,12.670161419819149,57.06570003743099,1553.0,1264.0,1200.0,1528.0,1471.0,999.7000000000002,108.0,294.1,1649425046.4640586,1649425047.5858586,07cd45a2-f186-4553-80d4-1730855e784a
-0.0667383395406451,0.0891789028233318,0.1531078626148153,0.9052132274437302,0.0471030749866933,-1.0625157238860807,-0.4796600529913356,-0.5043007162551472,-13.591668810974658,29.614451385362045,-21.654590180532875,-4.235906004788088,0.5213550232664277,0.3766012107861297,4490.00830078125,11.895125,0.12,179.30696108180075,12.647075380424504,57.47665146004072,1553.0,1178.0,1200.0,1528.0,1471.0,999.7000000000002,108.0,294.1,1649425049.4553823,1649425050.4197187,ae04e92d-c56b-400a-ab9d-c7d59c4e5288
-0.0679217222684997,0.0884820219301648,0.1534365800012977,0.9015052953640306,0.0450913244632464,-1.0580714613180429,-0.4810669638136394,-0.5107698769561405,-13.666567069542047,29.88443390447804,-21.612283657040265,-4.215779810368297,0.519378389488213,0.3806760024580622,4487.91845703125,11.893555555555556,0.1211111111111111,179.34088416495104,12.703939551177015,57.67662175428335,1553.0,1178.0,1200.0,1528.0,1471.0,999.7000000000002,108.0,294.1,1649425050.5293128,1649425051.897617,ae04e92d-c56b-400a-ab9d-c7d59c4e5288
-0.0824904783650632,0.0822243383027563,0.1506249505503443,0.9058257374459504,0.0449012162337656,-1.0549190592382616,-0.4821013281793629,-0.5143430361189522,-13.709702025541512,29.818199145879657,-21.48406813312496,-4.2190221541369946,0.4943658943991829,0.3856987686668378,4485.3095703125,11.903777777777778,0.12,179.35600923941303,12.716519810990794,57.81028476179095,1553.0,1178.0,1200.0,1528.0,1471.0,999.7000000000002,108.0,294.1,1649425052.0061524,1649425053.1164744,ae04e92d-c56b-400a-ab9d-c7d59c4e5288
-0.0625525024703567,0.0941445584749061,0.1537941234055629,0.9742600604103712,0.0492746327589409,-1.1336153269770803,-0.5077370781358992,-0.5401283952845265,-13.89115140150862,30.453327158346934,-22.145393317184865,-4.546062853619369,0.5380054800694215,0.4126440167649715,4484.267469618056,11.882444444444443,0.1122222222222222,179.35778964205673,12.744275138456787,58.02171933882796,1553.0,1088.0,1200.0,1528.0,1471.0,999.7000000000002,108.0,294.1,1649425054.8087816,1649425055.9831972,02093b88-bccf-45ed-a738-457beb2d83c1
-0.0754690742408665,0.0933338907830924,0.1564607800474884,0.959030836927814,0.052257363924082,-1.1175036105407556,-0.4957277638152291,-0.5198161819283132,-13.638255494142708,30.073362253477026,-21.90190155912438,-4.47772421473098,0.53305463820377,0.3882923801806804,4478.27978515625,11.873111111111111,0.12,179.35550835887392,12.771879253123656,58.194781913107846,1553.0,1088.0,1200.0,1528.0,1471.0,999.7000000000002,108.0,294.1,1649425056.0914545,1649425057.2120173,02093b88-bccf-45ed-a738-457beb2d83c1
-0.0695127145776964,0.0990667222711396,0.1612995001481205,0.955217715291512,0.0528885013642483,-1.1198703775730212,-0.4965692805722806,-0.5230902088271072,-13.810098951705916,30.457179440066056,-21.92728286398109,-4.471746429164329,0.5567801966593595,0.3823819219458137,4474.902506510417,11.874666666666664,0.1144444444444444,179.34655018632253,12.79479017405708,58.282766133266215,1553.0,1088.0,1200.0,1528.0,1471.0,999.7000000000002,108.0,294.1,1649425057.3210995,1649425058.4616537,02093b88-bccf-45ed-a738-457beb2d83c1
-0.0278181972997787,0.0819471199660133,0.1180534392932275,0.1005393761967476,-0.0595854485081655,-0.2817326907577879,-0.2763285758538192,-0.3114618982319191,-12.744091371527112,26.4785246030664,-16.325184477819548,-0.6874929420793768,0.5377952351365206,0.2816631040660112,4469.716634114583,11.954,0.14,179.29720131065926,13.064995872717368,58.34662916091574,1553.0,1435.0,1200.0,1528.0,1471.0,999.7000000000002,108.0,294.1,1649425060.3752334,1649425061.5123622,c9f4a573-36e2-4f35-aff0-6a8c932a10a5
-0.0394547938264357,0.0757277866904816,0.1089676903667243,0.1095462329982202,-0.0656601464087722,-0.2837049954491938,-0.2861638019860725,-0.3188251688961133,-12.847913544849456,26.48420116962814,-16.365151020729858,-0.7127156476471194,0.51387317569467,0.315520333120173,4481.922960069444,11.959,0.1477777777777777,179.24731816242092,13.063386319666709,58.15285138179312,1553.0,1435.0,1200.0,1528.0,1471.0,999.7000000000002,108.0,294.1,1649425061.620969,1649425062.748253,c9f4a573-36e2-4f35-aff0-6a8c932a10a5
-0.0306977618518936,0.0803955738197726,0.1057594085455512,0.1105981286848148,-0.0703936772459138,-0.2895956121789288,-0.2911603072515819,-0.3043484520724953,-12.732672275401256,26.510829435970127,-16.447150513677137,-0.7282637596138722,0.530958878246491,0.3339828084445972,4488.96337890625,11.957444444444445,0.1444444444444444,179.19794500164062,13.054189090494331,57.93638143751801,1553.0,1435.0,1200.0,1528.0,1471.0,999.7000000000002,108.0,294.1,1649425062.8845289,1649425064.175415,c9f4a573-36e2-4f35-aff0-6a8c932a10a5
0.0157565829323748,0.1081919173266022,0.2703547818985747,0.0892972410658753,0.0741762405077237,-0.3036778678984529,-0.1229095729209979,-0.1558996550399917,-11.543415859279827,26.684844563932565,-16.092853703752468,-0.701854448417624,0.6367146935478655,-0.3224049006625034,4492.36181640625,11.956666666666669,0.14,179.0967261516005,13.064142099071114,57.61187383768134,1553.0,1435.0,1200.0,1424.0,1471.0,999.7000000000002,108.0,294.1,1649425064.8310568,1649425066.0189238,ddafe809-7d6f-46f3-b9d3-21bb2ff4e02d
0.0174807057400761,0.1027828724981843,0.2654158031645263,0.0926200261252231,0.0738694376028902,-0.3020052439668503,-0.1258126956573174,-0.142152691473222,-11.740246427098825,26.45575792341264,-16.199854441528128,-0.7074719353342042,0.6180428539448046,-0.3119411266729565,4492.36181640625,11.959333333333335,0.14,179.07518980623752,13.062579788162216,57.47038950466416,1553.0,1435.0,1200.0,1424.0,1471.0,999.7000000000002,108.0,294.1,1649425066.1273334,1649425067.2455616,ddafe809-7d6f-46f3-b9d3-21bb2ff4e02d
0.0177025899954884,0.1115842809020721,0.2735762123032306,0.0899678245387142,0.0785416076323402,-0.3083588045169034,-0.1192279377196149,-0.1497855103012288,-11.542769392246392,26.48285430796291,-16.168930082034247,-0.7150762237127664,0.6502260396909972,-0.337591307118412,4494.71728515625,11.955,0.14,179.0743747369966,13.059402801560772,57.335332379655966,1553.0,1435.0,1200.0,1424.0,1471.0,999.7000000000002,108.0,294.1,1649425067.371268,1649425068.4723215,ddafe809-7d6f-46f3-b9d3-21bb2ff4e02d
0.0844705738634985,0.1521178754322536,0.4861769179571123,0.0826763247215281,0.2678948801342333,-0.3509156624655229,0.0915106049081327,0.0616658037074979,-10.081710988158685,26.63375847964814,-15.907164713883397,-0.7818956843951592,0.8039686813388834,-1.1791726028688745,4494.71728515625,11.945666666666666,0.13,179.00920410757595,13.07009603188886,57.01567687031469,1553.0,1435.0,1200.0,1304.0,1471.0,999.7000000000002,108.0,294.1,1649425070.2865822,1649425071.3404,35facb72-7c67-472a-96c5-698535b43bee
0.0749520136130559,0.1442061955551668,0.4862958040808059,0.0837353426194316,0.2678170836904519,-0.346687260187314,0.0917823446358575,0.0676281897842839,-10.091118031603523,26.839088403788267,-16.27014892804334,-0.7734783052459074,0.7774594034486927,-1.1811664311713506,4487.919976128473,11.946666666666664,0.1344444444444444,179.02511389488262,13.066119533699574,56.93485144731638,1553.0,1435.0,1200.0,1304.0,1471.0,999.7000000000002,108.0,294.1,1649425071.44857,1649425072.5733137,35facb72-7c67-472a-96c5-698535b43bee
0.089231497580622,0.1430754076972609,0.4850466780403147,0.0865754609806458,0.2669624184744917,-0.3443862379526918,0.0897574454253047,0.0750309053105693,-10.178454242198825,26.91942297561402,-15.74218712510039,-0.7742036654514602,0.7687295886894391,-1.174877951494998,4485.3095703125,11.943,0.13,179.03544569436713,13.085909911955945,56.83263463074751,1553.0,1435.0,1200.0,1304.0,1471.0,999.7000000000002,108.0,294.1,1649425072.6817195,1649425073.8015249,35facb72-7c67-472a-96c5-698535b43bee
0.1435487607623644,0.1858875612972317,0.6978977526034612,0.1067850068231116,0.4542918802303727,-0.4181372891808022,0.2879608851418933,0.2659894149988158,-8.631826660724279,27.5937389558838,-16.051234027840266,-0.9697219553779134,0.9321104507780488,-1.9966399286718337,4487.6572265625,11.92,0.1266666666666666,178.9987083835514,13.065963198258572,56.72753509489395,1553.0,1435.0,1200.0,1166.0,1471.0,999.7000000000002,108.0,294.1,1649425074.9195988,1649425076.05418,ad6cda84-e767-4c70-954d-831cd1462fd8
0.144640102508316,0.1779457490550719,0.683092322070649,0.1090991773153769,0.4493742682539937,-0.4121283337981578,0.2827145556601015,0.262465564539404,-8.689372305913997,26.76462284924849,-16.06719830559101,-0.9677042662105176,0.9016350406755238,-1.9629540203632905,4480.6201171875,11.916125,0.12125,179.0235645803059,13.063648724625288,56.749577396006046,1553.0,1435.0,1200.0,1166.0,1471.0,999.7000000000002,108.0,294.1,1649425076.1629438,1649425077.3840685,ad6cda84-e767-4c70-954d-831cd1462fd8
0.1485847112679796,0.1835602421445963,0.697529589144965,0.1043393493609886,0.4563825227469864,-0.4169670549886202,0.2914189920355493,0.2769159808854169,-8.581794847132754,27.300353104631377,-16.513756933397506,-0.9635872452729493,0.9273996024711124,-2.004709217366509,4479.319932725694,11.91788888888889,0.13,179.04170062982703,13.065671681990246,56.753010182678274,1553.0,1435.0,1200.0,1166.0,1471.0,999.7000000000002,108.0,294.1,1649425077.4920838,1649425078.6200645,ad6cda84-e767-4c70-954d-831cd1462fd8
-0.1092875227664622,0.0409889312582421,-0.0890385294321698,0.1421418502907202,-0.243759251106671,-0.2684393570289788,-0.4930454290738894,-0.516331776499565,-14.123055688675118,26.78032111939096,-16.32251676969566,-0.7604708972693548,0.3756678884517865,1.1176866392473448,4480.6201171875,11.956333333333331,0.14,179.27946255047482,13.08227331054161,56.940849112317565,1553.0,1435.0,1200.0,1623.0,1471.0,999.7000000000002,108.0,294.1,1649425080.3435853,1649425081.4808795,56660395-ca97-4855-a566-80ac3a2cddf7
-0.0992024721813906,0.0441840644623694,-0.0737465949492968,0.1476511538441512,-0.23234618144382,-0.2764206167680084,-0.4834074322878186,-0.5057865193983445,-14.112307912950005,27.171591834241667,-16.199729238170427,-0.7874532923221632,0.3867849972944979,1.0680296118969594,4482.9638671875,11.958222222222222,0.14,179.29686435466022,13.080729498061707,56.86909455999199,1553.0,1435.0,1200.0,1623.0,1471.0,999.7000000000002,108.0,294.1,1649425081.5892098,1649425082.637415,56660395-ca97-4855-a566-80ac3a2cddf7
-0.1014377506548987,0.0399501842472853,-0.0788745867823752,0.1437985859548632,-0.2347918392693984,-0.2687812232050282,-0.4836178115196864,-0.5065491438262879,-14.091753511410268,26.9114611604546,-16.225302496451267,-0.7635696130699423,0.3711313830355799,1.078189227008627,4484.527669270833,11.959,0.14,179.29007970008465,13.072389267902691,56.82824737257064,1553.0,1435.0,1200.0,1623.0,1471.0,999.7000000000002,108.0,294.1,1649425082.7480686,1649425083.9486072,56660395-ca97-4855-a566-80ac3a2cddf7
-0.161615502493326,0.0082629217238508,-0.2484242995603927,0.1867975605837157,-0.3864034522809889,-0.2693937333979248,-0.6677034505520872,-0.6913026312313072,-15.389434903520751,27.430232751990985,-16.45803240825204,-0.8676349196473728,0.2474983883099367,1.7729975718455526,4479.840006510417,11.954,0.14,179.32955819348732,13.070056758301131,56.74878950522616,1553.0,1435.0,1200.0,1712.0,1471.0,999.7000000000002,108.0,294.1,1649425085.8736043,1649425087.0178194,81d54992-7772-48f3-ad62-e8d60afed488
-0.1529148998918896,0.0171766421713443,-0.2339766200251944,0.1863740629832362,-0.3761534937643884,-0.2775382561133495,-0.6586401605418647,-0.6840040056431905,-15.432006934273511,27.68853752634165,-16.342118260957655,-0.8825526635827942,0.2811766578312764,1.727541336201068,4475.94091796875,11.954888888888888,0.14,179.32952328363157,13.057681119571235,56.71189510005948,1553.0,1435.0,1200.0,1712.0,1471.0,999.7000000000002,108.0,294.1,1649425087.1534605,1649425088.24059,81d54992-7772-48f3-ad62-e8d60afed488
-0.1596075867999629,0.0140998472000202,-0.2375662144941188,0.1832972682148572,-0.3790988022498194,-0.2708718662074488,-0.6604941273210975,-0.6778898594664485,-15.482294434658124,27.681295989602017,-16.24643235251948,-0.860868703596093,0.2692958021178444,1.7387891100971336,4473.6044921875,11.954333333333333,0.1366666666666666,179.3423443076136,13.052833582535296,56.70674058396584,1553.0,1435.0,1200.0,1712.0,1471.0,999.7000000000002,108.0,294.1,1649425088.3486912,1649425089.4643564,81d54992-7772-48f3-ad62-e8d60afed488
-0.2201573386954113,-0.021493674212806,-0.4000183821190349,0.2481203377930754,-0.5221172041862591,-0.2890828129690841,-0.841801577949358,-0.8660477878559552,-16.65340087729818,28.315841498477827,-16.63209788725436,-1.052549632764889,0.1292364565181672,2.4078069040506582,4473.6044921875,11.922666666666666,0.1211111111111111,179.35882024171147,13.044649877544762,56.69125730402733,1553.0,1435.0,1200.0,1801.0,1471.0,999.7000000000002,108.0,294.1,1649425091.4027836,1649425092.5365202,9a8ce924-bdcf-43a7-b3a5-7570808ae792
-0.215018389366185,-0.0129256548268985,-0.3818972836350647,0.2460351738123306,-0.5071660367483101,-0.2955952535893644,-0.825241334602517,-0.845320500006916,-16.525888800626916,28.33269146195929,-16.504845018315407,-1.0613818559793793,0.1607471955251536,2.3404437475605744,4475.648864746094,11.92375,0.12125,179.39029792741138,13.052821914295468,56.74152887184283,1553.0,1435.0,1200.0,1801.0,1471.0,999.7000000000002,108.0,294.1,1649425092.6445644,1649425093.771773,9a8ce924-bdcf-43a7-b3a5-7570808ae792
-0.2030202028295876,-0.004721416053902,-0.3796373510392485,0.2409948404949316,-0.5076454164297222,-0.2993344146968132,-0.8248167411188706,-0.8531549366345711,-16.479463492773018,28.36173358092604,-16.543670264373308,-1.058092259553615,0.1922979324448748,2.338325919418986,4477.500651041667,11.928333333333333,0.1233333333333333,179.40085626150335,13.04723026609495,56.7852012436915,1553.0,1435.0,1200.0,1801.0,1471.0,999.7000000000002,108.0,294.1,1649425093.880046,1649425095.0052032,9a8ce924-bdcf-43a7-b3a5-7570808ae792
-0.0505090127336845,0.0599400376080825,0.0587621335239448,0.0651036401149135,-0.0836683825008608,-0.2371931201474546,-0.2946501909119119,-0.3127159549725591,-13.481802127810688,23.11084369902166,-17.950972667146456,-0.5333798207247296,0.4754329824761927,0.4169712490398809,7466.3994140625,11.654333333333334,7.586666666666667,178.12481755346437,12.888521429219594,50.57592863401654,1553.0,1435.0,1350.0,1528.0,1471.0,999.7000000000002,108.0,294.1,1649425098.9346602,1649425100.118359,a5ad043b-1c6d-4377-a4ca-770b2d809bdf
-0.0551674863873767,0.0575431398572312,0.0494040968374647,0.0599099051219131,-0.0934433429314544,-0.2262846317914171,-0.3005616264542974,-0.3140258941725649,-13.354451739950342,23.096382201638693,-17.473576508749023,-0.4975728273053929,0.4613566188238488,0.451890512888604,7472.90869140625,11.652333333333331,7.593333333333334,177.9038366486974,12.812432742410698,48.50208436760483,1553.0,1435.0,1350.0,1528.0,1471.0,999.7000000000002,108.0,294.1,1649425100.226239,1649425101.3433254,a5ad043b-1c6d-4377-a4ca-770b2d809bdf
-0.0451613281792301,0.0640385957879335,0.0595022955403378,0.0476158741415223,-0.0853042995561393,-0.2196313907678697,-0.2879783223614935,-0.3111726260865018,-13.339943314733976,22.975348367155696,-17.143854597622287,-0.4551294468168801,0.4848453013721825,0.4103269612333786,7449.097330729167,11.649333333333336,7.723333333333333,177.79733730351893,12.747454686379166,46.14975545434887,1553.0,1435.0,1350.0,1528.0,1471.0,999.7000000000002,108.0,294.1,1649425101.451232,1649425102.780584,a5ad043b-1c6d-4377-a4ca-770b2d809bdf
0.1182462868383917,0.3716600011106268,0.0681853657999776,-0.0798059528548809,-0.1456590104958043,-0.3947035683957181,-0.3564901628260009,-0.3856775358431357,-13.489105941672586,22.50475164634803,-16.0878275543415,-0.5637016142249615,1.646539632520316,0.6159257786052291,7434.02099609375,11.631222222222222,7.663333333333333,177.60308672352377,12.704717244105012,43.19325684569008,1658.0,1435.0,1350.0,1528.0,1551.0,999.7000000000002,108.0,294.1,1649425103.8960254,1649425105.0336008,d412e2d3-e9eb-4301-b346-bd33f64c4514
0.1322145848634921,0.3817636776819455,0.0879955200780235,-0.0740753124150125,-0.1273801300292871,-0.4059352965269008,-0.3411516582329703,-0.3665023492113928,-13.572703235729112,22.538495209387737,-15.392050768372323,-0.600588794161891,1.679410457562297,0.5443689132970683,7444.068305121527,11.62188888888889,7.728888888888889,177.70976213580082,12.713506084883264,42.12950800615413,1658.0,1435.0,1350.0,1528.0,1551.0,999.7000000000002,108.0,294.1,1649425105.142445,1649425106.2627227,d412e2d3-e9eb-4301-b346-bd33f64c4514
0.1232044409555941,0.3731803190039115,0.070815105015154,-0.0739164323503702,-0.1434264713195845,-0.4031817398357762,-0.3586953091785574,-0.3748572516990382,-13.654534662197236,22.684177844765543,-16.309842681523794,-0.594836794488156,1.6548249556142969,0.6121731516671214,7448.377875434027,11.625,7.718888888888888,177.85494767243824,12.727394705378051,41.174403570651,1658.0,1435.0,1350.0,1528.0,1551.0,999.7000000000002,108.0,294.1,1649425106.3705685,1649425107.488387,d412e2d3-e9eb-4301-b346-bd33f64c4514
0.3012459982828691,0.704842454993534,0.0785399640159609,-0.2297832811226866,-0.2151142653376533,-0.5745805172776931,-0.4320540914482704,-0.4649669298121753,-13.761754828734816,22.45592876179357,-15.132134201187451,-0.6293899924019412,2.908756881064216,0.8441762083204697,7459.90087890625,11.590333333333332,7.701111111111111,177.92749642398232,12.82246164197826,39.50902624553843,1767.0,1435.0,1350.0,1528.0,1630.0,999.7000000000002,108.0,294.1,1649425109.4275854,1649425110.5636256,b4f959de-aa6b-4f9e-b447-32a8c7448842
0.3059483004742426,0.7054845495981443,0.0871803009755605,-0.2249566133695685,-0.2068245593392274,-0.5729895246167157,-0.4243434751575519,-0.4469855353553694,-13.79863831901234,22.55587382869073,-14.123352282439784,-0.6354675808897032,2.9024405499869887,0.8116053233366886,7466.3994140625,11.584555555555555,7.702222222222223,178.08926414210472,12.842430743517916,39.00067196163234,1767.0,1435.0,1350.0,1528.0,1630.0,999.7000000000002,108.0,294.1,1649425110.6724813,1649425111.804654,b4f959de-aa6b-4f9e-b447-32a8c7448842
0.2964417937069776,0.7092056302753698,0.0921373593808967,-0.2191711864671744,-0.202064730846311,-0.5860461839935956,-0.4216874379647826,-0.4431066691613364,-13.693531310679443,22.49432135536828,-14.673987481984568,-0.67805422012975,2.92013410653705,0.7944067396051291,7466.3994140625,11.582333333333333,7.731111111111111,178.24938047226777,12.887763847404155,38.558099988532575,1767.0,1435.0,1350.0,1528.0,1630.0,999.7000000000002,108.0,294.1,1649425111.9195912,1649425113.0217493,b4f959de-aa6b-4f9e-b447-32a8c7448842
0.4892674091546473,1.05086132542609,0.0902307983834718,-0.4808434364515292,-0.3051899683767823,-0.6686068763854752,-0.491073124310398,-0.5144120664076776,-13.854452611161989,23.11368417446946,-13.3574557386365,-0.2691708776757323,4.223128355037731,1.0767924523095551,7493.238932291667,11.522,7.66,178.37946066610073,12.961002922373078,37.94407660688714,1886.0,1435.0,1350.0,1528.0,1710.0,999.7000000000002,108.0,294.1,1649425114.9551785,1649425116.0035102,f9549672-a236-43f2-8c15-db74a0b92c28
0.4941718724171805,1.0595789105401812,0.1013677439597495,-0.4649203613454453,-0.2974585338287897,-0.6852794292558577,-0.4893769421059752,-0.5070750917187373,-13.880719480024588,23.5214275971262,-12.384857152164257,-0.3391555446799214,4.246142859832606,1.0510465679086192,7510.012858072917,11.523,7.639999999999999,178.47469171696855,13.017709619319724,37.79811318759424,1886.0,1435.0,1350.0,1528.0,1710.0,999.7000000000002,108.0,294.1,1649425116.1339118,1649425117.1170847,f9549672-a236-43f2-8c15-db74a0b92c28
0.5168371883655618,1.0663262142268672,0.1041830821139798,-0.46898634360575,-0.294083364092045,-0.6939176202088434,-0.4845498521456124,-0.503893612086965,-13.704643821776672,23.13796117092724,-13.171695386812058,-0.3518335081216677,4.277849441712935,1.035690624575894,7512.20556640625,11.526444444444444,7.645555555555556,178.5800587685646,13.039019904393903,37.62104432791119,1886.0,1435.0,1350.0,1528.0,1710.0,999.7000000000002,108.0,294.1,1649425117.2261117,1649425118.3450184,f9549672-a236-43f2-8c15-db74a0b92c28
-0.2812856350332763,-0.3784282185815937,0.0659714540736068,0.2446885282345943,0.0139289140948894,0.019017459651024,-0.1803562312494694,-0.2107823173357583,-13.017685429067674,24.452947283479737,-18.630806950473456,-0.3533587493211134,-1.187605003579472,0.0588297700156688,7518.794921875,11.647666666666668,7.687777777777778,179.7694603215315,13.107125238427916,37.42488015658357,1449.0,1435.0,1350.0,1528.0,1386.0,999.7000000000002,108.0,294.1,1649425120.484481,1649425121.6275094,866ebed1-357a-49a8-ad79-fe5937455e06
-0.284060010291342,-0.3766794416611361,0.0717042855950722,0.247239375154306,0.0197932326791909,0.0160458542582126,-0.174597101794264,-0.189718104227167,-12.964528054732408,24.38992696425921,-18.431139542223992,-0.3658641554703086,-1.1831436105983144,0.0354067229227812,7525.396484375,11.648666666666664,7.691111111111111,179.83361097603608,13.138698546776206,37.30234049159427,1449.0,1435.0,1350.0,1528.0,1386.0,999.7000000000002,108.0,294.1,1649425121.7408097,1649425122.8525264,866ebed1-357a-49a8-ad79-fe5937455e06
-0.2858745306429343,-0.373852471437913,0.0576088832628897,0.2431895769294667,0.0049352057197361,0.0197669353013708,-0.1884426802047717,-0.2145033987568686,-12.932557327470333,24.38670428017535,-18.14640752771804,-0.3490287762447185,-1.1756856182443929,0.0953024558969802,7529.070258246527,11.643444444444444,7.699999999999999,179.8762040357003,13.17244470905421,37.19628586762176,1449.0,1435.0,1350.0,1528.0,1386.0,999.7000000000002,108.0,294.1,1649425122.9606278,1649425124.0137885,866ebed1-357a-49a8-ad79-fe5937455e06
-0.4749654193935897,-0.738418810378788,0.064761226153817,0.3940812657682693,0.0844431807074037,0.2465693395565792,-0.0937353535750257,-0.1173345258420702,-12.621076714925412,25.9062003483128,-16.561374046785463,-0.1689096552258273,-2.577382545223736,-0.1985425502839794,7515.134168836806,11.607222222222225,7.694444444444445,-179.95371454022143,13.2019314894748,37.04089716672921,1342.0,1435.0,1350.0,1528.0,1293.0,999.7000000000002,108.0,294.1,1649425124.990775,1649425126.127765,100fdabc-863b-4a98-9a08-e7331aaad374
-0.4727328798091267,-0.7410896404357269,0.0666513512198533,0.4033264420954331,0.0875249063654877,0.2419672961182758,-0.0946393264964765,-0.1235938535642718,-12.749742112961709,26.02818198842836,-16.37446996063637,-0.1992381406723931,-2.589162032440918,-0.2041478944773197,7512.20556640625,11.605777777777778,7.704444444444444,-179.94892430088353,13.201920864736088,36.99736799169376,1342.0,1435.0,1350.0,1528.0,1293.0,999.7000000000002,108.0,294.1,1649425126.2358167,1649425127.3563194,100fdabc-863b-4a98-9a08-e7331aaad374
-0.4798550920145974,-0.7410074610318395,0.0600633065379134,0.4033949248744591,0.0811423101082051,0.2437341520827491,-0.1010082265865755,-0.1205258241091445,-12.74284768858776,26.02269182696428,-16.15287608616417,-0.1957479015395894,-2.591292759379724,-0.1770762233545834,7512.20556640625,11.606444444444444,7.682222222222222,-179.93314808172062,13.194547106344633,37.01055556916124,1342.0,1435.0,1350.0,1528.0,1293.0,999.7000000000002,108.0,294.1,1649425127.464999,1649425128.5859573,100fdabc-863b-4a98-9a08-e7331aaad374
-0.6559841229364656,-1.075519793090495,0.052546635207731,0.5064133074655622,0.1272312290575451,0.507622987428996,-0.024886038021507,-0.0525508960245715,-12.436207123673016,28.43420919233189,-11.516918969944433,0.1813666283630065,-3.902295470912575,-0.3717961571157067,7499.79541015625,11.476555555555557,7.648888888888889,-179.79331285993305,13.209874714888308,37.04893743774718,1227.0,1435.0,1350.0,1528.0,1189.0,999.7000000000002,108.0,294.1,1649425130.3169506,1649425131.6631668,fadf61db-a62f-453f-bd2e-8e80326a7530
-0.6492815726565642,-1.0668213766217085,0.048024031522936,0.5013800965548055,0.1232592271134411,0.4979559572194745,-0.0276494558092201,-0.0536455256962135,-12.245300112933426,28.00953515700425,-12.361883720550978,0.1679182058911579,-3.863207627344028,-0.3561623927865038,7492.50537109375,11.48188888888889,7.642222222222222,-179.73227525387017,13.23409921400836,37.23798644923442,1227.0,1435.0,1350.0,1528.0,1189.0,999.7000000000002,108.0,294.1,1649425131.7718828,1649425132.8930492,fadf61db-a62f-453f-bd2e-8e80326a7530
-0.6371946292851031,-1.0565330626141824,0.0758198274929582,0.517773779999391,0.1478220868619341,0.4882549596181656,-0.0080425576875762,-0.0264901790704106,-12.37633201914327,28.40040601290212,-9.9848197855848,0.1134267704157094,-3.845010319795864,-0.450933457455952,7492.50537109375,11.489666666666668,7.663333333333333,-179.7106098938229,13.221654229885642,37.35727570308869,1227.0,1435.0,1350.0,1528.0,1189.0,999.7000000000002,108.0,294.1,1649425133.006435,1649425134.1156456,fadf61db-a62f-453f-bd2e-8e80326a7530
-0.0599667606955308,0.0520732822201348,0.0580690876270681,0.0672731749890738,-0.0828323445631941,-0.2258112787075745,-0.2927907458949144,-0.3078197082757829,-13.536855016765646,23.180930470455976,-17.141258686751343,-0.5121657769325049,0.4388311800910299,0.4142716894117305,7493.962076822917,11.650444444444444,7.739999999999999,179.83246350425554,13.17226892654682,37.47301098184484,1553.0,1435.0,1350.0,1528.0,1471.0,999.7000000000002,108.0,294.1,1649425134.7934003,1649425135.9594984,ecd056f0-79c6-4c36-854e-deb94a193b90
-0.055206932460882,0.0566621772063508,0.0566753258173629,0.0611195851906894,-0.0845153777769586,-0.2290853044129647,-0.2917914448506092,-0.3096473770027209,-13.347331900607642,22.91650057925644,-17.77200241037664,-0.5074694397178743,0.4609559909881928,0.4168938586094666,7494.6904296875,11.652333333333337,7.743333333333333,179.7541956076465,13.17304747324846,37.4038985743632,1553.0,1435.0,1350.0,1528.0,1471.0,999.7000000000002,108.0,294.1,1649425136.0675545,1649425137.1868165,ecd056f0-79c6-4c36-854e-deb94a193b90
-0.0397177677466669,0.0551106310561486,0.0533618544036266,0.0582794668237327,-0.088867596401507,-0.2280465572736561,-0.2960910690957424,-0.3268458746802361,-13.385765796592263,23.053742341811866,-18.242709945336266,-0.4980782016738022,0.4597225947389691,0.4325003773209457,7492.50537109375,11.645,7.739999999999999,179.7289694423119,13.174519663605814,37.39092121494017,1553.0,1435.0,1350.0,1528.0,1471.0,999.7000000000002,108.0,294.1,1649425137.2950823,1649425138.2360165,ecd056f0-79c6-4c36-854e-deb94a193b90
-0.0364700396966592,0.0561362293621488,0.0468663984552693,-0.2312811369624821,-0.1250659592711183,0.0526912709260246,-0.22148535716506,-0.2454291359656497,-13.16006542565445,22.322427707271068,-15.82724601295916,0.7812822097367351,0.4757904924927632,0.3858852250643951,7492.50537109375,11.654222222222224,7.723333333333334,179.67496844891397,13.245387334840409,37.39168240157768,1553.0,1522.0,1350.0,1528.0,1471.0,999.7000000000002,108.0,294.1,1649425139.3269813,1649425140.4625185,7dad5637-3e43-4f86-8b99-e598e6c18c21
-0.0343662482149422,0.0582926155417581,0.0399370354728655,-0.2445876190828362,-0.1318769844328552,0.051836605679062,-0.225035505602821,-0.2409191326127089,-13.05876627409451,22.02291450142645,-17.426581213094718,0.806843329257584,0.4985300973228974,0.4077445228966974,7499.060546875,11.653,7.727777777777778,179.61948758119584,13.247053047224243,37.36217712272808,1553.0,1522.0,1350.0,1528.0,1471.0,999.7000000000002,108.0,294.1,1649425140.5710604,1649425141.6935928,7dad5637-3e43-4f86-8b99-e598e6c18c21
-0.0365094857795353,0.0551369284478041,0.0444864843891074,-0.2295060627817184,-0.1271434534599075,0.0510213865076639,-0.223247282701047,-0.2428782886069332,-13.058382476613977,22.27923954235098,-15.98733336702266,0.7731464863878383,0.472371513828059,0.3942252326027406,7492.50537109375,11.654111111111112,7.747777777777778,179.56528775340206,13.245579244183336,37.3375360769324,1553.0,1522.0,1350.0,1528.0,1471.0,999.7000000000002,108.0,294.1,1649425141.801552,1649425142.9269764,7dad5637-3e43-4f86-8b99-e598e6c18c21
-0.0239102951030212,0.0465174101852332,0.0297254292302362,-0.5507895879721972,-0.1771610977958681,0.3711943181528019,-0.1516581035828114,-0.1733671517281151,-13.008390715307186,22.07081525699432,-13.510836457693635,2.2156579926430684,0.4563576924615464,0.3802976536799378,7492.50537109375,11.638666666666666,7.723333333333334,179.54662160531035,13.34337436703827,37.36056519808396,1553.0,1613.0,1350.0,1528.0,1471.0,999.7000000000002,108.0,294.1,1649425144.8567803,1649425145.993199,3fba0149-7ac3-493e-8b35-f9d698561220
-0.0169387465977929,0.0516810127822839,0.03751877108437,-0.5564325718438895,-0.1715181152249324,0.372440704885166,-0.1430018779368584,-0.1608211023563155,-12.895407028785533,22.037795323203103,-13.29011464096592,2.231449199834177,0.4741566874102731,0.3506430947941392,7492.50537109375,11.64,7.73,179.52785072765133,13.354382260386869,37.35281938411021,1553.0,1613.0,1350.0,1528.0,1471.0,999.7000000000002,108.0,294.1,1649425146.1012962,1649425147.1465905,3fba0149-7ac3-493e-8b35-f9d698561220
-0.0299230845059653,0.0411072695283933,0.023945481399531,-0.5479133100249357,-0.1818042316487701,0.3761113823035715,-0.1557396783843394,-0.1811467972223845,-12.956456473578305,22.087896015080545,-13.22751845939026,2.220115846467302,0.4324674980212139,0.4001112633734958,7492.50537109375,11.640777777777778,7.75,179.51683894488943,13.354366323278803,37.3433113813306,1553.0,1613.0,1350.0,1528.0,1471.0,999.7000000000002,108.0,294.1,1649425147.2545931,1649425148.1961,3fba0149-7ac3-493e-8b35-f9d698561220
-0.0103961743243706,0.0449072427584116,0.0217392397747733,-0.8951195688923849,-0.2270209589149434,0.7055371443790743,-0.0700255137584626,-0.091628822938737,-12.728704079524803,21.984826232213244,-10.998505297903309,3.7432686176826087,0.4679589552323691,0.3434275849301916,7492.50537109375,11.625,7.739999999999999,179.4639793519928,13.479738050316447,37.33201880190284,1553.0,1710.0,1350.0,1528.0,1471.0,999.7000000000002,108.0,294.1,1649425149.7869594,1649425150.915234,3e291d64-6f62-4652-9fb9-251bedfb837f
-0.0159662909197324,0.0353136252214228,0.0184120717132694,-0.8959840962888249,-0.2295641362197162,0.717785701611423,-0.0725056866982613,-0.1027339934171476,-12.91988821756744,22.214991478905727,-10.7310108175868,3.7740494486473657,0.4308588346633377,0.353938723136344,7492.50537109375,11.61988888888889,7.724444444444444,179.4485264284506,13.482096457718614,37.32740349129868,1553.0,1710.0,1350.0,1528.0,1471.0,999.7000000000002,108.0,294.1,1649425151.0453818,1649425152.1381643,3e291d64-6f62-4652-9fb9-251bedfb837f
-0.0117504900941174,0.0408574442932776,0.0226070537050768,-0.8909777273684287,-0.2257586839792541,0.7089163589868115,-0.0705909077626373,-0.0993076622050124,-12.87770502601732,22.17411541139684,-10.54062699455284,3.742815201731643,0.449314452604075,0.3413405947751392,7492.50537109375,11.629125,7.73,179.4393625913142,13.471983900191685,37.309595433153305,1553.0,1710.0,1350.0,1528.0,1471.0,999.7000000000002,108.0,294.1,1649425152.2468956,1649425153.3626778,3e291d64-6f62-4652-9fb9-251bedfb837f
0.0169338970071377,0.0344317775538496,0.0225600218292826,-1.1812161731257536,-0.2639298594742212,0.9953864737793024,0.0028116912524218,-0.0235994886340356,-12.66623443470158,22.520414418749752,-8.429406995018722,5.043994930264096,0.4407433254668028,0.2885466689163094,7492.50537109375,11.574555555555555,7.713333333333334,179.3901677743622,13.572618282881132,37.30508660709558,1553.0,1814.0,1350.0,1528.0,1471.0,999.7000000000002,108.0,294.1,1649425155.3085153,1649425156.444149,c6290040-df58-42da-b81c-62ba198547ef
0.0077621755157437,0.0365578206092171,0.020910871900235,-1.1885855175073747,-0.2665327959157413,0.995860332505516,0.002436953438161,-0.0115532601213977,-12.594869318355384,22.4368091223694,-9.03739043182309,5.060985850557069,0.4544020754828269,0.2942928319398197,7492.50537109375,11.578555555555557,7.697777777777778,179.39581861753555,13.576409607052918,37.34849132090615,1553.0,1814.0,1350.0,1528.0,1471.0,999.7000000000002,108.0,294.1,1649425156.5529509,1649425157.6752331,c6290040-df58-42da-b81c-62ba198547ef
-0.0137753893368214,0.0240797077753206,0.0204506674835336,-1.1525843587257762,-0.2604449488166151,0.9857358370882912,-0.0039138669940902,-0.030290152504068,-12.914614946315908,22.668473399108,-7.530232944680083,4.958617076818362,0.392048989050218,0.2962833247036421,7492.50537109375,11.575444444444445,7.699999999999999,179.4162439187935,13.578146846695564,37.38232580132467,1553.0,1814.0,1350.0,1528.0,1471.0,999.7000000000002,108.0,294.1,1649425157.7903073,1649425158.903602,c6290040-df58-42da-b81c-62ba198547ef
-0.0742856915204213,0.0557286197750299,0.0732952778556085,0.435094785341811,-0.0314998323787191,-0.5882946117202513,-0.3833063858577301,-0.4080916834519002,-13.8583620794092,24.18490703159325,-20.310701650419887,-2.1496830833880343,0.4386027323063161,0.4510352460082181,7493.233723958333,11.63922222222222,7.731111111111113,179.36470938259583,13.0290641447687,37.408468729827845,1553.0,1349.0,1350.0,1528.0,1471.0,999.7000000000002,108.0,294.1,1649425160.8311424,1649425161.9785554,c8db8428-aed4-45ef-98ff-c2d6c00a930c
-0.0654497672855654,0.0607777191271371,0.0740316048133104,0.4276131778012575,-0.0325254307402335,-0.5874399462009595,-0.3811762967042396,-0.39757272420906,-13.723366875704968,24.08930186651584,-20.45374142528445,-2.1314378244857712,0.4588184235792127,0.4488729009105527,7499.060546875,11.640777777777778,7.737777777777778,179.36308076193373,13.0076260782388,37.446776225242814,1553.0,1349.0,1350.0,1528.0,1471.0,999.7000000000002,108.0,294.1,1649425162.1109493,1649425163.196462,c8db8428-aed4-45ef-98ff-c2d6c00a930c
-0.0641086001890418,0.0597126747366166,0.0804744659277085,0.4212755067242689,-0.0257538519978459,-0.5773811904664545,-0.3719853563032925,-0.3951270663231961,-13.825207427123622,24.03574877666309,-19.94072035975481,-2.0945419079207634,0.452185606974866,0.4182713870082012,7492.50537109375,11.635444444444444,7.727777777777778,179.36392011629175,13.008211766960128,37.46494149279542,1553.0,1349.0,1350.0,1528.0,1471.0,999.7000000000002,108.0,294.1,1649425163.3052895,1649425164.3474731,c8db8428-aed4-45ef-98ff-c2d6c00a930c
-0.0809427671814719,0.0662404545344271,0.0991943741176354,0.7209633029019976,0.0189325409054413,-0.8726451478530635,-0.443422237613522,-0.4728561495383185,-14.156667567743886,25.193596287941688,-21.988905223274585,-3.4259473923192054,0.4614761507157104,0.4334222749481469,7491.7783203125,11.604666666666668,7.702222222222223,179.3455620856226,12.913716574111694,37.50604367394578,1553.0,1264.0,1350.0,1528.0,1471.0,999.7000000000002,108.0,294.1,1649425165.3364413,1649425166.4768932,348fae8d-4f21-4b74-a671-038af3018ce5
-0.0718005878510947,0.0643936105799108,0.102932438855288,0.7232352878176258,0.0215683067118187,-0.8687301214751909,-0.4402139549991083,-0.4642103313720044,-14.140712025554212,25.37444325325128,-21.368078439779435,-3.4207828645920166,0.4488943719356917,0.4207779713288297,7487.416015625,11.612000000000002,7.739999999999999,179.34318669761123,12.894133283396409,37.5549409982139,1553.0,1264.0,1350.0,1528.0,1471.0,999.7000000000002,108.0,294.1,1649425166.5846698,1649425167.703105,348fae8d-4f21-4b74-a671-038af3018ce5
-0.0830427236559965,0.0652745732325519,0.0856156061275502,0.7188699210916076,0.0060265475341177,-0.871346713442133,-0.4571494795942486,-0.4884302359448195,-14.220588592904807,25.18429855436152,-22.317373624447992,-3.4191297841136565,0.4606138939778273,0.4884153396682194,7485.9619140625,11.6105,7.725,179.36736556727303,12.903275776191684,37.59744222977926,1553.0,1264.0,1350.0,1528.0,1471.0,999.7000000000002,108.0,294.1,1649425167.8116484,1649425168.9338214,348fae8d-4f21-4b74-a671-038af3018ce5
-0.0751798028979577,0.0721118952454821,0.1186188331671284,0.8775746702512146,0.0475106845029045,-1.0270799637925336,-0.4741901940780206,-0.4944391920228353,-14.23536445963403,26.1611999303448,-22.67851004457973,-4.119027890124432,0.4721321762017698,0.4124859926702061,7492.50537109375,11.586,7.689999999999999,179.32316968988363,12.836148107846364,37.709315036559765,1553.0,1178.0,1350.0,1528.0,1471.0,999.7000000000002,108.0,294.1,1649425170.8665664,1649425172.0064526,a59c4c73-546e-4316-8cf2-d58db12a84bc
-0.0811230138938737,0.0677991228999223,0.1073898467402376,0.880138665786484,0.0373861883389564,-1.0296439610315091,-0.4862344028697761,-0.5100729955801506,-14.259365026919664,26.20289616479368,-23.397633431421365,-4.13098271289719,0.4614732668599576,0.4571831322703483,7492.50537109375,11.584,7.71,179.3352029653814,12.821203938533596,37.75011251538216,1553.0,1178.0,1350.0,1528.0,1471.0,999.7000000000002,108.0,294.1,1649425172.114341,1649425173.232731,a59c4c73-546e-4316-8cf2-d58db12a84bc
-0.0831616097807159,0.0665417788261926,0.1092613445290184,0.8672151420515757,0.0382035990134054,-1.015938627714217,-0.4804303477285461,-0.4961266084550335,-14.277010172265172,26.17746235652656,-23.28631333860096,-4.071099248445383,0.4576050969775464,0.4451446466355824,7492.50537109375,11.593333333333334,7.713333333333334,179.34512647133553,12.82823078023346,37.81235071691913,1553.0,1178.0,1350.0,1528.0,1471.0,999.7000000000002,108.0,294.1,1649425173.3408463,1649425174.4608438,a59c4c73-546e-4316-8cf2-d58db12a84bc
-0.0995332124393028,0.0799844241951315,0.1081276909130354,0.9275569063271404,0.0331421937680798,-1.0896935922133624,-0.5098990278538784,-0.5328713235217937,-14.129815088934157,27.061501567444022,-24.12845437147266,-4.367208931525677,0.5069590166804164,0.4962488687319334,7492.50537109375,11.5725,7.67625,179.30933798763192,12.772706251479722,37.8506864342963,1553.0,1088.0,1350.0,1528.0,1471.0,999.7000000000002,108.0,294.1,1649425175.372373,1649425176.508106,07d2fa16-d8c4-444e-a9fa-c1477f436ed8
-0.0803603894732897,0.0764115188768791,0.1128728530037256,0.9376642071936138,0.0392401545338492,-1.0909563736381822,-0.5073117683945548,-0.5221172043789767,-14.271379707831889,27.201467632191147,-23.455648429791577,-4.391646045968435,0.4876561135477109,0.4782401303584284,7492.50537109375,11.559,7.699999999999999,179.32604899407377,12.784798555938734,37.89848167908272,1553.0,1088.0,1350.0,1528.0,1471.0,999.7000000000002,108.0,294.1,1649425176.6160915,1649425177.744874,07d2fa16-d8c4-444e-a9fa-c1477f436ed8
