raw_voltage_G-,raw_voltage_G0,raw_voltage_G1,raw_voltage_G2,raw_voltage_G3,raw_voltage_G4,raw_voltage_G5,raw_voltage_G6,load_x,load_y,load_z,load_l,load_m,load_n,rpm,voltage,current,roll,pitch,yaw,aileron1_pwm,elevator_pwm,throttle_pwm,rudder_pwm,aileron2_pwm,pbaro,pdiff,Tt,sample_start_time,sample_end_time,uid
-0.3490540258999084,-0.217001651232679,-0.7227926743936384,-0.0663044325958003,-0.7190189969992289,0.5810321517116376,-0.9285435735792222,-0.9586146594362868,-25.868450684544925,21.140403498097147,37.19603052406825,1.5522831633078875,-0.9977642525383424,3.285480338795509,3833.4583333333335,11.926,0.1655555555555555,-179.86966830357449,-8.983970745103184,107.55573790426978,1553.0,1435.0,1200.0,1528.0,1471.0,997.6,110.0,292.15,1649408972.2239635,1649408973.2943733,0348db44-12af-431a-8353-8548229a12b2
-0.3584684941046545,-0.2209331118382428,-0.7331144051787492,-0.049579290583062,-0.7258168756744219,0.5730377451383069,-0.9435856908653364,-0.9593509871688974,-26.13561600788013,21.250828280292893,37.603548442465474,1.4967393840428644,-1.0169422035916529,3.3302392735395228,3913.116183810764,11.928555555555556,0.1622222222222222,-179.76002707137783,-9.00323671661328,107.3610001041138,1553.0,1435.0,1200.0,1528.0,1471.0,997.6,110.0,292.15,1649408973.403185,1649408974.3512251,0348db44-12af-431a-8353-8548229a12b2
-0.3507765053891969,-0.2205123535105199,-0.7492084160540425,-0.0547730255739926,-0.7393205922696954,0.5802958247938657,-0.9573392349019746,-0.985819328580554,-26.30483684623772,21.032295921265234,37.902501386436725,1.5224774734738704,-1.0172005336416383,3.390550217266457,3935.658365885417,11.93388888888889,0.1688888888888889,-179.6879488439766,-9.026137676854162,107.2139613094816,1553.0,1435.0,1200.0,1528.0,1471.0,997.6,110.0,292.15,1649408974.46392,1649408975.5516808,0348db44-12af-431a-8353-8548229a12b2
-0.1706524925621093,0.1105981286944506,-0.7274867608300721,-0.3513418995568355,-0.8099422714589407,0.5395217215966241,-0.9653599445891752,-0.9806124420305494,-25.35871468183395,19.68590725010319,39.467180833765845,2.0927212322562543,0.2419691329332843,3.5094354020448417,3948.148356119792,11.932666666666668,0.1666666666666666,-179.7491640349579,-8.97094291817129,106.8969729890112,1658.0,1435.0,1200.0,1528.0,1551.0,997.6,110.0,292.15,1649408977.5990064,1649408978.735507,87f9b01f-c4f9-4c35-99b9-219b69c3f77d
-0.1573116219372284,0.113083737950445,-0.7324281441315245,-0.3502940493493166,-0.8145822463447918,0.535675222589412,-0.9732643388135996,-0.9982342339375616,-25.548968485225767,19.739055916534667,39.35474597637327,2.081706531398054,0.2531933870615612,3.5337415430277224,3955.029106987847,11.924111111111111,0.1611111111111111,-179.7587354067148,-8.970955060729814,106.78032777727564,1658.0,1435.0,1200.0,1528.0,1551.0,997.6,110.0,292.15,1649408978.8438632,1649408979.9645245,87f9b01f-c4f9-4c35-99b9-219b69c3f77d
-0.1804229861456782,0.1194178693983785,-0.7309362724031493,-0.3491561813771021,-0.8152523246276734,0.5277733625953616,-0.9730241224651188,-0.9949849869566554,-25.31556681242029,19.71906302093561,39.26838242653361,2.061428717091496,0.2760178511549396,3.533104639765826,3954.218668619792,11.923,0.1633333333333333,-179.77210436365024,-8.967047149023445,106.70433661038987,1658.0,1435.0,1200.0,1528.0,1551.0,997.6,110.0,292.15,1649408980.0739057,1649408981.1904497,87f9b01f-c4f9-4c35-99b9-219b69c3f77d
0.0035449839967392,0.3820124914505506,-0.7001253243816582,-0.6051259599871449,-0.8627267272290057,0.5110846342768691,-0.9691932975202908,-0.9993088881834667,-25.102008498573827,19.204088319724185,40.10300342379757,2.599692917065424,1.2854584766454356,3.5813809705589126,3951.385660807292,11.883111111111113,0.15,-179.9248638211673,-8.926210491477061,106.39581241212096,1767.0,1435.0,1200.0,1528.0,1630.0,997.6,110.0,292.15,1649408983.0203352,1649408984.2717817,672380b4-a952-4cd9-97f7-5ebd78fa2f58
0.0077045235196156,0.3822779939454814,-0.696079570235977,-0.6121554575442711,-0.8595406954848828,0.5142706642389528,-0.9624419438917536,-0.9948712007020816,-24.97794581340944,19.10882207533107,39.71499807447218,2.6222796958494667,1.2901354140547332,3.5614632851209223,3955.029106987847,11.894777777777778,0.1611111111111111,-179.96887604235906,-8.899431881062378,106.27177617679354,1767.0,1435.0,1200.0,1528.0,1630.0,997.6,110.0,292.15,1649408984.380269,1649408985.5885296,672380b4-a952-4cd9-97f7-5ebd78fa2f58
-0.0035588521822806,0.3762017795892771,-0.6885140100701708,-0.5938696608055747,-0.8511240087466416,0.5007856660267526,-0.9593246899070274,-0.9770228454003326,-24.93456932366641,19.34001421490755,39.38365730113625,2.552607158920639,1.2682077367674185,3.534141687482337,3948.146728515625,11.896,0.15,-99.9996582376554,-8.899810197651407,106.1930157476543,1767.0,1435.0,1200.0,1528.0,1630.0,997.6,110.0,292.15,1649408985.697011,1649408986.7292836,672380b4-a952-4cd9-97f7-5ebd78fa2f58
0.1634533576670546,0.6370339607669937,-0.6040639495605814,-0.8052264389005838,-0.8518916904390225,0.4235320250806007,-0.9199488729881324,-0.950898899586016,-24.14073177848982,19.712751095964663,37.53426737968355,2.862557782495992,2.2886420581876106,3.3915110908512327,3910.919759114584,11.841666666666669,0.14,179.7345884112691,-8.827607983343988,105.84954754268168,1886.0,1435.0,1200.0,1528.0,1710.0,997.6,110.0,292.15,1649408988.75026,1649408989.9993198,9dcc95f1-2895-42af-bf15-a0567d19dd17
0.1664623861254394,0.6359340218616829,-0.6056190362405149,-0.7962499212348657,-0.8520054771564245,0.4138222193849674,-0.9238934841297356,-0.9559181639342956,-24.15876486364471,19.70780635993232,37.15501043198572,2.820309982695446,2.2868017275176005,3.3988022367530863,3903.19970703125,11.836444444444446,0.14,179.69011173721378,-8.826032296647961,105.68268678016818,1886.0,1435.0,1200.0,1528.0,1710.0,997.6,110.0,292.15,1649408990.108261,1649408991.2272935,9dcc95f1-2895-42af-bf15-a0567d19dd17
0.1452601140746439,0.6304343273326641,-0.6079453447228818,-0.7982601551601723,-0.8532571324730913,0.4219895820050308,-0.9229199740111784,-0.9461324933838936,-24.11831331297384,19.66158243876201,37.28191950774856,2.842816065983432,2.264862674522095,3.4018351445313844,3896.1025390625,11.84366666666667,0.1433333333333333,179.66127771417757,-8.824040632458733,105.55936923252342,1886.0,1435.0,1200.0,1528.0,1710.0,997.6,110.0,292.15,1649408991.3356953,1649408992.345701,9dcc95f1-2895-42af-bf15-a0567d19dd17
-0.5473890053936391,-0.5365807739914414,-0.7349289260123415,0.2407965143436501,-0.6467931810055902,0.5930763563174082,-0.9163810226242812,-0.9345130861486172,-25.92567515646793,22.714005587489545,34.57807564853704,0.895984774665098,-2.2113257627282965,3.1459776666849435,3890.798746744792,11.932333333333332,0.17,179.94739889196887,-8.917536246094883,105.13913501364922,1449.0,1435.0,1200.0,1528.0,1386.0,997.6,110.0,292.15,1649408994.59739,1649408995.7354517,cbbf511c-93ff-4883-af43-548c5fefe5b8
-0.5432340162187725,-0.5468762060744631,-0.7378216405509599,0.2530642471840603,-0.644807727378272,0.5944306718919458,-0.918327030831231,-0.951658996077418,-26.080981239684967,22.658369580343912,34.925116748032075,0.8708193904622905,-2.2536112375585025,3.149252708377432,3888.836018880209,11.934666666666669,0.1788888888888888,179.88101856015524,-8.926452868328859,105.21852230237226,1449.0,1435.0,1200.0,1528.0,1386.0,997.6,110.0,292.15,1649408995.844014,1649408996.9632149,cbbf511c-93ff-4883-af43-548c5fefe5b8
-0.5655028569344005,-0.5504071377657069,-0.7528971328526638,0.2581998243215238,-0.6590229901711815,0.5953879980334457,-0.934361874999658,-0.9572962489374538,-26.08734957796434,22.75830872762913,35.120591384769334,0.8613258302692899,-2.270128101818856,3.211842182619453,3895.220458984375,11.9335,0.17,179.82383564724148,-8.909595226263292,105.2192315036811,1449.0,1435.0,1200.0,1528.0,1386.0,997.6,110.0,292.15,1649408997.0735383,1649408998.2846725,cbbf511c-93ff-4883-af43-548c5fefe5b8
-0.7728730452302709,-0.8994293092806299,-0.7908513674743353,0.5609738174472069,-0.6046202410178521,0.6467943381834798,-0.9431361064375252,-0.9579283993608028,-27.040698928550707,24.61746291525609,33.25162101328542,0.3035156658011569,-3.595513764280536,3.1583293897066227,3943.908447265625,11.893666666666666,0.1533333333333333,179.7696819232246,-8.901332476062672,105.1020835141316,1342.0,1435.0,1200.0,1528.0,1293.0,997.6,110.0,292.15,1649409000.1301482,1649409001.3569152,790b9dc6-4723-436f-b9af-589d7bedd2f4
-0.7527717141821015,-0.9100696447395938,-0.7839078409756296,0.5652405690008178,-0.5957630737725593,0.6563478765065347,-0.9320542774649992,-0.9552617397801896,-26.95748094857623,24.62402675655205,33.75475112031429,0.315870341297291,-3.640554751939473,3.1205377062200754,3941.0871310763887,11.896555555555556,0.16,179.7926010024395,-8.90220588650279,104.98171129583896,1342.0,1435.0,1200.0,1528.0,1293.0,997.6,110.0,292.15,1649409001.4651325,1649409002.4961472,790b9dc6-4723-436f-b9af-589d7bedd2f4
-0.7688657254912382,-0.9127256828631632,-0.7821853612778845,0.5654115020583079,-0.5922786684918185,0.6572551364636366,-0.9283857895397252,-0.9520140102649448,-26.9692941222188,24.4848849193766,33.558753594306694,0.3166496828110718,-3.648609987137963,3.107673271476003,3944.512451171875,11.895222222222223,0.15,179.7620047905975,-8.887238380710352,104.8169732043375,1342.0,1435.0,1200.0,1528.0,1293.0,997.6,110.0,292.15,1649409002.6043766,1649409003.7213752,790b9dc6-4723-436f-b9af-589d7bedd2f4
-0.947766978396966,-1.2499110878947988,-0.7943347621294901,0.8587588875160884,-0.5241158068845914,0.695031337105863,-0.9184848155514748,-0.9411794779221424,-27.50177969701512,26.97096534437977,30.32918739543608,-0.2450892642125379,-4.917713284157667,2.973121979804997,3946.328857421875,11.802,0.12,179.8052307811248,-8.91995584060836,104.48902850152852,1227.0,1435.0,1200.0,1528.0,1189.0,997.6,110.0,292.15,1649409005.55439,1649409006.601411,a0e46d70-2679-438c-8ee5-cc59ea30d026
-0.9459524572439488,-1.2403388287829118,-0.7857092132047603,0.8523949190942542,-0.5190798546978621,0.6894299930530485,-0.9127782779945238,-0.933224512429846,-27.500356477914263,27.053105359411703,30.08748756686943,-0.2423844797284714,-4.8783476387406,2.9471091963204605,3930.646918402778,11.802666666666664,0.12,179.82615089164264,-8.921898460244797,104.22772671336124,1227.0,1435.0,1200.0,1528.0,1189.0,997.6,110.0,292.15,1649409006.7137563,1649409007.8129838,a0e46d70-2679-438c-8ee5-cc59ea30d026
-0.9564744547735944,-1.256581022697117,-0.7931397472938116,0.8620410041672201,-0.5212018526982036,0.7006534156526777,-0.9155744004264978,-0.9450578405850346,-27.545144788858742,26.99090442840124,30.64460782454451,-0.2396392207723056,-4.945546233886211,2.963008399278527,3911.315375434028,11.81311111111111,0.13,179.82368747008198,-8.884017756789214,103.9778996429996,1227.0,1435.0,1200.0,1528.0,1189.0,997.6,110.0,292.15,1649409007.9219997,1649409008.9474638,a0e46d70-2679-438c-8ee5-cc59ea30d026
-0.3691189399117636,-0.2207490300569378,-0.7402541501307938,-0.0622677828599006,-0.7287095900207895,0.5870937000892504,-0.9420209948776762,-0.9588381880280232,-26.187717858730576,20.65439545986674,37.95215162902571,1.5526671272374266,-1.017873194031243,3.3422947647594445,3913.8949381510415,11.942333333333332,0.1666666666666666,179.43719286788783,-8.78985354352431,103.53377873477804,1553.0,1435.0,1200.0,1528.0,1471.0,997.6,110.0,292.15,1649409011.0840204,1649409012.217378,1b42dbb4-cea2-4982-bcc1-e6b5559b77a0
-0.3661604827489887,-0.2260085091430643,-0.7521668739199592,-0.0565743970154755,-0.7388077928441809,0.5901047512502214,-0.9568001380237516,-0.9842414837868348,-26.498674273877004,20.863571237935133,38.28906814160317,1.5472811339546313,-1.039837281166884,3.3929149914524266,3941.51220703125,11.942666666666668,0.1666666666666666,179.35671957908676,-8.770087260657508,103.68820020499314,1553.0,1435.0,1200.0,1528.0,1471.0,997.6,110.0,292.15,1649409012.326053,1649409013.450678,1b42dbb4-cea2-4982-bcc1-e6b5559b77a0
-0.3823313592209784,-0.232385627537105,-0.7542878608632316,-0.0529438395488128,-0.7380036993112485,0.5939972706847133,-0.9562468812786022,-0.9790295396917416,-26.51848924556808,20.74075777149589,38.424875352631744,1.5469304145142262,-1.0654023042172491,3.3934114989657265,3971.31795247396,11.942333333333332,0.17,179.28666460549962,-8.75662154270883,103.8281211836003,1553.0,1435.0,1200.0,1528.0,1471.0,997.6,110.0,292.15,1649409013.558811,1649409014.64561,1b42dbb4-cea2-4982-bcc1-e6b5559b77a0
-0.3609273006915861,-0.2470727229487685,-0.7943610593617815,-0.3354451231841362,-0.8016848865852287,0.8843462481952337,-0.9136592413823282,-0.9403511105601274,-26.57163914789702,20.01974785592476,40.69102214023742,2.830196460690557,-1.1079671618470994,3.4733368432994727,3983.0048828125,11.929555555555556,0.16,179.2029280040951,-8.704017892178591,104.02039252655598,1553.0,1522.0,1200.0,1528.0,1471.0,997.6,110.0,292.15,1649409016.6130073,1649409017.7614412,64fb4219-14d0-4184-9db5-c9ef60077b46
-0.3563121075139828,-0.2461391654030067,-0.7962018777127381,-0.3333939261699327,-0.8040910990060237,0.8811511152630105,-0.9168149300449177,-0.9422839700605238,-26.536029463190022,20.074798349588324,40.61531124746577,2.8186687046166043,-1.104415077017652,3.4836429289829924,3991.86767578125,11.922333333333334,0.16,179.1926553995834,-8.657468730028878,104.0496735475278,1553.0,1522.0,1200.0,1528.0,1471.0,997.6,110.0,292.15,1649409017.8745632,1649409018.9796526,64fb4219-14d0-4184-9db5-c9ef60077b46
-0.3614532486621505,-0.2474145891012252,-0.7986869823814783,-0.3443599407274745,-0.8066550959368609,0.8925378852723576,-0.9158156284457052,-0.9399566488562916,-26.590035951366428,20.00030367017488,40.61633710490453,2.86834834155242,-1.1076341934961529,3.488843639562276,3993.107340494792,11.929222222222222,0.16,179.1711994986707,-8.6461117381227,104.0540425918669,1553.0,1522.0,1200.0,1528.0,1471.0,997.6,110.0,292.15,1649409019.087899,1649409020.2054558,64fb4219-14d0-4184-9db5-c9ef60077b46
-0.3627979559027253,-0.2553326337928358,-0.8093101223311947,-0.6488959616687884,-0.8481367241535623,1.1933628437860568,-0.8389958470894364,-0.8641933136932914,-26.25635758086778,19.328342107377,42.6727902742768,4.226813141520905,-1.1211096052560032,3.450229921656089,4002.014946831597,11.908888888888889,0.15,179.14972690173994,-8.544685705677734,104.04116085509224,1553.0,1613.0,1200.0,1528.0,1471.0,997.6,110.0,292.15,1649409022.0335877,1649409023.0725143,83c73b6f-3b94-419f-966b-17a818980501
-0.3715089687789751,-0.2579118014778673,-0.8166683385004465,-0.6437881973382477,-0.8540789263967282,1.1933754868088735,-0.8475045749499397,-0.8762420768274919,-26.361332973345217,19.381176949370232,42.92265054503768,4.21529053290522,-1.133349018189297,3.480458105494176,4004.300238715278,11.921555555555557,0.15,179.16874063056946,-8.55394649355489,103.95435598093056,1553.0,1613.0,1200.0,1528.0,1471.0,997.6,110.0,292.15,1649409023.181502,1649409024.3126633,83c73b6f-3b94-419f-966b-17a818980501
-0.3462270557036352,-0.2566186775983845,-0.8183574412487803,-0.6454520140748017,-0.8542796971543551,1.1925253731379382,-0.8476921974363317,-0.8703474122407523,-26.377588737547963,19.17689734646285,42.75953592318185,4.215660892537539,-1.12684397545056,3.483285422867357,3997.45271809896,11.918333333333337,0.1488888888888888,179.1556691663179,-8.536889519058857,103.8917497080883,1553.0,1613.0,1200.0,1528.0,1471.0,997.6,110.0,292.15,1649409024.425124,1649409025.7390566,83c73b6f-3b94-419f-966b-17a818980501
-0.3570327572963842,-0.2625770606223311,-0.8156189711238235,-0.8877471923907433,-0.8815394872673287,1.4292175864523315,-0.7799531158710781,-0.8047333623709237,-26.01631576686775,19.15187700776981,44.12856012379253,5.29446903980931,-1.1338772600805327,3.4195837593652567,3981.9790310329854,11.903,0.15,179.16402931786195,-8.45560305829158,103.7879293148843,1553.0,1710.0,1200.0,1528.0,1471.0,997.6,110.0,292.15,1649409027.510459,1649409028.4998162,d75d3b87-11ce-4793-8867-36b247c100a2
-0.3597889268054139,-0.2616794091407756,-0.813545521748072,-0.8865081801081225,-0.8799338281590173,1.424425897932173,-0.7793841817051012,-0.8039242114843437,-26.016269713404256,19.19113505476613,43.74454260179588,5.281208866599174,-1.1271277471104215,3.413322189664351,3973.772216796875,11.899666666666668,0.1433333333333333,179.17897984304523,-8.442626932097157,103.66449261838402,1553.0,1710.0,1200.0,1528.0,1471.0,997.6,110.0,292.15,1649409028.6140282,1649409029.7554576,d75d3b87-11ce-4793-8867-36b247c100a2
-0.3372085657379947,-0.257760085714638,-0.8165798377170002,-0.8935376790086552,-0.8843588725421215,1.4322392581587984,-0.7797508280743242,-0.8073378171898435,-25.8892216184482,19.11079083423952,44.46775907345717,5.314118895008355,-1.119065206123349,3.425561851914764,3971.522026909722,11.902,0.1411111111111111,179.1699837249984,-8.453306502046903,103.53952064714028,1553.0,1710.0,1200.0,1528.0,1471.0,997.6,110.0,292.15,1649409029.8650815,1649409031.0620222,d75d3b87-11ce-4793-8867-36b247c100a2
-0.3071754216062778,-0.2438775893891138,-0.7688394284253255,-1.0170606508080873,-0.8632865587122258,1.5303679863614794,-0.7075270320889585,-0.7357309974905967,-25.28236015333029,19.61849502918892,44.63390426290896,5.819339559935534,-1.0545217418835342,3.230000946436773,3972.954128689236,11.873111111111111,0.14,179.17822852223654,-8.380594205417715,103.29392753515413,1553.0,1814.0,1200.0,1528.0,1471.0,997.6,110.0,292.15,1649409033.0987277,1649409034.1350734,d5b2bf14-3c18-4ce8-965a-69781b1497de
-0.3216450583529958,-0.2459894725448698,-0.7794853254559284,-1.0238615661038095,-0.8713998141102981,1.5371759776152245,-0.7179392863220418,-0.7464997840833774,-25.68488538183618,19.55216105627577,44.33932688758635,5.848759815170757,-1.0568214611171376,3.269402939136453,3951.180908203125,11.861333333333333,0.1333333333333333,179.17727229575272,-8.398007298387974,103.13074520896365,1553.0,1814.0,1200.0,1528.0,1471.0,997.6,110.0,292.15,1649409034.2432487,1649409035.3635576,d5b2bf14-3c18-4ce8-965a-69781b1497de
-0.3234535100969701,-0.2435751693433064,-0.7804628809828843,-1.022122902605492,-0.8736740341324011,1.5327347520695542,-0.7181774801672286,-0.7460001328936475,-25.383539514315245,19.494277296568896,44.26630983417967,5.834565445808888,-1.0495290800649608,3.2746110486580218,3924.2465549045137,11.858555555555556,0.1311111111111111,179.17802817002087,-8.386818405026368,102.9790892064525,1553.0,1814.0,1200.0,1528.0,1471.0,997.6,110.0,292.15,1649409035.4715374,1649409036.593972,d5b2bf14-3c18-4ce8-965a-69781b1497de
-0.3500285467753534,-0.1962267090716573,-0.6923372474159254,0.2185893788809076,-0.6641433976568304,0.2880498916775669,-0.9835177993286136,-1.0061866717541783,-26.01283636477321,21.827483522265545,35.63303067147244,0.2570116482078547,-0.9381049957146966,3.249919582663291,3919.4620496961807,11.944111111111113,0.1644444444444444,179.15096696052927,-8.803290043441542,102.8411148317588,1553.0,1349.0,1200.0,1528.0,1471.0,997.6,110.0,292.15,1649409037.596336,1649409038.7340438,9aeb20fc-3c39-4484-9ac8-c4ed452f0682
-0.3564698919318352,-0.1967526569542232,-0.6974814239653309,0.2172997952650689,-0.6695404337994649,0.291261207694986,-0.9896981962361882,-1.015811523826008,-26.13172353381228,21.936865508047905,35.803087640357724,0.2675731128107531,-0.9409088594867367,3.273119058580934,3920.855740017361,11.942777777777778,0.1688888888888889,179.10222824843189,-8.807156215102983,102.96313236673151,1553.0,1349.0,1200.0,1528.0,1471.0,997.6,110.0,292.15,1649409038.8427217,1649409039.892881,9aeb20fc-3c39-4484-9ac8-c4ed452f0682
-0.3662242033418104,-0.1910683738778318,-0.7006816158735358,0.2171607223513733,-0.6730314141615177,0.2869752385883161,-0.9930632538138568,-1.0182860089160384,-26.038870394265,21.803296486498315,35.943111711615224,0.2572799495552202,-0.9216755809346951,3.2880310635411147,3925.444986979168,11.939222222222222,0.16,179.05833745282538,-8.787397900790214,103.07430204348248,1553.0,1349.0,1200.0,1528.0,1471.0,997.6,110.0,292.15,1649409040.0014884,1649409041.096227,9aeb20fc-3c39-4484-9ac8-c4ed452f0682
-0.3541880869404968,-0.187768556548582,-0.6712740393549169,0.4837125911768465,-0.6233065669784139,0.0264793447639544,-1.0450638518006643,-1.082600877663065,-26.27733090255965,23.126793548786523,34.16353661064937,-0.919530602940396,-0.9227706767332536,3.253772579022687,3932.248318142361,11.933555555555555,0.16,179.0224470854667,-8.840990600657765,103.26560957085526,1553.0,1264.0,1200.0,1528.0,1471.0,997.6,110.0,292.15,1649409043.0363705,1649409044.068905,4d9ec2e5-eb44-4a72-8e81-c906edb282e5
-0.3617293712864369,-0.1669051137863978,-0.6707369655222684,0.4623651789979817,-0.6291081783546221,0.0218444293160686,-1.0460272472754677,-1.0636202149468446,-26.14264361836366,23.01414053606288,33.61556234089089,-0.8825309449454559,-0.8379562224137652,3.264019020753699,3935.45751953125,11.932666666666668,0.16,179.01036068627542,-8.847808552405517,103.36639356551828,1553.0,1264.0,1200.0,1528.0,1471.0,997.6,110.0,292.15,1649409044.1765149,1649409045.197133,4d9ec2e5-eb44-4a72-8e81-c906edb282e5
-0.3465952192992453,-0.1633944116021567,-0.673379854539091,0.458907072163446,-0.631987743847647,0.0204901135537673,-1.0507081864623986,-1.0746256813242947,-26.33520005656024,23.037880987676,33.43201417417142,-0.8778740380689731,-0.8215406803094127,3.2781994946741366,3933.651611328125,11.932,0.16,178.99350833286326,-8.84399531471014,103.4485015462607,1553.0,1264.0,1200.0,1528.0,1471.0,997.6,110.0,292.15,1649409045.3064067,1649409046.523177,4d9ec2e5-eb44-4a72-8e81-c906edb282e5
-0.3543398026923781,-0.1749389678757546,-0.63106733477965,0.7626813727835193,-0.5666912972050228,-0.2579992909222238,-1.0937307504591445,-1.1171222980448676,-26.2537800070655,24.66338495890541,31.978153755567725,-2.176225537279009,-0.8872216910203121,3.19144760495255,3935.4593098958335,11.928666666666668,0.1666666666666666,178.9820700427332,-8.967741266997844,103.59917779608092,1553.0,1178.0,1200.0,1528.0,1471.0,997.6,110.0,292.15,1649409048.5629008,1649409049.7013085,cfca69c8-1681-4523-85c0-fcb8e871f043
-0.3364120580352707,-0.1469064509515909,-0.6335726680267033,0.7514781789325452,-0.5747828050651539,-0.2760671191218406,-1.1040180954735264,-1.12930406837374,-26.34225507099777,24.597669272679887,31.799883163120413,-2.1921880387196824,-0.778657082719043,3.2235379335498258,3939.07470703125,11.928,0.1575,178.9630695948271,-8.975056826485753,103.65938875952672,1553.0,1178.0,1200.0,1528.0,1471.0,997.6,110.0,292.15,1649409049.8088312,1649409050.930884,cfca69c8-1681-4523-85c0-fcb8e871f043
-0.3501170476164537,-0.155971466252669,-0.6348496091857375,0.7577490949997456,-0.5733288622754998,-0.2731213050031991,-1.1035250190604975,-1.1244744479295024,-26.36207316544004,24.585256405115924,31.77413399999597,-2.19987400136093,-0.8131411655623135,3.221509220987236,3932.4486490885415,11.917666666666666,0.15,178.96541348807725,-8.989537823595434,103.7110358041182,1553.0,1178.0,1200.0,1528.0,1471.0,997.6,110.0,292.15,1649409051.03936,1649409052.1579106,cfca69c8-1681-4523-85c0-fcb8e871f043
-0.3438208438811438,-0.1534807995715333,-0.5854029092024544,0.9633491720124842,-0.5142355701047866,-0.4761422706127823,-1.1184184571915408,-1.1422757728167032,-26.21327465617062,26.00477659792129,30.290105260401656,-3.108161995303023,-0.8138549400785673,3.0943582691258555,3940.8857421875,11.901555555555554,0.14,178.99329735590888,-9.031093263688222,103.79459861515386,1553.0,1088.0,1200.0,1528.0,1471.0,997.6,110.0,292.15,1649409054.0386064,1649409054.9902012,2280ad41-0ca7-4199-aef3-88ab421ce6f2
-0.3514733864396447,-0.1582795683899563,-0.5973672151960951,0.970167781911458,-0.5234583716001004,-0.4778981276507839,-1.1303104502899322,-1.16355038101191,-26.246429905137887,25.946588408388056,30.173762632973936,-3.1285054681723814,-0.8321864111609087,3.139476127466044,3937.26513671875,11.879444444444443,0.1344444444444444,178.99753814447357,-9.050709282393283,103.78399740265212,1553.0,1088.0,1200.0,1528.0,1471.0,997.6,110.0,292.15,1649409055.0994384,1649409056.1399698,2280ad41-0ca7-4199-aef3-88ab421ce6f2
-0.3761403450082439,-0.1556761262937057,-0.5843631505333122,0.9621733751411288,-0.5133075754401295,-0.4737299896118257,-1.1167935805367477,-1.1386335811628714,-26.21436740879515,26.04412269792512,30.183181657194886,-3.0997939593447,-0.8209220064012627,3.088919860056799,3937.26513671875,11.884666666666666,0.14,179.017054271662,-9.052239244767366,103.76385365696991,1553.0,1088.0,1200.0,1528.0,1471.0,997.6,110.0,292.15,1649409056.2483866,1649409057.3656511,2280ad41-0ca7-4199-aef3-88ab421ce6f2
-0.3579177658702592,-0.2015114740546091,-0.7363221826445792,-0.0769275681996514,-0.7312902755960218,0.5780291920624178,-0.9408603689386033,-0.9635671703600428,-25.970667517261024,20.628898409273027,37.44318450390118,1.5654217394590022,-0.9406921621456056,3.34044117089044,3937.26513671875,11.953,0.16,179.05138735588994,-8.75856586989256,103.75015685095433,1553.0,1435.0,1200.0,1528.0,1471.0,997.6,110.0,292.15,1649409058.0086918,1649409059.0085042,311be0d0-ab62-4def-b344-730138315c4a
-0.3478837917608745,-0.2120445922417387,-0.7242258829024558,-0.0696442016980827,-0.7183484132288175,0.5841878385056747,-0.9265975655392282,-0.9477538301387464,-25.878560568611512,20.77284494541553,37.90393803287222,1.5645079149579382,-0.985060772840378,3.2854626447439945,3938.272216796875,11.948333333333332,0.16,179.0388592711323,-8.728788047522336,103.76084837373512,1553.0,1435.0,1200.0,1528.0,1471.0,997.6,110.0,292.15,1649409059.117288,1649409060.1474369,311be0d0-ab62-4def-b344-730138315c4a
-0.3379828218041927,-0.2100328414853449,-0.7270528537226281,-0.0710379635987899,-0.720097190492227,0.5832279837596285,-0.9289774807952188,-0.955130253320598,-25.938826478930626,20.633548584205816,37.84723904417279,1.5643914274036137,-0.9765963906939028,3.295252764139151,3952.3955078125,11.945666666666666,0.16,179.03759492722597,-8.733950152715048,103.80693393679492,1553.0,1435.0,1200.0,1528.0,1471.0,997.6,110.0,292.15,1649409060.255929,1649409061.3700953,311be0d0-ab62-4def-b344-730138315c4a
-0.2889381772458886,-0.1799354728962457,-0.4971872695973267,-0.101450899515459,-0.5130314526752769,0.5697637200969641,-0.6861603921527879,-0.7040294772831246,-24.171159205490707,20.40654060177017,37.95735928539502,1.6135878219845108,-0.8588871810029715,2.359029629739332,3950.978325737847,11.951777777777778,0.16,179.04001584983178,-8.735086525438211,103.80743254060432,1553.0,1435.0,1200.0,1424.0,1471.0,997.6,110.0,292.15,1649409063.6050742,1649409064.5495312,001166c9-2f7e-4782-a27f-5f6b32054185
-0.2802393020456147,-0.1786529691771101,-0.5069784992954295,-0.1028077438109057,-0.5213535681394006,0.5692928956774133,-0.6968002199800161,-0.7214919643747035,-24.355677187013807,20.332375890899087,37.814752370920544,1.6144957262318234,-0.851962030865089,2.3987035758648765,3951.787353515625,11.950666666666669,0.16,179.0301363606523,-8.737198951166512,103.83723189704318,1553.0,1435.0,1200.0,1424.0,1471.0,997.6,110.0,292.15,1649409064.657088,1649409065.7685616,001166c9-2f7e-4782-a27f-5f6b32054185
-0.2906444736901802,-0.1817757848186034,-0.500644366098498,-0.1005825797441987,-0.515145864707148,0.5718594197943323,-0.6912120218979809,-0.7158279081238214,-24.44402670363593,20.479722619496098,38.08035237111623,1.6165336657348468,-0.8652730942687417,2.373551931253189,3953.610107421875,11.951,0.16,179.02703090130967,-8.732017778362366,103.86101082118364,1553.0,1435.0,1200.0,1424.0,1471.0,997.6,110.0,292.15,1649409065.8774674,1649409066.9956791,001166c9-2f7e-4782-a27f-5f6b32054185
-0.2145463847971012,-0.1418998316008338,-0.2514638824448877,-0.1124416930616619,-0.2905939018853582,0.5306306751545555,-0.4367341012389382,-0.4530941177794144,-22.502939159838128,20.342672196544864,38.151649485553946,1.563125885606632,-0.7128299699688182,1.3719565434029817,3955.231635199653,11.947444444444445,0.16,179.02620976078947,-8.72683783878682,103.85512016247944,1553.0,1435.0,1200.0,1304.0,1471.0,997.6,110.0,292.15,1649409068.018762,1649409069.041625,f1608441-b360-45b5-825b-2615ab975ab7
-0.1926765607313807,-0.1431059717295161,-0.246402139522554,-0.1114702065519205,-0.2862426942741525,0.5295287133789813,-0.4310887578451246,-0.4486685686292083,-22.37071454486439,20.366202718290413,37.99449498474693,1.5589077296530574,-0.7166950499333058,1.3508162953563467,3953.610107421875,11.949333333333335,0.16,179.03474749725197,-8.730185864708726,103.8642559199493,1553.0,1435.0,1200.0,1304.0,1471.0,997.6,110.0,292.15,1649409069.1494975,1649409070.2715166,f1608441-b360-45b5-825b-2615ab975ab7
-0.1858721097833878,-0.1433790600447546,-0.2451171070597169,-0.1141990669408527,-0.2848666323717052,0.533766133211012,-0.4301091797101808,-0.4530941173016485,-22.5353139355216,20.420374666403674,38.210434131686,1.5749600835022843,-0.7180498022903661,1.345905949083968,3957.057373046875,11.951,0.16,179.01414005761615,-8.74956443947639,103.88319831124744,1553.0,1435.0,1200.0,1304.0,1471.0,997.6,110.0,292.15,1649409070.3797462,1649409071.8247316,f1608441-b360-45b5-825b-2615ab975ab7
-0.1470768782672522,-0.1141788380345287,-0.0308292488820043,-0.1006619776549031,-0.0905243322241836,0.4787221557059847,-0.2207490301932645,-0.2444561321519231,-21.07401145106241,20.713727890293644,37.844845050165766,1.434024643732017,-0.6037107719232493,0.4950603473964829,3952.3960232204863,11.944333333333333,0.1577777777777777,179.02607012136644,-8.75599487285248,103.87613210109612,1553.0,1435.0,1200.0,1166.0,1471.0,997.6,110.0,292.15,1649409072.486241,1649409073.5451736,35bac28e-d87e-4012-bd4c-01e7eb338ef3
-0.1411073697612105,-0.1128771170263546,-0.030829248867283,-0.1018716577356761,-0.0929436924453476,0.4785775200587895,-0.2203677179229597,-0.2407744970749784,-20.826929059883224,20.79495649597672,37.84641784932242,1.4370914699474089,-0.6004409397119151,0.4981012690468091,3948.955430772569,11.944555555555556,0.1544444444444444,179.03579934638415,-8.743545714725272,103.86691893481569,1553.0,1435.0,1200.0,1166.0,1471.0,997.6,110.0,292.15,1649409073.653905,1649409074.891448,35bac28e-d87e-4012-bd4c-01e7eb338ef3
-0.1235169415439183,-0.1139588502222896,-0.0334610110732293,-0.0996090705110247,-0.0949058826156306,0.4757980881923066,-0.2249262702328247,-0.2451297500409917,-20.962397367654447,20.8580706029054,37.5692560086568,1.4259168473425907,-0.6015271493357155,0.5102290287250913,3949.96630859375,11.946555555555554,0.15,179.0385025834757,-8.729560143489763,103.86492755521768,1553.0,1435.0,1200.0,1166.0,1471.0,997.6,110.0,292.15,1649409074.9993498,1649409076.2073357,35bac28e-d87e-4012-bd4c-01e7eb338ef3
-0.4144293560268878,-0.2424312326253381,-0.9699225449423988,-0.0119214232110363,-0.9427047275632908,0.5688827575392955,-1.1985653860264929,-1.2209970801803092,-27.64194810803234,21.577817731686626,37.05900344800978,1.3919867849404886,-1.10172880773075,4.307253950109392,3944.512451171875,11.905333333333331,0.14,179.10497398447822,-8.738481129455707,103.94015829437583,1553.0,1435.0,1200.0,1623.0,1471.0,997.6,110.0,292.15,1649409078.0542953,1649409079.0793731,3457fe2b-1e21-4f66-98cc-e7be8cd2f275
-0.4331662522377193,-0.2464810315545769,-0.9725654345080926,-0.0067145393944516,-0.9442168285008008,0.568093835838997,-1.2023785110510192,-1.2256911693337984,-27.7293064299954,21.667421295420223,37.03890544782294,1.3788837352472527,-1.1169286915099812,4.317774528368194,3941.892686631944,11.910444444444444,0.14,179.1154181026291,-8.747914569336878,103.85702502634796,1553.0,1435.0,1200.0,1623.0,1471.0,997.6,110.0,292.15,1649409079.1873617,1649409080.2295134,3457fe2b-1e21-4f66-98cc-e7be8cd2f275
-0.4301814975084774,-0.2433910875549966,-0.9639924792502208,-0.0104882152753754,-0.9363670521448276,0.5686592297254728,-1.1937792565316692,-1.2150670135017778,-27.78596247002732,21.64007145601688,37.12238295839188,1.3888970971714831,-1.1046707483012697,4.283583598546436,3940.2826063368057,11.905333333333331,0.14,179.13276678312093,-8.749913632897707,103.7498123058562,1553.0,1435.0,1200.0,1623.0,1471.0,997.6,110.0,292.15,1649409080.3377905,1649409081.5368173,3457fe2b-1e21-4f66-98cc-e7be8cd2f275
-0.4652313781595436,-0.250149012544744,-1.1154094263460472,0.0593384425256854,-1.075444946826604,0.5197197868909544,-1.3768537772433462,-1.4117990027128078,-28.91937373642535,22.473639019572325,37.07280532931508,1.1188196359485685,-1.1397377106230608,4.938659673375115,3929.4440104166665,11.852,0.1233333333333333,179.14675956400055,-8.77192657368275,103.62689698046256,1553.0,1435.0,1200.0,1712.0,1471.0,997.6,110.0,292.15,1649409082.559512,1649409083.909201,b1785298-432a-46b0-9216-ac0b7aa12bdb
-0.4836835549517831,-0.2512014140764817,-1.106616482372326,0.0569777457788944,-1.0670783245791604,0.5203509242431703,-1.3653698970243016,-1.3893662914402003,-28.73401801373234,22.372548239859817,36.78537943202928,1.1253782122498266,-1.1416029463599804,4.898545367205059,3928.2447916666665,11.862,0.1266666666666666,179.1588125711559,-8.791794740204672,103.41898602212736,1553.0,1435.0,1200.0,1712.0,1471.0,997.6,110.0,292.15,1649409084.0231218,1649409085.1300583,b1785298-432a-46b0-9216-ac0b7aa12bdb
-0.479808734364631,-0.2495927214731122,-1.1097706545540384,0.0589338672676329,-1.0705900403094029,0.5155728907656354,-1.3706839984721988,-1.3903438475334018,-28.76389083215234,22.42923359689989,36.55329803533426,1.1103954872575814,-1.1337408437663703,4.915034400613916,3927.04345703125,11.852666666666668,0.1233333333333333,179.16381226962835,-8.797026665108902,103.29622703217473,1553.0,1435.0,1200.0,1712.0,1471.0,997.6,110.0,292.15,1649409085.238135,1649409086.2889652,b1785298-432a-46b0-9216-ac0b7aa12bdb
-0.4871942577772202,-0.2331482520212567,-1.2248759491741428,0.11331990868629,-1.1847460951255946,0.4546863410720544,-1.5226810680215326,-1.5490705322207747,-29.578122817301747,23.53525350732878,36.27056782644542,0.8520392275488595,-1.0777697109301507,5.444876236954738,3932.4486490885415,11.833666666666666,0.12,179.17387086154608,-8.811889441334065,103.1100087546435,1553.0,1435.0,1200.0,1801.0,1471.0,997.6,110.0,292.15,1649409087.067754,1649409088.2023497,2442cb38-81c5-4482-b4ff-1b9ec6336d38
-0.4917963026132524,-0.2360015194087905,-1.2179597292554545,0.1156340791591842,-1.1762257332099495,0.4554226679787808,-1.5140686619001846,-1.5381571012785111,-29.58317345587256,23.431059941078903,36.341771999001146,0.8481361286445421,-1.0889147715212808,5.411396099057408,3932.4486490885415,11.838333333333331,0.12,179.17345194327697,-8.796563066018987,102.99326716134962,1553.0,1435.0,1200.0,1801.0,1471.0,997.6,110.0,292.15,1649409088.3103552,1649409089.3176067,2442cb38-81c5-4482-b4ff-1b9ec6336d38
-0.4801071087051548,-0.2357911402562738,-1.209294731204691,0.1201177844401669,-1.1670084899466722,0.4497161343130157,-1.507441711602773,-1.5276249833683873,-29.69016750072256,23.461448784657986,36.205948554934665,0.8257560461981974,-1.0861668545274314,5.3773810759623215,3926.6435546875,11.847555555555555,0.12,179.1605777956014,-8.799338589279213,102.89537764907492,1553.0,1435.0,1200.0,1801.0,1471.0,997.6,110.0,292.15,1649409089.4259498,1649409090.5531044,2442cb38-81c5-4482-b4ff-1b9ec6336d38
-0.3394554760135542,-0.1791465510600009,-0.7984897520784026,-0.1622110293560619,-0.7583467642031845,0.6201495192624146,-0.9483455216676364,-0.9794816529674344,-26.36779127760399,15.448690139853568,35.17977890127368,1.814453874148897,-0.8274675779251512,3.473305975444518,7404.766167534723,11.617777777777777,7.714444444444445,-179.18186370069478,-8.949594403010508,90.43868961776002,1553.0,1435.0,1350.0,1528.0,1471.0,997.6,110.0,292.15,1649409095.624864,1649409096.692425,e7c82e1f-eaaf-45df-a169-bd684670566d
-0.3391793533708149,-0.175044157475901,-0.765749483597604,-0.1136265934862794,-0.7344161268411997,0.6255141868126826,-0.9345656798707616,-0.9501074482028468,-26.622735199339303,17.16094036187776,43.02889214642549,1.731018236514906,-0.883720356878635,3.387575271170431,7413.304090711806,11.619111111111112,7.779999999999999,-178.69610520038293,-9.045854251122003,85.39294732229581,1553.0,1435.0,1350.0,1528.0,1471.0,997.6,110.0,292.15,1649409096.8011992,1649409098.0333183,e7c82e1f-eaaf-45df-a169-bd684670566d
-0.3332361416836646,-0.1720725518599034,-0.7654996583543947,-0.1020294425960261,-0.732233442420426,0.618874095856328,-0.9377871123512458,-0.957746846058868,-26.80574499485187,17.15877390010024,44.005960768138685,1.6899984402569794,-0.8813515219501571,3.390560694866394,7416.868001302083,11.621,7.79,-178.51099189567742,-9.068422524232068,80.99667936699913,1553.0,1435.0,1350.0,1528.0,1471.0,997.6,110.0,292.15,1649409098.1421895,1649409099.1598787,e7c82e1f-eaaf-45df-a169-bd684670566d
-0.1409758828068745,0.1585514227188542,-0.7853410500815277,-0.4248299778279842,-0.8372389785922791,0.5659768959445466,-0.9832816287259925,-1.010446852526018,-26.23070872106053,14.935013621492454,40.05719703520289,2.2832207484507268,0.4280653315111488,3.658323145742525,7423.291829427083,11.605333333333334,7.753333333333334,-178.70899452625665,-9.10948761366069,73.00096394971817,1658.0,1435.0,1350.0,1528.0,1551.0,997.6,110.0,292.15,1649409101.094279,1649409102.355868,e5fde2b7-a02c-4f67-a486-1262997af467
-0.133573166290501,0.1724627429077143,-0.7398991356286185,-0.3622553198130647,-0.8027104854606358,0.5601257266709115,-0.9636900592670686,-0.9813882150082752,-26.5439391358726,16.882487528892543,49.57731297240713,2.14545192533072,0.3932911839442747,3.536098424661733,7427.57958984375,11.598333333333334,7.779999999999999,-178.83538793575767,-9.27533826708694,70.1820659526235,1658.0,1435.0,1350.0,1528.0,1551.0,997.6,110.0,292.15,1649409102.4709027,1649409103.5492294,e5fde2b7-a02c-4f67-a486-1262997af467
-0.1540876625237639,0.1660198819502391,-0.7681445703445872,-0.3971615752988843,-0.8212324559068601,0.5441586594492622,-0.97529985938122,-1.0003961845256042,-26.18033615046435,15.226690818852358,41.70993218181964,2.1748577655917525,0.4387604590433958,3.605109487224432,7424.006456163194,11.599222222222222,7.791111111111111,-179.08435136664423,-9.25651511950803,68.19778292115853,1658.0,1435.0,1350.0,1528.0,1551.0,997.6,110.0,292.15,1649409103.6583614,1649409104.8944654,e5fde2b7-a02c-4f67-a486-1262997af467
0.039647764225601,0.4932777611607725,-0.711445345511915,-0.6336313320520808,-0.8570409250768694,0.4765526210095984,-0.971145374724243,-0.9974164870568688,-25.919749456873657,15.146042035050684,46.95862061285746,2.5596122624494675,1.6505206647179562,3.6158225258804753,7427.57958984375,11.563444444444444,7.775555555555556,-179.70138913844335,-9.424366828633616,64.56055085268576,1767.0,1435.0,1350.0,1528.0,1630.0,997.6,110.0,292.15,1649409106.486084,1649409107.557522,fb5dd65e-7038-485a-9f1f-44b127428297
0.0489570411686131,0.4811809616991535,-0.7513779525023196,-0.6991250124797436,-0.8998794001145263,0.5087274778122856,-0.9959175335575876,-1.014588694052726,-25.77123445127104,14.792894105233897,41.03204473985888,2.7744517494284504,1.662152422058657,3.753724809580989,7427.57958984375,11.558777777777776,7.760000000000001,-179.8825545938086,-9.626932120442143,63.35116720184698,1767.0,1435.0,1350.0,1528.0,1630.0,997.6,110.0,292.15,1649409107.6667955,1649409108.785695,fb5dd65e-7038-485a-9f1f-44b127428297
0.0528885013506855,0.4882023648637877,-0.7566505816413241,-0.7147851154794871,-0.9007472141960056,0.4923047577176981,-0.9920518143181528,-1.019729837501777,-25.356898067444977,13.666175157869578,37.633435255858615,2.764808170815185,1.7172509008254269,3.75326104112302,7427.57958984375,11.557444444444444,7.767777777777777,179.88797169273033,-9.504447096966215,62.45112433633791,1767.0,1435.0,1350.0,1528.0,1630.0,997.6,110.0,292.15,1649409108.8944912,1649409109.904129,fb5dd65e-7038-485a-9f1f-44b127428297
0.2123311054845697,0.7845016321513765,-0.6436238388280476,-0.8964076370659279,-0.8880000523557489,0.4048457063055424,-0.9516701211823844,-0.9656532627475424,-25.09453367463337,15.698137316453208,43.25808656332991,2.998098684844348,2.806406581686896,3.5658784831993056,7427.57958984375,11.498,7.75,179.25179876651646,-9.697148267520909,60.6731782840594,1886.0,1435.0,1350.0,1528.0,1710.0,997.6,110.0,292.15,1649409111.5128803,1649409112.4622517,26bf8871-1014-4c16-8c69-ad831dc0fa60
0.2152748961739954,0.7702024263167432,-0.6461751927523989,-0.9136197963181792,-0.8918981372820651,0.4173966416312298,-0.9461365394930848,-0.9743405095392828,-24.724602415598305,15.677296930902514,40.80864681255364,3.0646592919071893,2.773823995702402,3.56171836386402,7425.435709635417,11.496999999999998,7.743333333333333,179.07756519424888,-9.738533237475664,60.00693203492996,1886.0,1435.0,1350.0,1528.0,1710.0,997.6,110.0,292.15,1649409112.5702505,1649409113.6985066,26bf8871-1014-4c16-8c69-ad831dc0fa60
0.2385020669785954,0.759392681872089,-0.6319670099034181,-0.8870391870185352,-0.8747122765076026,0.4159968112677644,-0.9361318929180265,-0.9595467001896778,-24.94735156819625,16.048290960412615,42.672312009140825,3.0049061335307248,2.715974200801993,3.505944377826528,7414.72802734375,11.498,7.760000000000001,178.90855443996665,-9.769697683111138,59.4050238910523,1886.0,1435.0,1350.0,1528.0,1710.0,997.6,110.0,292.15,1649409113.8145893,1649409115.02131,26bf8871-1014-4c16-8c69-ad831dc0fa60
-0.5324783796253062,-0.5186065012834448,-0.7799237848452742,0.1835207957016988,-0.658206254025404,0.6266055284965588,-0.9151713421924516,-0.936524837656213,-26.37444458578728,18.18369459063639,34.23902934470805,1.0679769225010538,-2.133607471607516,3.2238732865577986,7410.456217447917,11.611666666666666,7.816666666666666,178.9609419909006,-10.117073135743956,58.189719225113045,1449.0,1435.0,1350.0,1528.0,1386.0,997.6,110.0,292.15,1649409117.0687294,1649409118.205521,8ac04885-f4c8-44c5-9eec-8e46077a60ea
-0.529625111762222,-0.5274555762981487,-0.7704567191937663,0.1981421453906518,-0.6451758912050356,0.6378739600842767,-0.9058620599880404,-0.9378923032546342,-26.69646410011233,18.36288500383537,36.592777280856666,1.062188786390614,-2.186575917387087,3.1820448516913644,7414.72802734375,11.611777777777778,7.822222222222223,178.83274844709842,-10.007340454903392,57.846090131239976,1449.0,1435.0,1350.0,1528.0,1386.0,997.6,110.0,292.15,1649409118.3137963,1649409119.4719436,8ac04885-f4c8-44c5-9eec-8e46077a60ea
-0.5314133349446337,-0.5185276090980085,-0.7784774278080105,0.1878335677074474,-0.6527363946254634,0.630497542209724,-0.9132384828331422,-0.929792700879116,-26.71435177737521,18.00039030894637,35.384201878762426,1.0658625591699882,-2.141497845621314,3.213199668422092,7414.72802734375,11.612444444444444,7.837777777777778,178.78608459468887,-9.923719302668571,57.601778818088064,1449.0,1435.0,1350.0,1528.0,1386.0,997.6,110.0,292.15,1649409119.580125,1649409120.5183222,8ac04885-f4c8-44c5-9eec-8e46077a60ea
-0.7205705435798034,-0.8679543480120832,-0.7751902520507431,0.5436241143189865,-0.562247037033243,0.640937606010466,-0.8987486114495974,-0.9208778796019302,-27.36174642416045,20.88184124516382,34.808954971011254,0.3055940586688294,-3.485928241914702,3.023230878911513,7414.72802734375,11.568777777777775,7.802222222222222,178.77719320620932,-9.77287827453464,57.02565539723712,1342.0,1435.0,1350.0,1528.0,1293.0,997.6,110.0,292.15,1649409122.596906,1649409123.62458,01d4d2e2-8596-4b2b-99d5-afddc63171c7
-0.7236539141203322,-0.8861541762006969,-0.7967935698073466,0.540378409585596,-0.5755034554558007,0.6326089191861506,-0.9079127521396078,-0.9347285217882344,-26.81741134858114,19.980696494938897,30.55708042119983,0.2867466345887854,-3.5213422782655783,3.0763050631094258,7414.72802734375,11.575,7.809999999999999,178.81238841209247,-9.78411905836119,56.849114738849885,1342.0,1435.0,1350.0,1528.0,1293.0,997.6,110.0,292.15,1649409123.7330103,1649409124.8572018,01d4d2e2-8596-4b2b-99d5-afddc63171c7
-0.7557544466450404,-0.8858633874636017,-0.7773233757508466,0.554551185620028,-0.56375812591591,0.6544433386198645,-0.8976466487257228,-0.9221866808949262,-27.122106604883587,21.21761480426662,35.65495692462012,0.313669601806841,-3.563767124691462,3.0257795621993684,7414.72802734375,11.569222222222225,7.813333333333334,178.75482661340726,-9.701785017329964,56.659931020854025,1342.0,1435.0,1350.0,1528.0,1293.0,997.6,110.0,292.15,1649409124.9651458,1649409126.0836923,01d4d2e2-8596-4b2b-99d5-afddc63171c7
-0.9492922281126556,-1.2409042232625866,-0.7741120582729518,0.9126948351045596,-0.4703902202959857,0.6488005256022441,-0.8879403772629901,-0.9071769308091844,-28.159019063779507,24.114986575444583,32.3043003344517,-0.4885840196897152,-4.902192756667126,2.833952238325016,7414.72802734375,11.476666666666668,7.757777777777777,178.8340780572568,-9.696257212425438,56.48948858303075,1227.0,1435.0,1350.0,1528.0,1189.0,997.6,110.0,292.15,1649409127.1046336,1649409128.1283653,cf7e2f76-d66c-417e-914f-3b2c891a70b5
-0.950593949824098,-1.2377616821380693,-0.744395991590153,0.9291701501877512,-0.4482083643438684,0.6531395949394957,-0.8625633803715175,-0.8869147787838131,-27.76203613194618,24.836551196316787,35.71480819847223,-0.5089913393275493,-4.923575696044034,2.7324184440016337,7408.3203125,11.480125,7.766249999999999,178.8502724357789,-9.65925960736926,56.37162887828339,1227.0,1435.0,1350.0,1528.0,1189.0,997.6,110.0,292.15,1649409128.236272,1649409129.3607748,cf7e2f76-d66c-417e-914f-3b2c891a70b5
-0.9281754096321,-1.2356052940248612,-0.7555986853689973,0.923424170415832,-0.4529155985709907,0.6510358037466459,-0.8716754311484044,-0.9031402786138548,-28.211832321359417,24.273108191630808,34.89538794450424,-0.5054073038320781,-4.905054175230547,2.7660455067938465,7408.3203125,11.478555555555555,7.756666666666667,178.84867189478342,-9.65539484680593,56.29138198179416,1227.0,1435.0,1350.0,1528.0,1189.0,997.6,110.0,292.15,1649409129.4689343,1649409130.5880706,cf7e2f76-d66c-417e-914f-3b2c891a70b5
-0.3243344728959365,-0.1484969375812847,-0.738926131377123,-0.1046854791428418,-0.7196369859764793,0.6184533376175186,-0.9234418763982896,-0.9465047031086432,-26.78041919346109,18.129974440550747,47.02620105054581,1.7032998901150802,-0.8178480919865245,3.323464922228231,7414.021484375,11.615888888888888,7.831111111111111,178.49358553803256,-9.481171424958369,56.19658161229906,1553.0,1435.0,1350.0,1528.0,1471.0,997.6,110.0,292.15,1649409132.519152,1649409133.675092,0b0178d4-17d3-4f98-bcf8-f0438f7b4d63
-0.3245842981270538,-0.1660241510811859,-0.7625937952517081,-0.1133767679187128,-0.7272106384392596,0.599571811637327,-0.92960861873204,-0.95724719418331,-26.436374597424106,16.370714052538467,40.67125075921835,1.6667953243823492,-0.8301572539572811,3.3646248029362464,7421.14794921875,11.618555555555552,7.814444444444444,178.45364259176637,-9.49331113757068,56.27484343762888,1553.0,1435.0,1350.0,1528.0,1471.0,997.6,110.0,292.15,1649409133.7842607,1649409134.7970707,0b0178d4-17d3-4f98-bcf8-f0438f7b4d63
-0.3139581270082133,-0.1714464715740895,-0.7394576428654047,-0.0994699983999907,-0.7119338701677134,0.6305354711368625,-0.9150939670166244,-0.9471565761807724,-26.846763907303608,17.797959005261728,46.264767212273455,1.716303001255531,-0.8973861202564,3.2980966318308,7421.14794921875,11.617222222222225,7.8244444444444445,178.4413436978009,-9.500606253922946,56.33655078168536,1553.0,1435.0,1350.0,1528.0,1471.0,997.6,110.0,292.15,1649409134.905507,1649409135.935815,0b0178d4-17d3-4f98-bcf8-f0438f7b4d63
-0.3273060786997821,-0.1882980444732341,-0.8009617081738751,-0.4472090637335129,-0.7914551962546308,0.9519436902197222,-0.8697557206080407,-0.886888480914729,-26.844376147795987,15.582165667662847,44.05327742779176,3.2048617435957403,-0.9021287723577204,3.418396271894237,7421.14794921875,11.605555555555556,7.819999999999999,178.45523326693308,-9.468273276756968,56.43912466536584,1553.0,1522.0,1350.0,1528.0,1471.0,997.6,110.0,292.15,1649409137.487812,1649409138.6786754,419c8799-6484-452b-80c4-18cd3d7588db
-0.3164584025956052,-0.186720200787234,-0.8117173469663377,-0.4481952160778703,-0.8063132301993499,0.9571374248407296,-0.8840352124753516,-0.9110163524638728,-26.817245600070645,16.01969808950475,44.78005633411416,3.221251682717768,-0.9033973590939506,3.474672256485769,7421.14794921875,11.616,7.809999999999999,178.40563395100023,-9.5542359506485,56.50727856963395,1553.0,1522.0,1350.0,1528.0,1471.0,997.6,110.0,292.15,1649409138.7869055,1649409140.0227664,419c8799-6484-452b-80c4-18cd3d7588db
-0.315630034584949,-0.1915720701432197,-0.8133477857791297,-0.4336396063220226,-0.8039859095802047,0.9429499826532022,-0.8863888300930802,-0.9073478633165608,-26.74437910601436,15.830286251294858,43.979815587160665,3.155109013526307,-0.9169167172085916,3.4756164538989505,7423.291829427083,11.605333333333334,7.819999999999999,178.40474602640813,-9.498160666745129,56.54454294338069,1553.0,1522.0,1350.0,1528.0,1471.0,997.6,110.0,292.15,1649409140.1313102,1649409141.1341102,419c8799-6484-452b-80c4-18cd3d7588db
-0.3223277792206839,-0.1867950472209117,-0.8260494330604077,-0.7696111569902359,-0.8540409981565827,1.2731273859369234,-0.8093733376177844,-0.8279838088845145,-26.652745991679843,15.35809193385664,47.85272879756485,4.651832029645286,-0.8934220013789973,3.454805857608039,7424.721082899306,11.58211111111111,7.804444444444444,178.4466818700922,-9.460526703873311,56.66745864822928,1553.0,1613.0,1350.0,1528.0,1471.0,997.6,110.0,292.15,1649409142.2592812,1649409143.2859886,9b304baa-e80d-41a2-a232-c1c968b4654b
-0.3233771464895373,-0.1867571182848641,-0.8262011482121975,-0.7596611288310604,-0.8528146282865022,1.2765030607951535,-0.8104353480059289,-0.8274148743097048,-26.743314531378303,15.414622075632623,49.63445235375761,4.637578413902684,-0.9096638145284758,3.4573726368569258,7427.57958984375,11.585,7.800000000000001,178.46668218180184,-9.392377542792124,56.71670241487031,1553.0,1613.0,1350.0,1528.0,1471.0,997.6,110.0,292.15,1649409143.3945043,1649409144.509464,9b304baa-e80d-41a2-a232-c1c968b4654b
-0.333630602600599,-0.1950696236854521,-0.8153858343980397,-0.7356521046651838,-0.84333997633107,1.293389021172666,-0.8079568174085078,-0.8315324410045671,-27.26489326363125,16.398927729679453,54.05942467020063,4.628871373499438,-0.9786212740526784,3.430873458475507,7434.02099609375,11.586444444444444,7.792222222222222,178.49869907299123,-9.360735647960915,56.743954110748746,1553.0,1613.0,1350.0,1528.0,1471.0,997.6,110.0,292.15,1649409144.617582,1649409145.7463462,9b304baa-e80d-41a2-a232-c1c968b4654b
-0.3226382907704402,-0.1950433262874838,-0.8653903513932447,-1.0958871393338792,-0.9308708943156172,1.6224614664688437,-0.7666961900759859,-0.7816462648352147,-27.23202706305329,15.80890374124349,53.660353657066665,6.17449477505228,-0.9340456883223086,3.556055946303437,7446.93896484375,11.556333333333336,7.771111111111111,178.57300545988173,-9.221288608591168,56.81482870703624,1553.0,1710.0,1350.0,1528.0,1471.0,997.6,110.0,292.15,1649409146.5582294,1649409147.7916195,0115709b-4d71-4ff7-9102-0db472cacbc1
-0.3205577621342386,-0.2057721577709868,-0.9157261164771076,-1.1495834204150686,-0.9719494685331982,1.6082800894562428,-0.7945684041635631,-0.8175786334327569,-26.54262001150874,13.877420055527738,42.84581986875431,6.24706568879997,-0.8799284572598862,3.704556617626177,7446.93896484375,11.567,7.76111111111111,178.56873431492073,-9.210820774505692,56.85962374379787,1553.0,1710.0,1350.0,1528.0,1471.0,997.6,110.0,292.15,1649409147.9000046,1649409149.01888,0115709b-4d71-4ff7-9102-0db472cacbc1
-0.2929834247981903,-0.2020298361549293,-0.9053588695127276,-1.1445515111386169,-0.9612914325602134,1.5896569816133683,-0.7857815312858981,-0.8108525664389827,-26.368166598504352,13.683080287528012,41.45435895650541,6.192960250747519,-0.8547603347337858,3.662133822526504,7444.065700954861,11.557222222222222,7.768888888888889,178.55957730797346,-9.18921195324654,56.85154894237909,1553.0,1710.0,1350.0,1528.0,1471.0,997.6,110.0,292.15,1649409149.1271615,1649409150.244747,0115709b-4d71-4ff7-9102-0db472cacbc1
-0.2697835585317172,-0.1826987222461016,-0.8747881350846392,-1.320908551036908,-0.9660957675443004,1.7796809626990249,-0.7216689667088811,-0.7474480078559498,-26.53180808236917,14.918238994894285,48.42076938320487,7.028526130885367,-0.8191695146311747,3.545720481982808,7434.02099609375,11.537625,7.7675,178.6008288046482,-9.09318782966718,56.91076046890824,1553.0,1814.0,1350.0,1528.0,1471.0,997.6,110.0,292.15,1649409151.0689418,1649409152.1996396,eba84a28-34ea-4208-9f47-7e0d812ac5d3
-0.2691008376758034,-0.1812321367485299,-0.8601728457725831,-1.316344431950085,-0.9565123851810884,1.7836129297025256,-0.7107707161589858,-0.7354118884244678,-26.44681852293072,15.43720158794297,49.87212999920386,7.031508397719779,-0.8267604431451686,3.499339469124097,7434.02099609375,11.538666666666666,7.779999999999999,178.71424921845812,-9.075191905745717,56.9438672970208,1553.0,1814.0,1350.0,1528.0,1471.0,997.6,110.0,292.15,1649409152.3078568,1649409153.43654,eba84a28-34ea-4208-9f47-7e0d812ac5d3
-0.2705168513084013,-0.1788805428156648,-0.8552800113356503,-1.309845936086102,-0.949773674395658,1.772613537252537,-0.7071927523254445,-0.727497381630813,-26.46938975378936,15.263565236112433,49.521752130923424,6.991157639786222,-0.815168261390042,3.478300195779499,7434.02099609375,11.5345,7.78125,178.76588032594154,-8.967969011117985,56.943898412327016,1553.0,1814.0,1350.0,1528.0,1471.0,997.6,110.0,292.15,1649409153.5451238,1649409154.544339,eba84a28-34ea-4208-9f47-7e0d812ac5d3
-0.3547211149819932,-0.1713888196061196,-0.7337849895516052,0.2252679045466322,-0.6669895861760358,0.275430178329842,-0.9942213507065878,-1.0278820348185993,-26.429405975778945,17.466309035054127,38.02543814818132,0.1827854492690549,-0.8667270766698901,3.333470420535504,7427.57958984375,11.624555555555556,7.816666666666667,178.84299980213268,-9.389656471317782,56.99946389849984,1553.0,1349.0,1350.0,1528.0,1471.0,997.6,110.0,292.15,1649409156.59394,1649409157.7331254,d39d6727-7ff7-429f-b9f6-8e4a3f2ffae9
-0.3432423011817384,-0.1786337518612439,-0.7523772536990923,0.2045981550165592,-0.6813348189980023,0.2748384870401194,-1.0051347755012143,-1.0240689106444083,-26.40036541916533,16.85256791516645,34.12239521276218,0.2224798467587402,-0.8581571188379088,3.3876002701235,7434.02099609375,11.623333333333331,7.812222222222222,178.8310059899501,-9.43131379506569,57.12247902054636,1553.0,1349.0,1350.0,1528.0,1471.0,997.6,110.0,292.15,1649409157.8418176,1649409158.8931277,d39d6727-7ff7-429f-b9f6-8e4a3f2ffae9
-0.3495010816979817,-0.1805534616881707,-0.743712259342348,0.2127240488341075,-0.6759175542330739,0.2926286720024871,-1.0010323795881295,-1.025331186555743,-26.69734970945245,17.55877242573847,37.48794474354863,0.2496267097789722,-0.8935231768946097,3.366657727573376,7434.02099609375,11.619555555555555,7.804444444444444,178.84003246439326,-9.425411562985412,57.23556077080995,1553.0,1349.0,1350.0,1528.0,1471.0,997.6,110.0,292.15,1649409159.0025318,1649409160.0814211,d39d6727-7ff7-429f-b9f6-8e4a3f2ffae9
-0.3595739961661811,-0.1480190330126622,-0.6620573056648951,0.5595325182329629,-0.5818755174057488,-0.0188330860800391,-1.0309669228308247,-1.0482119556751934,-26.90139229000541,20.16242813121335,43.30716898052935,-1.210433658149418,-0.8591096636741979,3.183858535345673,7434.02099609375,11.614,7.800000000000001,178.84586696376425,-9.494957592615608,57.393348765375954,1553.0,1264.0,1350.0,1528.0,1471.0,997.6,110.0,292.15,1649409160.9885523,1649409162.0382907,5b900af1-1561-4be6-b377-b6d68044d6cb
-0.3593969944480089,-0.155301388427239,-0.6996575342259028,0.5075066720372257,-0.6135588285352577,-0.037734337524411,-1.0503359768757603,-1.0736749286183525,-26.23612046444185,18.532124125404508,32.59860673947904,-1.1496015797014367,-0.7922276452398164,3.290536538358987,7427.57958984375,11.611555555555556,7.815555555555556,178.86071275938022,-9.504212973259666,57.469563051774585,1553.0,1264.0,1350.0,1528.0,1471.0,997.6,110.0,292.15,1649409162.1470163,1649409163.4643984,5b900af1-1561-4be6-b377-b6d68044d6cb
-0.3531134337020882,-0.1675145053686669,-0.7007069023758637,0.5004266053735063,-0.6125221044569226,0.0052264999388385,-1.047870594924743,-1.0652041286922895,-26.953218898426897,18.930115070074173,36.08024120248651,-1.0343118438213337,-0.8630045181876951,3.2897505526887065,7427.57958984375,11.608,7.812222222222222,178.9066268088009,-9.447772369099436,57.54866878492185,1553.0,1264.0,1350.0,1528.0,1471.0,997.6,110.0,292.15,1649409163.5726364,1649409164.5851429,5b900af1-1561-4be6-b377-b6d68044d6cb
-0.3662919697161754,-0.1683909166063092,-0.7004530307516115,0.7895441567412553,-0.5853230057386886,-0.32977803408169,-1.1349913897322947,-1.1625247808992518,-26.537454744776028,19.50497275359185,25.84407900839782,-2.436889100196273,-0.8140821379007924,3.364446371905399,7424.721082899306,11.59511111111111,7.804444444444444,178.9553078437453,-9.558147562040672,57.69930253578723,1553.0,1178.0,1350.0,1528.0,1471.0,997.6,110.0,292.15,1649409165.6045153,1649409166.7525156,bc76a8ba-4cab-47f3-82c9-a5cbf759a33e
-0.3640698396882731,-0.1554657471421264,-0.6610595222703938,0.8329742965528988,-0.5553834156051451,-0.3232694284034355,-1.114676639060515,-1.1417629737719763,-26.90207606212856,21.085798862884904,34.46249335242509,-2.5065998441704607,-0.8422320144481165,3.254242474081894,7427.57958984375,11.595333333333333,7.809999999999999,178.98138702381618,-9.521974975060022,57.816016808324406,1553.0,1178.0,1350.0,1528.0,1471.0,997.6,110.0,292.15,1649409166.8668716,1649409167.8619912,bc76a8ba-4cab-47f3-82c9-a5cbf759a33e
-0.3483976024111341,-0.1539991616791142,-0.6939049776393845,0.8064751244563306,-0.5800043565910482,-0.3497630442918363,-1.135979565705754,-1.1573967852170512,-26.50965970890141,19.5492934976136,27.243902966437755,-2.519133213393018,-0.7743763388778121,3.35354884643321,7427.57958984375,11.587555555555555,7.80111111111111,178.99601577119853,-9.494329784394395,57.90035522528582,1553.0,1178.0,1350.0,1528.0,1471.0,997.6,110.0,292.15,1649409167.970733,1649409168.9242823,bc76a8ba-4cab-47f3-82c9-a5cbf759a33e
-0.3766925903467303,-0.147285740278277,-0.5932921299055522,1.0951395578989027,-0.4783547920630305,-0.5695865400707409,-1.1309603001734103,-1.1468525349321996,-26.84557463731744,23.22533081507514,35.07644158578166,-3.633803993835942,-0.8453391048723002,3.08345255277455,7421.14794921875,11.571111111111112,7.800000000000001,179.0415564369446,-9.520364757963192,57.92405749952557,1553.0,1088.0,1350.0,1528.0,1471.0,997.6,110.0,292.15,1649409171.0240183,1649409172.3665628,44c4cfeb-efe0-49a0-be3d-080263594211
-0.3582055200948631,-0.1358478908890791,-0.6028765211346608,1.0694404325039577,-0.4888509943338988,-0.5700047698819659,-1.1361221786121916,-1.1574362316633895,-26.781663480320475,22.7012390988435,33.19635192040503,-3.580991913413826,-0.7836817508463697,3.1169294945126387,7421.14794921875,11.563444444444444,7.798888888888888,179.09524324164067,-9.506659509074872,57.95996380399232,1553.0,1088.0,1350.0,1528.0,1471.0,997.6,110.0,292.15,1649409172.4746792,1649409173.5909033,44c4cfeb-efe0-49a0-be3d-080263594211
-0.3692079464998198,-0.1385873713962801,-0.6469742290511932,1.021519506031384,-0.5275359859674543,-0.5702819038606629,-1.1657664428362522,-1.190711056483668,-26.62150900889845,21.45023341583815,26.23677949010603,-3.485034418712603,-0.7303241714837151,3.2619949174527108,7421.14794921875,11.55588888888889,7.79,179.05358515898286,-9.513939257501503,57.97972278235128,1553.0,1088.0,1350.0,1528.0,1471.0,997.6,110.0,292.15,1649409173.6990795,1649409174.8254783,44c4cfeb-efe0-49a0-be3d-080263594211
-0.3034644543837838,-0.1543152361355076,-0.7649964677067721,-0.1525325769254812,-0.7388381365863634,0.6289930280721612,-0.9272185889088032,-0.951151758417044,-26.32508163261895,16.570582259573243,41.35550001367727,1.8226050467652173,-0.7884219008847618,3.3823684211702125,7421.14794921875,11.629,7.83,179.17020532669147,-9.148736157361308,58.02086556518171,1553.0,1435.0,1350.0,1528.0,1471.0,997.6,110.0,292.15,1649409176.5066097,1649409177.4902942,ab75c87e-b3d2-419f-88b4-6f7f3b546911
-0.3240189041391531,-0.1792122945404698,-0.770640800928406,-0.1489308453126488,-0.7369012315650149,0.639635885209278,-0.92569030500677,-0.954564858574536,-26.45789159823049,16.37642976000712,39.86014080319627,1.8365230111724515,-0.8684122435260768,3.3801449513092807,7427.57958984375,11.624888888888888,7.819999999999999,179.17071986760894,-9.156654718202812,57.973856408764135,1553.0,1435.0,1350.0,1528.0,1471.0,997.6,110.0,292.15,1649409177.598623,1649409178.8337195,ab75c87e-b3d2-419f-88b4-6f7f3b546911
