raw_voltage_G-,raw_voltage_G0,raw_voltage_G1,raw_voltage_G2,raw_voltage_G3,raw_voltage_G4,raw_voltage_G5,raw_voltage_G6,load_x,load_y,load_z,load_l,load_m,load_n,rpm,voltage,current,roll,pitch,yaw,aileron1_pwm,elevator_pwm,throttle_pwm,rudder_pwm,aileron2_pwm,pbaro,pdiff,Tt,sample_start_time,sample_end_time,uid
-0.0784669771156757,0.0773319276180529,-0.0389025485577065,0.1047075128660597,-0.1937284565305836,-0.2727389812833672,-0.4524027991135401,-0.4753341310715449,-15.904155595884482,26.40741558783246,-16.408302665940294,-0.6865758670921829,0.5331237244790595,0.9261913488751736,4429.18212890625,11.95977777777778,0.16,178.3951594764531,12.843898285552084,60.670994900254726,1553.0,1435.0,1200.0,1528.0,1471.0,999.7000000000002,107.0,294.1,1649425603.9771004,1649425604.9609632,a5d5ea1b-b3a5-4290-8050-319e5a26e704
-0.0733685699190532,0.0810464342778627,-0.0327993618454586,0.1033033417015523,-0.1875156969637903,-0.2751462887340406,-0.4455999908226718,-0.4748832406201882,-15.874167569417107,26.261688273750924,-16.365682126137703,-0.6894581990902521,0.5470227117847125,0.9003023177683923,4451.662326388889,11.964333333333334,0.16,178.29459784239307,12.805400778068954,60.29412782915064,1553.0,1435.0,1200.0,1528.0,1471.0,999.7000000000002,107.0,294.1,1649425605.068927,1649425606.1841362,a5d5ea1b-b3a5-4290-8050-319e5a26e704
-0.0767707952219556,0.0802509381565244,-0.0327358098311179,0.1071268729419228,-0.1896786577057279,-0.2789977615469172,-0.4500623306447228,-0.4743216811070022,-15.933757650837563,26.612843449617696,-16.544221705101528,-0.704465364282854,0.5455824990894667,0.909014803458596,4452.689453125,11.964777777777776,0.1622222222222222,178.25133997764968,12.771183901920653,59.95042360319672,1553.0,1435.0,1200.0,1528.0,1471.0,999.7000000000002,107.0,294.1,1649425606.300441,1649425607.4134915,a5d5ea1b-b3a5-4290-8050-319e5a26e704
0.1015775753290211,0.4025183452173066,-0.0339909624889553,-0.0703005406709086,-0.2641342541661693,-0.4227267330173596,-0.5160824987573382,-0.5421196649598091,-15.961960472658989,25.572088102083686,-15.560849333759656,-0.634030011537219,1.7675131123833028,1.1453686527932476,4452.946614583333,11.932333333333332,0.15,177.98176151802812,12.747097239812604,59.39153806199106,1658.0,1435.0,1200.0,1528.0,1551.0,999.7000000000002,107.0,294.1,1649425609.3475516,1649425610.484905,f73ed84e-83bb-4500-992b-b3074130202a
0.1013545953551835,0.4027095491566785,-0.0187324479546522,-0.0720504130531587,-0.2509515888167569,-0.4214902074403069,-0.5013291098150661,-0.5234057771056915,-15.942773779732349,25.720881343068523,-15.47389768289784,-0.625534430874581,1.7685090730613342,1.0856914492938643,4458.093098958333,11.934,0.15,178.0162403129584,12.746717025948804,59.22532844417843,1658.0,1435.0,1200.0,1528.0,1551.0,999.7000000000002,107.0,294.1,1649425610.5935638,1649425611.7096584,f73ed84e-83bb-4500-992b-b3074130202a
0.1016049684567245,0.4022444140676136,-0.0275672763182311,-0.0643288408778805,-0.2569572565609988,-0.4279177298130118,-0.5114530607232942,-0.5383805026243377,-16.035076691923035,25.59956697798616,-15.512635986106128,-0.6586926679912682,1.7662483383762624,1.1202706035268362,4455.00390625,11.934333333333331,0.15,178.06942927275497,12.739595699965422,59.07852718834735,1658.0,1435.0,1200.0,1528.0,1551.0,999.7000000000002,107.0,294.1,1649425611.818393,1649425612.942983,f73ed84e-83bb-4500-992b-b3074130202a
0.2825962173951308,0.727903074528883,-0.0196002619365249,-0.2445744703840102,-0.3259386140821364,-0.5701099592272992,-0.5717535467598591,-0.5915817873106458,-16.15052265220749,24.89654664705935,-14.153651554950232,-0.5757327987280855,2.999124005740896,1.329169679520494,4455.77587890625,11.907,0.14,177.90987150028403,12.749064334293566,58.98788147114239,1767.0,1435.0,1200.0,1528.0,1630.0,999.7000000000002,107.0,294.1,1649425613.8532455,1649425614.913008,6475405b-2dee-4ffd-9368-ad0468edac7b
0.2891382412401627,0.7295784374150379,-0.0096110876065408,-0.2422060611945118,-0.3195094484720191,-0.5721973154240766,-0.5661023450051533,-0.5862910793443413,-16.177580926136514,25.281846720355777,-13.851446192407517,-0.5826797699130254,3.003268901442657,1.2992231349024614,4456.29052734375,11.907333333333334,0.1344444444444444,177.92371857046138,12.75018922850437,58.99428211730459,1767.0,1435.0,1200.0,1528.0,1630.0,999.7000000000002,107.0,294.1,1649425615.0242002,1649425616.2181904,6475405b-2dee-4ffd-9368-ad0468edac7b
0.2815366516889062,0.7263323533419155,-0.0120490750590581,-0.2448084076315352,-0.3224131193097685,-0.5672665528017468,-0.5682116155872785,-0.5831682632880258,-16.21614967456932,25.396097108532945,-13.96191565717759,-0.5651304718197286,2.9925139675194377,1.3088591726013186,4457.31982421875,11.908,0.14,177.96267796948712,12.739426083601034,58.92322917718877,1767.0,1435.0,1200.0,1528.0,1630.0,999.7000000000002,107.0,294.1,1649425616.3267038,1649425617.452535,6475405b-2dee-4ffd-9368-ad0468edac7b
0.429347794115358,0.9867007490184484,-0.0196801655892582,-0.4564697932056589,-0.4093746928132238,-0.5985642526986801,-0.6211066883202616,-0.6338128853283185,-16.293157544593786,25.97364628010808,-10.093821056444252,-0.153977855177757,3.960902043247081,1.5478307609014337,4458.609483506944,11.892888888888889,0.1377777777777778,177.87919180835218,12.768295680539122,58.89824889866431,1886.0,1435.0,1200.0,1528.0,1710.0,999.7000000000002,107.0,294.1,1649425618.358795,1649425619.498603,0383e690-ce59-425f-bb0e-e8cb1c9e5fd0
0.4236331689228991,0.9920234420295864,-0.0033707247021667,-0.4574938747867898,-0.3997407422883278,-0.6062638284791524,-0.6097027190479132,-0.6286798341480655,-16.076530475483473,26.41309277017939,-10.480548599494092,-0.1651971097857127,3.98392717219554,1.496301344005313,4452.432508680556,11.841666666666669,0.12,177.9419111587707,12.782131367067844,59.001245874618384,1886.0,1435.0,1200.0,1528.0,1710.0,999.7000000000002,107.0,294.1,1649425619.6115887,1649425620.927706,0383e690-ce59-425f-bb0e-e8cb1c9e5fd0
0.4291910212195833,0.987195342253802,-0.0087131412023689,-0.4614096585531145,-0.3980329285243149,-0.5964862524975694,-0.6081885955909359,-0.6304493458789981,-16.337725776743948,25.84495348826499,-10.282315972211514,-0.1385247024792309,3.966044408741104,1.498813322365234,4447.554796006944,11.841888888888889,0.12,178.00525129749374,12.798281159632865,59.08863966286851,1886.0,1435.0,1200.0,1528.0,1710.0,999.7000000000002,107.0,294.1,1649425621.03571,1649425622.1541488,0383e690-ce59-425f-bb0e-e8cb1c9e5fd0
-0.2916599577803673,-0.3167871200299281,-0.028633416496276,0.3205170549792284,-0.0978744537570331,-0.0882496075949436,-0.3619791965927785,-0.380834430610451,-15.619261169259534,27.94563831482367,-16.460328245395296,-0.7479735504214519,-0.97251131624214,0.6065911649889311,4448.0673828125,11.895666666666664,0.1377777777777777,179.07899498051515,12.756609985779136,59.194144836067785,1449.0,1435.0,1200.0,1528.0,1386.0,999.7000000000002,107.0,294.1,1649425623.7578845,1649425625.026664,29a5daf2-35a2-4923-979c-3408783bdf78
-0.2993913923110464,-0.3301330488375246,-0.0455820864914216,0.3264865626515025,-0.1098660654326514,-0.0807285530103479,-0.3751673413568619,-0.396363044167361,-15.666151768932936,27.832274752290253,-16.583009078119577,-0.7461770742457755,-1.0229588183035256,0.663082371291921,4450.120334201389,11.960666666666668,0.1611111111111111,179.04651818992164,12.743553035679534,59.07840272712247,1449.0,1435.0,1200.0,1528.0,1386.0,999.7000000000002,107.0,294.1,1649425625.1353338,1649425626.2547753,29a5daf2-35a2-4923-979c-3408783bdf78
-0.2995886227716392,-0.3297911826663284,-0.0422686148996193,0.3309571190892877,-0.1063816607025086,-0.0851728125344342,-0.3732344826211607,-0.39591598809747,-15.669485460190677,27.85922601006826,-16.562080223494274,-0.7659030888418209,-1.0221784168510448,0.65116457034482,4461.96044921875,11.96577777777778,0.1644444444444444,179.04628444567004,12.742388773017264,58.93774408808496,1449.0,1435.0,1200.0,1528.0,1386.0,999.7000000000002,107.0,294.1,1649425626.363211,1649425627.4903214,29a5daf2-35a2-4923-979c-3408783bdf78
-0.4876758289317682,-0.6763185890763808,-0.0474683765928314,0.5071189541511761,-0.0396476413693058,0.0988519602102369,-0.3056211359229407,-0.3379176266266531,-15.426536261968062,29.459598265072668,-15.389830829363362,-0.7390934877152681,-2.35596781764912,0.4318724555998668,4460.671115451389,11.946666666666664,0.1511111111111111,179.21460155629654,12.759927370713518,58.82548917016589,1342.0,1435.0,1200.0,1528.0,1293.0,999.7000000000002,107.0,294.1,1649425628.3939564,1649425629.534443,1aa4ca80-affb-4c12-9fdd-64df1c721f8c
-0.4857610495382164,-0.6761805277015795,-0.0534055610248396,0.5083067195879605,-0.0450298412068271,0.098212056993276,-0.3112252207109177,-0.3262673322473605,-15.385533818114476,29.404766551791703,-15.350101631738452,-0.7438428890551383,-2.3566158827390926,0.4554095972933936,4459.6396484375,11.919777777777778,0.1311111111111111,179.2365052140549,12.774190038929106,58.83297505749621,1342.0,1435.0,1200.0,1528.0,1293.0,999.7000000000002,107.0,294.1,1649425629.642793,1649425630.7596805,1aa4ca80-affb-4c12-9fdd-64df1c721f8c
-0.4809645135021163,-0.6786333083279708,-0.0527415518489019,0.5176789998522113,-0.0430306914557592,0.0915653911388136,-0.3132501202465658,-0.3424511881003505,-15.475270433940937,29.48537459107112,-15.415440327786706,-0.7794085655994859,-2.365711539048537,0.4542619887916952,4459.929748535156,11.9195,0.14,179.26258022012132,12.77191704446547,58.89198703815149,1342.0,1435.0,1200.0,1528.0,1293.0,999.7000000000002,107.0,294.1,1649425630.8678658,1649425631.984979,1aa4ca80-affb-4c12-9fdd-64df1c721f8c
-0.695088360155206,-1.04375252121507,-0.0539446576406574,0.6101039162956462,0.0122195835716284,0.3894293669081605,-0.2159629042508295,-0.2392360991309965,-14.858371238661093,31.873414506009425,-11.494761578283878,-0.3018501991743683,-3.785660972061239,0.2037448322791696,4456.5478515625,11.890666666666666,0.1333333333333333,179.50547199229075,12.80217930037417,58.98518354642023,1227.0,1435.0,1200.0,1528.0,1189.0,999.7000000000002,107.0,294.1,1649425633.923479,1649425635.0579813,9bce8f71-1f10-43c4-be27-40ed26bcbc1b
-0.6863313251619324,-1.0507476323029967,-0.0673826257010159,0.608039571190572,-0.0013630198477254,0.3969372718979063,-0.2299925646140707,-0.2459682327992979,-14.980721692793963,32.11873905813487,-11.779915527328798,-0.2794721556897334,-3.809097182847629,0.2590845634519706,4454.746744791667,11.827,0.1188888888888888,179.55799462918833,12.829363832725774,59.17030519913472,1227.0,1435.0,1200.0,1528.0,1189.0,999.7000000000002,107.0,294.1,1649425635.1670864,1649425636.2898142,9bce8f71-1f10-43c4-be27-40ed26bcbc1b
-0.6787182270775007,-1.0488279213665646,-0.0654629159856305,0.604016070528369,0.0015296933719903,0.3991331040109521,-0.2252984795578516,-0.2511225222412263,-14.946684747896064,31.889273702910504,-11.699064626341055,-0.2668573394128326,-3.802241397458234,0.2462734504299193,4457.31982421875,11.826333333333334,0.1166666666666666,179.57994382154112,12.839315323482746,59.32590070297715,1227.0,1435.0,1200.0,1528.0,1189.0,999.7000000000002,107.0,294.1,1649425636.3986845,1649425637.7240143,9bce8f71-1f10-43c4-be27-40ed26bcbc1b
-0.0878814440642241,0.078436418090257,-0.0387842102876381,0.1045760258809087,-0.1981595675891927,-0.2759604123112826,-0.4570837360603852,-0.4793050380157665,-15.849668668557984,26.85493508602999,-16.752658124083343,-0.6905731619616288,0.5399638844499074,0.9382312723397708,4456.034071180556,11.863555555555555,0.1266666666666666,179.22069712067585,12.837849204404655,59.55591946583586,1553.0,1435.0,1200.0,1528.0,1471.0,999.7000000000002,107.0,294.1,1649425638.838734,1649425639.978995,e576b030-e6b7-4bca-9735-120eabed0f52
-0.0678822761623459,0.0872197471047453,-0.0328541481004203,0.0990930196422676,-0.1930710216725949,-0.2822717873418106,-0.4523633530394101,-0.4795417147182694,-15.915124077883634,26.704225612706782,-17.100813356909715,-0.6931795859778441,0.5775041306280828,0.9170360870559744,4457.835340711806,11.95377777777778,0.1522222222222222,179.17721613641956,12.816034718560497,59.42244542689528,1553.0,1435.0,1200.0,1528.0,1471.0,999.7000000000002,107.0,294.1,1649425640.0868018,1649425641.2016184,e576b030-e6b7-4bca-9735-120eabed0f52
-0.0620837008736391,0.088100709741603,-0.0333800959914087,0.1072189137863108,-0.1924267355084903,-0.2861375046084855,-0.4527841114097763,-0.4710213574520667,-15.803335869846324,26.608908343136022,-16.467404906729833,-0.7206972132520473,0.5733677532626588,0.9186630492442353,4457.31982421875,11.95977777777778,0.1644444444444444,179.1289676801226,12.791366921190564,59.28797342142598,1553.0,1435.0,1200.0,1528.0,1471.0,999.7000000000002,107.0,294.1,1649425641.3104498,1649425642.645687,e576b030-e6b7-4bca-9735-120eabed0f52
-0.0593093258571486,0.0750966492666742,-0.0575474005058487,-0.1613826609357768,-0.2402879948879894,-0.0142487424181791,-0.3982959024821161,-0.4145213971372128,-15.73369656338993,25.925954308971267,-14.665331231545563,0.4907640437781965,0.5396569389641932,0.9381569586427778,4456.80517578125,11.960666666666668,0.1522222222222222,179.13036862781237,12.894462555432645,59.12134336752443,1553.0,1522.0,1200.0,1528.0,1471.0,999.7000000000002,107.0,294.1,1649425643.2543857,1649425644.4858084,47003023-8f74-4734-be30-0fae4eb398a7
-0.0602560320366758,0.0773976710992963,-0.0511045390883178,-0.1648539170539542,-0.2338582816777202,-0.0142355937678564,-0.389762396924333,-0.4119048059522345,-15.64431009569175,25.75836380220866,-14.73811250546475,0.4978671207732422,0.5491325597558422,0.908743862204383,4453.4609375,11.964,0.1566666666666666,179.11691619078704,12.89620909172166,59.02029299548381,1553.0,1522.0,1200.0,1528.0,1471.0,999.7000000000002,107.0,294.1,1649425644.5949965,1649425645.7106254,47003023-8f74-4734-be30-0fae4eb398a7
-0.0583757683993643,0.0809872651463767,-0.0450692872902619,-0.1633944116031204,-0.2309655681640917,-0.0181933513772687,-0.3872641441349163,-0.4180715462211743,-15.605180648638768,26.014833800518005,-14.580224315808223,0.4877267751698693,0.5611266682237209,0.8936121194377614,4462.737955729167,11.962666666666667,0.16,179.0764359363061,12.890766094999329,58.82709350571094,1553.0,1522.0,1200.0,1528.0,1471.0,999.7000000000002,107.0,294.1,1649425645.818635,1649425647.1125233,47003023-8f74-4734-be30-0fae4eb398a7
-0.0553849877557784,0.069089338711441,-0.0697800714043348,-0.4411760014632996,-0.2840627495836313,0.2652925341439051,-0.3343428237719756,-0.3589007586498753,-15.537093348609332,25.71839717082572,-12.190285635508149,1.748584318591201,0.5274676388360251,0.9239320455023292,4455.5185546875,11.960444444444445,0.15,179.09042112808663,13.00325295475896,58.57655989022515,1553.0,1613.0,1200.0,1528.0,1471.0,999.7000000000002,107.0,294.1,1649425648.7550955,1649425650.013278,1f943042-022b-4025-b829-30ee619dd81b
-0.0541933871159793,0.0671170342800117,-0.0755052331703688,-0.4427784991611561,-0.2882675936767282,0.2677031283333861,-0.3377258743386509,-0.3517922428498704,-15.508053964945224,25.565980234782547,-12.365380137588426,1.7563073292876048,0.5212483947502139,0.9418631714630664,4455.26123046875,11.95388888888889,0.15,179.08730504400532,12.99002951879834,58.46937980285939,1553.0,1613.0,1200.0,1528.0,1471.0,999.7000000000002,107.0,294.1,1649425650.1222105,1649425651.2425864,1f943042-022b-4025-b829-30ee619dd81b
-0.0510842682040608,0.0667335306441492,-0.0689308847576682,-0.4392721794271968,-0.2818439068165966,0.2649775132930707,-0.3326170571308394,-0.3462451357393357,-15.55135359077083,25.64553465575567,-12.303054382411592,1.7431159837795904,0.5195505202741982,0.9168877636758044,4456.80517578125,11.952222222222222,0.1422222222222222,179.08477787401242,12.99520661246173,58.38840183896964,1553.0,1613.0,1200.0,1528.0,1471.0,999.7000000000002,107.0,294.1,1649425651.3562489,1649425652.4717512,1f943042-022b-4025-b829-30ee619dd81b
-0.0456330376765651,0.0547764350218679,-0.0951324026037318,-0.740719833273808,-0.3424100981570741,0.5697259176094865,-0.2788443600607765,-0.311798285308855,-15.476506101959425,25.69619695828254,-10.003343596871536,3.1073538403161223,0.4892465920850857,0.9577209539037492,4452.689453125,11.944222222222225,0.14,179.11067339788565,13.113669413426432,58.20960797706621,1553.0,1710.0,1200.0,1528.0,1471.0,999.7000000000002,107.0,294.1,1649425653.3801296,1649425654.517196,1376bfa4-5118-43b7-90a6-b9a8f2618d79
-0.0438201611121236,0.0580296416145135,-0.0862773030728536,-0.7342451935598733,-0.3332361416657083,0.5604807414329526,-0.2707929739867196,-0.2858876796367895,-15.357873389414497,25.584064274217667,-9.951141786715072,3.071739115796015,0.4999080759013927,0.9223447785484324,4454.746744791667,11.944111111111113,0.15,179.10468256307365,13.093324366891212,58.09467031262314,1553.0,1710.0,1200.0,1528.0,1471.0,999.7000000000002,107.0,294.1,1649425654.6266465,1649425655.755025,1376bfa4-5118-43b7-90a6-b9a8f2618d79
-0.0522747730928757,0.0569251511382705,-0.0974799928544657,-0.7361649038715141,-0.3417564982435218,0.561703570074328,-0.2794053711919579,-0.2990232290046062,-15.375866897815802,25.32118483013791,-10.255297682610587,3.076459350721871,0.4981103531216442,0.9609983766809068,4452.689453125,11.936444444444442,0.14,179.09604009704384,13.10755032284001,58.00802860409161,1553.0,1710.0,1200.0,1528.0,1471.0,999.7000000000002,107.0,294.1,1649425655.8676596,1649425656.9751923,1376bfa4-5118-43b7-90a6-b9a8f2618d79
-0.0531031409786468,0.045130770590796,-0.0970592345707922,-0.9347497622449674,-0.3746939881896001,0.769518694237704,-0.2361461551262207,-0.2629826474423749,-15.393184047827326,26.63155514861719,-8.200024148200292,4.000432929158056,0.4602799276160712,0.9428755222111386,4444.226236979167,11.916111111111112,0.1344444444444444,179.1350556554028,13.194578506242069,57.90735692809499,1553.0,1814.0,1200.0,1528.0,1471.0,999.7000000000002,107.0,294.1,1649425658.909547,1649425660.0476096,0e3976c4-f874-444a-9cde-c0c89a8bba28
-0.0491509461826648,0.0439266534460073,-0.0933634392991607,-0.927686379390595,-0.3675517162571283,0.7607328373480787,-0.2315891199562678,-0.2545108404890746,-15.3890232696488,26.34845325791077,-8.656659268119792,3.962993287883108,0.4591412916845143,0.9210127572891174,4441.1533203125,11.905,0.13,179.13400532409042,13.201314495719776,57.87989729090182,1553.0,1814.0,1200.0,1528.0,1471.0,999.7000000000002,107.0,294.1,1649425660.1563156,1649425661.273049,0e3976c4-f874-444a-9cde-c0c89a8bba28
-0.0248597405330347,0.0508373047698716,-0.0828323445476532,-0.929818998130937,-0.3614532487508496,0.7564225939869677,-0.2244832602612614,-0.2442983478432368,-15.30340363305725,26.588708783975623,-8.521506066560082,3.960299964987809,0.4841908424758717,0.8892035353067195,4441.1533203125,11.90922222222222,0.13,179.15045697307127,13.211202048317016,57.88902621818248,1553.0,1814.0,1200.0,1528.0,1471.0,999.7000000000002,107.0,294.1,1649425661.3837652,1649425662.5117676,0e3976c4-f874-444a-9cde-c0c89a8bba28
-0.0922994062645524,0.0815658077767738,-0.0153663816359034,0.4484670082968896,-0.1377938980620108,-0.6085962052643792,-0.5279683755303642,-0.5409198458890997,-16.200421385157803,27.456221025058625,-18.773499886152944,-2.2091306507331896,0.5312486317988556,0.9250662298419394,4448.0673828125,11.925222222222224,0.1388888888888889,179.20247265815044,12.931306398226722,57.913822840509255,1553.0,1349.0,1200.0,1528.0,1471.0,999.7000000000002,107.0,294.1,1649425664.35936,1649425665.57617,7e1de068-d3fc-4129-b31b-e3acad146207
-0.0884205406613358,0.0809741164463074,-0.0152217459959951,0.4495057552064334,-0.1369655301532276,-0.6077152423916238,-0.5264825724964523,-0.5516097382697369,-16.14081718854841,27.3731539475522,-18.587856955145966,-2.20997803207604,0.5268420854866173,0.921900462591528,4452.689453125,11.949777777777776,0.14,179.2246024710613,12.738532467184625,58.01608974513205,1553.0,1349.0,1200.0,1528.0,1471.0,999.7000000000002,107.0,294.1,1649425665.6841917,1649425666.8106472,7e1de068-d3fc-4129-b31b-e3acad146207
-0.082332693996263,0.092413482063182,-0.0045450043828955,0.4381978773938369,-0.1310749138045425,-0.6103055363663767,-0.5175414565773299,-0.542155822921622,-16.071172216599553,27.436578845851088,-18.76844946324593,-2.189332614819015,0.5729244844012019,0.8876463918632482,4459.6396484375,11.949444444444444,0.1444444444444445,179.25847869152474,12.730019015839154,58.149463607964805,1553.0,1349.0,1200.0,1528.0,1471.0,999.7000000000002,107.0,294.1,1649425666.91896,1649425668.0359714,7e1de068-d3fc-4129-b31b-e3acad146207
-0.0953652441101556,0.0971261938750569,0.0081670457888685,0.7081844149673587,-0.0940092847053084,-0.8748092052482314,-0.5847707600363768,-0.6067674412012193,-16.34783320781276,28.396678073381747,-20.58965425028183,-3.3861631432562542,0.5762804868581427,0.915335283557992,4454.232421875,11.942333333333332,0.1333333333333333,179.29530707152946,12.638168813746807,58.51137787715589,1553.0,1264.0,1200.0,1528.0,1471.0,999.7000000000002,107.0,294.1,1649425669.9693625,1649425671.1059446,7b02e24a-5705-4951-bad3-81e7b4c6fc61
-0.0866679289540883,0.0998792021156837,0.0168780571394573,0.7087596703720046,-0.0849558590350546,-0.8782881329339917,-0.575785814846472,-0.5982207860401489,-16.337525998480313,28.276033901336195,-20.55593319711578,-3.395633844401535,0.5867134802084619,0.8787799170847634,4452.689453125,11.921666666666669,0.13,179.29906671121256,12.642789057265368,58.67302720533267,1553.0,1264.0,1200.0,1528.0,1471.0,999.7000000000002,107.0,294.1,1649425671.217677,1649425672.3374166,7b02e24a-5705-4951-bad3-81e7b4c6fc61
-0.0988167770645542,0.0897574454468719,0.0053592512350316,0.711992057885586,-0.0948995610642208,-0.8713028844208891,-0.585619946915592,-0.6104381198674057,-16.320347941953603,28.38215998151171,-20.633182596465183,-3.3871022366269874,0.5481874090081117,0.920689819526094,4451.661675347223,11.924666666666669,0.14,179.31828838135678,12.654688385164391,58.81642550913729,1553.0,1264.0,1200.0,1528.0,1471.0,999.7000000000002,107.0,294.1,1649425672.4702098,1649425673.5638764,7b02e24a-5705-4951-bad3-81e7b4c6fc61
-0.0887087162713615,0.103960776516011,0.042915215241107,0.8796653127350224,-0.0492489292682485,-1.0475092161579187,-0.6033843891448637,-0.6365300732874096,-16.300708976895706,29.32572111928557,-21.6893192569094,-4.153324625732895,0.5924327323711678,0.8339375469791724,4456.5478515625,11.9,0.1266666666666666,179.34471210652586,12.626651407258876,59.08970593128894,1553.0,1178.0,1200.0,1528.0,1471.0,999.7000000000002,107.0,294.1,1649425674.267321,1649425675.6115036,5b4699ac-7747-4430-b304-e650bcd30e5e
-0.0946267255922311,0.1029587363079454,0.0364920770935496,0.8774694806556202,-0.0541024419484022,-1.0449753511146147,-0.6068868742390546,-0.6314223497784568,-16.234399981470972,29.120081173911704,-21.792161261834103,-4.144343490255534,0.5889763133831979,0.8541356636462828,4452.689453125,11.9,0.12,179.33157537602222,12.6212248219633,59.24351723793817,1553.0,1178.0,1200.0,1528.0,1471.0,999.7000000000002,107.0,294.1,1649425675.720196,1649425677.0467422,5b4699ac-7747-4430-b304-e650bcd30e5e
-0.0826927659915268,0.1015659859616658,0.0423462812515487,0.8769976447603783,-0.0496313793522933,-1.04079052265725,-0.6023065749822801,-0.6292487683107345,-16.325478670651655,29.339004469863767,-21.415218301649592,-4.132118266307978,0.5814893806463027,0.8337500609473035,4448.0673828125,11.892444444444443,0.12,179.34516441683087,12.636205039496692,59.41089785373851,1553.0,1178.0,1200.0,1528.0,1471.0,999.7000000000002,107.0,294.1,1649425677.1550033,1649425678.2708397,5b4699ac-7747-4430-b304-e650bcd30e5e
-0.0852385559967393,0.1069559399018548,0.0574905450406259,0.9466316173076152,-0.0358783483234945,-1.1141901366494378,-0.6151574069305693,-0.6377205775284797,-16.306372949065857,30.267231008600056,-21.9854674038697,-4.447308055639317,0.5990262380123985,0.8127623392255211,4450.376953125,11.891,0.1266666666666666,179.36788466165,12.676931560242709,59.65854457593511,1553.0,1088.0,1200.0,1528.0,1471.0,999.7000000000002,107.0,294.1,1649425679.3939393,1649425680.398879,ea308b40-0e4f-4099-a015-9e84da1d517d
-0.0959552497048335,0.109809206935901,0.0579982870044631,0.9511992717512084,-0.034055230958775,-1.1220217081933752,-0.6153162027391509,-0.6428779026211513,-16.28465524895686,30.10589324625065,-22.100189571333463,-4.476261752529357,0.6100578672175827,0.8101180641216691,4442.689127604167,11.876,0.12,179.3538827738515,12.71210162723518,59.756710331416265,1553.0,1088.0,1200.0,1528.0,1471.0,999.7000000000002,107.0,294.1,1649425680.506626,1649425681.7557232,ea308b40-0e4f-4099-a015-9e84da1d517d
-0.0900115329719599,0.0958584404345536,0.0430138304356269,0.9381375601764974,-0.0502235764367602,-1.0957030562665304,-0.6267151148428387,-0.6556422568494417,-16.429025183845486,30.48623658857596,-22.117202420941226,-4.385956374373421,0.5595713022051639,0.8667113939953471,4436.5556640625,11.870888888888889,0.1122222222222222,179.36285764242086,12.734091421268037,59.87200771915562,1553.0,1088.0,1200.0,1528.0,1471.0,999.7000000000002,107.0,294.1,1649425681.8644638,1649425682.9914105,ea308b40-0e4f-4099-a015-9e84da1d517d
-0.0672774361032603,0.0755700023338193,-0.0353786978677783,0.1006840118735776,-0.1888502897978902,-0.2677293273534183,-0.4422651520392618,-0.4583065656929295,-15.610117104706784,26.05447813795277,-16.412976047506096,-0.6682594075714673,0.525188508173647,0.900405280973239,4436.55859375,11.898666666666664,0.1266666666666666,179.3661270263036,13.043162319261777,60.01741182184647,1553.0,1435.0,1200.0,1528.0,1471.0,999.7000000000002,107.0,294.1,1649425684.9191048,1649425686.056715,7f99828f-f1e1-4795-9ac2-279b88d6dbf4
-0.0693943763025652,0.0767533849840817,-0.0280811712297951,0.1024327884329546,-0.1823548332303313,-0.2709376096695374,-0.4374132820166475,-0.4620802423416877,-15.709257725599516,26.179458403741027,-16.429490446666126,-0.6782743177437024,0.5307244042829548,0.874717478220083,4450.633897569444,11.955333333333334,0.1411111111111111,179.27586531751194,13.049664279896676,59.73179987260331,1553.0,1435.0,1200.0,1528.0,1471.0,999.7000000000002,107.0,294.1,1649425686.1654816,1649425687.2828045,7f99828f-f1e1-4795-9ac2-279b88d6dbf4
-0.0755216690203301,0.0719804082816115,-0.0341690177567488,0.1050888250275899,-0.1881665575013603,-0.2681369370013871,-0.443645765426554,-0.4649729559096227,-15.708671567553775,26.30444064407279,-16.39745385021056,-0.6774414099970754,0.5118239191296738,0.899245447507735,4456.033203125,11.956666666666669,0.14,179.2426402417494,13.049128868956736,59.56118174713639,1553.0,1435.0,1200.0,1528.0,1471.0,999.7000000000002,107.0,294.1,1649425687.3926103,1649425688.4647863,7f99828f-f1e1-4795-9ac2-279b88d6dbf4
-0.0257045443297697,0.1050701977491771,0.1185613076962007,0.0939759854388698,-0.0510020888215718,-0.297773006676727,-0.2902672915158331,-0.3056896195767386,-14.717011473035782,26.154422642007432,-16.281109934805055,-0.7118415867718717,0.6389288409269406,0.2906815551069934,4464.2841796875,11.95611111111111,0.14,179.13367595719046,13.053079659072898,59.1561090303998,1553.0,1435.0,1200.0,1424.0,1471.0,999.7000000000002,107.0,294.1,1649425689.4294064,1649425690.5644286,63ad9bf7-a74c-43e7-a59a-300ed85e126b
-0.0233761292964345,0.1058919912536622,0.1224648268202282,0.093099405687867,-0.0498515778493652,-0.2987865521708228,-0.2878156071539241,-0.3124831132891061,-14.603631548214194,26.353349547999915,-16.403931535892173,-0.7105912358942849,0.6426559174281448,0.2802190833143368,4461.96044921875,11.957333333333333,0.14,179.10705339762555,13.062187526603632,59.02047513386169,1553.0,1435.0,1200.0,1424.0,1471.0,999.7000000000002,107.0,294.1,1649425690.671922,1649425691.7977717,63ad9bf7-a74c-43e7-a59a-300ed85e126b
-0.0207189968673871,0.1016460581512715,0.1177669073086845,0.0957291449117885,-0.0534674694605244,-0.2970881786479011,-0.2926367964865434,-0.3139349487888406,-14.66906026263254,26.410336569940288,-16.446625091645267,-0.7126027031387981,0.626951933283502,0.2977921257328211,4464.2841796875,11.958222222222224,0.1444444444444445,179.0991440385667,13.065265570325844,58.88773799644158,1553.0,1435.0,1200.0,1424.0,1471.0,999.7000000000002,107.0,294.1,1649425691.9280112,1649425693.0194304,63ad9bf7-a74c-43e7-a59a-300ed85e126b
0.0447757557707681,0.1409453189711162,0.3189260628366758,0.083958870459434,0.1246672333996047,-0.3346562010823785,-0.0914315922543426,-0.1191621948663215,-13.159092399759723,26.50508230645613,-16.314143609685747,-0.7590465487143121,0.7766898910878394,-0.4996532540723594,4464.2841796875,11.92222222222222,0.1288888888888889,179.06073712595378,13.06223856329493,58.50361043424979,1553.0,1435.0,1200.0,1304.0,1471.0,999.7000000000002,107.0,294.1,1649425694.95469,1649425696.0980575,e103f66c-bea1-409a-ba37-282bbeadba34
0.0531120292203888,0.1391045015451596,0.3181239924252235,0.088429427107119,0.1264949021415599,-0.3366022084933389,-0.0904848860607213,-0.1137843772346251,-13.13336843609548,26.298635123750632,-16.259103198391113,-0.7748907462272874,0.7685110474580228,-0.5024003946651251,4464.2841796875,11.951,0.14,179.03804268407157,13.063638562347304,58.39999039326142,1553.0,1435.0,1200.0,1304.0,1471.0,999.7000000000002,107.0,294.1,1649425696.2335143,1649425697.3218946,e103f66c-bea1-409a-ba37-282bbeadba34
0.0431617532913687,0.1363531369286562,0.3174901157326754,0.0868537750274916,0.1252589247148221,-0.3329046849286997,-0.0912288831718782,-0.1229364185210444,-13.169368677268515,26.425263294246307,-16.329563032290597,-0.7622491147168636,0.7592270015424881,-0.4993168662958875,4461.96044921875,11.95588888888889,0.14,179.05599545684996,13.06619495037166,58.29582166040974,1553.0,1435.0,1200.0,1304.0,1471.0,999.7000000000002,107.0,294.1,1649425697.4298608,1649425698.551341,e103f66c-bea1-409a-ba37-282bbeadba34
0.1000265770672504,0.1797865664653787,0.5123565176782677,0.0908093411218327,0.299347655396774,-0.3881451069764738,0.0975809196000667,0.0851422528541044,-11.815531264257798,26.506550422467736,-16.145903859967994,-0.884351835230306,0.9227867291151725,-1.264418719369656,4448.0673828125,11.95588888888889,0.14,179.0421241015556,13.068785963660556,58.09488584303696,1553.0,1435.0,1200.0,1181.3333333333333,1471.0,999.7000000000002,107.0,294.1,1649425700.2585533,1649425701.208984,28617dea-06fe-4de7-9ee1-13d94759dbdb
0.0963843882805709,0.1778800055796844,0.5138817662957568,0.0888896314771068,0.3028452083621637,-0.3872641441840631,0.1025774240680128,0.0863650817802736,-11.746984672449654,26.25055477942722,-16.509488195864805,-0.8796863312667597,0.918701957941748,-1.278982880715264,4448.0673828125,11.933333333333334,0.13,179.0581720104655,13.068415236170605,58.113339496354506,1553.0,1435.0,1200.0,1166.0,1471.0,999.7000000000002,107.0,294.1,1649425701.3171902,1649425702.444918,28617dea-06fe-4de7-9ee1-13d94759dbdb
0.1024853832317797,0.178050938620607,0.517905266974011,0.0938203925163568,0.3061586796046625,-0.3893416385843452,0.1041026727981912,0.0749125674767902,-11.801797644122049,26.41890047404235,-16.116158384797288,-0.8941258924235835,0.9158957826178882,-1.2906408027720804,4446.273328993056,11.933333333333334,0.1322222222222222,179.08422386977975,13.080158513219844,58.126993044505376,1553.0,1435.0,1200.0,1166.0,1471.0,999.7000000000002,107.0,294.1,1649425702.5592906,1649425703.6058035,28617dea-06fe-4de7-9ee1-13d94759dbdb
-0.1416070202567909,0.0380304745922995,-0.2326748989183178,0.1417868354993308,-0.3699078618724825,-0.2587750640573503,-0.6581799559522782,-0.6733535571316759,-17.15237535831355,27.089693389242285,-16.58341061013964,-0.7446208506194232,0.3792681294436156,1.7174396684033568,4452.689453125,11.946555555555555,0.1344444444444444,179.23721100026913,13.096563204650137,58.27217858114279,1553.0,1435.0,1200.0,1623.0,1471.0,999.7000000000002,107.0,294.1,1649425706.013505,1649425707.1517086,aafe2a87-4fa1-458c-b2d2-0d00c4f56a21
-0.1496408742869892,0.0360187240505594,-0.2350022184251106,0.1445086155531351,-0.3693950626174503,-0.2601425286490662,-0.6583377403699356,-0.6856344441757705,-17.142047850010744,26.850840187110624,-16.708402190513794,-0.7555473925902327,0.3722708436143796,1.7198476665987454,4455.5185546875,11.958111111111112,0.14,179.3370501520969,13.097978666491882,58.24376271746582,1553.0,1435.0,1200.0,1623.0,1471.0,999.7000000000002,107.0,294.1,1649425707.2611,1649425708.3765028,aafe2a87-4fa1-458c-b2d2-0d00c4f56a21
-0.1459986851326531,0.0307723942223162,-0.2427205040052476,0.1440878572689549,-0.3759431145487281,-0.2513460497764224,-0.6643729941221298,-0.6798095704260889,-17.21028752119728,26.893856950960977,-16.297107633367293,-0.7348993455850965,0.3489948430885075,1.7477563607814055,4455.77587890625,11.958333333333334,0.14,179.33630186692787,13.099244433354322,58.18242458307946,1553.0,1435.0,1200.0,1623.0,1471.0,999.7000000000002,107.0,294.1,1649425708.4888818,1649425709.6082785,aafe2a87-4fa1-458c-b2d2-0d00c4f56a21
-0.2100065441430393,0.0063684137054062,-0.4102349211518155,0.1932902769710689,-0.5264825725277273,-0.2664802010448701,-0.8510845621260504,-0.8771584408695492,-18.49943520423948,27.436296978771274,-16.770114538614948,-0.8853659316854953,0.2541134049460645,2.442661857669381,4452.689453125,11.955,0.14,179.35695635897798,13.06830509937024,58.16653300961056,1553.0,1435.0,1200.0,1712.0,1471.0,999.7000000000002,107.0,294.1,1649425711.2553551,1649425712.2681062,21251d07-390d-4c57-920c-d79b06ad5451
-0.210430041787275,0.0026747257241927,-0.4146731548987217,0.1946045986613029,-0.5306282480248404,-0.2658600208299257,-0.8563051450246059,-0.888683827010509,-18.55622793215336,27.543055567760245,-17.062386481221946,-0.886525548332593,0.2428108221638936,2.4608600478298057,4461.193033854167,11.933,0.13,179.3762174924374,13.066145621227657,58.18717384128235,1553.0,1435.0,1200.0,1712.0,1471.0,999.7000000000002,107.0,294.1,1649425712.3759804,1649425713.4996507,21251d07-390d-4c57-920c-d79b06ad5451
-0.2059238735292586,0.0041402575152929,-0.4167413356434308,0.1982067934558234,-0.532244442327949,-0.2714071277426768,-0.8613043914403686,-0.8849857541013271,-18.69692521931524,27.59778146697086,-17.202306558730644,-0.9069496316369308,0.2499696955481997,2.472889098028832,4489.486219618056,11.934111111111111,0.13,179.4071127147831,13.067943953117874,58.2363284360092,1553.0,1435.0,1200.0,1712.0,1471.0,999.7000000000002,107.0,294.1,1649425713.608198,1649425714.7285929,21251d07-390d-4c57-920c-d79b06ad5451
-0.261194424500939,-0.0303821931320426,-0.585191518479633,0.2666074036930115,-0.68184761797738,-0.2916073630207586,-1.05157600084196,-1.0809239116340832,-19.95037398930042,28.39391481485122,-17.31253594096174,-1.1103958316608808,0.1112511580194243,3.172240142549376,4507.587348090277,11.932555555555556,0.12,179.4307709722482,13.03616526477579,58.35062482158019,1553.0,1435.0,1200.0,1801.0,1471.0,999.7000000000002,107.0,294.1,1649425715.8442209,1649425716.9860048,8e38478e-9bfc-4bb0-8862-1d4e1c383057
-0.2542179445418106,-0.0171715880798002,-0.5603908783483181,0.2568965442011783,-0.6609510446808081,-0.2960061503871948,-1.0259371217745643,-1.0608770680236583,-19.75158017423096,28.228448417052288,-17.173907440053668,-1.0981149988808727,0.160928321077424,3.0753837448765307,4508.90380859375,11.922222222222224,0.12,179.43585870426995,13.04561815172335,58.3894036000479,1553.0,1435.0,1200.0,1801.0,1471.0,999.7000000000002,107.0,294.1,1649425717.0938294,1649425718.206606,8e38478e-9bfc-4bb0-8862-1d4e1c383057
-0.2619428045390547,-0.026608517196552,-0.5647463854104172,0.2648131546180107,-0.6638136265660043,-0.2921848100418514,-1.0324977777957596,-1.0587404025714595,-19.979906233527824,28.520113560560333,-16.953273610517968,-1.105749025323661,0.1239487892765744,3.0935200467873023,4499.967122395833,11.92311111111111,0.1211111111111111,179.4407551909949,13.031492466746116,58.44839670281921,1553.0,1435.0,1200.0,1801.0,1471.0,999.7000000000002,107.0,294.1,1649425718.314983,1649425719.4423091,8e38478e-9bfc-4bb0-8862-1d4e1c383057
-0.0857645039004858,0.0475238333101232,-0.0725369149031331,0.0574642475855504,-0.1914405832710679,-0.2141089377832035,-0.4354015311035024,-0.4592006769553874,-16.416468155050627,22.75026007990789,-18.42598719741932,-0.4747551074162057,0.4464563518141812,0.938992253354204,7459.90087890625,11.650666666666666,7.628888888888889,178.22292183724298,12.88352448179556,52.64162865875292,1553.0,1435.0,1350.0,1528.0,1471.0,999.7000000000002,107.0,294.1,1649425724.3985956,1649425725.3794096,77a2ab0c-f7ed-485c-88ca-75d18427a7ef
-0.0865271283235494,0.0441709157634395,-0.0708407329963725,0.0584372511438261,-0.1900468213088159,-0.2090335405100858,-0.4347440961241506,-0.4558214613701199,-16.55427334524343,22.949611930539422,-18.0369726204753,-0.4641462401171672,0.4313995095371286,0.933819079794663,7459.90087890625,11.651444444444444,7.632222222222222,177.91238652771844,12.797031140151011,50.13704989598297,1553.0,1435.0,1350.0,1528.0,1471.0,999.7000000000002,107.0,294.1,1649425725.495837,1649425726.6077335,77a2ab0c-f7ed-485c-88ca-75d18427a7ef
-0.0980716842115678,0.0423300982810552,-0.0759161300053414,0.0532040700353319,-0.195161664677466,-0.2024854890951198,-0.4369530776362179,-0.4555716358702822,-16.466871151021827,22.88489729133393,-18.07528155880709,-0.4382709525098214,0.4245377106605628,0.9506141522138508,7459.90087890625,11.648222222222223,7.703333333333333,177.74681515313827,12.72931322962492,47.77170757508337,1553.0,1435.0,1350.0,1528.0,1471.0,999.7000000000002,107.0,294.1,1649425726.715553,1649425727.764604,77a2ab0c-f7ed-485c-88ca-75d18427a7ef
0.0821832485752517,0.3787822110387819,-0.0668079180963234,-0.1237034255345553,-0.2647642960072148,-0.3602019308065479,-0.5009477975593668,-0.5172604037970948,-16.54749897105501,22.168087863657245,-16.99247236476749,-0.397787156352883,1.6997578026694091,1.1650394152123311,7459.90087890625,11.641333333333334,7.661111111111111,177.55932190696194,12.717998546946102,43.913088205588,1658.0,1435.0,1350.0,1528.0,1551.0,999.7000000000002,107.0,294.1,1649425729.7705753,1649425730.9071348,c2d6cc40-40c7-4188-b62d-af9cb156a021
0.0934144265184475,0.3720024150527445,-0.066191572899336,-0.1199642647785167,-0.262545453206728,-0.355764245070258,-0.5010299769236289,-0.5244100098699181,-16.76688494142751,22.313356412304973,-16.81513093833229,-0.3953381859647711,1.6738915989552927,1.160543641611474,7464.233235677083,11.618333333333336,7.696666666666668,177.68837757241943,12.72567862034909,42.79858347141978,1658.0,1435.0,1350.0,1528.0,1551.0,999.7000000000002,107.0,294.1,1649425731.0160427,1649425732.144254,c2d6cc40-40c7-4188-b62d-af9cb156a021
0.0829332721336114,0.3740979883564637,-0.0643452767597439,-0.1155068564795741,-0.2608525583873445,-0.3572851112097623,-0.4998564555191435,-0.5234583718700091,-16.718793957217432,22.321292347962327,-16.145075668157165,-0.4085350363417486,1.6750405913745383,1.155318383925278,7465.677354600694,11.618444444444444,7.7155555555555555,177.82326014814882,12.758071456534044,41.92866363742524,1658.0,1435.0,1350.0,1528.0,1551.0,999.7000000000002,107.0,294.1,1649425732.273443,1649425733.372957,c2d6cc40-40c7-4188-b62d-af9cb156a021
0.2633859732643639,0.7011717776483134,-0.0807811478255156,-0.2874392258115618,-0.3556809700619859,-0.505102786682035,-0.5922918167390229,-0.6181421621901496,-17.01889275158632,22.04823239510245,-14.52245877137405,-0.355384740160778,2.9096309504897726,1.4787494729583306,7459.90087890625,11.604555555555557,7.685555555555556,177.81737556072392,12.835398589448696,40.644520530481046,1767.0,1435.0,1350.0,1528.0,1630.0,999.7000000000002,107.0,294.1,1649425734.2739763,1649425735.6196222,961b33d3-3ecd-4dab-aa5e-02406b531bbc
0.2654021065917826,0.7004732532281418,-0.0763407233206526,-0.2999096702520527,-0.3526003395714323,-0.4948802205202073,-0.5844146494407602,-0.6015079606146494,-16.999392478189428,22.01758911350332,-14.75115150631554,-0.3042916751987928,2.9107162971865805,1.4567951467470586,7466.3994140625,11.587,7.699999999999999,178.00890924324924,12.878528293281434,40.05958882178546,1767.0,1435.0,1350.0,1528.0,1630.0,999.7000000000002,107.0,294.1,1649425735.7283585,1649425736.8486834,961b33d3-3ecd-4dab-aa5e-02406b531bbc
0.2787436496311706,0.7042091261862017,-0.0690919563678687,-0.2857167463128882,-0.3462533532483799,-0.4968717006549042,-0.5824828862909569,-0.6149601765730083,-17.145990654397032,22.32396500896405,-12.624806281563538,-0.3381254551254067,2.9056372103290813,1.4388662819034324,7472.90869140625,11.577666666666666,7.692222222222223,178.1626127846916,12.909614666060149,39.68019344232363,1767.0,1435.0,1350.0,1528.0,1630.0,999.7000000000002,107.0,294.1,1649425736.9633512,1649425738.0765977,961b33d3-3ecd-4dab-aa5e-02406b531bbc
0.4098098445371258,0.9847759823113112,-0.0783354902645098,-0.534516428912732,-0.4423177470040154,-0.5296382610331196,-0.6378652131699657,-0.6569439787994716,-17.24944870277539,22.79646968918081,-11.026668907198562,0.1523495348520303,3.974556092260193,1.694916922379086,7472.90869140625,11.565,7.690000000000001,178.25992780216612,13.02506231796124,38.87615381851348,1886.0,1435.0,1350.0,1528.0,1710.0,999.7000000000002,107.0,294.1,1649425739.8060915,1649425740.9436162,2b901d69-1edd-46a3-a5e1-84282c783a08
0.4271226303296021,1.0026056131971668,-0.0680016260616269,-0.5473222511290324,-0.4389086940479757,-0.5308990189136635,-0.6305762815699218,-0.6533336484782092,-17.148358761636306,22.936458567237302,-10.333543372805057,0.1800071759829929,4.036803561347028,1.6688455266391873,7479.4296875,11.517555555555557,7.67,178.35453654690951,13.091563506177684,38.65959090777465,1886.0,1435.0,1350.0,1528.0,1710.0,999.7000000000002,107.0,294.1,1649425741.051363,1649425742.1723492,2b901d69-1edd-46a3-a5e1-84282c783a08
0.4333197114961916,1.0080754704757116,-0.0733389854341027,-0.5502554223845084,-0.4460125314417203,-0.5391447707930864,-0.6398769643287473,-0.6563917326238431,-17.229493880348215,23.0311876323758,-11.184363828427331,0.1682801247424242,4.065458289026323,1.6983793182830895,7485.9619140625,11.528555555555554,7.66111111111111,178.47998283684558,13.11786874653739,38.49326593565604,1886.0,1435.0,1350.0,1528.0,1710.0,999.7000000000002,107.0,294.1,1649425742.280672,1649425743.4005291,2b901d69-1edd-46a3-a5e1-84282c783a08
-0.31382866297876,-0.3760614528225866,-0.0595985972557868,0.2890916729419981,-0.0867375075368898,-0.0138411328320394,-0.3370229668736871,-0.3594283492901218,-16.202906965170442,24.47569073101329,-18.229816296626726,-0.5350002299322372,-1.173165011512053,0.589171363316376,7492.50537109375,11.550333333333334,7.646666666666666,179.60273388607172,13.1101603088766,38.278988482104495,1449.0,1435.0,1350.0,1528.0,1386.0,999.7000000000002,107.0,294.1,1649425744.3107731,1649425745.4446871,2540a9e7-dd8b-49bd-b2ba-44df4790020b
-0.3099366482932525,-0.36969748267448,-0.0598089763638363,0.2833325443109521,-0.0886835146385555,-0.0172203478569146,-0.3369966694505857,-0.368159085022034,-16.068953618382686,24.373608161417323,-18.57764436563228,-0.530277804361114,-1.1464675478186293,0.5924357603140114,7499.060546875,11.646555555555556,7.722222222222222,179.66859664132824,13.112219516047622,38.08676419156311,1449.0,1435.0,1350.0,1528.0,1386.0,999.7000000000002,107.0,294.1,1649425745.5531693,1649425746.6769335,2540a9e7-dd8b-49bd-b2ba-44df4790020b
-0.3113698563842345,-0.3702497279910323,-0.0635037601568675,0.2799927756947172,-0.0926938671959214,-0.0108958247965379,-0.340638858900228,-0.3719196135643867,-16.18093030462251,24.456496749689123,-18.22153993968067,-0.5081661550365121,-1.1507240314562843,0.6084139259677299,7497.603841145833,11.654222222222224,7.701111111111111,179.73968676802951,13.11836678116437,37.95695189292756,1449.0,1435.0,1350.0,1528.0,1386.0,999.7000000000002,107.0,294.1,1649425746.7857444,1649425747.9054267,2540a9e7-dd8b-49bd-b2ba-44df4790020b
-0.4960307318061575,-0.712285765865262,-0.0538235800786334,0.4626325357808554,-0.0117888405305406,0.1658555232200215,-0.259203492534358,-0.2892126567695232,-15.810615206695614,26.016611416287247,-16.499692894425692,-0.5116877510575241,-2.4732955491621147,0.331338784095351,7485.236111111111,11.64611111111111,7.721111111111112,139.97463050199823,13.172521928137323,37.80489670380492,1342.0,1435.0,1350.0,1528.0,1293.0,999.7000000000002,107.0,294.1,1649425748.8170135,1649425749.959113,16eae0db-1866-4d0a-9e9f-98e2adf6cd4a
-0.4973045121091179,-0.7154907618593332,-0.0572066302293708,0.4607835005658942,-0.0155143045824596,0.1661842406358195,-0.2615319078672348,-0.2940886327725644,-15.698571444306124,26.03370222841885,-17.1638275215994,-0.5068827318810146,-2.4802095642023225,0.343070257691576,7485.9619140625,11.610555555555557,7.704444444444444,-179.97941122969883,13.182297731250644,37.78056149870208,1342.0,1435.0,1350.0,1528.0,1293.0,999.7000000000002,107.0,294.1,1649425750.066232,1649425751.1894124,16eae0db-1866-4d0a-9e9f-98e2adf6cd4a
-0.4940036406043487,-0.7089711973548055,-0.0524813172240009,0.4555925053088752,-0.0135830896780121,0.1693892352144453,-0.2586556300651675,-0.2878840904502495,-15.77944538021716,26.179560040444567,-16.45211435456763,-0.4866961282125341,-2.460551567529713,0.3315342863463437,7485.9619140625,11.611444444444444,7.702222222222223,-179.94076905501456,13.21225930468229,37.75997379072384,1342.0,1435.0,1350.0,1528.0,1293.0,999.7000000000002,107.0,294.1,1649425751.3208516,1649425752.4113777,16eae0db-1866-4d0a-9e9f-98e2adf6cd4a
-0.7022461844839452,-1.0860513583494855,-0.0742999360569551,0.5924622026588073,0.0302458983907826,0.4336232271220198,-0.1905015471784098,-0.2109368150044589,-15.316120413137943,28.540605948149658,-13.35010884501316,-0.186378630619736,-3.923798462458672,0.1638453574951074,7485.9619140625,11.596222222222224,7.706666666666667,-179.7903273083558,13.205336528503528,37.78324083013149,1252.5555555555557,1435.0,1350.0,1528.0,1212.111111111111,999.7000000000002,107.0,294.1,1649425753.3224611,1649425754.4619417,a5cd71bb-d1bd-4650-81cb-63e021073f06
-0.700939532281821,-1.0858546756005354,-0.0757188995937958,0.5893158295298286,0.029444375780516,0.4370539408703578,-0.1910987172233987,-0.2195787961016989,-15.409332750286977,28.48467237537848,-13.25353477699531,-0.1720448834117482,-3.92296049952988,0.167811697360372,7485.9619140625,11.501777777777775,7.6755555555555555,-179.69844456800118,13.220155952000209,37.861895391338585,1227.0,1435.0,1350.0,1528.0,1189.0,999.7000000000002,107.0,294.1,1649425754.5782137,1649425755.6852496,a5cd71bb-d1bd-4650-81cb-63e021073f06
-0.7000821275035719,-1.0952691488498625,-0.0767516201664434,0.5915582298927003,0.0297802153679362,0.4478265572010587,-0.1895701811302562,-0.2038556933956537,-15.43252283653188,28.58520962009236,-12.739410190301504,-0.152210349875304,-3.96300288909021,0.1661338308184952,7480.881293402777,11.506999999999998,7.664444444444445,-179.67114202515893,13.20747210098402,37.99091083457096,1227.0,1435.0,1350.0,1528.0,1189.0,999.7000000000002,107.0,294.1,1649425755.7934277,1649425756.9186509,a5cd71bb-d1bd-4650-81cb-63e021073f06
-0.073457323607539,0.0532040700971053,-0.0774150814256111,0.0476421715274214,-0.1982121624732983,-0.2091387300592617,-0.4391883564557616,-0.4603840598117718,-16.37902301706605,22.702220147135908,-18.24708052517072,-0.4419441848191874,0.4668092638393603,0.961155922610986,7480.881293402777,11.535444444444444,7.701111111111111,179.93804153280598,13.217344854838055,38.2262214762166,1553.0,1435.0,1350.0,1528.0,1471.0,999.7000000000002,107.0,294.1,1649425758.852576,1649425759.9938333,98b080df-cb55-4520-a274-29e56b5657cb
-0.0763631855958531,0.0476421715754308,-0.0771784048429095,0.0681541376638285,-0.1944647836293583,-0.2087311204362657,-0.441397337875716,-0.4665507996582013,-16.566633249605164,22.841298807842723,-16.288185318442416,-0.486146626545223,0.4274068837358238,0.9609557884917456,7485.9619140625,11.651666666666666,7.75111111111111,179.89145964266652,13.207001956296148,38.15212606628049,1553.0,1435.0,1350.0,1528.0,1471.0,999.7000000000002,107.0,294.1,1649425760.101508,1649425761.1462276,98b080df-cb55-4520-a274-29e56b5657cb
-0.081150322699881,0.051183722344899,-0.0749046917570321,0.0644335623418074,-0.1941532606902855,-0.2095144794055187,-0.4414752186948248,-0.4713126522564952,-16.66192261956564,22.983139862141392,-16.385969656706973,-0.4785242887774198,0.4428355764987238,0.9576761845808308,7485.9619140625,11.650666666666666,7.726666666666666,179.8382919323473,13.18422811346482,38.14508603852098,1553.0,1435.0,1350.0,1528.0,1471.0,999.7000000000002,107.0,294.1,1649425761.255314,1649425762.4471052,98b080df-cb55-4520-a274-29e56b5657cb
-0.0799659285714683,0.0417647043412059,-0.098952646994327,-0.2331219547235734,-0.2476907118613197,0.0795672059297698,-0.3818600290970013,-0.3985062817287402,-16.402638724690053,22.35551889276364,-15.411615157899632,0.8372210337682418,0.4321380021071185,0.976561266166941,7485.9619140625,11.651666666666664,7.731111111111111,179.80323788370697,13.265043291179364,38.13752843420436,1553.0,1522.0,1350.0,1528.0,1471.0,999.7000000000002,107.0,294.1,1649425763.3577206,1649425764.4959185,827f1cf5-9ff3-4d6d-8abe-cf6bb9f0f551
-0.0835292254089617,0.0453674471205165,-0.1051193858197509,-0.2406035637054109,-0.2550408338995678,0.077910470217348,-0.3852392445737274,-0.4129172558527551,-16.11537151460525,22.149251376784783,-16.160038718802603,0.8487256695160613,0.4507772401037379,0.9993899209906374,7492.50537109375,11.64922222222222,7.75,179.76225523086708,13.242711703096791,38.09962771449996,1553.0,1522.0,1350.0,1528.0,1471.0,999.7000000000002,107.0,294.1,1649425764.6109416,1649425765.7298744,827f1cf5-9ff3-4d6d-8abe-cf6bb9f0f551
-0.0693943763017863,0.0470636289456361,-0.0943900491744011,-0.2351337054648356,-0.2434831285869853,0.0721250438901055,-0.3769818618471066,-0.4003470996351862,-16.282239253228937,22.163914024296982,-15.956498316774788,0.8239662823506498,0.4565230033764898,0.9576834498064272,7492.50537109375,11.65322222222222,7.745555555555557,179.7490456450123,13.24602491402668,38.05876572833541,1553.0,1522.0,1350.0,1528.0,1471.0,999.7000000000002,107.0,294.1,1649425765.839022,1649425766.9538689,827f1cf5-9ff3-4d6d-8abe-cf6bb9f0f551
-0.070533382172887,0.0326975825067651,-0.1232377425608489,-0.5367643080162056,-0.3043199628012723,0.3798642390637858,-0.3238512583260345,-0.3452315901027103,-16.291668251407607,22.055464106803555,-13.601443095693318,2.194117396315798,0.4171420899601321,1.0031978354295903,7485.9619140625,11.636,7.73,179.72571827226696,13.301608139718596,38.02460567556645,1553.0,1613.0,1350.0,1528.0,1471.0,999.7000000000002,107.0,294.1,1649425767.8636782,1649425769.0003994,a1565da0-70b2-4580-a0c2-a6dfa6d61e3a
-0.067013366465211,0.0390664822923388,-0.1163894628562028,-0.5413937462392034,-0.2980469380605185,0.3808229980977818,-0.3165509914360795,-0.3323568229398009,-16.341348703093644,21.936036089517497,-13.12814909433322,2.2063144680723337,0.4381882715742753,0.9763366237039488,7492.50537109375,11.645333333333332,7.708888888888889,179.69955561210617,13.352830099897984,38.03688977078871,1553.0,1613.0,1350.0,1528.0,1471.0,999.7000000000002,107.0,294.1,1649425769.1083653,1649425770.2382755,a1565da0-70b2-4580-a0c2-a6dfa6d61e3a
-0.071122334215293,0.0334371966787939,-0.1221557143341814,-0.5458862187818961,-0.3034570794180436,0.3865070694739643,-0.3196601106734402,-0.3363973084286454,-16.27421473774303,21.924723589321275,-13.726335093612514,2.228797579262213,0.4220889557408254,0.9944795587216272,7499.060546875,11.641125,7.71875,179.65121286125316,13.347777443743531,38.01803631424536,1553.0,1613.0,1350.0,1528.0,1471.0,999.7000000000002,107.0,294.1,1649425770.357045,1649425771.4551904,a1565da0-70b2-4580-a0c2-a6dfa6d61e3a
-0.0570083039333019,0.0303253385411399,-0.1507716622692423,-0.8872697930342316,-0.3729583600196636,0.7217494852812248,-0.2610103427459814,-0.2827845870673197,-16.151327908121235,21.95576797425021,-11.078158528739635,3.751474660520969,0.4262951638117415,1.0450831274400945,7503.4384765625,11.634000000000002,7.7266666666666675,179.6415703416924,13.44548009816939,38.02998444953783,1553.0,1710.0,1350.0,1528.0,1471.0,999.7000000000002,107.0,294.1,1649425773.3928993,1649425774.536497,01502743-1e25-4154-8644-584dfcd12552
-0.0692628893125496,0.0312983420733344,-0.1327710958265302,-0.8740027516804851,-0.3530380816840491,0.7126900344458208,-0.2458893402158798,-0.2755133567261743,-16.30133698074901,21.94468402664152,-10.36575593919219,3.702050551556056,0.4241997349934474,0.973023634309086,7499.060546875,11.625,7.720000000000001,179.60880820097358,13.41944853969518,38.03120743285422,1553.0,1710.0,1350.0,1528.0,1471.0,999.7000000000002,107.0,294.1,1649425774.644887,1649425775.7586048,01502743-1e25-4154-8644-584dfcd12552
-0.0658968229550454,0.0238956260197935,-0.1515211380089548,-0.8765798973968306,-0.3719853563004483,0.7155038551705485,-0.2625487404140223,-0.2923568388833811,-16.075951003262443,21.99838717296268,-11.471746795858484,3.713546521711052,0.4037717513720525,1.045765663369305,7487.416015625,11.616333333333335,7.737777777777778,179.59467881631053,13.427775963249504,38.035118095609,1553.0,1710.0,1350.0,1528.0,1471.0,999.7000000000002,107.0,294.1,1649425775.8680656,1649425776.994158,01502743-1e25-4154-8644-584dfcd12552
-0.0487772197671725,0.0200825040743365,-0.1603965087329256,-1.138804514797859,-0.4144556536193502,0.9780307016492772,-0.2069166002557283,-0.2260874018601643,-16.152666063825933,22.36691038496589,-8.834660893535505,4.897376691392019,0.3983698320199845,1.0372554186681002,7485.9619140625,11.625999999999998,7.73,179.55799614700814,13.514244735185788,38.06967126371019,1553.0,1814.0,1350.0,1528.0,1471.0,999.7000000000002,107.0,294.1,1649425778.753925,1649425779.8552797,6f9cf87a-865a-4c81-8548-d11a2ef3e7fc
-0.0292645538996229,0.0259599713477114,-0.1430007822027881,-1.138081335784501,-0.39773050850245,0.9833690719550094,-0.1890080741947927,-0.2227213355354946,-16.22046538074893,22.337394020371125,-7.026877524759053,4.908665973754808,0.4058846931841903,0.9684968854426228,7485.9619140625,11.575888888888889,7.720000000000001,179.56047019330748,13.514757283964752,38.10880331473996,1553.0,1814.0,1350.0,1528.0,1471.0,999.7000000000002,107.0,294.1,1649425779.9630516,1649425781.091303,6f9cf87a-865a-4c81-8548-d11a2ef3e7fc
-0.0365332545449809,0.0172246854844601,-0.1557565357557977,-1.1373323655080445,-0.4101459146683458,0.9849307324339398,-0.2012712575808109,-0.2243699791971941,-16.140744960213798,22.47393062860395,-8.021363684242186,4.910637308613044,0.3804733789319678,1.0178014486193647,7485.9619140625,11.580222222222224,7.718888888888888,179.5160830706213,13.506869174383295,38.14758626721216,1553.0,1814.0,1350.0,1528.0,1471.0,999.7000000000002,107.0,294.1,1649425781.2041504,1649425782.3134644,6f9cf87a-865a-4c81-8548-d11a2ef3e7fc
-0.1076833817343705,0.0486414725004366,-0.0641743437323049,0.4153980399803191,-0.1486678707533023,-0.5538713145285851,-0.5311766583874636,-0.5455876339352307,-16.952950825796268,24.02925319240748,-20.06306676626148,-2.037293486722315,0.4254371879348738,1.0057631190119127,7485.9619140625,11.582,7.720000000000001,179.514883992967,13.028510709718452,38.1892951968338,1553.0,1349.0,1350.0,1528.0,1471.0,999.7000000000002,107.0,294.1,1649425783.2810547,1649425784.2243435,976682bc-31fe-436b-a085-bbfb6b53597b
-0.1085774931345087,0.050061531691392,-0.0653051316297324,0.4163184486510454,-0.1496408743091118,-0.5567771772281533,-0.531912985548491,-0.5515702922185979,-16.862236504837554,23.94263980308564,-20.16444171069368,-2.046500537449053,0.4308332263640249,1.0098140499583037,7485.9619140625,11.628888888888888,7.733333333333332,179.5162302991434,12.96262604093834,38.22215561638567,1553.0,1349.0,1350.0,1528.0,1471.0,999.7000000000002,107.0,294.1,1649425784.332965,1649425785.5899725,976682bc-31fe-436b-a085-bbfb6b53597b
-0.1096030914938202,0.0508636021598791,-0.0654103212269588,0.418251306843593,-0.1500221865538472,-0.5598934191757671,-0.5326493127769314,-0.5627992819804805,-16.805283858010522,23.9486474125796,-20.24626642230293,-2.0578129911130403,0.4339190490078433,1.0115611233724042,7485.9619140625,11.631777777777778,7.722222222222222,179.49976650760405,12.938355532905131,38.237762219184205,1553.0,1349.0,1350.0,1528.0,1471.0,999.7000000000002,107.0,294.1,1649425785.697727,1649425786.826786,976682bc-31fe-436b-a085-bbfb6b53597b
-0.1166770905131305,0.0629669770460081,-0.0495913432598973,0.6891735934922943,-0.1110067149165711,-0.833007287148812,-0.6018366775144371,-0.6248469041181245,-17.293394470767684,25.008490309488376,-22.13514715973369,-3.275403916409397,0.4671743736627813,1.035765252818429,7489.59716796875,11.619222222222223,7.739999999999999,179.4724533400231,12.850278915465475,38.32226949360009,1553.0,1264.0,1350.0,1528.0,1471.0,999.7000000000002,107.0,294.1,1649425788.9581106,1649425790.0952804,44c8ed60-9080-4834-954a-f7e0e37a09ab
-0.1145207042253792,0.0697188325291791,-0.0485931381066058,0.6831843629365594,-0.1124300614574672,-0.8335047463831009,-0.6002862266584537,-0.6326846254203649,-17.124542049167925,24.95316003150162,-22.03989875055993,-3.2632284449564497,0.4912584016331818,1.035175318790821,7485.9619140625,11.606666666666667,7.73,179.46357105846243,12.849807917003965,38.380167109919526,1553.0,1264.0,1350.0,1528.0,1471.0,999.7000000000002,107.0,294.1,1649425790.203327,1649425791.2579515,44c8ed60-9080-4834-954a-f7e0e37a09ab
-0.1240929556500455,0.0602386225690057,-0.0582311327416501,0.6866293210166187,-0.1193725734076813,-0.8292314180522652,-0.6090301123988499,-0.6349987966131507,-17.248627387208924,24.99753179565258,-22.372391067695176,-3.261697911620468,0.4584925738739777,1.0685275102393548,7485.9619140625,11.59511111111111,7.722222222222222,179.42607331991906,12.838401026771349,38.40716608879868,1553.0,1264.0,1350.0,1528.0,1471.0,999.7000000000002,107.0,294.1,1649425791.3656852,1649425792.3178189,44c8ed60-9080-4834-954a-f7e0e37a09ab
-0.1298915310557207,0.0714413117204458,-0.030842397555365,0.8280172384081754,-0.0867112101052278,-0.9768387634245516,-0.6290029887582204,-0.6521447022102066,-17.13898132707471,25.9413978018982,-23.27001874564612,-3.904794942983527,0.4920335011951563,1.016163314327355,7485.9619140625,11.597333333333331,7.734444444444445,179.3987161355634,12.784061939009495,38.491581155660775,1553.0,1178.0,1350.0,1528.0,1471.0,999.7000000000002,107.0,294.1,1649425793.381346,1649425794.6060832,713aa5cd-b31e-43aa-98eb-e41efb24934d
-0.1086372101279801,0.0757321695675104,-0.0155143045155525,0.8273444635436716,-0.0728481007274122,-0.9775334536152476,-0.614821019431686,-0.6417484630672526,-17.190510415772096,25.9962064319052,-22.74625381218364,-3.903654266877313,0.5049049036412692,0.9573887671203546,7485.9619140625,11.579666666666666,7.71,179.3941399088195,12.777870846845572,38.56323667024338,1553.0,1178.0,1350.0,1528.0,1471.0,999.7000000000002,107.0,294.1,1649425794.7139604,1649425795.830056,713aa5cd-b31e-43aa-98eb-e41efb24934d
-0.1232514390450018,0.0722302334996606,-0.0232424509416708,0.8249009976576755,-0.0802157538620309,-0.972315609204421,-0.6205615229431359,-0.6428354223927646,-17.131477116866552,25.983725199851666,-22.864091615552223,-3.886873831262303,0.4922077925309087,0.9855663921003398,7485.9619140625,11.581,7.73,179.41162519309475,12.795707126953154,38.59837571679337,1553.0,1178.0,1350.0,1528.0,1471.0,999.7000000000002,107.0,294.1,1649425795.9387455,1649425797.0580692,713aa5cd-b31e-43aa-98eb-e41efb24934d
-0.1248444542330013,0.0809579334317893,0.0007761718204903,0.8888061844777433,-0.0578493149276075,-1.0353919679080157,-0.6225353453689653,-0.6426250428955682,-17.237237468865736,26.854719059840644,-22.17517828139196,-4.1657428056769765,0.5132540257178151,0.9273293675068608,7485.9619140625,11.584333333333332,7.718888888888888,179.39131372832296,12.746927623448215,38.70027417065593,1553.0,1088.0,1350.0,1528.0,1471.0,999.7000000000002,107.0,294.1,1649425797.9697196,1649425799.1063786,289dc83a-d8c4-494f-a87a-523387efa158
-0.1072757720954104,0.0760565040889799,-0.019403031580302,0.8797310562321,-0.0761791039724675,-1.0311560620982465,-0.6396534365671322,-0.6711577242717549,-17.259930602416503,26.68401965618852,-23.58428144106,-4.138125312747823,0.507355341499179,1.0015683203415116,7485.9619140625,11.565666666666669,7.71,179.3902375940737,12.756023253556686,38.74895292887061,1553.0,1088.0,1350.0,1528.0,1471.0,999.7000000000002,107.0,294.1,1649425799.2147572,1649425800.3304646,289dc83a-d8c4-494f-a87a-523387efa158
