raw_voltage_G-,raw_voltage_G0,raw_voltage_G1,raw_voltage_G2,raw_voltage_G3,raw_voltage_G4,raw_voltage_G5,raw_voltage_G6,load_x,load_y,load_z,load_l,load_m,load_n,rpm,voltage,current,roll,pitch,yaw,aileron1_pwm,elevator_pwm,throttle_pwm,rudder_pwm,aileron2_pwm,pbaro,pdiff,Tt,sample_start_time,sample_end_time,uid
-0.1870226208450597,-0.0722476434915077,-0.3858046386579912,-0.1235670077668779,-0.4443952413331387,0.4893068552503131,-0.5820489791522516,-0.6010751495272795,-20.487285861023,20.11900233663997,39.43708145594827,1.4884092554243435,-0.4844014825670434,1.983102945483312,4269.601671006944,11.946666666666664,0.15,-179.68131748920243,-9.239571696906951,109.27460206131776,1553.0,1435.0,1200.0,1528.0,1471.0,997.6,110.0,292.15,1649407678.0791447,1649407679.0571282,5853ebb9-fc20-42ec-b41e-06c6e5e6c6cf
-0.1877589478868713,-0.0667777856085969,-0.3765479547370687,-0.1214369188364398,-0.4395565200052218,0.4819041399231422,-0.579103670262755,-0.5998786168913669,-20.52590583433031,20.522122134616904,39.467777166037614,1.4700881105729071,-0.4635535009785418,1.9602324287449324,4302.685763888889,11.94522222222222,0.15,-179.6691081466061,-9.229383046803802,108.75453931535444,1553.0,1435.0,1200.0,1528.0,1471.0,997.6,110.0,292.15,1649407679.1660385,1649407680.2969034,5853ebb9-fc20-42ec-b41e-06c6e5e6c6cf
-0.1904281334618856,-0.0790718171545401,-0.3886710550044752,-0.115704086905023,-0.4481689179991985,0.4912134160364178,-0.5890440877538071,-0.6095955068191204,-20.63818939825221,20.57422139117604,39.74404316075512,1.4778046732295087,-0.5127909077217502,2.001493413419336,4309.41455078125,11.939,0.15,-179.6575120032152,-9.217206242469748,108.24871751381065,1553.0,1435.0,1200.0,1528.0,1471.0,997.6,110.0,292.15,1649407680.4295375,1649407681.719694,5853ebb9-fc20-42ec-b41e-06c6e5e6c6cf
-0.0086934181270278,0.2527886304417647,-0.3491561811899887,-0.3488401067480271,-0.4924517147119372,0.3903568557144105,-0.5960862281993967,-0.6076292706156201,-19.96611592870172,19.228307201492548,41.24941928206552,1.770687877172063,0.7449748993881316,2.059228143824388,4303.405056423611,11.943,0.15,-179.8135605762726,-9.145911210093336,107.3571850640074,1658.0,1435.0,1200.0,1528.0,1551.0,997.6,110.0,292.15,1649407683.5402143,1649407684.6807,656b2d89-f611-4a98-8b30-008da65ee00c
0.0168580391446665,0.2570745994663806,-0.3487642488758063,-0.3536191529841039,-0.4939309434400991,0.3889534853531394,-0.5966298764519422,-0.6200826066887323,-19.94141305799188,19.262981376579503,41.02031642410371,1.7785399634090395,0.7635194184337618,2.0616393137914746,4303.465087890625,11.93875,0.15,-179.89638420905806,-9.119968040907448,107.08602807177772,1658.0,1435.0,1200.0,1528.0,1551.0,997.6,110.0,292.15,1649407684.789303,1649407686.0164273,656b2d89-f611-4a98-8b30-008da65ee00c
0.0041392039399793,0.2514484749326403,-0.3508882694089448,-0.3523042830356552,-0.4948412380297378,0.3932647402497957,-0.5950874327069983,-0.6154299896080111,-19.756139328596173,19.161754175283164,41.01964572551218,1.7845782501248175,0.7408143962940741,2.0630792636703124,4302.9248046875,11.945666666666664,0.1566666666666666,-179.96684671726564,-9.099835417998602,106.85611252066649,1658.0,1435.0,1200.0,1528.0,1551.0,997.6,110.0,292.15,1649407686.1252854,1649407687.251405,656b2d89-f611-4a98-8b30-008da65ee00c
0.1594718314435193,0.5173924678823318,-0.318180882042363,-0.5730684168049465,-0.5391710678522724,0.334546712916146,-0.6021927881073134,-0.6320403392638948,-19.488147085526,18.86702615296177,40.91740997250367,2.150414226171957,1.7665246577835396,2.119398588078812,4306.048882378473,11.901333333333334,0.1411111111111111,179.71963181480658,-9.040249227134362,106.46383123042548,1767.0,1435.0,1200.0,1528.0,1630.0,997.6,110.0,292.15,1649407689.0735767,1649407690.1198738,2a88c9c6-f33c-4a1d-bc3c-c75bb20f656b
0.1680579298188801,0.5188256756405535,-0.3141310830236046,-0.5735154725709998,-0.5348845917075238,0.3308124834492073,-0.5968675644305802,-0.6201539131213286,-19.364135001071347,18.714459685973388,40.565150817380925,2.1422279060255995,1.7744535855854286,2.1002799556246865,4311.58251953125,11.905555555555557,0.14,179.65302988129986,-9.008103890443085,106.22887348188698,1767.0,1435.0,1200.0,1528.0,1630.0,997.6,110.0,292.15,1649407690.228453,1649407691.4340718,2a88c9c6-f33c-4a1d-bc3c-c75bb20f656b
0.1471646521158701,0.5179578617677867,-0.3117248712408433,-0.5689528735927629,-0.5347662534032117,0.3312332416955476,-0.5990239513039206,-0.6174978762618091,-19.492516278236643,19.126451885160453,41.09772086356536,2.135752530761318,1.7669850266955307,2.1003363519503093,4313.75244140625,11.90222222222222,0.15,179.61715469213934,-8.990357920614528,106.06436534008758,1767.0,1435.0,1200.0,1528.0,1630.0,997.6,110.0,292.15,1649407691.5429862,1649407692.670762,2a88c9c6-f33c-4a1d-bc3c-c75bb20f656b
0.3093027349712335,0.7904817597789346,-0.2744741037245934,-0.7870837580198917,-0.5817870164900654,0.2523208402831013,-0.6106003706644404,-0.6241410043838485,-18.98638635944989,19.364161362888947,39.37948846132881,2.4538871822360537,2.829983836827556,2.158981590043953,4315.92431640625,11.853666666666667,0.13,179.34523575436225,-8.946960321584344,105.82718322660936,1886.0,1435.0,1200.0,1528.0,1710.0,997.6,110.0,292.15,1649407693.5806563,1649407694.623469,ece9c93d-69f6-4498-86e8-9595975579c4
0.3121726905986687,0.7971446081293289,-0.2702007770288248,-0.7905858644595989,-0.5795997809085383,0.2499313176876449,-0.6069086203337999,-0.6324600856347017,-18.89299017228482,19.342590974259387,39.53975496785719,2.456559851113917,2.853593820429971,2.145996922977283,4317.132541232639,11.848555555555556,0.1244444444444444,179.30140415372856,-8.929183995359478,105.60838342891734,1886.0,1435.0,1200.0,1528.0,1710.0,997.6,110.0,292.15,1649407694.7316782,1649407695.8611062,ece9c93d-69f6-4498-86e8-9595975579c4
0.2976206248205505,0.794717156734949,-0.2732603777709043,-0.7882469125179323,-0.580762935064868,0.2506013954802076,-0.609879720753283,-0.6250007269425948,-19.01713971620186,19.296497641793906,39.581046094041696,2.452275685215832,2.8445194204338025,2.155699088096914,4321.727701822917,11.853000000000002,0.13,179.23897167125517,-8.916732560502545,105.40567176236034,1886.0,1435.0,1200.0,1528.0,1710.0,997.6,110.0,292.15,1649407695.9757345,1649407697.175173,ece9c93d-69f6-4498-86e8-9595975579c4
-0.4252770327657597,-0.489363793149285,-0.4124701998999331,0.1670454802317708,-0.3706178915774885,0.6277231675739992,-0.5517806711876715,-0.5768026481801387,-21.36937233746486,22.296529602484323,39.049135761809005,1.1565000821553095,-2.07659324662914,1.825887297255372,4318.09912109375,11.939666666666668,0.1533333333333333,179.78759523268783,-8.977839417094495,105.17273726763594,1449.0,1435.0,1200.0,1528.0,1386.0,997.6,110.0,292.15,1649407698.0829575,1649407699.200941,2479e706-197c-4ba8-9572-568da2f2e574
-0.4242514342421271,-0.479383930228449,-0.4225815496031622,0.1505833129601558,-0.3772711332964366,0.6296691744238866,-0.5535294484825153,-0.5825617786774813,-21.23717708318616,21.418237256767792,38.52541199343774,1.191664910835792,-2.034085643707002,1.8519994931395007,4319.307888454861,11.943,0.15,179.73875027320335,-8.986239031953795,105.11069714158492,1449.0,1435.0,1200.0,1528.0,1386.0,997.6,110.0,292.15,1649407699.3102388,1649407700.2658374,2479e706-197c-4ba8-9572-568da2f2e574
-0.4225552520577879,-0.4863264435627458,-0.4155864417529129,0.158525125259395,-0.3733528210555072,0.6304449474272634,-0.5526484855461924,-0.580379094318616,-21.391053988268794,22.09110619816885,38.731216250980566,1.1802575814173804,-2.0613821678852737,1.8350092954685104,4322.4541015625,11.944666666666668,0.1533333333333333,179.68685904934904,-8.965933543597519,105.0632425050515,1449.0,1435.0,1200.0,1528.0,1386.0,997.6,110.0,292.15,1649407700.3990028,1649407701.3909233,2479e706-197c-4ba8-9572-568da2f2e574
-0.6450969985037728,-0.8517288484875813,-0.4448817432480422,0.4193426484788131,-0.3111463285751787,0.7373306888565722,-0.5313607402521106,-0.5474678980877095,-22.049964619309176,23.625480110509866,37.126434420910215,0.8402290315786474,-3.446919964378078,1.7146245239519202,4318.82470703125,11.899,0.14,179.74562599696782,-8.988545738618491,104.9233875516063,1342.0,1435.0,1200.0,1528.0,1293.0,997.6,110.0,292.15,1649407702.701374,1649407703.7369983,a1485a84-01d3-41d1-a4f7-7a4cf500a963
-0.6242300102961109,-0.8477053454010446,-0.442764802611311,0.4244574909141543,-0.3077013695537069,0.7310587613424151,-0.5295593682490546,-0.5551730359061042,-22.024320078534537,23.44402738119939,37.48173965361239,0.8135694255844086,-3.4356585697557533,1.7056071960228885,4321.728190104167,11.893333333333334,0.14,179.73974748082216,-8.967602955667154,104.74528353880903,1342.0,1435.0,1200.0,1528.0,1293.0,997.6,110.0,292.15,1649407703.8712971,1649407704.863324,a1485a84-01d3-41d1-a4f7-7a4cf500a963
-0.6166037639044322,-0.8458908243943801,-0.4426333157212203,0.4172914520990917,-0.3094369978105996,0.7322158464875289,-0.5296777066750304,-0.5593937690504411,-22.01998267328374,23.50735405613572,36.96048410546933,0.8326798178186553,-3.423372134770961,1.707359024601387,4315.92431640625,11.895888888888887,0.1388888888888889,179.69864492021685,-8.983062899126,104.55571087948545,1342.0,1435.0,1200.0,1528.0,1293.0,997.6,110.0,292.15,1649407704.9726822,1649407706.0933151,a1485a84-01d3-41d1-a4f7-7a4cf500a963
-0.8126377553147133,-1.1713475626284646,-0.4765438111709171,0.6497340829458961,-0.270293323467258,0.8162754536888351,-0.5317420524554123,-0.5606560438842481,-22.755064305521284,25.911349737455257,33.843583702469296,0.5106203408202724,-4.641932679913781,1.6599678135453786,4315.92431640625,11.794,0.1,179.75279617777653,-8.983761665423588,104.1442238562083,1227.0,1435.0,1200.0,1528.0,1189.0,997.6,110.0,292.15,1649407708.12385,1649407709.2598827,46797bd0-4f58-4372-946f-8c6cec510738
-0.8076665343267695,-1.1700144860550643,-0.4753078334554961,0.6416233610280913,-0.2689870509162854,0.8184353797121141,-0.5298496511150939,-0.5625443998998458,-22.89535230408382,25.83653074808568,33.28861525218101,0.5331762612338845,-4.6299455479346685,1.6530495262393754,4308.333862304688,11.79475,0.10125,179.75544837817674,-8.984955584862101,103.8134223319152,1227.0,1435.0,1200.0,1528.0,1189.0,997.6,110.0,292.15,1649407709.3675582,1649407710.4917247,46797bd0-4f58-4372-946f-8c6cec510738
-0.8137225233007339,-1.1683329687866302,-0.4754216204222731,0.6440760983559202,-0.2704030646523395,0.8160711432229074,-0.5307473029792814,-0.5611789579587275,-22.757434968829685,25.90184265964842,33.50226826032687,0.5228615079974072,-4.626816672342668,1.6570073092997089,4297.89111328125,11.797999999999998,0.1066666666666666,179.75955047595576,-8.987795271583435,103.51047640605968,1227.0,1435.0,1200.0,1528.0,1189.0,997.6,110.0,292.15,1649407710.6037204,1649407711.71407,46797bd0-4f58-4372-946f-8c6cec510738
-0.172938342992645,-0.0683303432838593,-0.3756432230770097,-0.1249708840389245,-0.4364180266287706,0.4879985600900925,-0.57367022266316,-0.6052650331725032,-20.50152931667681,20.242321143357604,39.68278887422554,1.4899916057463485,-0.4709669938737872,1.947204658687588,4294.3017578125,11.944333333333333,0.1566666666666666,179.37670926605767,-8.895999236685755,103.13768012770096,1553.0,1435.0,1200.0,1528.0,1471.0,997.6,110.0,292.15,1649407713.244655,1649407714.3761752,58387560-c8e9-4747-8045-8547213a19ea
-0.1790019153728425,-0.073523067084797,-0.3841479025975099,-0.1241061044031242,-0.4428042487065395,0.4968147601208614,-0.5803133506886435,-0.6040599036006893,-20.617930671120604,20.228424130357755,40.26810584844161,1.5073711615818732,-0.4954525145789001,1.9770832388817865,4304.365559895833,11.952333333333334,0.15,179.27915139741265,-8.889843244105068,103.36594504976276,1553.0,1435.0,1200.0,1528.0,1471.0,997.6,110.0,292.15,1649407714.4844043,1649407715.7210786,58387560-c8e9-4747-8045-8547213a19ea
-0.1861249693409387,-0.0737162517802919,-0.3856564629281832,-0.1230112226023896,-0.4452807556511243,0.4962797093538987,-0.5822168779808119,-0.6094372164585562,-20.5227325903535,20.304611803564534,40.29388294939674,1.5041810163383682,-0.4973084710231134,1.985280768388365,4309.41455078125,11.951444444444446,0.1522222222222222,179.2172182776586,-8.891682841721524,103.55078287017174,1553.0,1435.0,1200.0,1528.0,1471.0,997.6,110.0,292.15,1649407715.829646,1649407716.9473903,58387560-c8e9-4747-8045-8547213a19ea
-0.202257409753283,-0.0878384579498536,-0.4227256794979533,-0.3869713328166236,-0.4997340714967745,0.7678887617269101,-0.5375871553663732,-0.5489911248253214,-20.62627620787304,19.146723526362035,42.42684798196521,2.700718465857464,-0.5383173777202058,2.0458223122479384,4307.011827256944,11.953222222222225,0.15,179.16140348958106,-8.795757957470572,103.7665538584218,1553.0,1522.0,1200.0,1528.0,1471.0,997.6,110.0,292.15,1649407718.153743,1649407719.1996791,5871843a-c655-4a04-9b7d-4aee0a233ef2
-0.1808558817586367,-0.0889333398287297,-0.4076709249207931,-0.3824385717537785,-0.4891665628011372,0.7634176997019475,-0.5278105913027998,-0.5454298491782831,-20.592836688756908,19.668491456941418,42.32131414486273,2.684655092895003,-0.5413200233093862,1.9965556101039617,4318.09912109375,11.953111111111111,0.1577777777777777,179.124619126351,-8.770850059978564,103.84588802345132,1553.0,1522.0,1200.0,1528.0,1471.0,997.6,110.0,292.15,1649407719.308231,1649407720.429662,5871843a-c655-4a04-9b7d-4aee0a233ef2
-0.1852869927714553,-0.0863693439425022,-0.4175324491414428,-0.3711964344855299,-0.4975554331377639,0.750834398596306,-0.5430762318927317,-0.572858037863693,-20.757316100850584,19.728130886534068,42.26473888009302,2.6308317335679687,-0.5320462141791635,2.0433484372289192,4322.4541015625,11.934,0.15,179.10063301980574,-8.762780950384105,103.93125248660805,1553.0,1522.0,1200.0,1528.0,1471.0,997.6,110.0,292.15,1649407720.538207,1649407721.656419,5871843a-c655-4a04-9b7d-4aee0a233ef2
-0.1977312234727326,-0.0993562107508004,-0.4504770204235421,-0.6787333986500611,-0.5575124930428683,1.0621413890109557,-0.4854601465934978,-0.501491446097968,-20.61725047066312,18.87575732344922,44.55560920044661,4.01725292800112,-0.5662887196565735,2.0872970951244194,4330.95068359375,11.917777777777776,0.14,179.0830809514586,-8.63815181669122,104.01360483634078,1553.0,1613.0,1200.0,1528.0,1471.0,997.6,110.0,292.15,1649407723.5357742,1649407724.628926,791f0fcc-c3d9-4872-b5c1-b8539fc6559e
-0.1852905327911604,-0.0960816794866236,-0.4489977918481474,-0.6804528442509106,-0.5557804047123727,1.0626723940637144,-0.4830706234299991,-0.4963457529202605,-20.61188209306059,18.750792528427528,44.87829720941003,4.021624204886686,-0.5566018518173854,2.0804107124353703,4339.96240234375,11.929666666666666,0.1466666666666666,179.06712411173763,-8.609702750705777,103.99496221445618,1553.0,1613.0,1200.0,1528.0,1471.0,997.6,110.0,292.15,1649407724.742637,1649407725.8561594,791f0fcc-c3d9-4872-b5c1-b8539fc6559e
-0.1650996964903801,-0.0929841499116058,-0.4449773242327276,-0.681691856445489,-0.5554264012860224,1.0594610780155076,-0.4822109008185275,-0.5110495392077866,-20.53829763270852,19.021191531283755,44.70629120896727,4.019205178792879,-0.5435685495885585,2.073285966175484,4337.76611328125,11.932777777777776,0.14,179.0631307278029,-8.622832366429051,103.9939991577832,1553.0,1613.0,1200.0,1528.0,1471.0,997.6,110.0,292.15,1649407725.964587,1649407726.9819152,791f0fcc-c3d9-4872-b5c1-b8539fc6559e
-0.1826309558595366,-0.1026211333498229,-0.4615148478853176,-0.944703330710176,-0.598037798888924,1.324393647414224,-0.4256188991203087,-0.4374001339326596,-20.565854104563822,18.647056971101563,46.7543871891198,5.204842450016779,-0.566342675708798,2.072842497600031,4331.19091796875,11.903333333333332,0.13,179.06735178470998,-8.498936149979604,103.97430089221692,1553.0,1710.0,1200.0,1528.0,1471.0,997.6,110.0,292.15,1649407728.0971863,1649407729.2372646,fae55505-b3db-4be9-8560-dcb437802921
-0.1596470328626683,-0.0974536954403366,-0.4636186397914354,-0.940035540630348,-0.6017983272274913,1.3128622405680934,-0.4321406537633872,-0.4596871788454638,-20.521613416741967,18.762448584821225,46.4112873530545,5.169028216024969,-0.5449399983847953,2.090283617881916,4329.00341796875,11.899,0.1344444444444444,179.04744406000913,-8.482921633105647,103.90536379292396,1553.0,1710.0,1200.0,1528.0,1471.0,997.6,110.0,292.15,1649407729.3463304,1649407730.3526852,fae55505-b3db-4be9-8560-dcb437802921
-0.1613826608989647,-0.0994573545722479,-0.4638532934389673,-0.9446153353588104,-0.5999549804962601,1.320032831601247,-0.4275173688794211,-0.4547882769638995,-20.482849279556795,18.48965350127252,46.57191296147796,5.193697428137976,-0.5536085535516968,2.081593217255082,4330.704806857639,11.899555555555557,0.1244444444444444,179.0413606381884,-8.474793043947164,103.81870462946456,1553.0,1710.0,1200.0,1528.0,1471.0,997.6,110.0,292.15,1649407730.460769,1649407731.6933482,fae55505-b3db-4be9-8560-dcb437802921
-0.1770822055454611,-0.0984529964196389,-0.4353357875895577,-1.0281581579671906,-0.5914897459901711,1.398723229922366,-0.3841610512941531,-0.4044100474829622,-20.210487745909603,19.336294521413684,47.22680161431389,5.566251359688414,-0.5454654435300559,1.9696162747156265,4324.634765625,11.87,0.1177777777777777,179.05516672723067,-8.427733609748207,103.68410436822086,1553.0,1814.0,1200.0,1528.0,1471.0,997.6,110.0,292.15,1649407732.5526335,1649407733.60598,f3c13d18-e1da-47f5-a84a-15a538f4b2c7
-0.1643674152254125,-0.0973879519808475,-0.4295766574691618,-1.0371255749996011,-0.5881105300645364,1.4059813106444548,-0.3793223302754779,-0.4014384419529298,-20.382966822897536,19.5427884444688,47.27227883102794,5.60436559913324,-0.5391804971443835,1.950183041670382,4326.81787109375,11.87122222222222,0.1244444444444444,179.0670816127828,-8.42353788145931,103.5232192623212,1553.0,1814.0,1200.0,1528.0,1471.0,997.6,110.0,292.15,1649407733.7147331,1649407734.7657669,f3c13d18-e1da-47f5-a84a-15a538f4b2c7
-0.1715203065537837,-0.094600428205544,-0.4288797767189613,-1.0415698372610385,-0.5872295674879674,1.406954314280816,-0.3747465832646057,-0.3964156386377271,-20.1540229673492,19.264905451829204,47.23953970539254,5.614879840809765,-0.5294691808514419,1.942044626431856,4329.48974609375,11.869666666666667,0.12,179.06246895836335,-8.444964279749378,103.41019860430518,1553.0,1814.0,1200.0,1528.0,1471.0,997.6,110.0,292.15,1649407734.8750904,1649407735.9927003,f3c13d18-e1da-47f5-a84a-15a538f4b2c7
-0.1821707514640269,-0.0497370746100019,-0.3457800000087394,0.2095289161584843,-0.3785991517094278,0.1519244800046224,-0.6422963252251611,-0.6709999402053731,-20.53155253550913,21.19137147576066,38.12511344278281,-0.0122463788235561,-0.42648761737292,1.9280305934639552,4324.150173611111,11.944666666666668,0.1422222222222222,179.06147326856433,-8.814542969826615,103.23780994202345,1553.0,1349.0,1200.0,1528.0,1471.0,997.6,110.0,292.15,1649407737.111185,1649407738.134457,003e6ac0-8fc3-41ec-8b39-e0cee64e8e12
-0.1895132875448369,-0.0593285431694755,-0.3518112068781555,0.2160481405933078,-0.3835324423137993,0.1578145900173242,-0.6515257018527838,-0.6762174453706652,-20.862999074099584,21.578129157242408,38.41802503024479,-0.0115728886532219,-0.4638900701869696,1.955030975645824,4320.27490234375,11.946666666666667,0.1455555555555555,179.02403472499378,-8.808939179067572,103.40095811726806,1553.0,1349.0,1200.0,1528.0,1471.0,997.6,110.0,292.15,1649407738.243184,1649407739.4708178,003e6ac0-8fc3-41ec-8b39-e0cee64e8e12
-0.1877983939782363,-0.0543917132584662,-0.341099063405291,0.2106071092133617,-0.3778891219919375,0.1567500514020914,-0.6436637901576988,-0.6588110937615649,-20.77736687921004,21.882864475457207,38.30953916727842,0.0008879169342632,-0.4436643643021891,1.92188050688678,4327.54638671875,11.945666666666664,0.14,178.97993902371218,-8.804696682955612,103.56546398233772,1553.0,1349.0,1200.0,1528.0,1471.0,997.6,110.0,292.15,1649407739.5797186,1649407740.6319618,003e6ac0-8fc3-41ec-8b39-e0cee64e8e12
-0.2157601107336115,-0.0418685910746201,-0.3199382562431401,0.4733579938122755,-0.3340604639922235,-0.1081304375313983,-0.7011241198509107,-0.7257020772942689,-20.953160903523766,22.6843294100797,36.64691188088779,-1.181022378276194,-0.4117101746830662,1.9161733081155785,4324.150173611111,11.939222222222222,0.14,178.95163016633217,-8.881244510258712,103.76504286879542,1553.0,1264.0,1200.0,1528.0,1471.0,997.6,110.0,292.15,1649407741.6128132,1649407742.6448133,ec5cddc9-a67a-41fd-bfef-45d7585b5daa
-0.2125614371701198,-0.0394917112917496,-0.316853369257636,0.4648239849834821,-0.3327961659961227,-0.1064994933620416,-0.6959152112251664,-0.7107201438284698,-20.78772970992637,22.608099551915853,36.12497747428202,-1.1584584515632808,-0.3980954284843533,1.902453481408081,4313.75244140625,11.94011111111111,0.1455555555555555,178.93775122193873,-8.866045442080667,103.8607543096348,1553.0,1264.0,1200.0,1528.0,1471.0,997.6,110.0,292.15,1649407742.7529683,1649407743.7809584,ec5cddc9-a67a-41fd-bfef-45d7585b5daa
-0.2140153797017338,-0.0483923675186999,-0.3183452408396045,0.4801093430441566,-0.3308112183016668,-0.1122899771564752,-0.6994173172787159,-0.7182047891434945,-20.909227207405863,22.691548275415123,36.04343502543519,-1.2055457153163809,-0.4318707790146225,1.905592568558228,4313.75244140625,11.944333333333333,0.1488888888888888,178.9260108856654,-8.876483773543477,103.95815053046948,1553.0,1264.0,1200.0,1528.0,1471.0,997.6,110.0,292.15,1649407743.8890228,1649407745.011092,ec5cddc9-a67a-41fd-bfef-45d7585b5daa
-0.1889569964900471,-0.031197918026676,-0.2837540502727002,0.7487346531414883,-0.2812128114884515,-0.3896010725627138,-0.7522776265383899,-0.7852378834080589,-20.90674809522994,24.183207615717688,34.09369180357964,-2.423352411965486,-0.3809734915671044,1.867223412393645,4309.17529296875,11.940444444444443,0.1455555555555555,178.92129653731823,-8.961597701566896,104.12942359518678,1553.0,1178.0,1200.0,1528.0,1471.0,997.6,110.0,292.15,1649407746.1199443,1649407747.2551038,9e4a0f35-3417-417d-84d2-808e39fdb3f5
-0.2124259044622901,-0.0377191658555612,-0.2957492029994535,0.756251660938826,-0.2892274487205537,-0.3863831815345795,-0.7644477616616993,-0.7878393028229795,-21.151059093384465,24.163793095215407,34.53504120559773,-2.4338565150912284,-0.4093008937713905,1.9115544689934043,4317.8272705078125,11.9295,0.14,178.91768298779235,-8.958718160217437,104.17963146200192,1553.0,1178.0,1200.0,1528.0,1471.0,997.6,110.0,292.15,1649407747.3634136,1649407748.5905864,9e4a0f35-3417-417d-84d2-808e39fdb3f5
-0.21019062587028,-0.0326174715498442,-0.2867291960576783,0.7495458264835553,-0.2815486090059476,-0.387566564313246,-0.7533765545849066,-0.7832504057879275,-20.99334425959182,23.991038934819443,34.278348303638374,-2.42204661538847,-0.3876131201319651,1.8734149701837028,4317.01171875,11.9125,0.13,178.9237516108699,-8.964771842256184,104.21424771448918,1553.0,1178.0,1200.0,1528.0,1471.0,997.6,110.0,292.15,1649407748.7084875,1649407749.8061094,9e4a0f35-3417-417d-84d2-808e39fdb3f5
-0.2090335404864148,-0.0300008809131805,-0.2494920835057561,0.8974949433989952,-0.239748898397193,-0.5362520569329636,-0.7661702418074793,-0.7950053464300265,-20.960958727027645,25.297305597529093,32.95225613644593,-3.0795812557156523,-0.3821083249753846,1.7831694897338446,4313.75244140625,11.901000000000002,0.12,178.94762312201908,-9.037636300321882,104.29097805962508,1553.0,1088.0,1200.0,1528.0,1471.0,997.6,110.0,292.15,1649407751.538782,1649407752.582154,d6c6efa2-cf56-4d68-9340-503ce770e1fc
-0.1942149583375593,-0.0293697434725697,-0.2455474741166849,0.9008347119328394,-0.2363565343393175,-0.539959990089301,-0.7628041739760677,-0.7860642279375065,-20.858537532422265,25.319533422860665,32.97756410708209,-3.0950478195640487,-0.3808511446074266,1.7685833157193622,4307.730631510417,11.890777777777778,0.1222222222222222,178.94231075266464,-9.050444707426683,104.3201285480928,1553.0,1088.0,1200.0,1528.0,1471.0,997.6,110.0,292.15,1649407752.6901855,1649407753.9065702,d6c6efa2-cf56-4d68-9340-503ce770e1fc
-0.1937679026158237,-0.0315261297235193,-0.2491107712838458,0.8879489906817238,-0.2413793369395269,-0.5261407064424684,-0.7638823676755245,-0.7892856601225072,-20.93890743394868,25.41040296875496,32.93640928705953,-3.034549073594373,-0.3866431564433449,1.7812913882459225,4302.444986979167,11.896444444444445,0.13,178.94845336945824,-9.060754403660129,104.3121964217367,1553.0,1088.0,1200.0,1528.0,1471.0,997.6,110.0,292.15,1649407754.014764,1649407755.1385393,d6c6efa2-cf56-4d68-9340-503ce770e1fc
-0.1778448300490869,-0.0635432062233862,-0.3687639253960686,-0.1025553901859767,-0.4292347914418946,0.4645478623150501,-0.5733050938258077,-0.6010357032652491,-20.359449632387008,20.311906161818257,39.9763006242038,1.3876530317081182,-0.4589418478219518,1.9287842854492008,4292.868923611111,11.951222222222222,0.15,178.99091741443806,-8.779758618794771,104.30894069823232,1553.0,1435.0,1200.0,1528.0,1471.0,997.6,110.0,292.15,1649407757.067976,1649407758.1145985,4642e1b5-17be-4793-99a2-ec3af4b0ef0f
-0.1842219483107164,-0.0669487186826124,-0.3676594345618234,-0.0987817138924724,-0.4268022819779499,0.4642454424058527,-0.5711355580399627,-0.6006149441543703,-20.318659225139,20.25961376228919,39.9659709502603,1.378188194507714,-0.4723072312525837,1.9205330593226173,4310.138834635417,11.952888888888888,0.1477777777777777,178.9862167264693,-8.733272446167401,104.33023039787524,1553.0,1435.0,1200.0,1528.0,1471.0,997.6,110.0,292.15,1649407758.2234,1649407759.43591,4642e1b5-17be-4793-99a2-ec3af4b0ef0f
-0.2041032845935508,-0.0682165564838439,-0.3754030065086707,-0.0989010636445682,-0.432473416930979,0.4663790710332857,-0.577943550314853,-0.5998917655306357,-20.428833236296263,20.141542489768693,40.02301233003144,1.3820373137390445,-0.4772663746613527,1.948403229666141,4307.972059461806,11.954333333333333,0.1488888888888888,178.97340025594676,-8.737813004145645,104.36533681129922,1553.0,1435.0,1200.0,1528.0,1471.0,997.6,110.0,292.15,1649407759.5439832,1649407760.6641996,4642e1b5-17be-4793-99a2-ec3af4b0ef0f
-0.1300493154187495,-0.0367461622938499,-0.1604359547466782,-0.1109705560128663,-0.2385786641967991,0.4379086060899472,-0.3585079401616765,-0.3846212557056626,-18.930096276084484,20.148967242349286,40.44342037070775,1.3568607803841886,-0.3584531166715896,1.0841983579658234,4321.727701822917,11.954333333333333,0.1466666666666666,178.96386075840596,-8.741749374973558,104.45864098991112,1553.0,1435.0,1200.0,1424.0,1471.0,997.6,110.0,292.15,1649407762.5943918,1649407763.6468427,f6098b12-25ef-42c2-a65f-38bf8a48271e
-0.1346554051759513,-0.0378101952846915,-0.1645813344400871,-0.1139082783449324,-0.2420322202522286,0.4405115420209296,-0.3611543686381769,-0.3887539929285573,-18.93482679296337,20.066832142860463,40.255655119800124,1.3685534989862185,-0.3606487386242781,1.0979318542113636,4319.549641927083,11.953,0.1433333333333333,178.95861517312338,-8.742217812114134,104.46925738061104,1553.0,1435.0,1200.0,1424.0,1471.0,997.6,110.0,292.15,1649407763.755767,1649407764.809064,f6098b12-25ef-42c2-a65f-38bf8a48271e
-0.1186230976610357,-0.0260299745345371,-0.1587660701959602,-0.1183732724769514,-0.2422208534941785,0.4328069123762495,-0.3602961632290405,-0.3842925383435461,-18.80237845295432,20.332318859956075,40.23855994497861,1.3634255511779434,-0.3163287756135842,1.090385843410809,4324.392469618056,11.950555555555557,0.14,178.95901435973485,-8.749693549024451,104.48055754913788,1553.0,1435.0,1200.0,1424.0,1471.0,997.6,110.0,292.15,1649407764.9173062,1649407765.9879444,f6098b12-25ef-42c2-a65f-38bf8a48271e
-0.0369378298201733,-0.0030672931690741,0.0493757765766653,-0.1158932259215488,-0.0503141001419035,0.3980943571154072,-0.1480948909190901,-0.1707258218180571,-17.38888115656215,20.245275285892777,40.43876476108622,1.2903579115316863,-0.229095295734243,0.2472590818425605,4329.00341796875,11.950333333333331,0.1433333333333333,178.98631842039697,-8.757004887075997,104.47739668937196,1553.0,1435.0,1200.0,1304.0,1471.0,997.6,110.0,292.15,1649407767.1030262,1649407768.24501,9f8b9d0c-4d1d-42b2-a934-3284e591619c
-0.0603875189779814,-0.0061096992514589,0.0566753258481959,-0.1149546111789945,-0.0432547671817577,0.3985414127784309,-0.1401606636110199,-0.1654982032608398,-17.33394951975074,20.29329730348485,40.25929858835219,1.2899260762188884,-0.2389563534139489,0.2158029599491113,4326.81787109375,11.949222222222224,0.14,178.98606190884811,-8.75868938248005,104.5065661505874,1553.0,1435.0,1200.0,1304.0,1471.0,997.6,110.0,292.15,1649407768.3538086,1649407769.479167,9f8b9d0c-4d1d-42b2-a934-3284e591619c
-0.0420708787150413,-0.0034845114273893,0.0431933607214517,-0.1186999670751451,-0.0533610577628335,0.4020768945716731,-0.1492959738360874,-0.1810424925576,-17.32478380941463,19.846806455011546,40.55533954231075,1.302740031949233,-0.2322001025378466,0.2618442368274725,4331.19189453125,11.95,0.145,178.967184783802,-8.759458063352891,104.525513095345,1553.0,1435.0,1200.0,1304.0,1471.0,997.6,110.0,292.15,1649407769.594495,1649407770.6982336,9f8b9d0c-4d1d-42b2-a934-3284e591619c
-0.0060965505754892,0.017097749979241,0.238653276950918,-0.1089193592450454,0.1205779889252514,0.362119526950071,0.0381751102084012,0.0102998739134713,-16.199315427852763,20.7060744944866,40.48033663064669,1.206871203464678,-0.1511036610869397,-0.505514457324926,4326.332736545139,11.935777777777778,0.14,178.96733353014395,-8.771376648590826,104.51352155989218,1553.0,1435.0,1200.0,1166.0,1471.0,997.6,110.0,292.15,1649407771.6056857,1649407772.6532657,86a1541e-b46d-4ff9-85ec-a12f061901c1
-0.011487516141145,0.0143759698250754,0.2414013543306743,-0.107998950617606,0.1244437055375634,0.3625008390666287,0.0442892539769037,0.0197274892504181,-16.002934519901327,20.525336537457232,40.31126153917737,1.2046624500948784,-0.1611455927614603,-0.5235790918944324,4329.00341796875,11.945,0.14,178.98188183307607,-8.77371399624305,104.48529694151196,1553.0,1435.0,1200.0,1166.0,1471.0,997.6,110.0,292.15,1649407772.7697098,1649407773.7760112,86a1541e-b46d-4ff9-85ec-a12f061901c1
0.0163351255990219,0.0170057091123763,0.2434394021608409,-0.1106681361336073,0.1237862707631225,0.3612911590691219,0.0429217895938497,0.0152569322351161,-16.09403199535816,20.780556299123376,40.15627326994422,1.209687967827168,-0.1488018853162649,-0.523607003399431,4331.677734375,11.943666666666664,0.14,178.97477691851944,-8.765171232002395,104.48997562109342,1553.0,1435.0,1200.0,1166.0,1471.0,997.6,110.0,292.15,1649407773.895694,1649407774.9987886,86a1541e-b46d-4ff9-85ec-a12f061901c1
-0.2701486877996256,-0.1026342820399634,-0.614013470153729,-0.0553252707701591,-0.6529073270019167,0.4721215107777258,-0.839973908385331,-0.8719252568905637,-22.275082758828585,21.22902677338437,39.81895045580673,1.2910110030045372,-0.611951176614225,2.941162176412526,4329.00341796875,11.939444444444446,0.14,179.03210041949364,-8.76429070678189,104.56676743793189,1553.0,1435.0,1200.0,1623.0,1471.0,997.6,110.0,292.15,1649407777.1400604,1649407778.2819164,8263084d-b7c2-4808-aa53-26dad1d23b8a
-0.2821928951669414,-0.1048695605430236,-0.6352617703855075,-0.0501841303163271,-0.6637813027111238,0.4729630272732245,-0.8533592877986073,-0.8734110599717247,-22.36724573646735,20.30698158557708,40.17825536292756,1.2741453599942316,-0.6248626841103234,3.0045899744472377,4332.651204427083,11.939777777777778,0.14,179.02755758478568,-8.774063284528104,104.49840711016884,1553.0,1435.0,1200.0,1623.0,1471.0,997.6,110.0,292.15,1649407778.396319,1649407779.5037982,8263084d-b7c2-4808-aa53-26dad1d23b8a
-0.270700933121992,-0.1020951854692921,-0.6250189324659118,-0.0574685084176522,-0.657535669661802,0.4708723847290786,-0.8436686938394601,-0.8608671972628525,-22.18761390702273,20.45009408867755,39.38847758071552,1.287302441325053,-0.6071800688912934,2.967548542335943,4336.5478515625,11.93611111111111,0.1322222222222222,179.01691918569844,-8.76634128135271,104.46785415619156,1553.0,1435.0,1200.0,1623.0,1471.0,997.6,110.0,292.15,1649407779.6120262,1649407780.7339065,8263084d-b7c2-4808-aa53-26dad1d23b8a
-0.3505529775275209,-0.1284320256683408,-0.8293629054178201,0.0279059783753658,-0.8461406500726889,0.4326491280457403,-1.0876691974493469,-1.112822671149069,-23.960266047495875,22.070480700489075,39.72579276332419,1.0085539896437596,-0.7198407164070691,3.8465162692340296,4340.696126302083,11.904333333333334,0.1266666666666666,179.04314559429147,-8.785281585648635,104.4115195148272,1553.0,1435.0,1200.0,1712.0,1471.0,997.6,110.0,292.15,1649407782.5769188,1649407783.8046358,f3e348c0-c155-4542-8ed4-09c8eebd19a4
-0.3369703720479107,-0.1309828729226138,-0.8318348613176587,0.0238430311478078,-0.8475212636831573,0.4391971782094023,-1.0877743868253016,-1.114913315629057,-24.01926812651771,21.98958347719984,39.760828528218845,1.0317498665812206,-0.7289587084219751,3.851613108061625,4342.1611328125,11.902444444444445,0.1222222222222222,179.06781016629432,-8.790719649456564,104.30763992665038,1553.0,1435.0,1200.0,1712.0,1471.0,997.6,110.0,292.15,1649407783.9132729,1649407784.9411666,f3e348c0-c155-4542-8ed4-09c8eebd19a4
-0.3468045870373856,-0.1315073036551249,-0.8309043377763958,0.0223071622768126,-0.8467459959903418,0.4373128690526178,-1.0856604797148388,-1.1026779395615065,-23.897397233098893,21.9160251408242,39.23113405978803,1.0305157332950678,-0.7268467049735163,3.8455704129054302,4342.1611328125,11.901777777777776,0.12,179.07462821290576,-8.805047773651697,104.22378265857051,1553.0,1435.0,1200.0,1712.0,1471.0,997.6,110.0,292.15,1649407785.0487368,1649407786.2701766,f3e348c0-c155-4542-8ed4-09c8eebd19a4
-0.387982771102124,-0.134946193678676,-0.9418465217039552,0.0978363076773565,-0.94839558770039,0.3784218861753877,-1.228703234270598,-1.2535467056147669,-24.7274336731755,22.799879132136702,39.28333020355977,0.7277300802175101,-0.750649860334173,4.338286188443011,4333.38037109375,11.878,0.11,179.09475905711952,-8.827305747473215,104.06274728850912,1553.0,1435.0,1200.0,1801.0,1471.0,997.6,110.0,292.15,1649407788.0151415,1649407788.9715395,11832cac-e190-4bf9-a38c-6407196e8025
-0.3904987240433796,-0.1401677436230299,-0.942503956915604,0.1010476238183196,-0.9472450760693362,0.3797620416536843,-1.2305743964170746,-1.2442161811402508,-24.965813034897685,22.89305098667109,39.1574032375273,0.7239424900911124,-0.7678660487618335,4.339293239052003,4326.81787109375,11.882375,0.1162499999999999,179.07910255599455,-8.839643310270079,103.95132470503142,1553.0,1435.0,1200.0,1801.0,1471.0,997.6,110.0,292.15,1649407789.079704,1649407790.262543,11832cac-e190-4bf9-a38c-6407196e8025
-0.3868565344833471,-0.1478263540093468,-0.9444403564013896,0.1006971605698118,-0.9481351421783129,0.3880750513847356,-1.2304510008160583,-1.2557754115739408,-25.00648757458337,22.964359091160706,39.21886014909623,0.7437791044859545,-0.796925699306352,4.342068581038274,4326.575303819444,11.88,0.11,179.08065547539337,-8.84145989157199,103.85332534054754,1553.0,1435.0,1200.0,1801.0,1471.0,997.6,110.0,292.15,1649407790.3708198,1649407791.5883963,11832cac-e190-4bf9-a38c-6407196e8025
-0.1974100918497847,-0.0564297612616573,-0.4430014795538794,-0.1020425910889338,-0.4671293426263879,0.4881892161547295,-0.6150390686807827,-0.6372998196359877,-20.923185059882584,16.700821253756448,43.99260886565031,1.4123431612924826,-0.4686992053700551,2.1486299750701505,7505.62744140625,11.648666666666664,7.593333333333334,-179.07901319435294,-8.882775705861397,90.22343620606708,1553.0,1435.0,1350.0,1528.0,1471.0,997.6,110.0,292.15,1649407795.7284515,1649407796.8239658,b9f29c4e-32a1-4970-ba10-12ab4dcf5a79
-0.1795410119789151,-0.055009702011134,-0.4446319183331671,-0.1047117765216308,-0.4678788185725303,0.4808259469164316,-0.6143684849994984,-0.6404949538031031,-20.716817017188337,16.403994798906496,42.79375087594392,1.399681832659057,-0.4539880551996997,2.149642169029684,7511.474663628473,11.643222222222224,7.639999999999999,-178.700013586408,-8.741327990247264,85.00693007443365,1553.0,1435.0,1350.0,1528.0,1471.0,997.6,110.0,292.15,1649407796.9329672,1649407798.077834,b9f29c4e-32a1-4970-ba10-12ab4dcf5a79
-0.1921637615360185,-0.0484616510456042,-0.4286168027670342,-0.0910502804557212,-0.4544802939300736,0.4775387731508767,-0.6034550635569486,-0.6267282636388146,-20.71708542091423,16.72557937591586,45.12528835224316,1.3647789205555907,-0.4507526368132478,2.0980924980846565,7512.20556640625,11.646333333333336,7.626666666666667,-178.53212450096942,-8.584709570712883,80.62457825011592,1553.0,1435.0,1350.0,1528.0,1471.0,997.6,110.0,292.15,1649407798.186528,1649407799.3815591,b9f29c4e-32a1-4970-ba10-12ab4dcf5a79
0.0324554273421159,0.3022403683938371,-0.3764953600228475,-0.3079511949344889,-0.4929928343455139,0.356123721910725,-0.6156044627631236,-0.6443475229196745,-20.440044702789088,16.184410066145585,48.47798980583145,1.580900129233002,0.8629176154074415,2.1424765723549206,7501.979166666667,11.629111111111111,7.690000000000001,-178.75520151490173,-8.426278494863778,72.50539502102846,1658.0,1435.0,1350.0,1528.0,1551.0,997.6,110.0,292.15,1649407801.036293,1649407802.2401524,e02ad6c6-8cd1-4611-9344-fc655e062028
0.0291288071761497,0.295902697199341,-0.3946931593578899,-0.34145407866859,-0.512334571776278,0.3623167573609199,-0.6260182337891677,-0.6567467479538703,-20.23269542846314,15.866447436243211,43.98518960750007,1.666765258656581,0.88046538897374,2.201331500918596,7505.62744140625,11.627666666666666,7.690000000000001,-178.94183567506238,-8.383874498630355,70.18801656521039,1658.0,1435.0,1350.0,1528.0,1551.0,997.6,110.0,292.15,1649407802.348943,1649407803.379706,e02ad6c6-8cd1-4611-9344-fc655e062028
0.0258598389595976,0.3050420519572126,-0.3864276848432244,-0.3239840099731228,-0.5015420177314195,0.3525543568534705,-0.619538958521204,-0.646506438394245,-20.21192853477017,15.61836053707864,46.21562110538392,1.6045526110573518,0.8931971251695658,2.1706610044134944,7505.62744140625,11.618111111111112,7.691111111111111,-179.1888031728915,-8.38404553795082,67.90642905955312,1658.0,1435.0,1350.0,1528.0,1551.0,997.6,110.0,292.15,1649407803.488445,1649407804.694459,e02ad6c6-8cd1-4611-9344-fc655e062028
0.1641659158583438,0.5718149165314678,-0.3811105535217278,-0.565691997021843,-0.5782358563255344,0.2948376528182916,-0.6518422821910039,-0.6752732674302352,-19.516368663452443,15.37370885390606,43.42579932872941,2.0186378160967653,1.943653037460434,2.3406782594224045,7505.62744140625,11.582444444444445,7.67,-179.89085555037988,-8.355022356620143,63.86181946495381,1767.0,1435.0,1350.0,1528.0,1630.0,997.6,110.0,292.15,1649407806.5371706,1649407807.674484,ee831db5-0208-473f-b703-6052d1bd3207
0.1811671795077135,0.5746155885634076,-0.3776918919089262,-0.5551335905965479,-0.5723320899644413,0.292155318948976,-0.6530519626940826,-0.6808746142434576,-19.960556911254727,15.448800682587374,44.82586400882106,1.989460680354859,1.9438104102639115,2.3317641072899,7505.62744140625,11.581333333333331,7.67,179.92071106615197,-8.36880112490578,62.57402903699285,1767.0,1435.0,1350.0,1528.0,1630.0,997.6,110.0,292.15,1649407807.7822902,1649407808.903705,ee831db5-0208-473f-b703-6052d1bd3207
0.168687550055593,0.5760568878222274,-0.3776028855408707,-0.5474486812332526,-0.5730633602278535,0.2857615129508724,-0.6556473140858283,-0.6730187712136737,-19.878702318858643,15.56997901638818,45.11196592616864,1.958652219407541,1.9451626188334592,2.336986835668953,7505.62744140625,11.582,7.674444444444443,179.68953193004424,-8.346218527371212,61.46468716692724,1767.0,1435.0,1350.0,1528.0,1630.0,997.6,110.0,292.15,1649407809.0122995,1649407810.1325808,ee831db5-0208-473f-b703-6052d1bd3207
0.3697063241338004,0.8704743748086287,-0.2904239805582846,-0.8031706910267873,-0.5838635001256882,0.2118693839325482,-0.6159463290891118,-0.6406395890303961,-18.99550687157031,15.983803091934766,42.62208965695621,2.3765848357671904,3.1022424184216617,2.206655228972929,7505.62744140625,11.514222222222225,7.634444444444445,179.16616944380192,-8.23293927080412,60.098143140016205,1886.0,1435.0,1350.0,1528.0,1710.0,997.6,110.0,292.15,1649407811.0433023,1649407812.0943062,063c4e85-23e3-408e-9e86-62a834fccda4
0.3665243398720054,0.8666349558532767,-0.299641217985185,-0.8203034498114105,-0.5915686385286668,0.2199032369193389,-0.6172086043301139,-0.6397191802398099,-18.81376514343909,15.561956357874584,40.95138011137127,2.429855015934139,3.1028813276361245,2.228840276089856,7505.62744140625,11.507333333333332,7.639999999999999,179.00591347421582,-8.253567390734943,59.40548303154651,1886.0,1435.0,1350.0,1528.0,1710.0,997.6,110.0,292.15,1649407812.202977,1649407813.2967331,063c4e85-23e3-408e-9e86-62a834fccda4
0.3444608291804744,0.8642024472606074,-0.2985235784869015,-0.8110730608176365,-0.5904772963063551,0.2142624464814718,-0.6182473516317717,-0.6333157627042499,-18.74569320153517,15.69996862254042,41.017214636857126,2.3973732215860526,3.09162938978187,2.227179732163078,7505.62744140625,11.510444444444444,7.64777777777778,178.85620179888838,-8.30284929259883,58.81704022616259,1886.0,1435.0,1350.0,1528.0,1710.0,997.6,110.0,292.15,1649407813.4056585,1649407814.433451,063c4e85-23e3-408e-9e86-62a834fccda4
-0.4190182520159587,-0.4699826101259547,-0.4693909190017371,0.1669665878241161,-0.3919056350221365,0.6080527198909776,-0.573160457775081,-0.5947769214427214,-20.9768932498408,17.827050203899127,38.69254710518017,1.08015365266688,-2.0071940170322966,1.9668617637267445,7507.820149739583,11.619666666666664,7.696666666666668,179.1521599669043,-8.424144155611888,57.50137048382943,1449.0,1435.0,1350.0,1528.0,1386.0,997.6,110.0,292.15,1649407816.5726602,1649407817.7149467,4ec9d099-52cc-423b-9e84-60923d05ff4e
-0.416993352372485,-0.4724677143074507,-0.4534678440870486,0.1818246140763673,-0.373116144601492,0.6068167425665405,-0.5609716127163382,-0.5910295415975274,-21.383433751926123,17.972611647491917,40.22340927822137,1.0456573729693468,-2.028022702109172,1.9038552565489064,7512.20556640625,11.625,7.699999999999999,179.01101183097626,-8.45287563094676,57.23414616274186,1449.0,1435.0,1350.0,1528.0,1386.0,997.6,110.0,292.15,1649407817.848585,1649407818.8264866,4ec9d099-52cc-423b-9e84-60923d05ff4e
-0.4214113152434482,-0.4724677143366423,-0.4596740302469671,0.1787478192564525,-0.3798219809066742,0.6051600069993723,-0.5678878289940884,-0.5926073860532343,-21.3940650342438,18.002822681198104,39.5347099900744,1.0486510740238009,-2.021857639652503,1.9302776201015768,7512.20556640625,11.623666666666663,7.693333333333334,178.90938772304537,-8.471592056819889,57.01913180766985,1449.0,1435.0,1350.0,1528.0,1386.0,997.6,110.0,292.15,1649407818.935336,1649407820.0554743,4ec9d099-52cc-423b-9e84-60923d05ff4e
-0.6254528394941414,-0.8342279250343688,-0.4903104999235532,0.4254173456262762,-0.3196403878205384,0.6964119500732147,-0.5436810721027752,-0.5626546464412159,-21.5916982904094,19.03149586326762,34.37458366837054,0.7016520267849888,-3.363840550722116,1.8061552303820168,7512.20556640625,11.580333333333334,7.690000000000001,178.80369737582862,-8.60018943555681,56.30806471884192,1342.0,1435.0,1350.0,1528.0,1293.0,997.6,110.0,292.15,1649407822.10805,1649407823.3324862,b906d866-737e-4046-9c1f-d57402b83d33
-0.6258473005042252,-0.8306646265891304,-0.4806725032193747,0.4331356297056409,-0.3161559827569475,0.6995413394764709,-0.5417087671735975,-0.5683874797690082,-21.661159652879192,19.78702512486509,36.36092364910169,0.697043696370995,-3.367915740864191,1.7884052846125464,7512.20556640625,11.56711111111111,7.687777777777779,178.78680555910125,-8.595520526940417,56.14700658148329,1342.0,1435.0,1350.0,1528.0,1293.0,997.6,110.0,292.15,1649407823.4405756,1649407824.4692142,b906d866-737e-4046-9c1f-d57402b83d33
-0.633328911264551,-0.8377780747738316,-0.4676289934977508,0.4548967200923224,-0.3033754481652452,0.7077329764406741,-0.5328070973285057,-0.5523197682559079,-21.813976293037257,20.35416610558565,39.45984063308235,0.6711898970477798,-3.4228222696255752,1.7439051047281888,7512.20556640625,11.580888888888886,7.685555555555556,178.7718261953415,-8.603743695246159,56.03458052938002,1342.0,1435.0,1350.0,1528.0,1293.0,997.6,110.0,292.15,1649407824.577102,1649407825.7910087,b906d866-737e-4046-9c1f-d57402b83d33
-0.8261379328442309,-1.1933155116687364,-0.4917184223129522,0.7426786676863592,-0.2431574455752549,0.7723011603340544,-0.5306840879632942,-0.5628604748530358,-22.82097168898843,23.02760678903359,36.67826278552139,0.1826904338815569,-4.761437421737709,1.6454784548265604,7518.794921875,11.469888888888889,7.624444444444445,178.87591979611227,-8.67215012678608,55.842469695869845,1227.0,1435.0,1350.0,1528.0,1189.0,997.6,110.0,292.15,1649407826.7002656,1649407827.8472338,79dbafd5-52f7-4b4e-bfd6-388d68541d3e
-0.8339780997179322,-1.197303109883611,-0.5067858207948985,0.725260186870495,-0.2582228190196339,0.7768819633940933,-0.5410381835212573,-0.5650871562051223,-22.7021990546726,22.82114273237353,34.399215369969426,0.2298534979198628,-4.755848949648053,1.697596761824543,7518.794921875,11.461,7.62,178.8633826044358,-8.720209424788537,55.72586660363416,1227.0,1435.0,1350.0,1528.0,1189.0,997.6,110.0,292.15,1649407827.9602325,1649407829.0713084,79dbafd5-52f7-4b4e-bfd6-388d68541d3e
-0.8451281996932297,-1.194213163761333,-0.4969242958338856,0.7252601868676242,-0.2478484963127871,0.7699526011224733,-0.5303745877460468,-0.5499135559848585,-22.61923839460552,22.613895247812923,33.9259110636417,0.213365778008603,-4.740030410734005,1.6546909313526943,7518.794921875,11.473999999999998,7.608888888888888,178.86486399657576,-8.707982342673091,55.64350970044196,1227.0,1435.0,1350.0,1528.0,1189.0,997.6,110.0,292.15,1649407829.1803606,1649407830.2619703,79dbafd5-52f7-4b4e-bfd6-388d68541d3e
-0.1864572268223616,-0.0553121220440606,-0.4417260557096081,-0.0885914740453605,-0.4634608554842507,0.4539894602251018,-0.6165117231544577,-0.6371683324562185,-20.587905037006315,16.35492598258583,41.05072248262445,1.3026196625561712,-0.4423876750774533,2.140471901027828,7515.134168836806,11.632777777777775,7.714444444444445,178.4658610412816,-8.639842952556968,55.55667750552358,1553.0,1435.0,1350.0,1528.0,1471.0,997.6,110.0,292.15,1649407832.1278298,1649407833.1756086,5b53b0e4-e8c9-4313-8fde-a02b77030ec4
-0.1954772332889452,-0.0490401937048966,-0.451482390672368,-0.1011221823075186,-0.4684968075321964,0.44711269268124,-0.6230334787928079,-0.6486339992260328,-20.818725855316508,15.66479123606966,39.25437236759869,1.3099695306036654,-0.4003968371996848,2.1681528643519776,7518.794921875,11.632333333333335,7.713333333333334,178.47050708773702,-8.599634198095535,55.61418238596573,1553.0,1435.0,1350.0,1528.0,1471.0,997.6,110.0,292.15,1649407833.2849748,1649407834.4088612,5b53b0e4-e8c9-4313-8fde-a02b77030ec4
-0.1827366511942804,-0.051464611100335,-0.4343825074080038,-0.0768769966588858,-0.4533722632528543,0.4519155064285002,-0.6107520867291688,-0.6301464204903472,-20.792931195394413,16.247109213482034,42.8770335603308,1.2713730694253649,-0.4436711836283905,2.111565297843633,7518.794921875,11.645888888888887,7.73,178.45601342631826,-8.651631859064409,55.69403185082263,1553.0,1435.0,1350.0,1528.0,1471.0,997.6,110.0,292.15,1649407834.5240848,1649407835.6286438,5b53b0e4-e8c9-4313-8fde-a02b77030ec4
-0.1713706136883371,-0.0609721302678036,-0.5000754321507013,-0.4689737006592385,-0.5527713753373159,0.8208501881361473,-0.5677153786982911,-0.5925335508451407,-20.703736125966167,15.012103534215974,42.59970935833125,2.973435280689046,-0.4334135737338205,2.2708118201413936,7518.794921875,11.610111111111111,7.690000000000001,178.4952141586947,-8.534603777280365,55.77941225108742,1553.0,1522.0,1350.0,1528.0,1471.0,997.6,110.0,292.15,1649407836.5417929,1649407837.567603,fc43ba75-457a-44a4-85a9-d24294690c2e
-0.1844060300448763,-0.061833875623725,-0.4783451832616584,-0.4411869591676268,-0.5290991639675614,0.8047308994521106,-0.550847113597463,-0.5800503767712903,-20.66898484008504,15.123901353398503,43.97185946537318,2.876592369861139,-0.4510946002933462,2.1869849566389687,7518.794921875,11.619222222222223,7.695555555555554,178.50434839834472,-8.487789850436576,55.83385189441205,1553.0,1522.0,1350.0,1528.0,1471.0,997.6,110.0,292.15,1649407837.6760542,1649407838.8021057,fc43ba75-457a-44a4-85a9-d24294690c2e
-0.1630515340198728,-0.060997416227149,-0.4759146967795685,-0.4406407824828096,-0.5340471208996576,0.8182710210258579,-0.5562355520442666,-0.5882728665495365,-20.898365740072457,16.093655332390668,46.06160685679261,2.912554081765209,-0.4647519655430052,2.200578208895409,7518.794921875,11.622333333333334,7.712222222222222,178.52300999297702,-8.502752328450873,55.90690683886461,1553.0,1522.0,1350.0,1528.0,1471.0,997.6,110.0,292.15,1649407838.9194634,1649407840.1351197,fc43ba75-457a-44a4-85a9-d24294690c2e
-0.1456436702732096,-0.0549045124312892,-0.5244971192016225,-0.8249975366794656,-0.6189573816739773,1.1816514014916644,-0.5019733962267425,-0.5333593433243216,-20.967736502986035,14.999694673473254,48.28760903053428,4.586781826018552,-0.4169137599341414,2.3061017101153856,7518.794921875,11.610666666666669,7.713333333333334,178.54799482496094,-8.393307274465357,55.96079779032591,1553.0,1613.0,1350.0,1528.0,1471.0,997.6,110.0,292.15,1649407841.1394355,1649407842.1971786,cc7a2fca-3ca8-44e2-913e-f1cff36bf23d
-0.1755427965296354,-0.0553839341448814,-0.5387755957971383,-0.8368338976501488,-0.6287177632959232,1.1737156578410926,-0.5087485165678187,-0.5221753625204857,-20.72773259148825,14.208683560625234,45.472143690819614,4.589366410218606,-0.394918458187575,2.3448648939573724,7518.794921875,11.601333333333333,7.696666666666666,178.56760505697792,-8.360980558306117,55.98011432420863,1553.0,1613.0,1350.0,1528.0,1471.0,997.6,110.0,292.15,1649407842.328459,1649407843.4190094,cc7a2fca-3ca8-44e2-913e-f1cff36bf23d
-0.1710338047495301,-0.0585598501203138,-0.5306375619609428,-0.830704073242234,-0.6247296611960229,1.1835448137165716,-0.5036958758858796,-0.5284022828186735,-20.700683716168573,14.806677903876428,47.27184445316311,4.602296348760247,-0.4232008848211944,2.3231273029584742,7518.794921875,11.60811111111111,7.707777777777778,178.58107722566083,-8.372462011437172,56.0200667568487,1553.0,1613.0,1350.0,1528.0,1471.0,997.6,110.0,292.15,1649407843.5274284,1649407844.7328606,cc7a2fca-3ca8-44e2-913e-f1cff36bf23d
-0.1665238015589276,-0.0619390651991848,-0.5744490307319177,-1.1832208456441329,-0.7071983145710964,1.529684253866277,-0.4569653979444053,-0.4827237000695533,-20.8010452377004,14.618181926509186,49.87395726691784,6.172242550650208,-0.417605372286294,2.428815643514284,7518.062771267361,11.570555555555556,7.681111111111111,178.62440339229593,-8.294448065055978,56.0881220028288,1553.0,1710.0,1350.0,1528.0,1471.0,997.6,110.0,292.15,1649407845.5238998,1649407846.5128756,036397d3-53ff-46de-9af6-25fdd9a9f6c4
-0.1653667162025827,-0.0627411357085715,-0.5790642243955624,-1.1854035308441104,-0.7069484890824113,1.5220448606609551,-0.4590954871682053,-0.486247551483643,-20.9304262771014,14.13199056939734,48.37199114986571,6.156242040855191,-0.4064180982481838,2.435673665647663,7512.20556640625,11.585777777777777,7.692222222222223,178.68135806305497,-8.269900080587737,56.1103220149061,1553.0,1710.0,1350.0,1528.0,1471.0,997.6,110.0,292.15,1649407846.621566,1649407847.6067069,036397d3-53ff-46de-9af6-25fdd9a9f6c4
-0.1716993311426704,-0.0660672502717336,-0.578537770753268,-1.180685168324622,-0.7038802902969411,1.5325233611254303,-0.4542572715713235,-0.4778364296182556,-20.874685481202903,13.968631060239414,50.03727301772908,6.168381958682243,-0.4345972484859156,2.4259821363395693,7518.794921875,11.575444444444445,7.672222222222222,178.7108614446298,-8.297316175324953,56.11819380792454,1553.0,1710.0,1350.0,1528.0,1471.0,997.6,110.0,292.15,1649407847.71993,1649407848.9454665,036397d3-53ff-46de-9af6-25fdd9a9f6c4
-0.1408969905944986,-0.0394942398915363,-0.5511100878601172,-1.3431354311129384,-0.7151138328863362,1.6756348026276846,-0.4050674825316119,-0.4319828694051854,-20.73405410947494,15.38943269933418,53.09282676929757,6.867762713009114,-0.3412449842577362,2.3394756685593494,7532.00927734375,11.517777777777775,7.63,178.7500014642136,-8.218004682728933,56.19489076102453,1553.0,1814.0,1350.0,1528.0,1471.0,997.6,110.0,292.15,1649407849.5380309,1649407850.6746457,89733a91-d4f2-44ff-b073-0191dc863cae
-0.1458671981384064,-0.0434782949884331,-0.563088553895718,-1.365277858179781,-0.7245546007374176,1.6858644906307374,-0.4099850959399811,-0.4225684014752174,-20.845992379867504,14.96388723282132,51.035478173393805,6.936896338293168,-0.3352014940354136,2.3721823809934013,7532.00927734375,11.52711111111111,7.63,178.77278849310457,-8.200046692444893,56.21956178376157,1553.0,1814.0,1350.0,1528.0,1471.0,997.6,110.0,292.15,1649407850.7918246,1649407851.810392,89733a91-d4f2-44ff-b073-0191dc863cae
-0.1278534830037717,-0.046699725669522,-0.5721874543336111,-1.3490786483257344,-0.7312341411908732,1.6833004941586496,-0.4213587206603524,-0.4501280744024566,-20.89364178421661,15.052909039504518,52.26244799864672,6.894901919673726,-0.3603909510155128,2.4112894945496968,7532.00927734375,11.506999999999998,7.6,178.8206499053486,-8.205470811283266,56.22771209671616,1553.0,1814.0,1350.0,1528.0,1471.0,997.6,110.0,292.15,1649407851.919018,1649407853.130761,89733a91-d4f2-44ff-b073-0191dc863cae
-0.1981858650071274,-0.0555356498906877,-0.3942855496704567,0.2637672852662642,-0.3837534418342301,0.1162126218239651,-0.6669632883408161,-0.6956800519850177,-20.69569022934565,17.45341468056374,39.10431864442622,-0.2419653162279204,-0.4655690355815601,2.038864188960713,7532.00927734375,11.64,7.71,178.9217776861998,-8.768591733820493,56.33144900983032,1553.0,1349.0,1350.0,1528.0,1471.0,997.6,110.0,292.15,1649407855.0654955,1649407856.116273,35361993-205c-4f4b-835f-71fcd8ee4eb1
-0.1907902283744662,-0.0531081981760069,-0.4025348411847059,0.2614111402046096,-0.3902585078059559,0.1088230546756364,-0.6747508595787133,-0.694878486869938,-20.69897589039873,17.1875127411175,38.02564695999173,-0.2556028304290397,-0.447118499476229,2.068915383541768,7525.396484375,11.633,7.71,178.9271052337524,-8.778645345391928,56.47111271797874,1553.0,1349.0,1350.0,1528.0,1471.0,997.6,110.0,292.15,1649407856.2245,1649407857.339154,35361993-205c-4f4b-835f-71fcd8ee4eb1
-0.2021830690866911,-0.054365415878895,-0.3918004455743644,0.2665942548797597,-0.378257285713846,0.1120313365462541,-0.6630055293145898,-0.6804144101934608,-20.745848058429345,17.151648071776552,39.07170663388226,-0.2596453258108372,-0.4607315382139492,2.022564912880364,7525.396484375,11.63522222222222,7.71,178.92146197967816,-8.801422081567283,56.59952862238397,1553.0,1349.0,1350.0,1528.0,1471.0,997.6,110.0,292.15,1649407857.447257,1649407858.5681124,35361993-205c-4f4b-835f-71fcd8ee4eb1
-0.2003356770383611,-0.0496060933693656,-0.3499653322433081,0.5953247831238311,-0.3164361512165967,-0.1975162929131603,-0.7246147809791358,-0.7450711266825696,-21.05534726675884,19.35165497960206,38.66167432476483,-1.6803296475657297,-0.4748408502151002,1.9708154155314297,7523.195963541667,11.618000000000002,7.71,178.9421225430075,-8.91407931660121,56.88664776670397,1553.0,1264.0,1350.0,1528.0,1471.0,997.6,110.0,292.15,1649407860.5693083,1649407861.651569,e5511f76-7011-47c2-8982-361c1a0814de
-0.221143491013271,-0.0599667606909968,-0.3670808920378319,0.5776923831493395,-0.3249524619113619,-0.1981595677048905,-0.7286438465607766,-0.7476568696050612,-20.904066351587723,18.28167584691022,34.75194458997353,-1.65049314165815,-0.4790508005648358,2.0051042217555874,7518.794921875,11.614,7.71,178.9566480786424,-8.924845402280445,56.9688957663244,1553.0,1264.0,1350.0,1528.0,1471.0,997.6,110.0,292.15,1649407861.774186,1649407862.873176,e5511f76-7011-47c2-8982-361c1a0814de
-0.2217023106520552,-0.048253294783854,-0.3549213802304646,0.59263182925637,-0.3176878061919377,-0.2054055114266452,-0.7266629441871503,-0.7527707030532327,-21.040316226163576,18.86104636707678,37.35571543061497,-1.6956828238298571,-0.4582896854600611,1.9807020050783568,7518.794921875,11.619333333333334,7.708888888888889,178.9752201219056,-8.920863401994325,57.03838573148517,1553.0,1264.0,1350.0,1528.0,1471.0,997.6,110.0,292.15,1649407862.9819872,1649407863.981815,e5511f76-7011-47c2-8982-361c1a0814de
-0.2084145402503203,-0.048455582419309,-0.324274798453113,0.9196424032656716,-0.2612621910971666,-0.539989321724216,-0.7954028411044565,-0.8215358871298247,-21.082253553072057,20.313867532339195,32.41010849602855,-3.174845603173785,-0.4532133077268194,1.9551864269883987,7518.794921875,11.600444444444443,7.71,179.03055831456106,-9.04643083292444,57.24537195809772,1553.0,1178.0,1350.0,1528.0,1471.0,997.6,110.0,292.15,1649407866.126024,1649407867.2634015,8ecb76df-26f6-4e98-aa57-c6e07717ae84
-0.238000121464303,-0.047291417036802,-0.2984841324405,0.9583734022568255,-0.2401039133585796,-0.5356866624933745,-0.7844337889641969,-0.8109678702963342,-21.485905711345907,21.57131940906621,38.37894468350422,-3.2421763157706662,-0.5020039722381076,1.883695591124907,7518.794921875,11.609666666666667,7.690000000000001,179.01819567216333,-9.042336988290664,57.33014826607592,1553.0,1178.0,1350.0,1528.0,1471.0,997.6,110.0,292.15,1649407867.372146,1649407868.4979448,8ecb76df-26f6-4e98-aa57-c6e07717ae84
-0.2340292147532564,-0.0552989733548498,-0.3103442582049404,0.9329964204325522,-0.2500837749686643,-0.524799539050907,-0.7861299715075221,-0.8075886539607388,-21.31824893062024,21.084833422604007,35.443832242377205,-3.1646662513289687,-0.5048456525342638,1.9108559519881647,7518.794921875,11.606125,7.70625,179.0547614693399,-9.068852292541248,57.4069818229593,1553.0,1178.0,1350.0,1528.0,1471.0,997.6,110.0,292.15,1649407868.6107252,1649407869.643111,8ecb76df-26f6-4e98-aa57-c6e07717ae84
-0.2407679223585337,-0.0598469052722406,-0.2636011423228686,1.171401993313472,-0.188059345322853,-0.7553498715101614,-0.8114341436927626,-0.8270735140378073,-21.3245692733988,22.56208893111704,33.31030991607611,-4.208751071617936,-0.5293135852239392,1.7966083777702535,7518.794921875,11.586666666666666,7.697777777777778,179.0419799086731,-9.131053746237528,57.47250306875733,1553.0,1088.0,1350.0,1528.0,1471.0,997.6,110.0,292.15,1649407870.5379374,1649407871.7653797,7615f49e-0a68-4045-bd51-d490475dc184
-0.247468701049551,-0.0620973552799959,-0.2825782536970492,1.135053435082064,-0.2056710142855057,-0.7340338029807474,-0.8195509390005612,-0.8433829625030638,-21.38990247500217,22.02950062527536,31.172626437753024,-4.083706749396092,-0.5150822884360942,1.8545874551090835,7512.937717013889,11.570555555555556,7.680000000000001,179.05146476470054,-9.127920586683262,57.49033821050004,1553.0,1088.0,1350.0,1528.0,1471.0,997.6,110.0,292.15,1649407871.8743808,1649407872.9966238,7615f49e-0a68-4045-bd51-d490475dc184
-0.2366063594962965,-0.0464236030547985,-0.2612733170181792,1.162809320514046,-0.1904149850124912,-0.7549806963178719,-0.8111388035793528,-0.8293366084944347,-21.249802453313485,22.643001115465218,34.115940758936375,-4.187720176316092,-0.4854306217481368,1.7989274899043823,7512.20556640625,11.555,7.68,179.05484343160998,-9.151765346258207,57.45417159993492,1553.0,1088.0,1350.0,1528.0,1471.0,997.6,110.0,292.15,1649407873.104602,1649407874.1336985,7615f49e-0a68-4045-bd51-d490475dc184
-0.1987249615892399,-0.0523405165730859,-0.4377551486655129,-0.1104972032651427,-0.4607390748644089,0.4887677587366001,-0.6060322088874023,-0.6285427843632588,-20.89061856562991,16.330668732828215,43.597090876339735,1.430475549158547,-0.4487198276482989,2.119988540580421,7526.865993923611,11.637222222222224,7.690000000000001,179.14002044401948,-8.744912890924136,57.53464792437564,1553.0,1435.0,1350.0,1528.0,1471.0,997.6,110.0,292.15,1649407876.164191,1649407877.2056515,3e5c2cca-daec-4c25-98fc-25a6182c7730
-0.1941755122577904,-0.0580601996461693,-0.4421205165931247,-0.1161379942286401,-0.4701929895293626,0.5051510327876403,-0.6115809604144298,-0.6319614468906215,-20.854989653431844,16.9464022413732,44.34477967351161,1.4840167221410971,-0.4766228328467825,2.1468010466175973,7537.161295572917,11.637222222222222,7.699999999999999,179.17068799339285,-8.726825127045863,57.53509036885188,1553.0,1435.0,1350.0,1528.0,1471.0,997.6,110.0,292.15,1649407877.3134785,1649407878.5314665,3e5c2cca-daec-4c25-98fc-25a6182c7730
