raw_voltage_G-,raw_voltage_G0,raw_voltage_G1,raw_voltage_G2,raw_voltage_G3,raw_voltage_G4,raw_voltage_G5,raw_voltage_G6,load_x,load_y,load_z,load_l,load_m,load_n,rpm,voltage,current,roll,pitch,yaw,aileron1_pwm,elevator_pwm,throttle_pwm,rudder_pwm,aileron2_pwm,pbaro,pdiff,Tt,sample_start_time,sample_end_time,uid
0.0704516194431016,0.2165412166456717,0.0729169997787312,-0.2266457164674253,-0.0949185258502528,0.2959517514757961,-0.1325313851042253,-0.1460214426587361,-12.238970362134951,18.61488448948136,42.1512615513654,1.30388977650976,0.5580432582672591,0.2860510164374148,4510.490017361111,11.938111111111112,0.1411111111111111,179.40010342287485,-11.394468679834342,110.48392499936392,1553.0,1435.0,1200.0,1528.0,1471.0,998.74,108.0,293.1,1649410313.0685055,1649410314.026519,282d3b77-e62a-4cd4-b046-2405fdd9d463
0.0692980741568991,0.1805360418143593,0.0667209292757254,-0.2537128169829076,-0.0985450380283711,0.354059376181792,-0.1212265403576365,-0.136479028757524,-12.295634099369304,18.771312862849165,41.87160611436262,1.496177473032766,0.4288239872808195,0.2782484796100471,4528.759060329861,11.940888888888889,0.15,179.59980904728712,-11.477451968291671,110.231293756893,1553.0,1435.0,1200.0,1528.0,1471.0,998.74,108.0,293.1,1649410314.1397407,1649410315.2722893,282d3b77-e62a-4cd4-b046-2405fdd9d463
0.0654586548725756,0.1680579296159691,0.0670759442238509,-0.2579466999561096,-0.0992945135895985,0.3674841934368226,-0.1176500942801728,-0.135203605014892,-12.186357662985886,19.03238127194784,41.49937448923141,1.5376394350977165,0.385097342876751,0.2715905672821996,4527.958984375,11.938,0.1425,179.70583900668765,-11.471611350209535,110.0507741338593,1553.0,1435.0,1200.0,1528.0,1471.0,998.74,108.0,293.1,1649410315.380697,1649410316.3897922,282d3b77-e62a-4cd4-b046-2405fdd9d463
0.2305142343149682,0.4895040855656439,0.1339107660983494,-0.3861596563375525,-0.1124300622923999,0.1738433546593176,-0.1313904829688878,-0.1490097369563225,-11.618601061182794,18.88089391628253,42.16513972956188,1.3944352532458395,1.6008169245195238,0.2571108831840332,4537.280110677083,11.924666666666669,0.14,179.65921196140863,-11.540190576049088,109.74773988986324,1658.0,1435.0,1200.0,1528.0,1551.0,998.74,108.0,293.1,1649410317.5052807,1649410318.4516551,722c3055-ceee-4b32-900c-c70804543d4b
0.2349584934003868,0.4752771974546553,0.1347391341120159,-0.4068294102491284,-0.112114493202183,0.2007061404057014,-0.1218445288543622,-0.1497723615207283,-11.595589116935482,18.9322826502568,41.33616620403527,1.501686770077763,1.5572400175405117,0.2388836237999598,4531.151692708333,11.929333333333336,0.14,179.7372703988832,-11.542880247625996,109.61529720948737,1658.0,1435.0,1200.0,1528.0,1551.0,998.74,108.0,293.1,1649410318.5704944,1649410319.6697292,722c3055-ceee-4b32-900c-c70804543d4b
0.2025995535087228,0.4496635395047494,0.1228132668602943,-0.4184397120284762,-0.1174923103414915,0.2316318725228835,-0.1217524879131162,-0.1464194435607751,-11.774976491494035,18.717048142020136,40.60336322363297,1.5951432594935395,1.469607491348225,0.2580619051677383,4523.1796875,11.937111111111111,0.1477777777777777,179.7495571502901,-11.498402719797038,109.53289932516014,1658.0,1435.0,1200.0,1528.0,1551.0,998.74,108.0,293.1,1649410319.778241,1649410320.9007902,722c3055-ceee-4b32-900c-c70804543d4b
0.3978445318542085,0.725812432075391,0.1827844685308508,-0.556501062660352,-0.1352299030449745,0.0757935274798906,-0.1300361676794088,-0.1621058403530817,-11.03007923337352,19.029044030596232,39.03380410103275,1.5615654615193564,2.5347779518043208,0.2426506538880221,4516.294813368056,11.881222222222222,0.1288888888888889,179.60696404989764,-11.413091095742644,109.29682218450765,1767.0,1435.0,1200.0,1528.0,1630.0,998.74,108.0,293.1,1649410323.037049,1649410324.0860386,6131e54f-9ab4-418b-854f-f0e10af0c024
0.3914148198772623,0.7243003322030479,0.1672032642173916,-0.5562775338082505,-0.1450125336160421,0.0804876118671775,-0.1393980395385895,-0.1560179927165093,-11.015561052168083,18.457663694483283,39.4302722172654,1.5671163877366163,2.5244650382137004,0.2911659947605075,4516.823893229167,11.882666666666664,0.1233333333333333,179.52364484894238,-11.38892892209877,109.09555624132496,1767.0,1435.0,1200.0,1528.0,1630.0,998.74,108.0,293.1,1649410324.194244,1649410325.307336,6131e54f-9ab4-418b-854f-f0e10af0c024
0.3924798641938999,0.752609472526806,0.1817457214089098,-0.5280735787532841,-0.1369918294263197,0.030772388450323,-0.1449862359485852,-0.16484076873398,-10.971503805277404,18.90938873794413,40.02651464490647,1.395614308994361,2.6225022829428326,0.2727340018905965,4509.16748046875,11.884222222222222,0.13,179.54961626380643,-11.408961961798155,108.90186877248136,1767.0,1435.0,1200.0,1528.0,1630.0,998.74,108.0,293.1,1649410325.4161098,1649410326.5394733,6131e54f-9ab4-418b-854f-f0e10af0c024
0.5292262933515053,0.9882472381373598,0.2266879627734536,-0.6974025379377018,-0.1630919934726855,-0.0699334754534959,-0.1482602631036248,-0.1657611783430306,-10.421604406097623,19.04481806580765,36.5243581988989,1.5541335747415657,3.55713405643367,0.2741006579544263,4510.488552517361,11.827444444444446,0.1155555555555555,179.31511310230266,-11.319003437514688,108.59195804581093,1886.0,1435.0,1200.0,1528.0,1710.0,998.74,108.0,293.1,1649410328.678399,1649410329.7091467,5317c3e4-271a-4714-9fec-b0a1e2f51c5b
0.5102375548864232,0.9528934306485998,0.2253027986709009,-0.6801494222020754,-0.1559967539983726,-0.0570907400631727,-0.1454272237009046,-0.1662375651826819,-10.70645160697592,19.24358223806012,35.68934673418395,1.5450462831969984,3.4317438784845984,0.2567061474983118,4497.862630208333,11.831,0.11,179.17704006932095,-11.34683133574061,108.39765889558166,1886.0,1435.0,1200.0,1528.0,1710.0,998.74,108.0,293.1,1649410329.8225796,1649410330.8396504,5317c3e4-271a-4714-9fec-b0a1e2f51c5b
0.5457805004021783,1.043484907524515,0.2345771808640627,-0.6016931402273749,-0.150469243024019,-0.1921900606396753,-0.1732164890827994,-0.1968052519567004,-10.159311372225114,18.50342331316553,39.30521480941493,1.060888926984364,3.7265128705049504,0.2935372231117849,4492.100314670139,11.82522222222222,0.1111111111111111,179.15943184164067,-11.35099585385955,108.2196709960003,1886.0,1435.0,1200.0,1528.0,1710.0,998.74,108.0,293.1,1649410330.9484315,1649410332.079915,5317c3e4-271a-4714-9fec-b0a1e2f51c5b
-0.1474713393669274,-0.1766088527123219,0.005079840863099,-0.0628726231924983,-0.0732206476172314,0.5283453307085576,-0.1142971772297731,-0.1334416801012999,-13.138297415006775,19.9050814143885,41.66326302280251,1.461321750507836,-0.9302608070439684,0.2750236681188351,4493.40869140625,11.928555555555556,0.1455555555555555,179.40685620323427,-11.208302482495537,107.92650637535492,1449.0,1435.0,1200.0,1528.0,1386.0,998.74,108.0,293.1,1649410333.6847086,1649410334.9358757,b4be2ff1-1ffb-454d-b2d8-ebdd179d4e3d
-0.1474844879505267,-0.1888371413125826,0.0003857565984692,-0.0769680267694752,-0.0772835946752696,0.5537880555273681,-0.1132978755481382,-0.1419620352593741,-13.328954609996778,20.02888974363275,41.71698447494233,1.5507903252697008,-0.9738110654761152,0.2838217207616594,4530.884711371527,11.921666666666663,0.1411111111111111,179.8286340448609,-11.144371342681788,107.78790210543777,1449.0,1435.0,1200.0,1528.0,1386.0,998.74,108.0,293.1,1649410335.0441751,1649410336.0530574,b4be2ff1-1ffb-454d-b2d8-ebdd179d4e3d
-0.1374257346967951,-0.1562152231931541,-0.004755383668168,-0.0537079824513692,-0.0831216159533609,0.5040991369276538,-0.1297337469271214,-0.1513239076886707,-13.036506181937838,19.579640194983448,42.162570413021534,1.3836478454323913,-0.8606754827457201,0.3273509936465686,4540.218858506944,11.93622222222222,0.1444444444444445,179.76387019115086,-11.128632689559309,107.6911107357996,1449.0,1435.0,1200.0,1528.0,1386.0,998.74,108.0,293.1,1649410336.1612113,1649410337.2009408,b4be2ff1-1ffb-454d-b2d8-ebdd179d4e3d
-0.3427588336619594,-0.4780766462105701,-0.0494038058612008,0.0819314415838404,-0.0590756837495348,0.6914366862150907,-0.1073465730511356,-0.1313050161193529,-13.619563326952605,21.048486497924845,41.61792555793993,1.5057846742318437,-2.078403277952786,0.2840509859439338,4544.229709201389,11.887666666666668,0.13,179.8008139254615,-11.106595179065998,107.4557264798929,1342.0,1435.0,1200.0,1528.0,1293.0,998.74,108.0,293.1,1649410339.0113952,1649410340.0565252,5c8758fa-d8b9-4608-bc22-1f4a9767ff9a
-0.3451225651010319,-0.4922696559070464,-0.0488692608756948,0.0843138824170665,-0.0544048621487256,0.6997648674585301,-0.1012010748336693,-0.1236064541898182,-13.591845951435628,20.895893649084336,41.16445257765129,1.518081733010084,-2.128074780812436,0.2659565949238802,4547.17578125,11.892555555555552,0.13,179.76895488753294,-11.089090827179332,107.17395157914343,1342.0,1435.0,1200.0,1528.0,1293.0,998.74,108.0,293.1,1649410340.1646717,1649410341.3728497,5c8758fa-d8b9-4608-bc22-1f4a9767ff9a
-0.3543266540286749,-0.5055366938615918,-0.0560484493822637,0.0764772618475373,-0.058928013902494,0.718883069817121,-0.1069602039547481,-0.1301808026141044,-14.129743546132945,21.10920813803528,40.95905504780176,1.5794734887949853,-2.171693348233047,0.2876756548458565,4544.7646484375,11.898,0.13,179.74127744319625,-11.062529549589492,107.01110089658268,1342.0,1435.0,1200.0,1528.0,1293.0,998.74,108.0,293.1,1649410341.4813347,1649410342.5145197,5c8758fa-d8b9-4608-bc22-1f4a9767ff9a
-0.5278520601089866,-0.8101066300820734,-0.0986102750837522,0.2377308453815684,-0.0307048419201359,0.8540000712931926,-0.0926427895384927,-0.1157035811737327,-14.519325182218504,22.1850245845636,38.73406744871468,1.5238124962000998,-3.3140721292769504,0.2475749454380248,4546.907877604167,11.79611111111111,0.1,179.75988287849538,-11.039370465116226,106.66665901019836,1227.0,1435.0,1200.0,1528.0,1189.0,998.74,108.0,293.1,1649410344.0950794,1649410345.067186,810db2fb-825d-4ef3-9ebd-c38af6fc97f4
-0.4901886212096438,-0.7867171114834369,-0.0966126845705139,0.2268831715356729,-0.037228618324717,0.8410789497696082,-0.0985091312485921,-0.1286247051405098,-14.430256462973189,22.43552770238721,38.7167653600098,1.5210488643583455,-3.225357806558153,0.2647601440652784,4541.287000868056,11.792666666666667,0.0955555555555555,179.80988441667932,-11.013849937601163,106.2817816450177,1227.0,1435.0,1200.0,1528.0,1189.0,998.74,108.0,293.1,1649410345.1810656,1649410346.2555332,810db2fb-825d-4ef3-9ebd-c38af6fc97f4
-0.5143594712115267,-0.7818829405155463,-0.0885125815418748,0.2354844413390584,-0.0310659253563527,0.8281618740181014,-0.096796260604689,-0.1154542617870409,-14.497021262413655,22.68231127205797,38.71496822550784,1.4746255080541653,-3.207279565268674,0.2433960810001685,4497.085394965277,11.800444444444445,0.1,179.8022528186467,-11.004407011346144,105.91332633133143,1227.0,1435.0,1200.0,1528.0,1189.0,998.74,108.0,293.1,1649410346.363856,1649410347.426796,810db2fb-825d-4ef3-9ebd-c38af6fc97f4
0.1035888622782147,0.2545839330951929,0.0423336382924012,-0.2151026759318011,-0.1222779297218097,0.2467200016865832,-0.1703212465475414,-0.1961002793169476,-12.045901727140302,17.574858450871137,41.71109302949128,1.1588309047559595,0.6998836293443477,0.4234541402088877,4449.094509548611,11.947333333333336,0.15,179.33848600964242,-10.983660786060922,105.25929018370826,1553.0,1435.0,1200.0,1528.0,1471.0,998.74,108.0,293.1,1649410349.5689745,1649410350.5929024,4041771a-c55d-4694-bdb0-79efc30b0c4d
0.1137669644248631,0.2716696514718766,0.052717568289725,-0.2193815658111889,-0.1218050823528436,0.2388505072910646,-0.1679833070336033,-0.1893893863844193,-11.841562012881049,18.12111190874301,42.452991641408325,1.1551585802264386,0.7571381391637582,0.4083218833452819,4459.6396484375,11.950222222222225,0.15,179.18850416238786,-10.931773261892411,105.48800210370578,1553.0,1435.0,1200.0,1528.0,1471.0,998.74,108.0,293.1,1649410350.7016113,1649410351.732772,4041771a-c55d-4694-bdb0-79efc30b0c4d
0.1084548912301423,0.2583368742348004,0.0553867536473905,-0.2187241306818836,-0.1152307338083582,0.2506054412393159,-0.1625660436945741,-0.1831700525893503,-12.153334399079428,18.150985665698187,42.38546773541803,1.1802537161485325,0.7100260036676767,0.386082930623772,4477.760308159723,11.949444444444444,0.15,179.12272944068064,-10.910861214792344,105.71715115581016,1553.0,1435.0,1200.0,1528.0,1471.0,998.74,108.0,293.1,1649410351.8411407,1649410352.9592838,4041771a-c55d-4694-bdb0-79efc30b0c4d
0.0458863147966226,0.1697748458296398,0.0332686233422822,-0.5234270214099499,-0.1552634600375369,0.621786531677487,-0.0781792230284559,-0.0916313516303775,-12.365532960574887,18.081255771971176,43.17017174507133,2.7001369440157177,0.4085237229028138,0.3382088459162554,4478.27978515625,11.934,0.14,179.10168486893792,-10.814933484629238,106.1491241931379,1553.0,1522.0,1200.0,1528.0,1471.0,998.74,108.0,293.1,1649410354.9878874,1649410356.0315936,d5e76288-fef1-4b47-a5d6-2911fe189e16
0.0527044195317413,0.1799180531660011,0.0425010309159161,-0.5220383135436297,-0.1485626817000646,0.6137066587034444,-0.0703542315932456,-0.0905374811353592,-12.149910817693245,18.019910736214047,43.68114085233921,2.6790908446206663,0.4409253559814332,0.3074923844923641,4468.939453125,11.93611111111111,0.14,179.04758369943218,-10.77659800441142,106.22872701227476,1553.0,1522.0,1200.0,1528.0,1471.0,998.74,108.0,293.1,1649410356.139376,1649410357.260751,d5e76288-fef1-4b47-a5d6-2911fe189e16
0.0802878556140041,0.1856291386998489,0.0379212389648822,-0.519583552176459,-0.1525957914953218,0.6042254381418781,-0.0764850641111956,-0.1113417543609125,-12.121052041353808,17.864122711762285,43.41079399160079,2.650958587061611,0.4639420110082407,0.3283727706208568,4476.204155815973,11.936333333333332,0.14,178.99034367854782,-10.754360331429934,106.2602711025916,1553.0,1522.0,1200.0,1528.0,1471.0,998.74,108.0,293.1,1649410357.3692162,1649410358.3732235,d5e76288-fef1-4b47-a5d6-2911fe189e16
0.0868252861736871,0.1536864051661089,0.0255918074793354,-0.8715044990392452,-0.1991325716772542,0.9745988924640818,0.0126929364488687,-0.010238390111336,-12.188325768069893,17.676986834335093,45.84189623389746,4.275583825157899,0.3656108954461407,0.2781013119831692,4514.45263671875,11.93622222222222,0.14,178.93280161152018,-10.652527523274395,106.41251298355157,1553.0,1613.0,1200.0,1528.0,1471.0,998.74,108.0,293.1,1649410360.4597504,1649410361.5605996,e2d7dc3b-4b62-4069-b681-d719ea6ca260
0.1076659694310893,0.1976556438036006,0.0258810788879486,-0.8578561457622176,-0.2051678237814913,0.9272898869232098,-0.0020599009364856,-0.0277919000622606,-11.952008156996207,17.51096637867219,46.972022772848014,4.137699770876422,0.5171685107003365,0.314199428515175,4534.350911458333,11.939666666666666,0.1466666666666666,178.9250607304608,-10.638410376033628,106.4775196884321,1553.0,1613.0,1200.0,1528.0,1471.0,998.74,108.0,293.1,1649410361.6686225,1649410363.0010653,e2d7dc3b-4b62-4069-b681-d719ea6ca260
0.0923745415774217,0.1699644905188508,0.0314353911074248,-0.8548122216209915,-0.1936854715477939,0.9485695331137208,0.013406505683516,-0.0151792658714681,-11.923581932028448,17.439495027250725,46.620310238025816,4.178412649542652,0.4162020047484854,0.2651972529621468,4539.9501953125,11.942444444444444,0.14,178.93934645056484,-10.566250281226088,106.53223178041364,1553.0,1613.0,1200.0,1528.0,1471.0,998.74,108.0,293.1,1649410363.1095192,1649410364.107067,e2d7dc3b-4b62-4069-b681-d719ea6ca260
0.0747416343887031,0.1311363916099489,0.002884008597076,-1.1440771523334312,-0.2502547087721433,1.259268156212262,0.0668261189488069,0.0455252311360482,-12.11083561473532,17.661934932697278,47.60752487551291,5.529220775944072,0.2969571750771944,0.2990427581211514,4559.000162760417,11.891777777777778,0.1211111111111111,178.8641840132984,-10.48933827203099,106.59778110587824,1553.0,1710.0,1200.0,1528.0,1471.0,998.74,108.0,293.1,1649410366.0450983,1649410367.090903,8a83b408-ff52-4c64-b529-5ce0424f8c17
0.1253246681594711,0.2008244794437137,0.0150597014540415,-1.1136904906104876,-0.2469017909071678,1.1743670251206324,0.0526781219778051,0.0341647576873207,-11.813351905912128,17.391975076510743,49.21586389724046,5.269114530100518,0.5389957369311044,0.3093088396179381,4549.58935546875,11.889666666666663,0.1244444444444444,178.9260640093589,-10.509034640322538,106.47286681178753,1553.0,1710.0,1200.0,1528.0,1471.0,998.74,108.0,293.1,1649410367.1994736,1649410368.3194363,8a83b408-ff52-4c64-b529-5ce0424f8c17
0.1002369560925672,0.1909629576891174,0.0199510166084813,-1.1162413377844087,-0.2408270921348795,1.1863323380832285,0.0608566109039088,0.0337308506797242,-11.891903511819692,17.46644565352015,49.25911612276206,5.302460855294014,0.5028070703251983,0.2814829487929924,4554.155164930556,11.896666666666668,0.1211111111111111,178.94678832112055,-10.471288453648109,106.37328113586892,1553.0,1710.0,1200.0,1528.0,1471.0,998.74,108.0,293.1,1649410368.4276865,1649410369.4746792,8a83b408-ff52-4c64-b529-5ce0424f8c17
0.0771083996853224,0.1538836354578031,-0.0134466725415456,-1.2955239635727318,-0.2905554680198352,1.3896506306211704,0.0776474959697441,0.0528227577025672,-12.243399441295107,17.94552353142704,49.46074201378234,6.16512997483628,0.3844022825494345,0.3646162533643802,4558.731119791667,11.859222222222222,0.11,178.98006348493703,-10.422825795029668,106.2473347243036,1553.0,1814.0,1200.0,1528.0,1471.0,998.74,108.0,293.1,1649410370.5380046,1649410371.5299957,18ab78d8-7b09-4fa2-8e4f-925901106960
0.0876405052877886,0.1656780155599017,-0.0007187346121071,-1.267398877633115,-0.2796814952874322,1.3556743992790132,0.0808426290671584,0.0608960571140343,-11.925215902905512,18.06779079260871,50.013100547165465,6.027030048649415,0.4188369711443798,0.3305318504603112,4552.005859375,11.85811111111111,0.11,178.93651723442866,-10.453366796175905,106.06889982678656,1553.0,1814.0,1200.0,1528.0,1471.0,998.74,108.0,293.1,1649410371.6381297,1649410372.7132862,18ab78d8-7b09-4fa2-8e4f-925901106960
0.1077231156780454,0.165311875126033,0.003304766529208,-1.2900217299643162,-0.2764590526423047,1.3734746985664903,0.0911987442469413,0.0650530678291565,-12.008769233490982,17.888476103746118,49.5893379011987,6.116963346035044,0.4248482742780742,0.3050882117865919,4554.69287109375,11.859333333333332,0.1188888888888888,179.05132360745768,-10.414028890833649,105.93548877736832,1553.0,1814.0,1200.0,1528.0,1471.0,998.74,108.0,293.1,1649410372.82244,1649410374.0498874,18ab78d8-7b09-4fa2-8e4f-925901106960
0.0353744377570037,0.1661250712373972,0.0695347503082946,0.0465113827685542,-0.066080905246264,0.0796197995917443,-0.2010522813792426,-0.221169788711867,-12.529938829585454,19.95939641409435,39.842999002596905,0.209817605538761,0.3576464361450348,0.3412264828145158,4547.17578125,11.936,0.14,178.974616029619,-10.392813279770465,105.68797031094611,1553.0,1349.0,1200.0,1528.0,1471.0,998.74,108.0,293.1,1649410376.0822823,1649410377.3312206,68b64bb6-a1ac-4bfc-9b11-880ba9efdc1f
0.0250658599003485,0.1609839311411226,0.0641832310620845,0.0372415513202727,-0.0721819005242355,0.0933338892905944,-0.2035242365066216,-0.2201836364329133,-12.561732621553997,20.06062718782808,39.83182785405011,0.2619322810216353,0.3394918469343699,0.3595676118442916,4544.229709201389,11.952333333333334,0.1488888888888888,179.02455381937068,-10.85205290658358,105.8635084493452,1553.0,1349.0,1200.0,1528.0,1471.0,998.74,108.0,293.1,1649410377.441883,1649410378.4436178,68b64bb6-a1ac-4bfc-9b11-880ba9efdc1f
0.0378332440050887,0.1707928583695558,0.0799222199969937,0.0374913767611399,-0.0576262935002025,0.0851816979456104,-0.188797695907621,-0.2098356115825117,-12.494926432105007,19.906228477620047,40.19049864546314,0.2429006451836049,0.3735939504703496,0.2991259509736263,4553.618977864583,11.950333333333331,0.13,178.9326194731423,-10.860221053921007,106.05192149432972,1553.0,1349.0,1200.0,1528.0,1471.0,998.74,108.0,293.1,1649410378.5514014,1649410379.6830645,68b64bb6-a1ac-4bfc-9b11-880ba9efdc1f
0.0141524419381026,0.1191017948303453,0.0833474556248487,0.2604376299689876,-0.0324369304206057,-0.0865615198333447,-0.2453573240050864,-0.2698341306174309,-13.013726312262769,21.87309458382465,37.53665135329715,-0.6334164641205775,0.1797149966379805,0.3314641380771992,4558.730794270833,11.948222222222222,0.1322222222222222,178.84054093403148,-10.951090839276242,106.43012652360122,1553.0,1264.0,1200.0,1528.0,1471.0,998.74,108.0,293.1,1649410381.4809153,1649410382.5389688,6f95900c-1b1f-4f48-8508-8c55d84d0866
0.0307526711191501,0.1997766296195217,0.102387779280148,0.2886567540915603,-0.0201858848369248,-0.1824837925025631,-0.2486824271826833,-0.2681399714625117,-12.458686577801874,20.937060591303613,38.89973836506979,-0.917382373465216,0.4640020386822729,0.3062618761474866,4552.818359375,11.941333333333334,0.14,178.87344726763277,-10.92644656811345,106.553271039787,1553.0,1264.0,1200.0,1528.0,1471.0,998.74,108.0,293.1,1649410382.648845,1649410383.6869972,6f95900c-1b1f-4f48-8508-8c55d84d0866
0.00452759614537,0.1462705406632211,0.0874038286422885,0.2615057092673092,-0.0311053716677024,-0.1110231521557609,-0.2455606230317298,-0.2687680746768828,-12.761533306666184,21.460474563928425,38.0015604786232,-0.6931266142664334,0.2758275252564052,0.3287088894232437,4552.811848958333,11.945,0.14,178.85226912774633,-10.911512928675648,106.64739560000923,1553.0,1264.0,1200.0,1528.0,1471.0,998.74,108.0,293.1,1649410383.801899,1649410384.804138,6f95900c-1b1f-4f48-8508-8c55d84d0866
0.0261309042757978,0.1817720192668813,0.1082839577699864,0.5361030606207234,0.0094846542363104,-0.4070660879880999,-0.3142494220520282,-0.3364575733505316,-12.930037563284468,22.26649618119304,36.615785862414114,-1.971721782826212,0.3899829189279014,0.347060326010661,4547.445041232639,11.947,0.1344444444444444,178.83026681169997,-10.98645860229969,106.8983784901604,1553.0,1178.0,1200.0,1528.0,1471.0,998.74,108.0,293.1,1649410386.4615257,1649410387.6641614,9b9e926f-ae0c-49d0-8734-f4c7295d6ca9
-0.00783217864402,0.1516220596751089,0.1070479803427627,0.5174582108093854,0.0089718549789338,-0.3668179222324151,-0.3056370248523946,-0.3269116182142323,-13.081029374063087,22.653396529772,35.72218361904721,-1.8369357522551857,0.2881146837763869,0.331844973411963,4538.081271701389,11.938888888888888,0.1388888888888889,178.81253108715518,-10.967008120818264,107.0132197730452,1553.0,1178.0,1200.0,1528.0,1471.0,998.74,108.0,293.1,1649410387.773198,1649410389.00428,9b9e926f-ae0c-49d0-8734-f4c7295d6ca9
0.0022680431900788,0.166904890088567,0.1043474403984141,0.5233609636062756,0.0060735788905975,-0.380131484253713,-0.3116950348572246,-0.3340731073469664,-13.039261623595902,22.42683210879147,36.69919160994967,-1.8816278941346345,0.3355779732382604,0.3515001378878783,4535.14599609375,11.933,0.14,178.8525575135112,-11.012644314348918,107.0539383252372,1553.0,1178.0,1200.0,1528.0,1471.0,998.74,108.0,293.1,1649410389.1124916,1649410390.229045,9b9e926f-ae0c-49d0-8734-f4c7295d6ca9
0.0320215202791436,0.2010348585490857,0.1385917018780035,0.6793449440168304,0.0395294253599468,-0.559683043054008,-0.3394554767098228,-0.3565224869844642,-12.9326562032925,23.74963204069532,36.35620801563415,-2.626492739336824,0.4488598045301343,0.3033236356277183,4536.213595920139,11.921,0.1222222222222222,178.8325921116574,-11.010536157488849,107.19378189503377,1553.0,1088.0,1200.0,1528.0,1471.0,998.74,108.0,293.1,1649410392.0551252,1649410393.1028488,de1c2f86-ee07-4c75-94a9-65a7b2033a11
0.0015559906692521,0.1557244530201565,0.1296637376648487,0.6798840405478971,0.0384117865447831,-0.5219857188822128,-0.3357080972133008,-0.3611639779337323,-13.057172247132426,23.934123819496907,35.4535100168053,-2.5424259963954223,0.2871708880518968,0.3047664193991586,4536.479817708333,11.903444444444444,0.1244444444444444,178.88983213254176,-11.029416507902052,107.179584208479,1553.0,1088.0,1200.0,1528.0,1471.0,998.74,108.0,293.1,1649410393.2115498,1649410394.3285568,de1c2f86-ee07-4c75-94a9-65a7b2033a11
-0.0098439291914326,0.1589721807445065,0.1332796289008006,0.6610419606079132,0.0383328941694231,-0.5098363225201887,-0.3298306290187969,-0.3493695952121846,-13.068248563647124,24.014333900119883,35.202296314179705,-2.4719554154412697,0.3042071896430994,0.2914095393615762,4529.288899739583,11.902,0.12,178.94188120965683,-11.009991734493754,107.1344025071194,1553.0,1088.0,1200.0,1528.0,1471.0,998.74,108.0,293.1,1649410394.4359014,1649410395.553362,de1c2f86-ee07-4c75-94a9-65a7b2033a11
0.0493909480369538,0.1604974295815201,0.0528885009807616,-0.2619044553087316,-0.112364318361434,0.3808169712829551,-0.1306804531886989,-0.1469585403309027,-12.400433385832963,19.18502081159815,41.71792610095473,1.576760197679466,0.3559094937344882,0.3264299855119088,4523.448404947917,11.95188888888889,0.14,178.9457197759704,-10.810517198148396,107.04266623637692,1553.0,1435.0,1200.0,1528.0,1471.0,998.74,108.0,293.1,1649410397.4923255,1649410398.6322868,37b31777-3348-4c32-9559-3b54670ea354
0.0394383964174416,0.1838844077729975,0.0430163586365446,-0.24965593914714,-0.1166770912207656,0.3459167935320347,-0.1416722581905103,-0.1558450368086815,-12.203140810962132,18.14365837544208,41.5488030873484,1.4633826554528622,0.4415758692603436,0.3646749987500037,4504.433430989583,11.95,0.1322222222222222,178.94329581772496,-10.73118047179794,107.06518916462,1553.0,1435.0,1200.0,1528.0,1471.0,998.74,108.0,293.1,1649410398.7402718,1649410399.8585727,37b31777-3348-4c32-9559-3b54670ea354
0.0506532228659483,0.1737907609855111,0.0567936636612108,-0.2563162607626379,-0.1082356276496301,0.3565444793237644,-0.1300493160085171,-0.1565965358429752,-12.245161897610942,18.84013580174725,40.8718456230099,1.5074625257726677,0.4117210763918165,0.3152990906987633,4494.71728515625,11.946,0.14,178.93726855523738,-10.759318669312409,107.10102716719504,1553.0,1435.0,1200.0,1528.0,1471.0,998.74,108.0,293.1,1649410399.9673958,1649410400.974785,37b31777-3348-4c32-9559-3b54670ea354
0.121051341894662,0.1947103357758769,0.2194035863954903,-0.2673217194904827,0.0310748139575994,0.3456047650633128,0.0285765616639888,0.0022265740517311,-11.277666721717578,19.81375728427536,42.00912293033567,1.5229245896485804,0.4849349692734738,-0.3176356386698991,4480.880533854167,11.950555555555557,0.14,178.98093319569136,-10.771797330062284,107.0983383493918,1553.0,1435.0,1200.0,1424.0,1471.0,998.74,108.0,293.1,1649410403.0242107,1649410404.0511177,091a0874-e6d9-4cf5-b427-2aa08c8bb0e1
0.1180402905322022,0.2165240221023566,0.2167475494630096,-0.2571709238682305,0.0311011106853564,0.3128645138737209,0.0219101717389071,0.0056583835668396,-11.176210661075096,19.132536692090618,41.69400682708037,1.4218078582615368,0.5673946287825785,-0.3019249120560503,4479.579969618056,11.951,0.14,178.94457382200966,-10.752187192909007,107.09549774960698,1553.0,1435.0,1200.0,1424.0,1471.0,998.74,108.0,293.1,1649410404.1601365,1649410405.282338,091a0874-e6d9-4cf5-b427-2aa08c8bb0e1
0.1232866202598151,0.2103461580679842,0.2127230375003967,-0.2595048183176101,0.0311698890283173,0.3191136841868777,0.0227496662807491,0.0009152445277473,-11.24903389831626,18.82493675719276,41.408344032085466,1.438793567804478,0.547298132729241,-0.2988235696842949,4478.27978515625,11.951,0.14,178.9409295366325,-10.737061644128277,107.135936264043,1553.0,1435.0,1200.0,1424.0,1471.0,998.74,108.0,293.1,1649410405.395196,1649410406.5012224,091a0874-e6d9-4cf5-b427-2aa08c8bb0e1
0.1782876150723231,0.2615188583930411,0.4225377813186424,-0.2672559754127652,0.2216520132670802,0.265476615430012,0.2359183481061817,0.2103572838504886,-9.513354103241308,18.149730201467893,41.52391321008691,1.3426120909579389,0.7401618883074093,-1.1399966238201478,4473.6044921875,11.947333333333331,0.14,178.94657127288693,-10.709970837150284,107.10251842516384,1553.0,1435.0,1200.0,1304.0,1471.0,998.74,108.0,293.1,1649410408.5491326,1649410409.689018,e6e96015-83b7-40c3-9815-c1caf21387e6
0.2216783109160464,0.29136639722929,0.4426421362813712,-0.2497419092450899,0.230514234251012,0.22766096718544,0.2379695447557997,0.2110673132778135,-9.253180192700103,18.814433698424818,42.673475707209775,1.2238495120966086,0.8392077411274714,-1.1770965889763063,4477.500651041667,11.944333333333333,0.1366666666666666,178.88759486613358,-10.70006051725581,107.10218602262424,1553.0,1435.0,1200.0,1304.0,1471.0,998.74,108.0,293.1,1649410409.796798,1649410410.776717,e6e96015-83b7-40c3-9815-c1caf21387e6
0.1431805971877255,0.1797734175596629,0.40322234807531,-0.2898848854313035,0.2048216828503622,0.3611202255211918,0.2327758097098585,0.2051898464272388,-10.104335429629938,19.69515789098952,40.6704630811838,1.617430847681324,0.4469015290198398,-1.0986106335629169,4490.00830078125,11.932,0.12,178.90248923198365,-10.751919866893992,107.08651984539796,1553.0,1435.0,1200.0,1304.0,1471.0,998.74,108.0,293.1,1649410410.8851824,1649410412.0354774,e6e96015-83b7-40c3-9815-c1caf21387e6
0.2032569882475307,0.241348759425123,0.5857262357191559,-0.2572892633239956,0.3645125890901919,0.2683561791822229,0.3945442091994382,0.3648150093599399,-8.684858200839761,20.017652989530017,41.64051096193809,1.34754440605774,0.6667643015914276,-1.7852471337871214,4490.00830078125,11.919,0.13,178.90563111900187,-10.737833455504488,107.03387957746466,1553.0,1435.0,1200.0,1166.0,1471.0,998.74,108.0,293.1,1649410413.9750054,1649410415.02098,2cec27d9-0f08-4a4f-9814-41962a5647d9
0.2122426045917658,0.2591986193041694,0.5915951051489607,-0.2580508748934857,0.3722900422609517,0.2481486577078593,0.4030377604376562,0.3828216417420188,-8.358861432483991,19.19934848026204,41.21811900446061,1.298817774063259,0.7356004008414397,-1.8138119933198216,4487.6572265625,11.923,0.13,178.9086288131376,-10.731725653702943,106.942424862298,1553.0,1435.0,1200.0,1166.0,1471.0,998.74,108.0,293.1,1649410415.1342103,1649410416.2436771,2cec27d9-0f08-4a4f-9814-41962a5647d9
0.220718456091891,0.2542607784298391,0.6055676164364158,-0.2577889144977978,0.3802121310117548,0.2563908662222995,0.4124132856881734,0.3850377025018971,-8.39462280990516,19.97227451800208,41.8167345052773,1.32264517791372,0.712894729634928,-1.8570901057672555,4498.650444878473,11.923777777777778,0.1288888888888889,178.88502519718585,-10.792253651762731,106.905401442447,1553.0,1435.0,1200.0,1166.0,1471.0,998.74,108.0,293.1,1649410416.3516176,1649410417.469019,2cec27d9-0f08-4a4f-9814-41962a5647d9
0.011969758234094,0.1571708093985106,-0.1020820372432492,-0.2259690672998203,-0.2538706004218813,0.3579382403338047,-0.3033491507709059,-0.3249787594904002,-13.421379671331522,19.29868133021244,41.449079864642414,1.436767400418612,0.3387946361382291,0.9750247527319088,4501.79931640625,11.955,0.14,178.9729767842182,-10.779335392448775,106.95900704378298,1553.0,1435.0,1200.0,1623.0,1471.0,998.74,108.0,293.1,1649410418.4739552,1649410419.5160282,2ba41d38-5ea8-4d7f-826b-cabccd0374cd
0.0196748942996219,0.1670849260957937,-0.098821160420659,-0.2241282467326864,-0.2531342732428073,0.3502462546153388,-0.3032834073289205,-0.3269642131072585,-13.334287247205474,19.34147296443011,41.98901438119577,1.415905990863622,0.370557560227538,0.971503932790916,4504.954427083333,11.951666666666666,0.1333333333333333,178.98389597997135,-10.73310554164276,106.94451338236422,1553.0,1435.0,1200.0,1623.0,1471.0,998.74,108.0,293.1,1649410419.6241362,1649410420.840432,2ba41d38-5ea8-4d7f-826b-cabccd0374cd
-0.0072667846907499,0.1476117075084965,-0.1101947835004937,-0.2470464275470782,-0.2594193508832572,0.3864577613029892,-0.298208010088774,-0.3141442323741923,-13.277709066797518,18.866029251726715,41.40576632111337,1.545193284951993,0.3043826456252481,0.9851965189705524,4507.060004340277,11.949444444444444,0.14,178.97075924946768,-10.712578641320889,106.9678088808934,1553.0,1435.0,1200.0,1623.0,1471.0,998.74,108.0,293.1,1649410420.949084,1649410422.0694263,2ba41d38-5ea8-4d7f-826b-cabccd0374cd
-0.0431834608581741,0.1139434601670195,-0.2544602699493375,-0.2145337457511605,-0.3868828340239731,0.3979805692838165,-0.4500724460690096,-0.4755859793173224,-14.367258428928714,19.216674091671223,41.471665170197575,1.4923489907519196,0.1720910277878559,1.5670770260175382,4519.470811631944,11.935666666666666,0.1277777777777777,178.9636771022083,-10.780509141484895,106.98945754492271,1553.0,1435.0,1200.0,1712.0,1471.0,998.74,108.0,293.1,1649410424.1165984,1649410425.1382196,64ef43c1-d055-4ce7-8ce5-5075ecdc38d3
-0.0181013105367487,0.164152767013587,-0.2454422849276705,-0.1968052530020061,-0.3852523938593393,0.3408975322324922,-0.4602131272304516,-0.4812115999429575,-14.217259202204414,19.118390165994427,42.66659489409358,1.3241481324374098,0.3471414342329322,1.575063325605808,4527.161946614583,11.941333333333334,0.13,178.97472075918628,-10.78456276389356,106.9619167043694,1553.0,1435.0,1200.0,1712.0,1471.0,998.74,108.0,293.1,1649410425.2464287,1649410426.3713324,64ef43c1-d055-4ce7-8ce5-5075ecdc38d3
-0.0303634816177387,0.1415304356562607,-0.2401484167315421,-0.1812827106493897,-0.3762500865427463,0.3456512911072946,-0.4577973060383585,-0.4775077120951589,-14.632309335873115,19.61932052631873,42.24941314380715,1.3031243111823945,0.2673619727807573,1.5484606728274113,4538.080946180556,11.944,0.13,178.96743977753104,-10.768670052059802,106.94499680797549,1553.0,1435.0,1200.0,1712.0,1471.0,998.74,108.0,293.1,1649410426.4800527,1649410427.5978997,64ef43c1-d055-4ce7-8ce5-5075ecdc38d3
-0.1054121974223996,0.1047393726711429,-0.3854794625522845,-0.1637848288577869,-0.5110874692050816,0.3691545837687917,-0.6088809266501458,-0.6303992800593229,-15.411396555179588,20.34944084746476,41.61105046315198,1.3135780223284943,0.129189903197328,2.139284016484376,4557.754333496094,11.930374999999998,0.13,178.982269256584,-10.77985598092958,106.92337992329855,1553.0,1435.0,1200.0,1801.0,1471.0,998.74,108.0,293.1,1649410429.645602,1649410430.6679363,25899884-5b58-446b-b539-871bbd518d75
-0.0948108074647513,0.115923350382194,-0.3831354532872491,-0.1630131013614003,-0.5095207502128865,0.3567417101290117,-0.6107394441507477,-0.6379704031262963,-15.5209252551834,20.265592969991182,41.508825747895656,1.2834332588417274,0.1728700112111351,2.1377747456099008,4553.081271701389,11.929333333333334,0.1277777777777777,178.95197471143032,-10.765762478475624,106.8818137636033,1553.0,1435.0,1200.0,1801.0,1471.0,998.74,108.0,293.1,1649410430.776924,1649410432.013574,25899884-5b58-446b-b539-871bbd518d75
-0.0752981413954456,0.1121233771779295,-0.3650691422814799,-0.1729535163720504,-0.493426742783904,0.3731644306328991,-0.5899250526078181,-0.6212584049361017,-15.63300154893056,20.45176763368025,42.16055929816517,1.3449416752168206,0.1560070948075214,2.0618099664103524,4543.1591796875,11.929666666666668,0.1233333333333333,178.98759794250145,-10.778618507177145,106.84036210444042,1553.0,1435.0,1200.0,1801.0,1471.0,998.74,108.0,293.1,1649410432.1222343,1649410433.333923,25899884-5b58-446b-b539-871bbd518d75
0.0705997951675119,0.2307772083011489,0.0041068377245418,-0.2173961127993697,-0.1299835721443969,0.2964549422932166,-0.1615272967932546,-0.18879769517983,-11.37639912968131,14.392745918882884,45.08441587047624,1.2536420785244435,0.5737627162718811,0.4771673766276765,7539.462829589844,11.652375,7.51125,-178.9644356326611,-10.843777160050792,94.07290492448564,1553.0,1435.0,1350.0,1528.0,1471.0,998.74,108.0,293.1,1649410438.4987366,1649410439.480852,1e6229b8-31eb-409a-a866-91ec0bf7e70b
0.0975075903086411,0.2245947927047696,0.0088803202521906,-0.213724591823495,-0.1295855712027609,0.3017675209611323,-0.1590689960253464,-0.1796644075250464,-11.203882097090576,14.95329202077207,45.47904978396096,1.261401463347998,0.5457163123586078,0.4663497087668612,7557.097222222223,11.65111111111111,7.592222222222222,-178.44789157248522,-10.729738258381946,89.22111884683612,1553.0,1435.0,1350.0,1528.0,1471.0,998.74,108.0,293.1,1649410439.5897598,1649410440.6140792,1e6229b8-31eb-409a-a866-91ec0bf7e70b
0.0798696259560482,0.2324602413580154,-0.0053602237210677,-0.2145954400207681,-0.1416464665376879,0.292720712860436,-0.174544507030594,-0.1989484899506841,-11.322865740687805,14.637575039699518,45.064829009224965,1.2401085652190045,0.578928983363637,0.5246285739983417,7551.91748046875,11.647666666666666,7.529999999999999,-178.17492837467503,-10.610267435332236,84.57330564914659,1553.0,1435.0,1350.0,1528.0,1471.0,998.74,108.0,293.1,1649410440.7227018,1649410441.852384,1e6229b8-31eb-409a-a866-91ec0bf7e70b
0.2765700691007992,0.5435644395672943,0.0433577190687602,-0.3825968642636831,-0.1711177547123215,0.1260680744178794,-0.1901201507556894,-0.2163796169054445,-10.521503796942584,13.844088829751286,42.8495484071108,1.2418038563240197,1.7834805816683796,0.5544702161618728,7551.91748046875,11.633777777777777,7.594444444444445,-178.32788666658791,-10.480795223199122,78.75097236287176,1658.0,1435.0,1350.0,1528.0,1551.0,998.74,108.0,293.1,1649410442.4799194,1649410443.685645,da817bc9-2696-4194-86e1-3a262d90f035
0.2497163871495554,0.5515168714819528,0.0555581922983295,-0.35679254133966,-0.1603712228887726,0.1199488742407656,-0.1888052808617,-0.2139648078589344,-10.870486031664798,14.404622375460796,46.510203209595225,1.174576173542074,1.7809386424576426,0.5272077943541931,7547.485514322917,11.629666666666663,7.603333333333334,-178.4123229829274,-10.431250453915926,75.52250359001708,1658.0,1435.0,1350.0,1528.0,1551.0,998.74,108.0,293.1,1649410443.8074653,1649410444.8078575,da817bc9-2696-4194-86e1-3a262d90f035
0.2695405742279006,0.535409720090873,0.0569615624023872,-0.3766799495779617,-0.1580322723631406,0.1425798023766882,-0.1752393656741556,-0.1991345943178772,-10.589726013129695,14.181712890901292,44.94021171946284,1.268775257614462,1.7349884276552567,0.4987442907704446,7558.5771484375,11.631111111111112,7.583333333333333,-178.5850706095956,-10.406429167017146,72.89332699858794,1658.0,1435.0,1350.0,1528.0,1551.0,998.74,108.0,293.1,1649410444.9162948,1649410445.9415524,da817bc9-2696-4194-86e1-3a262d90f035
0.3979365727927503,0.8059274306995908,0.0990141272148686,-0.4850510212332118,-0.1863783350134265,-0.0305794240283271,-0.2067719648572132,-0.2297295908251028,-10.095513720936738,14.4070769562003,43.85417423538101,1.1277854976948776,2.771734454425415,0.5554299045264373,7558.5771484375,11.58088888888889,7.598888888888889,-179.3384252968498,-10.38443377602372,67.2452788904544,1767.0,1435.0,1350.0,1528.0,1630.0,998.74,108.0,293.1,1649410447.9684002,1649410449.058408,bb7b63dd-bb5b-48d7-ba31-779e7af80ca7
0.4102948290827947,0.803541954002861,0.1067748921025004,-0.4899863357446147,-0.1811436363307283,-0.0265326600486707,-0.2005253222478561,-0.2263802135971803,-10.185995636289002,14.69911572445186,43.50223545780082,1.1502327242581722,2.7676516864636564,0.5278159616248618,7554.877332899306,11.572666666666668,7.611111111111111,-179.61379272124785,-10.515289480918716,65.78412156534056,1767.0,1435.0,1350.0,1528.0,1630.0,998.74,108.0,293.1,1649410449.1668832,1649410450.121598,bb7b63dd-bb5b-48d7-ba31-779e7af80ca7
0.4108637630338297,0.8036178118398455,0.0838152460747987,-0.4911115596078944,-0.1948991966100273,-0.043651251108143,-0.2155198942836234,-0.2341050730474467,-9.960000863862009,13.553255702241271,40.80004738138643,1.105246927779778,2.788949675753162,0.596013573004763,7558.5771484375,11.575,7.583333333333333,-179.8132494232104,-10.570930099172408,64.49410677243986,1767.0,1435.0,1350.0,1528.0,1630.0,998.74,108.0,293.1,1649410450.2306376,1649410451.358776,bb7b63dd-bb5b-48d7-ba31-779e7af80ca7
0.5530911748466822,1.061393430606413,0.1424311212341504,-0.6364451563712424,-0.2166071909623682,-0.174268385667507,-0.2238784206531771,-0.2486637156738888,-9.373784059393548,14.54764378190275,39.291789890966086,1.1491350331207584,3.7866099966147617,0.5853726704585382,7558.5771484375,11.529222222222222,7.555555555555555,179.63248163663684,-10.5541276440867,62.89655664088011,1872.7777777777776,1435.0,1350.0,1528.0,1701.111111111111,998.74,108.0,293.1,1649410451.9624755,1649410453.1077487,ca784141-aaf4-4692-954f-2793dd43ff7b
0.5556420216807129,1.0716099670167227,0.1487687927247599,-0.6074917186826239,-0.2109401022198699,-0.1989221933722057,-0.2280334088646043,-0.2483087008160534,-9.363022271550856,14.79675444633222,41.00457495495939,1.0306681770588777,3.806512891091765,0.5787418518061629,7558.5771484375,11.523333333333332,7.556666666666666,179.34016775399806,-10.591671676134444,61.759663305522494,1886.0,1435.0,1350.0,1528.0,1710.0,998.74,108.0,293.1,1649410453.2170632,1649410454.3366082,ca784141-aaf4-4692-954f-2793dd43ff7b
0.5757595250257519,1.0796964147614307,0.1391965422226918,-0.5890966834828005,-0.2162127295956348,-0.2176590864264005,-0.2437986974247068,-0.2620096439306841,-9.646618540685372,14.599678499429404,41.78120153996508,0.9452671531725092,3.8290909950234537,0.6235354754305414,7558.5771484375,11.526888888888887,7.591111111111112,179.1189864970155,-10.645078253347116,60.96625487115547,1886.0,1435.0,1350.0,1528.0,1710.0,998.74,108.0,293.1,1649410454.4450238,1649410455.5616367,ca784141-aaf4-4692-954f-2793dd43ff7b
-0.1442499084481486,-0.1568200629898339,-0.0703410827981608,-0.047344012110616,-0.1126272920813674,0.5086748830324571,-0.1513370564637986,-0.1688905673229349,-12.140742263694886,15.320303973631365,43.27199637979888,1.3487009692689391,-0.8841303709983366,0.4916197298541857,7559.318359375,11.633,7.613333333333333,179.5215107942817,-10.663878159310096,59.36761646278797,1449.0,1435.0,1350.0,1528.0,1386.0,998.74,108.0,293.1,1649410457.5004663,1649410458.523206,b0475bc2-4d1a-4a3f-a4e2-25f187844cd3
-0.137636113702119,-0.1481156253576647,-0.0731680524873714,-0.0276341157789139,-0.1148231243950858,0.4880840266077994,-0.1600940886574014,-0.1733874220667808,-12.027821798336218,15.28570395721686,44.09212244493765,1.2577873105917043,-0.8621579292479536,0.5134080917275388,7568.218315972223,11.630777777777777,7.635555555555555,179.36096188547123,-10.644186723932952,58.87172651520726,1449.0,1435.0,1350.0,1528.0,1386.0,998.74,108.0,293.1,1649410458.631255,1649410459.7534294,b0475bc2-4d1a-4a3f-a4e2-25f187844cd3
-0.1440000831508805,-0.1543218104731283,-0.0754033308648633,-0.0420187898687988,-0.1169795106316975,0.509766224733056,-0.1583453119208208,-0.1790808078269971,-12.283133055126433,15.373631370398064,44.425167735628094,1.33935455698185,-0.8849487907252338,0.5162802362329552,7571.93115234375,11.625666666666667,7.615555555555555,179.1567635144049,-10.671830586506236,58.45083735708262,1449.0,1435.0,1350.0,1528.0,1386.0,998.74,108.0,293.1,1649410459.8620834,1649410460.8894718,b0475bc2-4d1a-4a3f-a4e2-25f187844cd3
-0.3291863425502027,-0.5047477717185858,-0.134559318721077,0.1026694648242026,-0.0993471079227413,0.7107703249833908,-0.1444471389083801,-0.1747680350976692,-13.05215435640402,16.807841322598893,42.94254942208261,1.470594889113816,-2.2022159221494744,0.5087618912088765,7571.93115234375,11.576666666666666,7.59,178.88672515537928,-10.653132279607158,57.51774017054023,1342.0,1435.0,1350.0,1528.0,1293.0,998.74,108.0,293.1,1649410463.0291884,1649410464.1706886,c539706c-5050-43b3-8f7e-131299fdc987
-0.331040309018196,-0.4972924590292688,-0.1365316232992998,0.111847254641155,-0.099557487100284,0.6953863518658493,-0.1504692422376589,-0.170350072565736,-13.161264401910255,16.647803585771083,42.96717712633122,1.4141120876482685,-2.174957717510078,0.5213177751999543,7571.93115234375,11.578333333333337,7.594444444444444,178.78729277926206,-10.663336582227158,57.21536314252431,1342.0,1435.0,1350.0,1528.0,1293.0,998.74,108.0,293.1,1649410464.280384,1649410465.3973095,c539706c-5050-43b3-8f7e-131299fdc987
-0.3383211479061669,-0.4942849468396909,-0.1195344036672981,0.1244877030003886,-0.0858282246142863,0.6942307838662182,-0.1398895981753531,-0.1749106479057914,-13.27319481665283,17.162507679163063,44.97588065674092,1.387523857207928,-2.181158638612954,0.4674041044999453,7571.188585069444,11.578,7.62,178.71318674458723,-10.663001808094087,56.942927766554966,1342.0,1435.0,1350.0,1528.0,1293.0,998.74,108.0,293.1,1649410465.5055006,1649410466.6243312,c539706c-5050-43b3-8f7e-131299fdc987
-0.5739888257711402,-0.8760670978341969,-0.1647355789020816,0.2984403952975449,-0.0468443614470962,0.8842805047124905,-0.1132452806073447,-0.1370444223440969,-14.18093068707154,18.84966988338565,41.5009631569816,1.4301191329097174,-3.600105188988662,0.3870862648161088,7570.260375976562,11.4705,7.552499999999999,178.6666974414565,-10.604177539061329,56.39471278324392,1227.0,1435.0,1350.0,1528.0,1189.0,998.74,108.0,293.1,1649410468.5587566,1649410469.6949933,6f183f87-5440-4d63-81f3-f34660de32fd
-0.5550976837004135,-0.8798832560871793,-0.1800689830195369,0.2790480923629991,-0.0621226413994545,0.89309215336498,-0.121696352861957,-0.1406734628095687,-13.976974624285454,18.561906665808408,39.59546194568782,1.490792168344932,-3.597562573126198,0.4377708825217151,7565.248046875,11.480777777777778,7.553333333333332,178.61583985289656,-10.623210454081931,56.12531807468383,1227.0,1435.0,1350.0,1528.0,1189.0,998.74,108.0,293.1,1649410469.806203,1649410471.0171957,6f183f87-5440-4d63-81f3-f34660de32fd
-0.5624705644297602,-0.8842850373544409,-0.1638283188869065,0.3086174855356624,-0.0460554397149009,0.8876860167705819,-0.11536222086973,-0.1333364898573417,-14.309607882508956,19.25779480726907,42.16335514058645,1.4176062522510235,-3.637076057196776,0.3875607200379064,7567.475748697917,11.483,7.576666666666666,178.5767210827902,-10.629918458756794,55.98076205381491,1227.0,1435.0,1350.0,1528.0,1189.0,998.74,108.0,293.1,1649410471.1258442,1649410472.162967,6f183f87-5440-4d63-81f3-f34660de32fd
0.0857207957247279,0.2415065439247201,-0.0306846132889106,-0.208165726688232,-0.1584242042062471,0.2658710767347921,-0.1976730658665928,-0.2225898483046613,-11.253253991366511,13.587062105484367,43.17654131132449,1.156779063944425,0.626686386867087,0.6138980772901577,7565.248046875,11.624555555555556,7.651111111111111,178.17873506677245,-10.626762911360249,55.706966331835865,1553.0,1435.0,1350.0,1528.0,1471.0,998.74,108.0,293.1,1649410473.9773662,1649410475.1299791,e2a154aa-a67e-4c39-9b6a-4fdbaccb275e
0.081026711204784,0.2374830430863604,-0.0215988639715604,-0.1974889843111903,-0.1496934692410491,0.2666205523944107,-0.1930841704239246,-0.2109138043230194,-11.488414721693994,13.98178722040018,44.16884395774952,1.1374880158296363,0.603733615801908,0.5837678848374404,7565.248046875,11.62588888888889,7.639999999999999,178.14187177691196,-10.648074334799288,55.73835864017116,1553.0,1435.0,1350.0,1528.0,1471.0,998.74,108.0,293.1,1649410475.2392762,1649410476.2560089,e2a154aa-a67e-4c39-9b6a-4fdbaccb275e
0.0966605108922774,0.2404940943698127,-0.0163262366112482,-0.1984488392121818,-0.1497986588188816,0.2718011384010234,-0.191256501483213,-0.2150819414407362,-11.418768310297732,14.46321128399604,45.219601931859145,1.1549511968516906,0.6056817070048405,0.5758108171513859,7565.248046875,11.62,7.625555555555555,178.12111862657386,-10.661219223584457,55.77265074326407,1553.0,1435.0,1350.0,1528.0,1471.0,998.74,108.0,293.1,1649410476.3684409,1649410477.6809547,e2a154aa-a67e-4c39-9b6a-4fdbaccb275e
0.0867200966425159,0.2345245865784513,-0.0349842371009204,-0.5479412510954602,-0.1997637089104626,0.6215695783281493,-0.1096819837195764,-0.131982174119398,-11.489549552409876,13.465232228730386,48.61281160966818,2.7222573384743005,0.5955497174360926,0.5545124181749918,7569.703450520833,11.616333333333335,7.626666666666667,178.12945297518107,-10.490521127986003,55.893280990925376,1553.0,1522.0,1350.0,1528.0,1471.0,998.74,108.0,293.1,1649410479.5075362,1649410480.6418202,87dc7950-2c03-4ba5-93ab-15a5f0b971e7
0.0979500945391999,0.2311185686936559,-0.0484555826079712,-0.5538586719010316,-0.2093121919720153,0.6174752770025632,-0.1177138147370607,-0.1336566103315935,-11.336645889973854,12.944019255251266,46.70554893585849,2.7220521205446127,0.5984625962057469,0.5944831459343852,7571.93115234375,11.613555555555555,7.635555555555555,178.1344207994374,-10.487740102628946,55.90712123091355,1553.0,1522.0,1350.0,1528.0,1471.0,998.74,108.0,293.1,1649410480.750117,1649410481.8726351,87dc7950-2c03-4ba5-93ab-15a5f0b971e7
0.0856813496463872,0.2358526048246164,-0.04713363281855,-0.5592359846052523,-0.2100591390742923,0.616441587289754,-0.1153885182209371,-0.1454990347500584,-11.1397762327617,12.87958499485507,46.5279632030721,2.7315686545063897,0.6171434268929518,0.5908271467929116,7571.93115234375,11.62077777777778,7.616666666666666,178.14667264098858,-10.466413690719229,55.92576802680264,1553.0,1522.0,1350.0,1528.0,1471.0,998.74,108.0,293.1,1649410481.9812324,1649410483.100694,87dc7950-2c03-4ba5-93ab-15a5f0b971e7
0.10457501447835,0.2332173028030276,-0.0562310137651553,-0.9234762656947,-0.2642332910208054,0.9857651687864142,-0.0308944866090391,-0.0423490243918877,-11.138098233867632,13.0970002678646,51.26716927214409,4.384869474576301,0.6095168383415117,0.5597971441014976,7571.93115234375,11.604333333333336,7.63,178.17437285262253,-10.308418324020924,56.03034467372975,1553.0,1613.0,1350.0,1528.0,1471.0,998.74,108.0,293.1,1649410485.0386665,1649410486.1769395,08518b35-d70f-46e6-8634-7b5e505b0fac
0.1201890909748267,0.2429650376991743,-0.0509841781050404,-0.924816422157037,-0.2568877204098526,0.9768012986130972,-0.0253315765283634,-0.0532472713371676,-11.226496747739835,12.672364730044826,51.22244127401727,4.365144195700319,0.6475892786518216,0.5359368986825923,7571.93115234375,11.601777777777777,7.61888888888889,178.1993956301018,-10.288720248182084,56.04511533726485,1553.0,1613.0,1350.0,1528.0,1471.0,998.74,108.0,293.1,1649410486.2862997,1649410487.31137,08518b35-d70f-46e6-8634-7b5e505b0fac
0.1100747094507921,0.2401962258376535,-0.061300847847398,-0.9258657897568908,-0.2648527970118027,0.9732612652496898,-0.0330437927939029,-0.059543473967207,-11.117310641804066,12.406455225152744,50.13002561983505,4.357160760889477,0.6455844788241186,0.5701294373697938,7571.93115234375,11.599444444444444,7.594444444444444,178.2643765320455,-10.249024991137,56.06985314407379,1553.0,1613.0,1350.0,1528.0,1471.0,998.74,108.0,293.1,1649410487.420266,1649410488.5383997,08518b35-d70f-46e6-8634-7b5e505b0fac
0.1199731489302402,0.2374041509071899,-0.0850281769848342,-1.2738680340204418,-0.3302250899197031,1.307602761938048,0.0335467691039181,0.0017400724840273,-10.776571051332734,12.271383353340688,51.87902960501704,5.891851998622126,0.658539499034902,0.596072435300143,7571.93115234375,11.567555555555556,7.587777777777777,178.31296497998113,-10.180862074813737,56.14068941541094,1553.0,1710.0,1350.0,1528.0,1471.0,998.74,108.0,293.1,1649410489.479414,1649410490.6756456,5f9c37eb-6a01-4e4b-b1db-bb23e6a11fd8
0.1267578760421698,0.2400207413297169,-0.084515377807151,-1.263520000779064,-0.3254521124233607,1.2957163403833192,0.0308644350428467,0.0052113283442033,-11.094459485387713,12.06596562789569,51.90415412607406,5.840306777685319,0.669135522789121,0.5929963142222008,7571.93115234375,11.570111111111112,7.586666666666667,178.33425543853394,-10.214249462432836,56.156185596817885,1553.0,1710.0,1350.0,1528.0,1471.0,998.74,108.0,293.1,1649410490.783677,1649410491.9115438,5f9c37eb-6a01-4e4b-b1db-bb23e6a11fd8
0.1369663212983582,0.2371619114821069,-0.076940211257341,-1.2539386386325722,-0.3198244695659516,1.2998040678205784,0.0360121496278933,0.0183499103393114,-11.057861295747395,12.44978081134082,53.38457336936942,5.831055201412245,0.6443402849752335,0.5693703881245221,7571.93115234375,11.575333333333331,7.604444444444444,178.3825342512273,-10.233314891999804,56.175645564673154,1553.0,1710.0,1350.0,1528.0,1471.0,998.74,108.0,293.1,1649410492.0198624,1649410493.2488852,5f9c37eb-6a01-4e4b-b1db-bb23e6a11fd8
0.1237862707715824,0.2416117334895677,-0.0671459492557082,-1.294774481440086,-0.3265303056835084,1.3438274212189896,0.0425930721147687,0.0176762925645176,-11.303482943241372,13.780748545136952,54.96443631443091,6.031536245509487,0.6544372298135082,0.5574741015527915,7571.93115234375,11.541,7.566666666666666,178.4859934033152,-10.229640914272506,56.27201839549718,1553.0,1814.0,1350.0,1528.0,1471.0,998.74,108.0,293.1,1649410494.5684853,1649410495.7027528,f8c9d9a2-89c4-4d79-92d1-2f6242ff9ecd
0.1364221675634598,0.2306062752854585,-0.0830164265183746,-1.3287901898829355,-0.3387585953924768,1.376528229680415,0.0445522278180998,0.0283267365776951,-11.111977876685138,13.05987566664452,53.58227332726495,6.176057509537518,0.6272244528023075,0.5898237115909954,7571.93115234375,11.532666666666666,7.593333333333334,178.49454480015604,-10.226995354333988,56.31530813445673,1553.0,1814.0,1350.0,1528.0,1471.0,998.74,108.0,293.1,1649410495.8120108,1649410496.937092,f8c9d9a2-89c4-4d79-92d1-2f6242ff9ecd
0.1265105794267451,0.2429397517446241,-0.0764597781113997,-1.3119320295483152,-0.3338961054052163,1.3514885601730404,0.0410946264850931,0.018387839217726,-11.1770831955453,13.241019104473516,53.95730232817162,6.083316457844971,0.6689625433362263,0.5812355153528694,7565.248046875,11.533875,7.61,178.5170923929711,-10.219366282048394,56.34095620626815,1553.0,1814.0,1350.0,1528.0,1471.0,998.74,108.0,293.1,1649410497.0458703,1649410498.0513012,f8c9d9a2-89c4-4d79-92d1-2f6242ff9ecd
0.0690876950859456,0.2453985578189327,0.0089587067374176,0.1267052811051552,-0.0940613318025332,-0.0486194354256026,-0.2596428781905455,-0.2762628326941034,-11.645508061874848,15.41418376633654,42.7419674441085,-0.2914905994452318,0.6092260736596685,0.5621971068417854,7565.248046875,11.635555555555555,7.653333333333332,178.52760139791906,-10.695926165805703,56.45092229933724,1553.0,1349.0,1350.0,1528.0,1471.0,998.74,108.0,293.1,1649410500.0986366,1649410501.129569,e132f116-2efb-46d3-93f6-c564b5f85bff
0.0714150143272162,0.2461611821604268,-0.0014156148269551,0.1300450498113688,-0.1019111039510798,-0.050565442527398,-0.2685971414989656,-0.2848883783562605,-11.61176664310579,15.174308041806649,42.93691659743205,-0.3054559137100755,0.609046793902381,0.6002976508435429,7571.93115234375,11.629888888888887,7.644444444444446,178.55101528639386,-10.727064334185622,56.611155501626094,1553.0,1349.0,1350.0,1528.0,1471.0,998.74,108.0,293.1,1649410501.2449,1649410502.2628858,e132f116-2efb-46d3-93f6-c564b5f85bff
0.0633154174579392,0.2408885552363723,0.0053428152664531,0.1365273570312192,-0.0933250047486952,-0.0492637215692293,-0.2626144839008488,-0.28696587274753,-11.792042454628588,15.260519616368624,43.28487734508317,-0.3162805174774164,0.5870950175118564,0.5706207224819911,7571.93115234375,11.629,7.650000000000001,178.5896119264837,-10.72409111489442,56.76394683335928,1553.0,1349.0,1350.0,1528.0,1471.0,998.74,108.0,293.1,1649410502.371278,1649410503.4892762,e132f116-2efb-46d3-93f6-c564b5f85bff
0.0402789016605885,0.2463189665084616,0.0404498345968857,0.4517015872412942,-0.035181467525727,-0.3482256579225041,-0.3242161346409639,-0.3384430266808427,-12.176526809050136,16.98141555353294,42.678986912587845,-1.6861777515486351,0.5790037281804153,0.5328708516278411,7578.6259765625,11.629333333333332,7.603333333333333,178.56855217654285,-10.842459431575604,56.993589176903726,1553.0,1264.0,1350.0,1528.0,1471.0,998.74,108.0,293.1,1649410504.6039915,1649410505.5700445,9d00e28a-d020-42f9-b82a-cbfac8861e9b
0.067101230559908,0.2472889356603745,0.0118514199431097,0.4237975275401731,-0.0595181880357434,-0.3488906786470706,-0.3396486608295567,-0.364125468841139,-11.738877081315184,15.883477167362155,38.91040755438124,-1.633810227709237,0.6145489285203557,0.6222878863121092,7578.6259765625,11.619,7.623333333333333,178.55057967210684,-10.835528212524116,57.13672945133968,1553.0,1264.0,1350.0,1528.0,1471.0,998.74,108.0,293.1,1649410505.688873,1649410506.8647468,9d00e28a-d020-42f9-b82a-cbfac8861e9b
0.0400290764226252,0.2460559925936465,0.0292339965994683,0.4345688374709754,-0.0439647969304622,-0.3438208439928502,-0.3284105694262931,-0.3440443722483367,-12.100988973217843,16.448575134756428,40.97348476183519,-1.6419568410226686,0.5939879476717118,0.5637784781998295,7578.6259765625,11.621333333333332,7.586666666666667,178.56091450723093,-10.827681273805158,57.237848125272,1553.0,1264.0,1350.0,1528.0,1471.0,998.74,108.0,293.1,1649410506.9734056,1649410508.0904016,9d00e28a-d020-42f9-b82a-cbfac8861e9b
0.041054674701361,0.2546815368733316,0.0401079684205887,0.7355819124226178,-0.0101989440781792,-0.654774442432212,-0.4104321516867346,-0.4315226652217998,-12.054293446083388,17.702134006721295,37.08755358985857,-3.0114673345332643,0.6240988524513266,0.6174674126273383,7577.882107204861,11.610666666666669,7.636666666666667,178.58520114209972,-10.94058098055462,57.40104183511111,1553.0,1178.0,1350.0,1528.0,1471.0,998.74,108.0,293.1,1649410508.9969838,1649410510.043954,d8c80b7a-24e2-4cf3-b504-4bcb5cbe1411
0.0309827733604481,0.2524331099385434,0.0595811876487254,0.7604066485630093,0.0089718554662438,-0.6598892870896171,-0.4003076534511514,-0.4194258617501053,-12.435749887307932,18.317946977301773,39.40411372918962,-3.073730403542841,0.596022610942088,0.5530902278254812,7571.93115234375,11.60677777777778,7.608888888888889,178.57660117502476,-10.929109772707326,57.47545902284813,1553.0,1178.0,1350.0,1528.0,1471.0,998.74,108.0,293.1,1649410510.15178,1649410511.4767268,d8c80b7a-24e2-4cf3-b504-4bcb5cbe1411
0.0337308508939962,0.2532877751501081,0.0537694639428961,0.744601917185426,0.00097744805457,-0.6545114684448177,-0.4022799582385131,-0.4293268322507771,-12.22565119254678,18.20703141354399,38.18972088382593,-3.027106605806212,0.6100798187223448,0.5731535527015041,7571.93115234375,11.608666666666668,7.636666666666667,178.630278872802,-10.968946281858994,57.58321891738342,1553.0,1178.0,1350.0,1528.0,1471.0,998.74,108.0,293.1,1649410511.5850742,1649410512.7979307,d8c80b7a-24e2-4cf3-b504-4bcb5cbe1411
0.0153788107963912,0.2502221062069593,0.0599705912760599,0.9338278225746662,0.0208532197696593,-0.8340018687019045,-0.4553951398242881,-0.4796190897640826,-12.466198546756244,19.42986056193524,36.82406544490949,-3.8492165049605953,0.5895040986650751,0.6119458903546983,7577.882107204861,11.583666666666666,7.594444444444444,178.67418788224626,-11.04766174558619,57.66765371590312,1553.0,1098.0,1350.0,1528.0,1471.0,998.74,108.0,293.1,1649410513.5027933,1649410514.555257,587533d7-9c8a-44c1-9093-118629ba2228
0.0323633864613511,0.2514601064594654,0.0650115991349693,0.9250940546278156,0.0241980458641778,-0.8253262538157012,-0.4481952155300799,-0.4715078595719076,-12.441554207976592,19.448568154829548,37.13310759479766,-3.809583307353336,0.5926290970186586,0.5907861624044988,7571.93115234375,11.57988888888889,7.604444444444444,178.69614618151795,-11.01882563554778,57.71169477567136,1553.0,1088.0,1350.0,1528.0,1471.0,998.74,108.0,293.1,1649410514.6678646,1649410515.712026,587533d7-9c8a-44c1-9093-118629ba2228
0.0181349798378633,0.2539644272514219,0.0602487368245474,0.9219813538812908,0.0162891050225355,-0.8255184268943991,-0.4538653391281032,-0.4776088558875085,-12.250860652051768,19.60545925453801,37.00415110716287,-3.8021153304724415,0.6018990393715323,0.6162865936476746,7571.93115234375,11.579444444444444,7.602222222222224,178.7199273823881,-11.03704013738065,57.74870301732421,1553.0,1088.0,1350.0,1528.0,1471.0,998.74,108.0,293.1,1649410515.8213012,1649410516.9001062,587533d7-9c8a-44c1-9093-118629ba2228
0.0850795439277952,0.2387675694975018,-0.029566974083264,-0.2355084435068647,-0.1651502685892258,0.3048650502764145,-0.191220089688989,-0.2150394612395922,-11.172390338184869,14.119376602444015,44.78038106186401,1.309962993311595,0.6050727969334276,0.613877084772835,7571.93115234375,11.631777777777778,7.639999999999999,178.7487811370819,-10.71741669198298,57.750937248092704,1553.0,1435.0,1350.0,1528.0,1471.0,998.74,108.0,293.1,1649410518.0102131,1649410519.0544174,d4647cc8-dfdd-4ac7-ac91-e26575bbf8ea
0.0928423318337876,0.2375917726839153,-0.0194399491536004,-0.2260262095273894,-0.1529497947098474,0.3021720962873644,-0.183697517632706,-0.213446445817696,-11.44364597968336,14.180623088560298,45.54325348520817,1.2834173011135133,0.5952969778306367,0.5735468103908574,7578.6259765625,11.631888888888888,7.656666666666666,178.79280853647177,-10.666710600813406,57.72520716657937,1553.0,1435.0,1350.0,1528.0,1471.0,998.74,108.0,293.1,1649410519.1623414,1649410520.2792263,d4647cc8-dfdd-4ac7-ac91-e26575bbf8ea
