raw_voltage_G-,raw_voltage_G0,raw_voltage_G1,raw_voltage_G2,raw_voltage_G3,raw_voltage_G4,raw_voltage_G5,raw_voltage_G6,load_x,load_y,load_z,load_l,load_m,load_n,rpm,voltage,current,roll,pitch,yaw,aileron1_pwm,elevator_pwm,throttle_pwm,rudder_pwm,aileron2_pwm,pbaro,pdiff,Tt,sample_start_time,sample_end_time,uid
0.1714502933130532,0.1507673947916266,0.7399472791379198,0.0360844674505008,0.472976175959687,-0.276525806388875,0.4300325377020075,0.4123343939282208,-1.1685807651879117,25.55227000721646,-9.377388921028176,-0.4986376513980582,0.6997511763871365,-2.271086008456394,4023.52197265625,11.952777777777776,0.17,178.6820623314494,13.078122168209791,51.29646274448906,1553.0,1435.0,1200.0,1528.0,1471.0,999.7000000000002,108.0,294.1,1649428813.3101234,1649428814.4955654,6b36e03f-5b67-448f-8c85-265be91703c4
0.1681762680543559,0.1530026730851802,0.7426953564046453,0.0299177289100613,0.4738702872051724,-0.2766704420337498,0.4347397705342801,0.4117821487632757,-0.9396171360441152,25.479097689050555,-9.865197635597106,-0.4853627530237876,0.7117699470719927,-2.2830333104485008,4052.8994140625,11.95411111111111,0.17,178.77644340322044,13.142173120925236,50.87777252782224,1553.0,1435.0,1200.0,1528.0,1471.0,999.7000000000002,108.0,294.1,1649428814.604726,1649428815.7237198,6b36e03f-5b67-448f-8c85-265be91703c4
0.168923552261884,0.1493511706687381,0.7383853237597858,0.0353547147897693,0.4714805118675505,-0.2768172692766493,0.4285555009149713,0.4021074483520088,-1.1653236437618473,25.56344463934646,-9.723260262001732,-0.4977036555145974,0.697472888777768,-2.265484648438228,4058.0171983506943,11.953,0.1755555555555555,178.8853226898697,13.197725895357102,50.45933237197002,1553.0,1435.0,1200.0,1528.0,1471.0,999.7000000000002,108.0,294.1,1649428815.8324287,1649428816.959346,6b36e03f-5b67-448f-8c85-265be91703c4
0.3581091749001828,0.4753955358633823,0.8158678441686584,-0.0404146486975341,0.479550523484294,-0.532241703078734,0.4125184757177835,0.3884169173974755,-0.8533315548771747,24.95125268461763,-10.29511097596383,-0.9008936323139328,1.9374280133788888,-2.3208102510504145,4061.2181532118057,11.941333333333333,0.16,178.80012139234316,13.264927177963472,49.83448389940003,1658.0,1435.0,1200.0,1528.0,1551.0,999.7000000000002,108.0,294.1,1649428818.887594,1649428820.0256565,d2a24f76-ba63-4ce4-b2f3-dee162a4e694
0.3567033602206141,0.4769180451862279,0.8029919845420105,-0.0393189241307306,0.4660703717069795,-0.533107326024679,0.3986559159707448,0.3704547039109666,-0.7821474588018053,24.999582741496155,-10.166645575659556,-0.9055749244939492,1.9405455915402736,-2.2647562861423363,4070.648193359375,11.930666666666667,0.1666666666666666,178.8792392680489,13.302088245099007,49.69413413669497,1658.0,1435.0,1200.0,1528.0,1551.0,999.7000000000002,108.0,294.1,1649428820.13527,1649428821.4551938,d2a24f76-ba63-4ce4-b2f3-dee162a4e694
0.3651174294776532,0.4801948095694366,0.8215743778012998,-0.0406644739735361,0.4852176110752281,-0.5378693467196551,0.4164367868960513,0.3934265701174987,-0.9583239751948536,24.8935337095762,-10.42094973345397,-0.9131475430936205,1.9576781677498567,-2.341535200085562,4068.071533203125,11.926333333333332,0.16,178.909662448432,13.333513186560326,49.55393463815166,1658.0,1435.0,1200.0,1528.0,1551.0,999.7000000000002,108.0,294.1,1649428821.563908,1649428822.6854427,d2a24f76-ba63-4ce4-b2f3-dee162a4e694
0.5369708747696201,0.8116339643308322,0.8771670606783861,-0.0924703395064392,0.4679928204927038,-0.8155041728694334,0.3655118902350519,0.3502462548217206,-0.5717258392994466,24.902674772927536,-10.488588259740345,-1.4171561643714938,3.208542588986358,-2.281526015928925,4070.0029296875,11.922,0.1566666666666666,178.93799255528938,13.324598841056076,49.43060494794837,1767.0,1435.0,1200.0,1528.0,1630.0,999.7000000000002,108.0,294.1,1649428824.8265364,1649428825.9657743,8311ffc3-18b9-4282-b822-e90cb0922a3a
0.5530982970599319,0.8247421175710644,0.8806788579621134,-0.0997344465702571,0.4684672692656848,-0.8204475368792638,0.3668662059425203,0.3434040025253355,-0.5592484410002591,24.84962971677562,-10.297207356526636,-1.412018507530454,3.257037713925579,-2.2870646377386303,4048.855224609375,11.906,0.15,178.9713967337902,13.328967126485251,49.51551368570548,1767.0,1435.0,1200.0,1528.0,1630.0,999.7000000000002,108.0,294.1,1649428826.0740688,1649428827.1933734,8311ffc3-18b9-4282-b822-e90cb0922a3a
0.5457569423482159,0.8170309557871436,0.8843358388347472,-0.1059663813131861,0.4732747608842039,-0.8069975103934889,0.3747280299195239,0.3480745287891936,-0.6398928361710056,24.83704292517893,-10.230166706504455,-1.3676680379896886,3.229091674681456,-2.3107354141411243,4035.937228732639,11.911444444444443,0.1555555555555555,178.9939621609881,13.313184077133169,49.57439257253566,1767.0,1435.0,1200.0,1528.0,1630.0,999.7000000000002,108.0,294.1,1649428827.3019588,1649428828.4190695,8311ffc3-18b9-4282-b822-e90cb0922a3a
0.74245109409272,1.1315007584468475,0.975208283632054,-0.1619010232315205,0.4890605700587041,-1.063434110484731,0.3661202703270683,0.3470167332006427,0.0021020115434159,25.153918963602003,-9.895000038734793,-1.810738428296956,4.413683129352936,-2.405497714473116,4037.6244032118057,11.869555555555555,0.1433333333333333,178.86685841181344,13.298196175636958,49.78713323352396,1886.0,1435.0,1200.0,1528.0,1710.0,999.7000000000002,108.0,294.1,1649428830.3589218,1649428831.413838,e4ef9bb8-8f85-4a47-baf7-c8941fd1f494
0.7410780669070225,1.140154117398505,0.9759006130318268,-0.1651431885204987,0.4858224510336113,-1.0687219127501637,0.3655644850629783,0.3402138003640034,0.2838297477222224,25.19823327110737,-9.867320618867044,-1.8148328303623151,4.444342986436336,-2.4000031800233046,4045.671522352431,11.850333333333335,0.14,178.86830489409763,13.294833635563068,49.979622383623166,1886.0,1435.0,1200.0,1528.0,1710.0,999.7000000000002,108.0,294.1,1649428831.5227604,1649428832.7295234,e4ef9bb8-8f85-4a47-baf7-c8941fd1f494
0.754752709692244,1.1406537678395114,0.9833033284624594,-0.1567017248089845,0.4951711732374065,-1.0751779270618462,0.3702980153724908,0.3409501273692635,0.0762104815949666,25.18890107795776,-9.56270676016241,-1.848131441974595,4.444416482110281,-2.429143990955257,4061.0064290364585,11.856333333333332,0.14,178.8644951663606,13.294096923770091,50.11525590070633,1886.0,1435.0,1200.0,1528.0,1710.0,999.7000000000002,108.0,294.1,1649428832.8425145,1649428833.9615629,e4ef9bb8-8f85-4a47-baf7-c8941fd1f494
-0.0711037069029026,-0.2713057731903502,0.6526267958378044,0.155540371334077,0.4727920942325952,0.0320872637853067,0.4526219959485774,0.436304465195959,-1.6284089743691843,26.93178061862816,-8.922448326878994,-0.0699681085550853,-0.90427723388413,-2.234240015565966,4061.0043131510415,11.888666666666666,0.15,179.79171611348707,13.39529926751974,50.29969415504885,1449.0,1435.0,1200.0,1528.0,1386.0,999.7000000000002,108.0,294.1,1649428834.862043,1649428836.001233,b9e244c7-207b-4af2-b11b-0ba99a8bd2d8
-0.0536422375882975,-0.2432070058078778,0.6650917586636729,0.1432726380920713,0.4779332340048376,0.0187544856855167,0.4591568974076274,0.4370276435065143,-1.5615830192865758,26.916799768903097,-8.437154646809386,-0.0716232814151517,-0.8013635169668654,-2.2635081230098306,4059.935655381944,11.95322222222222,0.17,179.72586701860888,13.368614856797358,50.29444136012216,1449.0,1435.0,1200.0,1528.0,1386.0,999.7000000000002,108.0,294.1,1649428836.1095035,1649428837.430813,b9e244c7-207b-4af2-b11b-0ba99a8bd2d8
-0.054615241118638,-0.2351468540529226,0.6588592772504499,0.1417999841283835,0.4707408978003889,0.0115227026574863,0.4502157847377498,0.4270740812484165,-1.5960278766062614,26.869840953879507,-8.592866110489517,-0.0852159085373971,-0.7697237756029734,-2.231748169350521,4057.1608072916665,11.955,0.17,179.67203298539067,13.35488446901834,50.26858036664972,1449.0,1435.0,1200.0,1528.0,1386.0,999.7000000000002,108.0,294.1,1649428837.539203,1649428838.6629646,b9e244c7-207b-4af2-b11b-0ba99a8bd2d8
-0.2398502528800582,-0.5787031826939412,0.6340449505405067,0.2263669166443359,0.5102417692230711,0.284070514870788,0.5224043121267018,0.4990379851711128,-1.4900908514004652,28.16110304008068,-6.466762313824288,0.3441897197577682,-2.089825485531723,-2.392792259132909,4054.8150499131934,11.942222222222224,0.1611111111111111,179.80052250405697,13.36810686147784,50.24151384478878,1342.0,1435.0,1200.0,1528.0,1293.0,999.7000000000002,108.0,294.1,1649428840.8013704,1649428841.9377596,6a0af1bf-ff96-4730-98c6-837074970948
-0.2349879739940198,-0.5669515318580473,0.6470429833758434,0.2211074383821953,0.5205141872125774,0.2752773247883021,0.5352105932118053,0.509570637841544,-1.2772269941181509,27.97813499219941,-6.6678514499501205,0.3358037353710002,-2.0440055427656625,-2.44141865775662,4052.683837890625,11.916888888888888,0.15,179.77693406630337,13.35599627203324,50.31760101377786,1342.0,1435.0,1200.0,1528.0,1293.0,999.7000000000002,108.0,294.1,1649428842.046237,1649428843.367533,6a0af1bf-ff96-4730-98c6-837074970948
-0.2360278168547644,-0.5734760264845473,0.6372165253381623,0.2246236187554132,0.5122907741971544,0.2798612887222059,0.5235592058373263,0.5012327216333599,-1.549220916980493,28.176295472843545,-6.5484131915646095,0.3388793350358341,-2.06866233805697,-2.401096152769293,4048.2192111545137,11.915666666666668,0.1577777777777777,179.77972533694415,13.34335501483562,50.37959598468938,1342.0,1435.0,1200.0,1528.0,1293.0,999.7000000000002,108.0,294.1,1649428843.476365,1649428844.6008556,6a0af1bf-ff96-4730-98c6-837074970948
-0.4284929854604136,-0.9251440855521088,0.6169790401938634,0.3146686247819806,0.5541255388538969,0.5645349223891446,0.6011321234357992,0.5802174804331973,-1.2723752887283049,29.868208772001168,-3.079497360274471,0.7863600559913019,-3.432676453207536,-2.578308536933445,4048.855224609375,11.908,0.1499999999999999,179.91839790875298,13.350334709257467,50.51442961072975,1227.0,1435.0,1200.0,1528.0,1189.0,999.7000000000002,108.0,294.1,1649428845.7192545,1649428846.8498552,5325bc01-dca4-4666-bc94-4439c344f5b4
-0.4339025794272261,-0.934684018009622,0.6118921388232423,0.3182554793337688,0.551947238373896,0.5700924374690246,0.5991379046972283,0.5709208052186592,-1.261339813396499,29.80167231772789,-3.175196560604181,0.7900533973929497,-3.468452156341729,-2.566791096895889,4041.22119140625,11.833,0.1266666666666666,179.92930799758724,13.346421010863049,50.74471968388049,1227.0,1435.0,1200.0,1528.0,1189.0,999.7000000000002,108.0,294.1,1649428846.9578788,1649428848.0832794,5325bc01-dca4-4666-bc94-4439c344f5b4
-0.4384651779756908,-0.940403704183373,0.607947530336413,0.3248561244038024,0.5494095402489597,0.5694218540282658,0.595640351835614,0.5708945077818979,-1.1959946376022352,29.828328743934986,-3.2324525688126045,0.773661128413872,-3.490921791324208,-2.553658159626486,4045.458116319444,11.833,0.1377777777777778,179.9264165508386,13.338349624538862,50.94575415954128,1227.0,1435.0,1200.0,1528.0,1189.0,999.7000000000002,108.0,294.1,1649428848.1913588,1649428849.311271,5325bc01-dca4-4666-bc94-4439c344f5b4
0.1819247466693175,0.1575743734921361,0.7429315271971023,0.0252276899076312,0.473522352496247,-0.2780647099483254,0.433848693564239,0.4129877829895955,-1.0547814340870734,25.448284987451306,-10.041989394933134,-0.4781949340662506,0.731890502254229,-2.2814178205687545,4047.795193142361,11.84477777777778,0.1333333333333333,179.15171221005872,13.25267201618144,51.16016442232669,1553.0,1435.0,1200.0,1528.0,1471.0,999.7000000000002,108.0,294.1,1649428850.2221832,1649428851.3598518,dc61c2e4-26d3-4368-8db7-fe74829e7b0e
0.1722260663502196,0.1475459642790274,0.7404732269434785,0.0340069734670876,0.4726211611831595,-0.2759998585989287,0.4322809645546935,0.4133599921371967,-0.9725378137639912,25.56610758290005,-10.013436078153608,-0.4926542459665321,0.6922079403792837,-2.275694350178934,4056.306803385417,11.942,0.17,179.07223461105664,13.216276404551644,51.01444385420429,1553.0,1435.0,1200.0,1528.0,1471.0,999.7000000000002,108.0,294.1,1649428851.4722726,1649428852.7999146,dc61c2e4-26d3-4368-8db7-fe74829e7b0e
0.1592179604735455,0.1502667329130478,0.7425143089748988,0.0300067354188808,0.4738257839522203,-0.2767751260017565,0.4355049234729904,0.412987783025792,-0.8589575884350403,25.471461175815804,-10.24737626224896,-0.4858787265980676,0.7043022935068227,-2.2846250791391047,4065.931342230903,11.95011111111111,0.1622222222222222,179.0100298015556,13.1997330223357,50.86642948088562,1553.0,1435.0,1200.0,1528.0,1471.0,999.7000000000002,108.0,294.1,1649428852.9072144,1649428854.2237968,dc61c2e4-26d3-4368-8db7-fe74829e7b0e
0.1842702716890861,0.1514905730622819,0.7309272743882755,-0.2310313118214928,0.4347134731566024,-0.0242286032645153,0.495447295818702,0.4735152724289035,-0.6870390014942379,24.924229613055267,-8.155968919964716,0.6666802111978433,0.7205350841172674,-2.299749615150053,4062.930745442709,11.944777777777778,0.1622222222222222,178.89737721484485,13.26735483589472,50.54042758744054,1553.0,1522.0,1200.0,1528.0,1471.0,999.7000000000002,108.0,294.1,1649428856.2640507,1649428857.3971164,0d0684f4-bcdd-40c3-8cb4-1696cd8c25b2
0.1818114655881317,0.1487161982341613,0.7262989337506407,-0.2166466365628379,0.4317550167663054,-0.0347212631395782,0.4865061831922459,0.4672959396636703,-0.7707988820043817,25.05507386351556,-8.204345615302115,0.6112405481031975,0.7090888304828781,-2.2770709942967984,4053.1098904079854,11.94988888888889,0.16,178.86004188302175,13.24832678264071,50.38567029959125,1553.0,1522.0,1200.0,1528.0,1471.0,999.7000000000002,108.0,294.1,1649428857.508128,1649428858.6305313,0d0684f4-bcdd-40c3-8cb4-1696cd8c25b2
0.1813775586110097,0.1503203391225535,0.732255292577247,-0.2279545164511441,0.4364228035384157,-0.0262929485117852,0.4967884627148571,0.4813255972812448,-0.6372413693547665,24.91455678963567,-8.199513114169116,0.6551209850428044,0.7158846769043633,-2.305934797250692,4050.7685546875,11.952,0.17,178.82906469840603,13.244558984676065,50.23132851491648,1553.0,1522.0,1200.0,1528.0,1471.0,999.7000000000002,108.0,294.1,1649428858.7383988,1649428859.859172,0d0684f4-bcdd-40c3-8cb4-1696cd8c25b2
0.2024253333081488,0.1518850339371084,0.7315507416821236,-0.5029064060605566,0.4047645805892172,0.2371187145564024,0.5686438895639182,0.5513040479666592,-0.5375536156521395,24.562439183856338,-6.251561432119485,1.8652576455779704,0.7375848479747741,-2.363421421951695,4066.570475260417,11.949,0.1655555555555555,178.77520486225092,13.320945259032548,49.908879458204666,1553.0,1613.0,1200.0,1528.0,1471.0,999.7000000000002,108.0,294.1,1649428861.7967994,1649428862.9314702,ac0a88f3-fd7e-4dcb-90dd-5ad9acb4650c
0.2039182581460905,0.1545421662320192,0.7293318993914757,-0.4999753417762756,0.4010528135400443,0.2332562852486461,0.5636720392874986,0.5480168742665646,-0.5156353489131748,24.70904009978417,-6.076506177753562,1.850866777861489,0.7453450139331227,-2.3477132059709653,4065.49951171875,11.942222222222222,0.151111111111111,178.75518937234315,13.338598546988615,49.75496152471338,1553.0,1613.0,1200.0,1528.0,1471.0,999.7000000000002,108.0,294.1,1649428863.0395973,1649428864.158569,ac0a88f3-fd7e-4dcb-90dd-5ad9acb4650c
0.1998777735039043,0.1526739556892562,0.7352268976482693,-0.4995408869048984,0.4062465481205909,0.2360366864996848,0.5702765191999588,0.5486469158791205,-0.4520154341170734,24.78110408467824,-5.837827491201024,1.8569760107968745,0.7360938421604318,-2.372096858459257,4060.370361328125,11.940333333333331,0.15,178.75265764889082,13.347612594282,49.63677193131548,1553.0,1613.0,1200.0,1528.0,1471.0,999.7000000000002,108.0,294.1,1649428864.2677383,1649428865.3891308,ac0a88f3-fd7e-4dcb-90dd-5ad9acb4650c
0.2247507227994924,0.1642941156325039,0.7331943285484873,-0.7978345081591623,0.3656883019698809,0.5128167219679883,0.6406466911367169,0.6274706030385214,-0.2931053369323093,24.71660383756189,-3.659123186992755,3.1517135350253547,0.7958383605783662,-2.41227553011986,4058.440673828125,11.936888888888893,0.1577777777777777,178.76179947763993,13.433005801151486,49.46376437800392,1553.0,1710.0,1200.0,1528.0,1471.0,999.7000000000002,108.0,294.1,1649428867.324773,1649428868.4587517,f1ad53b2-3a61-4e40-a587-d2fee68a3904
0.2181150144147576,0.1614178384277698,0.7281266023607327,-0.7918102108277548,0.3625139877709269,0.5093586152034374,0.634152879408096,0.6156132194978224,-0.4057523847751614,24.72756772097835,-3.80670229350075,3.130093481932297,0.7860930494865369,-2.39238495867204,4056.76010131836,11.928875,0.15,178.77473054355858,13.457767074877715,49.39113883426357,1553.0,1710.0,1200.0,1528.0,1471.0,999.7000000000002,108.0,294.1,1649428868.5660217,1649428869.6900723,f1ad53b2-3a61-4e40-a587-d2fee68a3904
0.226490185678709,0.1633490531307826,0.7351392396870781,-0.7867128974691543,0.3684823996863062,0.504352249536279,0.6420848296428864,0.6164996606149115,-0.0842139383724038,24.66617684407343,-3.52574457150384,3.107494075259663,0.7883863217964852,-2.420441862605546,4060.36279296875,11.929777777777778,0.15,178.77066961664207,13.446641420055771,49.30434245040648,1553.0,1710.0,1200.0,1528.0,1471.0,999.7000000000002,108.0,294.1,1649428869.79802,1649428871.1220243,f1ad53b2-3a61-4e40-a587-d2fee68a3904
0.225899042220852,0.1609050392898419,0.729099605801999,-1.029328392540969,0.3299183720291649,0.7412884460562965,0.6914680407798471,0.6632772387577576,-0.314632666363243,25.22438612873879,-1.7830049606327782,4.190763980025495,0.794902520511673,-2.43035000491946,4061.005126953125,11.923,0.1566666666666666,178.78763277090073,13.515828769890796,49.1662493063122,1553.0,1814.0,1200.0,1528.0,1471.0,999.7000000000002,108.0,294.1,1649428873.2619178,1649428874.3993137,024c9e86-9543-498d-8dfe-246fa206540d
0.247449754324304,0.1773014629511036,0.7282186432182067,-1.0116828306866448,0.3272491869760658,0.7082983703433616,0.6813566943383702,0.6517589819253038,-0.1158342816815388,25.20080687017751,-1.922075272126903,4.076704536258251,0.8539958141812545,-2.409025984198065,4068.071533203125,11.898666666666664,0.1333333333333333,178.82417428296029,13.532278142141912,49.17123306767658,1553.0,1814.0,1200.0,1528.0,1471.0,999.7000000000002,108.0,294.1,1649428874.507686,1649428875.627917,024c9e86-9543-498d-8dfe-246fa206540d
0.2305799778727509,0.1665984245809253,0.7252338894624786,-1.0237796388406932,0.3253557748146148,0.7306117057165636,0.6849725854556635,0.6582149911974233,-0.190548781298599,25.195113835748053,-1.8215770465550545,4.15392506562676,0.8147910725046207,-2.4088361028901457,4049.497802734375,11.904666666666667,0.1466666666666666,178.82674698754766,13.528186289646646,49.17111923119042,1553.0,1814.0,1200.0,1528.0,1471.0,999.7000000000002,108.0,294.1,1649428875.736802,1649428876.8632624,024c9e86-9543-498d-8dfe-246fa206540d
0.1409979137339433,0.1389467171912239,0.7431029659437819,0.3124043098217757,0.5011275320936398,-0.5340562238719003,0.3539015923357883,0.3312726876693849,-1.3765298674858937,26.859421505877,-11.756438757608349,-1.6923142643844091,0.6441750549942298,-2.2083813250351527,4052.683837890625,11.910333333333334,0.1533333333333333,178.8716440976919,13.11497805869866,49.22063354921355,1553.0,1349.0,1200.0,1528.0,1471.0,999.7000000000002,108.0,294.1,1649428877.767644,1649428878.9098456,b8e7dc62-9beb-493d-8687-761661bb1c83
0.1417868354754123,0.13477858058129,0.7376988523088848,0.3031870743711717,0.4978798043973834,-0.5197372897327935,0.3528365480110729,0.3337314937320853,-1.5671396181983774,26.711912557826803,-11.5302990060636,-1.6406527260655404,0.6286765718729843,-2.195413974498228,4049.2804090711807,11.933555555555555,0.1522222222222222,178.90882461189378,13.096832143348704,49.34117462496071,1553.0,1349.0,1200.0,1528.0,1471.0,999.7000000000002,108.0,294.1,1649428879.0185044,1649428880.13532,b8e7dc62-9beb-493d-8687-761661bb1c83
0.1494788225739328,0.1450477120842773,0.735555615018571,0.2998604542390505,0.4932909098443484,-0.5257067998930457,0.3480504228937549,0.3280118112152888,-1.5322709693348169,26.709471313235618,-11.410903371502387,-1.6466492903353265,0.6661607332906584,-2.178020662215709,4062.5013834635415,11.931555555555557,0.15,178.93940260989805,13.09395179565747,49.43709173038511,1553.0,1349.0,1200.0,1528.0,1471.0,999.7000000000002,108.0,294.1,1649428880.243972,1649428881.362334,b8e7dc62-9beb-493d-8687-761661bb1c83
0.1276388386608521,0.1288353700048729,0.7387375992149059,0.5224810127796009,0.518957162560563,-0.7236341920692635,0.2901830145838919,0.2688558304520945,-1.8262412259534468,27.72006771728601,-12.884219181997912,-2.5871210309425443,0.593302707704729,-2.137633628793994,4062.502143012153,11.92388888888889,0.1455555555555555,178.97226948018414,13.021786009025622,49.82330743318816,1553.0,1264.0,1200.0,1528.0,1471.0,999.7000000000002,108.0,294.1,1649428883.2993777,1649428884.430364,195ad9b1-0cbd-428f-97bc-ab73d81e7c88
0.1304362237258535,0.137722792740297,0.7456581956748433,0.5501535372154287,0.5261845619339112,-0.7575255181188524,0.2856182258051371,0.2602522005198377,-1.868408989728929,27.879346213678115,-12.834396633748192,-2.7243146094194546,0.6235271736600702,-2.1491184313256024,4057.800944010417,11.901000000000002,0.1366666666666666,179.0035532644026,12.99516088813979,50.00771153658484,1553.0,1264.0,1200.0,1528.0,1471.0,999.7000000000002,108.0,294.1,1649428884.5390098,1649428885.663016,195ad9b1-0cbd-428f-97bc-ab73d81e7c88
0.1220676266048857,0.1218347851225607,0.7432065119143741,0.5210072631915575,0.5233630711374252,-0.7144498239147579,0.2979451278240011,0.2662512929938414,-1.7185914630710477,27.781316678521307,-12.700952316836286,-2.5624461606547526,0.5651258440117152,-2.161329218199486,4051.4076334635415,11.904,0.14,179.00009263522315,13.011196464763684,50.16300271755425,1553.0,1264.0,1200.0,1528.0,1471.0,999.7000000000002,108.0,294.1,1649428885.7710123,1649428886.898655,195ad9b1-0cbd-428f-97bc-ab73d81e7c88
0.1023538962762984,0.11392474877016,0.7210263070725708,0.6496288933810468,0.5128430193686695,-0.8284556460484929,0.2351688724430982,0.2023102817231529,-2.1206361861213123,28.69221383766396,-13.50780600244655,-3.1041683255400097,0.5282283618192499,-2.0290088082842725,4055.667154947917,11.902333333333331,0.1355555555555555,179.03086187852418,12.975083452210798,50.59878775934877,1553.0,1178.0,1200.0,1528.0,1471.0,999.7000000000002,108.0,294.1,1649428888.829605,1649428889.8978236,a525d617-4e08-4a77-a30a-0d84e78842a0
0.0968840386953291,0.1093490025588844,0.7211051992378649,0.6526267958321513,0.513290075006032,-0.8271670730944533,0.2354186976933339,0.2117773426822567,-2.102122097953699,28.777249447670275,-13.569360453554289,-3.107468116477841,0.5111183864111276,-2.03071710070108,4050.7685546875,11.890555555555554,0.1344444444444444,179.0217625487299,12.955433946606057,50.736231656016926,1553.0,1178.0,1200.0,1528.0,1471.0,999.7000000000002,108.0,294.1,1649428890.005973,1649428890.993047,a525d617-4e08-4a77-a30a-0d84e78842a0
0.0879631962687122,0.0997422365124555,0.7014457088024276,0.6311823700595377,0.4950659836689506,-0.7963004937067453,0.2237097842852489,0.2068904109010721,-2.314246348166821,28.713108590702216,-13.44567771918197,-2.9912245916557194,0.4768852123734621,-1.963724203932448,4048.2186143663193,11.896666666666668,0.14,179.00569035470295,12.960636748342576,50.88761938387567,1553.0,1178.0,1200.0,1528.0,1471.0,999.7000000000002,108.0,294.1,1649428891.1011536,1649428892.216575,a525d617-4e08-4a77-a30a-0d84e78842a0
0.0936626081565432,0.1105718312992384,0.7179363637504611,0.7743837114325828,0.5167218844130927,-0.9458472687984504,0.191304823714251,0.1705561817404218,-2.207980751161408,29.7339395614555,-14.524216025418076,-3.6428334021942312,0.5097412952029867,-1.9688609945794235,4035.51326497396,11.893666666666668,0.1366666666666666,178.96956624309266,12.940272918787135,51.056952674868725,1553.0,1088.0,1200.0,1528.0,1471.0,999.7000000000002,108.0,294.1,1649428893.332721,1649428894.467515,51fad0fd-9cd3-4edf-84f9-d919923b5de9
0.094270988234451,0.0909585282549702,0.7120447369675929,0.7578628818229016,0.5135626575408131,-0.9124642266354012,0.1958446637706024,0.1758055458649811,-2.3342908317526487,29.709380579429503,-14.677286262579456,-3.531094454801401,0.4400902868582659,-1.965803054613516,4047.1597764756943,11.856111111111112,0.1244444444444444,178.97354900228868,12.927192727071606,51.23995089766124,1553.0,1088.0,1200.0,1528.0,1471.0,999.7000000000002,108.0,294.1,1649428894.5769374,1649428895.907096,51fad0fd-9cd3-4edf-84f9-d919923b5de9
0.0971409440107897,0.103386574609959,0.7146744759631104,0.7774594946697341,0.5160027519211318,-0.9427062468790488,0.1905093276139199,0.1658428800441437,-2.1998406055509734,29.64674340680936,-14.690409465601666,-3.643476168689361,0.483620608504188,-1.9633379507883584,4069.792263454861,11.870555555555557,0.13,178.95019127314703,12.934108483333723,51.36184131522442,1553.0,1088.0,1200.0,1528.0,1471.0,999.7000000000002,108.0,294.1,1649428896.016497,1649428897.1334703,51fad0fd-9cd3-4edf-84f9-d919923b5de9
0.1733174081068683,0.153055267859334,0.7572509617600126,0.0314692748647803,0.4840736745912955,-0.2796551968810379,0.4471652874243332,0.4206706666137023,-0.7120937560387626,25.80769420467136,-9.980293257686752,-0.4925705426999118,0.7121142365248323,-2.334580987466576,4072.904541015625,11.887,0.1375,178.897762741078,13.14629838917238,51.4560300981976,1553.0,1435.0,1200.0,1528.0,1471.0,999.7000000000002,108.0,294.1,1649428898.2484214,1649428899.3887746,65212ebb-f51d-4fd1-867d-da7a933c9efd
0.1705035872110826,0.1436802477102336,0.7476129683308672,0.0379252848826269,0.4774598809601882,-0.274974260170692,0.4379743495153201,0.4255356838076394,-0.8605956978044134,25.87425008632441,-9.8481659750382,-0.4967074207604167,0.6754274888028219,-2.300371762611233,4077.747802734375,11.950888888888889,0.1577777777777777,178.81427809776284,13.114426426059444,51.19882746703345,1553.0,1435.0,1200.0,1528.0,1471.0,999.7000000000002,108.0,294.1,1649428899.4971435,1649428900.6152985,65212ebb-f51d-4fd1-867d-da7a933c9efd
0.1663354506488788,0.1443113851159496,0.742235152071702,0.0323502377358203,0.47195057773564,-0.2690178997712392,0.4336747262434147,0.4031434560083085,-0.9243846757035812,25.85516543972874,-9.68010176098521,-0.4711463562810241,0.6771017307123267,-2.279187841072603,4081.199652777778,11.94811111111111,0.15,178.74622968197193,13.106796440710369,50.99213455910025,1553.0,1435.0,1200.0,1528.0,1471.0,999.7000000000002,108.0,294.1,1649428900.7239175,1649428901.8402932,65212ebb-f51d-4fd1-867d-da7a933c9efd
0.2103145507246908,0.1725394436425847,0.8999499143026116,0.0834296353247169,0.6177049577281147,-0.3545863409336287,0.5723556565998348,0.5422643201950288,-0.0053556979510733,26.274930231352087,-10.09446230914639,-0.7676202972479373,0.7838583453334925,-2.8863957854150164,4073.231526692709,11.943666666666664,0.1566666666666666,178.65819157921007,13.091407360464162,50.562351356311424,1553.0,1435.0,1200.0,1424.0,1471.0,999.7000000000002,108.0,294.1,1649428903.77923,1649428904.918969,1b8bc68f-0225-4962-aa51-1bc214b9ddd1
0.2040459100598156,0.1603001992764736,0.885713712490883,0.083314584174163,0.6075530694830866,-0.3410201713912552,0.5617298674554079,0.5419673788426029,-0.2109909772217645,26.24110026133549,-9.980073873069069,-0.7378941838420283,0.737506443937405,-2.839484721860203,4077.1019694010415,11.934333333333337,0.1433333333333333,178.65575547840615,13.067932854060471,50.455382625354986,1553.0,1435.0,1200.0,1424.0,1471.0,999.7000000000002,108.0,294.1,1649428905.0286524,1649428906.0355396,1b8bc68f-0225-4962-aa51-1bc214b9ddd1
0.2097666884079554,0.1646913158262234,0.8995390175732115,0.0807998961335423,0.6181569441185235,-0.3433140712944337,0.5769303067340004,0.5632337494217677,0.1373907805398442,26.228568946667533,-9.913713227688708,-0.7365850820261827,0.7521077376308636,-2.8935635346586515,4071.7216796875,11.937777777777775,0.151111111111111,178.65216128108287,13.070696139898436,50.37505466780124,1553.0,1435.0,1200.0,1424.0,1471.0,999.7000000000002,108.0,294.1,1649428906.1495297,1649428907.3722887,1b8bc68f-0225-4962-aa51-1bc214b9ddd1
0.2529459090396273,0.1871892821697867,1.054753339484445,0.1472566929685961,0.7645484875097891,-0.4374132820502684,0.7092713737776595,0.6887725583067825,0.8510738169188485,26.75665909274408,-10.36018343907634,-1.0864313342864045,0.8370610334862459,-3.489996189895028,4075.3781467013887,11.932666666666668,0.1477777777777777,178.6855745665026,13.056228091689055,50.277467581124775,1553.0,1435.0,1200.0,1304.0,1471.0,999.7000000000002,108.0,294.1,1649428909.306988,1649428910.4487326,b8457f49-8c0a-4c55-8b3a-b961de91bf3e
0.2506448873152069,0.1912522291456627,1.05559485597039,0.1346339448247746,0.7639042014522889,-0.430089456831303,0.7149384613077443,0.6940714823838177,1.0680904818509374,26.533820432114567,-10.378900844871549,-1.0428289594073132,0.8525331551203924,-3.497736691323832,4070.432779947917,11.92288888888889,0.14,178.71258265230065,13.053529408056995,50.310521902158094,1553.0,1435.0,1200.0,1304.0,1471.0,999.7000000000002,108.0,294.1,1649428910.558335,1649428911.6728122,b8457f49-8c0a-4c55-8b3a-b961de91bf3e
0.2422165734688357,0.1847962195423357,1.045522955092492,0.1392491370325565,0.7535298810635207,-0.4274991631891666,0.7026312827948211,0.6812646534769555,0.9981020087984268,26.838968587939767,-10.395227676271276,-1.045935449058365,0.827757700748724,-3.453292504492933,4071.0771484375,11.912333333333333,0.1355555555555555,178.71495196903274,13.054336508743916,50.35729845268892,1553.0,1435.0,1200.0,1304.0,1471.0,999.7000000000002,108.0,294.1,1649428911.7807968,1649428913.068689,b8457f49-8c0a-4c55-8b3a-b961de91bf3e
0.2958763998084576,0.2012715352800503,1.1699096160419469,0.1859533045780473,0.8699484270048525,-0.4910336784206379,0.8123702912696786,0.7949088242550403,1.6723408776981972,27.253780230921294,-10.125861402109392,-1.28473335245474,0.88453287150085,-3.9345722454829706,4061.433322482639,11.918,0.1377777777777778,178.73218529521858,13.048326985775429,50.366570434487215,1553.0,1435.0,1200.0,1166.0,1471.0,999.7000000000002,108.0,294.1,1649428915.2465963,1649428916.5948613,9a440185-3633-4a59-a5af-5bcac6f7b6a0
0.2851602130007468,0.2014687657147938,1.1676611891248154,0.1810882872376148,0.8690280183721505,-0.4893637934447833,0.8111474626472019,0.7837324335024602,1.5318505425621782,27.11919182400904,-10.508619629543782,-1.2711425033543509,0.8901135050713317,-3.929114364302225,4048.855224609375,11.87788888888889,0.13,178.74755929213038,13.056839867938464,50.4951965569369,1553.0,1435.0,1200.0,1166.0,1471.0,999.7000000000002,108.0,294.1,1649428916.7085447,1649428917.8192315,9a440185-3633-4a59-a5af-5bcac6f7b6a0
0.2797035044075054,0.2054002257313799,1.1717504334867153,0.1792737672263482,0.8712895939145426,-0.4891797116363105,0.8144872311713973,0.7864147672759222,1.576931530237295,27.18129678753376,-10.144972398292008,-1.2659397558985792,0.901800497854904,-3.941545194176628,4041.854736328125,11.884666666666666,0.13,178.7622335741072,13.04818592339632,50.5581940478366,1553.0,1435.0,1200.0,1166.0,1471.0,999.7000000000002,108.0,294.1,1649428917.9277494,1649428919.046424,9a440185-3633-4a59-a5af-5bcac6f7b6a0
0.0945961655799007,0.1021040710523884,0.5032707693753669,0.0556102814447077,0.2559438115858894,-0.2348312853952478,0.1859664533668749,0.1583673406725462,-2.741464493805643,26.283800972336703,-9.523704067399116,-0.4567405241121262,0.5122677291097599,-1.3126894635662127,4046.519178602431,11.897,0.1366666666666666,178.86801954397234,13.107869823911184,50.75899402033591,1553.0,1435.0,1200.0,1623.0,1471.0,999.7000000000002,108.0,294.1,1649428920.2139063,1649428921.3069212,fc7a5d8b-4f30-41c1-bca9-20955dede899
0.0826440008369043,0.0991456144455106,0.5017981155353928,0.0537563152871565,0.2543396707418821,-0.2338319843783825,0.1867553751505808,0.1632718043067283,-2.5624465850285225,26.22864982603466,-10.03903557052424,-0.4507438335786423,0.5046060126556172,-1.3105736653488378,4054.60107421875,11.947,0.16,178.83660522724972,13.114514744199962,50.621224171862345,1553.0,1435.0,1200.0,1623.0,1471.0,999.7000000000002,108.0,294.1,1649428921.4190433,1649428922.5248065,fc7a5d8b-4f30-41c1-bca9-20955dede899
0.0845111156734883,0.103931739808527,0.4991946739260305,0.0619611017241831,0.2520386490433831,-0.2457710019456273,0.1806149342577653,0.1669139929221529,-2.553031336432064,26.20739011384796,-10.029021845796324,-0.4963446197633717,0.5212259128105022,-1.2944676384871872,4076.6716579861113,11.947666666666668,0.1488888888888888,178.79869767735616,13.100246289296328,50.482849472192285,1553.0,1435.0,1200.0,1623.0,1471.0,999.7000000000002,108.0,294.1,1649428922.634015,1649428923.7610254,fc7a5d8b-4f30-41c1-bca9-20955dede899
0.0409976970426961,0.0813066688803284,0.3556487252872191,0.0887302035089017,0.1225470061534844,-0.2406172602494432,0.0267669725519931,0.0012365863014508,-3.637839378360004,26.54617967243549,-10.086869118670926,-0.5506050480973167,0.4321686930131829,-0.7068618821920394,4097.458713107639,11.955,0.15,178.80155724988867,13.092238556540655,50.24892573840311,1553.0,1435.0,1200.0,1712.0,1471.0,999.7000000000002,108.0,294.1,1649428925.898962,1649428927.0392983,667157f2-a587-4661-891c-3fde8e00e462
0.0331358723395191,0.0781290673103661,0.3538407796049834,0.0933733367389392,0.1218210884334508,-0.2404665982251328,0.0248631507000836,0.0067426030617701,-3.654915451075951,26.57349357548028,-9.914883028968996,-0.5606303979490518,0.4181614870594856,-0.7008224496900405,4090.5054796006943,11.955666666666666,0.15,178.8070608645399,13.098181674892214,50.164781981833045,1553.0,1435.0,1200.0,1712.0,1471.0,999.7000000000002,108.0,294.1,1649428927.1734283,1649428928.2112892,667157f2-a587-4661-891c-3fde8e00e462
0.0317453977137424,0.0778184293598098,0.3549140418683331,0.0935442698355551,0.1239703523804536,-0.2383288390643769,0.0254866180638314,0.00358088974462,-3.838173308058007,26.570279731862136,-9.624501762234477,-0.5562259734106201,0.4157667571762697,-0.7058538530691291,4080.123914930556,11.961777777777778,0.1544444444444444,178.79949756839898,13.092716195463868,50.0764016107028,1553.0,1435.0,1200.0,1712.0,1471.0,999.7000000000002,108.0,294.1,1649428928.3210764,1649428929.49191,667157f2-a587-4661-891c-3fde8e00e462
-0.0179303774662581,0.056688474592869,0.2066756491694262,0.1264291586146431,-0.0109615683324198,-0.2402222514545638,-0.1372153554663891,-0.1604359552808138,-4.973890762076731,27.087926979154723,-9.729325150234931,-0.6391991129350594,0.3320463775301548,-0.0917764289942825,4052.21875,11.96,0.15,178.8474037563275,13.089910908705695,50.00123822479897,1553.0,1435.0,1200.0,1801.0,1471.0,999.7000000000002,108.0,294.1,1649428930.3074744,1649428931.5360715,c962a0dc-2c61-40b0-8622-27a6fc9de585
-0.024990216085777,0.0589717962570715,0.2080957082605181,0.1294184640728037,-0.0095278547315294,-0.2470388398754381,-0.1370575711629263,-0.1578046985038717,-4.930525602958029,27.045754341997075,-9.9824953695237,-0.6614874239374233,0.3422683968181351,-0.0958964937089258,4044.31884765625,11.956125,0.15125,178.8485204922568,13.087610735780986,49.9504203367136,1553.0,1435.0,1200.0,1801.0,1471.0,999.7000000000002,108.0,294.1,1649428931.6434329,1649428932.771181,c962a0dc-2c61-40b0-8622-27a6fc9de585
-0.02079679329501,0.0471556698094556,0.2008113308749491,0.1343315248076208,-0.0135255641592391,-0.2390783147959536,-0.1420540760864755,-0.1605016983799014,-5.030562264367344,27.07754268499775,-9.900748906825775,-0.6548710321319012,0.2968681020465767,-0.0747624850727936,4046.732150607639,11.958666666666668,0.1555555555555555,178.86312153942754,13.0846285874404,49.91475949217013,1553.0,1435.0,1200.0,1801.0,1471.0,999.7000000000002,108.0,294.1,1649428932.8912594,1649428934.0028803,c962a0dc-2c61-40b0-8622-27a6fc9de585
0.1800758377557142,0.1679921863403723,0.6834999316204889,-0.0811493116759705,0.4328069123389318,-0.1997505602375992,0.4298616046351652,0.4135440738840789,-0.7942213174713123,21.68351757742401,-11.582495925583064,-0.0902829309521152,0.7920387160195043,-2.139390916597696,7351.1376953125,11.637333333333334,7.855555555555556,177.88733339384282,13.046233058476126,45.35804128635097,1553.0,1435.0,1350.0,1528.0,1471.0,999.7000000000002,108.0,294.1,1649428937.7300098,1649428938.706495,f33c8461-8b69-4253-9969-125ce51ff61d
0.1845463943034236,0.1795498899376245,0.6878127035705652,-0.086934738454345,0.4336221314482432,-0.2044051992507388,0.4319259497821452,0.4032880915745272,-0.7256670374561174,21.700011008632924,-11.367799115637991,-0.0872992043479874,0.8339850651127513,-2.1476275055006497,7351.1376953125,11.643333333333333,7.760000000000001,177.64559782091794,13.015303969775804,43.35970627903357,1553.0,1435.0,1350.0,1528.0,1471.0,999.7000000000002,108.0,294.1,1649428938.814025,1649428940.1410131,f33c8461-8b69-4253-9969-125ce51ff61d
0.1802993655657368,0.165388744551432,0.6792660518507952,-0.0929831387427221,0.429585481974625,-0.2042868607937114,0.4299799428455816,0.4089157331708235,-0.6101281897991919,21.336335450100545,-14.150205512664018,-0.0766113606191021,0.8049115098372771,-2.13316953026972,7351.1376953125,11.647666666666666,7.756666666666667,177.5863208858411,12.999266970195826,41.65046168452162,1553.0,1435.0,1350.0,1528.0,1471.0,999.7000000000002,108.0,294.1,1649428940.2494094,1649428941.3725705,f33c8461-8b69-4253-9969-125ce51ff61d
0.3740705952265508,0.5121318941405419,0.7451377265105014,-0.140317352647418,0.4230768779122033,-0.4915382595131279,0.3841923512121897,0.3666744539991169,-0.5638920362032268,21.21961234081877,-12.806027509937628,-0.6125854764749754,2.103170263258939,-2.1053861353491463,7360.958821614583,11.623111111111108,7.852222222222222,177.4445322299509,13.016015447814349,38.803371702172775,1658.0,1435.0,1350.0,1528.0,1551.0,999.7000000000002,108.0,294.1,1649428943.304137,1649428944.3442156,0da17e19-d6db-4b46-b46a-16db978ea839
0.3783439211834685,0.5189664762470191,0.7666824111283211,-0.1298257878664205,0.4398140711276131,-0.4944282341923638,0.4002584131598659,0.3793026799599415,-0.4814283450209711,21.66851512927079,-10.753751135475738,-0.6383287680322812,2.110112865119532,-2.176738261403702,7357.447265625,11.604444444444448,7.792222222222222,177.57033520754365,13.035693222813151,38.08449656875866,1658.0,1435.0,1350.0,1528.0,1551.0,999.7000000000002,108.0,294.1,1649428944.4526336,1649428945.394128,0da17e19-d6db-4b46-b46a-16db978ea839
0.3800149011982856,0.5176159956903136,0.7472973996804607,-0.141948886795885,0.4234844874371766,-0.4974502438182119,0.3853795687706746,0.3608572521208368,-0.4314754544425736,21.189117788755183,-13.083444992981724,-0.6222623348596642,2.1255977818858303,-2.110212415218758,7362.363444010417,11.604888888888889,7.844444444444445,177.66190679483609,13.070239940180125,37.42498564506075,1658.0,1435.0,1350.0,1528.0,1551.0,999.7000000000002,108.0,294.1,1649428945.5021966,1649428946.6977196,0da17e19-d6db-4b46-b46a-16db978ea839
0.5596129275692244,0.85953466047229,0.7907538366622713,-0.2026958687892535,0.399330334425762,-0.7964911489754465,0.3197018358018257,0.2958763995814183,-0.5347821955766434,20.559957964674105,-15.996382631717452,-1.159740146197124,3.444772622093575,-2.006121304394367,7376.44287109375,11.586333333333332,7.843333333333334,177.87169529628312,13.11833139698992,36.032180299700926,1767.0,1435.0,1350.0,1528.0,1630.0,999.7000000000002,108.0,294.1,1649428948.8360493,1649428949.9716835,51a5cad3-4e70-492b-a4f6-a3adfdd63b7f
0.5786390892270785,0.8723809355943931,0.8287404166745789,-0.1807901387019353,0.4287965602799625,-0.8000938933913462,0.3481950585580799,0.3309702675109369,-0.3341986488614091,21.36296938831043,-11.6090470117273,-1.2092348809483036,3.45237413924844,-2.1308584130363144,7376.44287109375,11.579,7.804444444444446,177.99109459207403,13.166119953882776,35.64885300800688,1767.0,1435.0,1350.0,1528.0,1630.0,999.7000000000002,108.0,294.1,1649428950.0796196,1649428951.196235,51a5cad3-4e70-492b-a4f6-a3adfdd63b7f
0.5696453818503973,0.8639000272498565,0.8092803479948207,-0.2003422520662834,0.4123343939485432,-0.7960966880522323,0.3347570919462931,0.3134430566897457,-0.3855920211671963,20.988176413284656,-14.901472729844368,-1.1601520806074377,3.451277275152904,-2.068500750822327,7373.623860677083,11.574222222222224,7.822222222222223,178.15362122010418,13.208114613084692,35.30433674845162,1767.0,1435.0,1350.0,1528.0,1630.0,999.7000000000002,108.0,294.1,1649428951.304561,1649428952.3794518,51a5cad3-4e70-492b-a4f6-a3adfdd63b7f
0.7599201468272894,1.1870949615579005,0.8565236093407199,-0.2554747413253154,0.391651496441767,-1.0765848384802,0.2794668278277271,0.2596911898307856,-0.0666684162109825,20.618963040098016,-17.001354282695434,-1.6663503740691332,4.689585412747327,-1.989970028303416,7363.76806640625,11.559,7.833333333333333,178.23725612758113,13.222522233092665,34.807889381543646,1886.0,1435.0,1350.0,1528.0,1710.0,999.7000000000002,108.0,294.1,1649428954.3637688,1649428955.5014727,e7ac96e0-e25c-4e73-b5ac-9911389eefa5
0.7458115971021799,1.1812963866705914,0.8688965314470949,-0.2372243490218815,0.4035642142956041,-1.0683406008111862,0.2888681450669633,0.2671070540051599,-0.1573675542137712,21.094407385445344,-14.171102360767936,-1.684819515092251,4.6419401528271145,-2.033255053553114,7363.76806640625,11.507333333333332,7.793333333333333,178.3388665751337,13.25539081092606,34.69715987253921,1886.0,1435.0,1350.0,1528.0,1710.0,999.7000000000002,108.0,294.1,1649428955.6089127,1649428956.731612,e7ac96e0-e25c-4e73-b5ac-9911389eefa5
0.7587893590576381,1.1829005275710391,0.8787712014943538,-0.2353440851433988,0.4097966958069629,-1.0606091620171512,0.2949296936740075,0.2762191000735253,-0.3032443864876304,21.570462319045063,-12.547014937049417,-1.6678543778869206,4.634997465287405,-2.0616307118876027,7363.76806640625,11.517,7.815555555555556,178.41729991410264,13.224422543501742,34.61968921078825,1886.0,1435.0,1350.0,1528.0,1710.0,999.7000000000002,108.0,294.1,1649428956.843686,1649428957.959268,e7ac96e0-e25c-4e73-b5ac-9911389eefa5
-0.0329198916045743,-0.2094542988047437,0.6189135419341758,-0.0038218264666632,0.4408144676774667,0.132346071645056,0.4738702872122847,0.449571498624179,-1.3165059565927706,23.18920044169841,-6.921670876726486,0.4887961221534146,-0.6748168272071297,-2.1643206974138605,7363.76806640625,11.581444444444443,7.856666666666667,179.52102053848134,13.405608109979534,34.46197786612293,1449.0,1435.0,1350.0,1528.0,1386.0,999.7000000000002,108.0,294.1,1649428959.8933785,1649428961.0342858,6e4232c1-60bc-4bd5-8524-730d17d25ef9
-0.0235974657347973,-0.2009339428097546,0.6261190267739919,-0.0207704962509163,0.4477701273785973,0.1265474967109084,0.4841394180433315,0.4549361662677649,-1.276023197712113,22.73734845386778,-8.704269263032328,0.5110976217419172,-0.6248118441632036,-2.199655563014695,7363.76806640625,11.629666666666669,7.884444444444445,179.518900144199,13.406948060285456,34.34427587234078,1449.0,1435.0,1350.0,1528.0,1386.0,999.7000000000002,108.0,294.1,1649428961.1431472,1649428962.265941,6e4232c1-60bc-4bd5-8524-730d17d25ef9
-0.0379426937087829,-0.2113608599512033,0.5978624812796663,-0.03288044579149,0.4227744579543722,0.1308602691341857,0.46439007804961,0.4429840023719416,-0.9467849444674888,22.28656030813508,-11.30837949982959,0.543461379957736,-0.6434771924414963,-2.103600374698893,7363.76806640625,11.628777777777778,7.894444444444446,179.49366183630588,13.440125609315054,34.2219855092562,1449.0,1435.0,1350.0,1528.0,1386.0,999.7000000000002,108.0,294.1,1649428962.3987255,1649428963.4413052,6e4232c1-60bc-4bd5-8524-730d17d25ef9
-0.2322409918906573,-0.5763950379950302,0.5857525331905523,0.0812765361880003,0.4787221556684193,0.4149772816987168,0.5477133585760947,0.5278588290659664,-1.0407797053589205,24.13127587497914,-6.571177486443644,0.9367337310150232,-2.0686893180025745,-2.3192402334745617,7370.10009765625,11.612333333333332,7.838888888888889,179.75344428683778,13.45743008330476,34.12532884612668,1342.0,1435.0,1350.0,1528.0,1293.0,999.7000000000002,108.0,294.1,1649428964.40116,1649428965.534094,38d39b85-7458-4067-bcd3-8b5ffc0e571b
-0.238042306940326,-0.5762925876376467,0.5769440032589691,0.0959208964946059,0.4699464973844849,0.4105719209990102,0.5324438886016216,0.5194047659886586,-1.2406542609680142,24.484282396084165,-5.36276066644326,0.8957937421106816,-2.0799560329601885,-2.2719794945059903,7375.738118489583,11.586888888888888,7.855555555555554,179.7964092123568,13.431287629120272,34.14075596673201,1342.0,1435.0,1350.0,1528.0,1293.0,999.7000000000002,108.0,294.1,1649428965.6430604,1649428966.7647235,38d39b85-7458-4067-bcd3-8b5ffc0e571b
-0.2442063068493,-0.5818517485502225,0.5827414820313842,0.0896259581886375,0.478077869587334,0.4119662305379414,0.5459908795245263,0.5255315100793804,-0.9257761189261166,24.035990058584304,-6.6839319310671,0.9103915713324816,-2.090190420683837,-2.3124324075987546,7370.10009765625,11.587,7.860000000000001,179.8592074894057,13.436824540943691,34.17474564422666,1342.0,1435.0,1350.0,1528.0,1293.0,999.7000000000002,108.0,294.1,1649428966.8728898,1649428968.207453,38d39b85-7458-4067-bcd3-8b5ffc0e571b
-0.4399378323386817,-0.9494894585868976,0.5419805275331975,0.201613401188295,0.5020084946453057,0.7039461522955235,0.6001635029046574,0.5703948573792498,-0.7538819860788692,26.215221087990567,-1.7037395156551276,1.3271903679698045,-3.5307464193621287,-2.403847738540672,7376.44287109375,11.538000000000002,7.833333333333333,-179.96117766025455,13.487062005245214,34.27423417967707,1227.0,1435.0,1350.0,1528.0,1189.0,999.7000000000002,108.0,294.1,1649428970.3383129,1649428971.4797726,2609ae02-ab7b-4646-9a59-270817e072d1
-0.4366901036651044,-0.9486347928429558,0.5284636690329559,0.1927643289801868,0.4877947552580192,0.7042485722755777,0.5842009871796912,0.5663056132772557,-1.002949388088848,26.327637350969848,-2.812940312635601,1.3476012693817494,-3.515712726720011,-2.3450948457314627,7376.44287109375,11.473666666666666,7.760000000000001,-179.95792800802943,13.451210626883032,34.461928916433884,1227.0,1435.0,1350.0,1528.0,1189.0,999.7000000000002,108.0,294.1,1649428971.5881145,1649428972.9094784,2609ae02-ab7b-4646-9a59-270817e072d1
-0.4496815663203799,-0.953838392402424,0.5324301920479485,0.1984944208918677,0.4938469900396895,0.7049246343437465,0.5911884228543484,0.5755195613109128,-0.8519418673159539,26.1841033763132,-2.648549593007857,1.3355430081219206,-3.538211648535409,-2.368876658647481,7376.44287109375,11.479444444444445,7.797777777777777,-179.94133064834628,13.474485634844712,34.58877956915431,1227.0,1435.0,1350.0,1528.0,1189.0,999.7000000000002,108.0,294.1,1649428973.017847,1649428974.3420928,2609ae02-ab7b-4646-9a59-270817e072d1
0.1667956550259218,0.172633675956147,0.6727442991422948,-0.094284860025878,0.4237737587286374,-0.2003159544632872,0.4228664988000423,0.4006715013607488,-0.7978074322544819,21.231821299879485,-12.79801795661526,-0.0656483427073316,0.8211734037484949,-2.103551846535437,7376.44287109375,11.485111111111111,7.834444444444445,179.2264663537948,13.33031096620445,34.74790438352287,1553.0,1435.0,1350.0,1528.0,1471.0,999.7000000000002,108.0,294.1,1649428975.2550352,1649428976.3924696,fb49b52c-818c-40fb-ba33-be7ef4e4cfe9
0.1848093682289747,0.175578983812016,0.6843414480997753,-0.0805839176947572,0.4323993027908442,-0.2054833922643724,0.4280996795060101,0.4065621167975798,-0.8169770847600191,21.68463897896987,-11.27030989247718,-0.104353114881683,0.8178717366392237,-2.136127313605732,7382.7958984375,11.630222222222224,7.837777777777777,179.1852317428655,13.369179675496223,34.697496069628365,1553.0,1435.0,1350.0,1528.0,1471.0,999.7000000000002,108.0,294.1,1649428976.5014784,1649428977.647248,fb49b52c-818c-40fb-ba33-be7ef4e4cfe9
0.1851512343130218,0.1800100942801264,0.697897752617196,-0.065791633841785,0.4481645882292512,-0.2119919977489282,0.435936301761314,0.4109011861128646,-1.2484692994040274,21.77992116410651,-9.559479392427065,-0.1509844240302068,0.8214218098380576,-2.1844986358441587,7382.7958984375,11.625666666666667,7.88,179.17321971684518,13.340588883085504,34.66658870472415,1553.0,1435.0,1350.0,1528.0,1471.0,999.7000000000002,108.0,294.1,1649428977.756015,1649428978.8487985,fb49b52c-818c-40fb-ba33-be7ef4e4cfe9
0.198852175236309,0.1750661846698334,0.671403132253825,-0.3871063601299327,0.3902445860076501,0.0705997950562268,0.5013379111662937,0.4835740240945555,-0.371801998541037,20.551311681429432,-11.975730486418572,1.1994366383122848,0.855949745915369,-2.1683184930130466,7376.44287109375,11.627666666666666,7.872222222222222,179.04123617696348,13.422640799358511,34.591261584007704,1553.0,1522.0,1350.0,1528.0,1471.0,999.7000000000002,108.0,294.1,1649428980.7807128,1649428981.9197872,07136c56-2cb4-4377-a9a4-c7677429a88f
0.1946577413181973,0.1722392150775376,0.6787269553506543,-0.365831765777856,0.398883278718987,0.0719541107605408,0.5049932483838754,0.4897013159793029,-0.5021699448363506,20.841929011190103,-9.35413836390902,1.1571331819039754,0.8208843606826324,-2.1919407488135723,7382.7958984375,11.635666666666664,7.833333333333333,179.00098207763506,13.404123302744962,34.54823784297085,1553.0,1522.0,1350.0,1528.0,1471.0,999.7000000000002,108.0,294.1,1649428982.0278685,1649428983.1478825,07136c56-2cb4-4377-a9a4-c7677429a88f
0.2076618013775536,0.1831000377799117,0.6882334618161104,-0.3594414982860968,0.4042610950802331,0.0621057372514212,0.5085170986787019,0.4791823598447591,-0.4283810734072634,21.101193431092256,-8.358788966088289,1.122975557421926,0.852095313115943,-2.214521916753009,7376.44287109375,11.63122222222222,7.835555555555555,179.01963608316828,13.408899597113312,34.53423595517231,1553.0,1522.0,1350.0,1528.0,1471.0,999.7000000000002,108.0,294.1,1649428983.2588646,1649428984.3778937,07136c56-2cb4-4377-a9a4-c7677429a88f
0.2154507599546145,0.1767579835306668,0.6774356439300299,-0.6658544153082442,0.3603329478986236,0.3663594332554289,0.5792861145753722,0.5527147933249622,-0.5014895784457106,20.87008598587441,-5.868452642405789,2.496157180805537,0.8437919547919863,-2.240629499782386,7376.44287109375,11.629888888888887,7.886666666666666,179.00435922672466,13.494058111093814,34.58767269905382,1553.0,1613.0,1350.0,1528.0,1471.0,999.7000000000002,108.0,294.1,1649428986.3123274,1649428987.4550254,a250126b-9105-418a-9f9a-c6726ee730c9
0.2286405452743647,0.1908106521187295,0.6824485838893581,-0.6791811715420768,0.3614971552927777,0.3596892097572348,0.5846414684768285,0.5652608398823787,-0.2746340872991292,20.663356310741182,-6.562203801224062,2.5101129752508795,0.9029961741675276,-2.25582472373014,7382.7958984375,11.63322222222222,7.891111111111111,178.9679649431872,13.513465714165452,34.5656183976788,1553.0,1613.0,1350.0,1528.0,1471.0,999.7000000000002,108.0,294.1,1649428987.562585,1649428988.6774623,a250126b-9105-418a-9f9a-c6726ee730c9
0.2226551494384326,0.1867975605921546,0.6807091211133408,-0.6682239206442286,0.362510700548265,0.350786447264567,0.5805051081668048,0.5665757093978657,-0.392747318699653,20.659567094601147,-6.974126537448605,2.4651535548663666,0.8909720691969549,-2.2499963692834,7376.44287109375,11.636666666666668,7.807777777777779,178.98727616470055,13.500812788728004,34.55662114126713,1553.0,1613.0,1350.0,1528.0,1471.0,999.7000000000002,108.0,294.1,1649428988.7859333,1649428989.9072883,a250126b-9105-418a-9f9a-c6726ee730c9
0.2402442691324752,0.1845463943182357,0.6793317953149692,-0.972499691391672,0.3237910800124197,0.6430676945935708,0.6586226007407118,0.6335480394358123,-0.0614578955504205,20.56626037708925,-5.274964362418396,3.808070630266114,0.9024983729404228,-2.3068778822135125,7380.67822265625,11.617666666666668,7.873333333333333,178.95348342432695,13.566016430729624,34.53771328036976,1553.0,1710.0,1350.0,1528.0,1471.0,999.7000000000002,108.0,294.1,1649428990.8156693,1649428991.9632034,46b4f6dd-8fd0-4163-a2af-7721e3ddf716
0.2429808413779957,0.1847293803417123,0.6871601995944415,-0.9631383624568276,0.3308716523883686,0.6444543340440091,0.6650265630564446,0.6358255029752659,-0.0136027999341766,20.74091610914273,-3.775377850397911,3.791880477736137,0.8889018389316695,-2.334129691187375,7370.804850260417,11.613777777777775,7.794444444444445,178.94442355784793,13.561543320869433,34.50622800557077,1553.0,1710.0,1350.0,1528.0,1471.0,999.7000000000002,108.0,294.1,1649428992.071784,1649428993.1907282,46b4f6dd-8fd0-4163-a2af-7721e3ddf716
0.2288443500584337,0.178892455128452,0.675334592044333,-0.967739860809436,0.3221737904319453,0.6462365300767184,0.654756884418931,0.6382289748456252,-0.2171623060564613,20.59168600631077,-5.018843939596126,3.804386380051524,0.8792857049129584,-2.2941229712181017,7373.623860677083,11.610555555555557,7.802222222222222,178.91808634840834,13.533813037430397,34.53375670356555,1553.0,1710.0,1350.0,1528.0,1471.0,999.7000000000002,108.0,294.1,1649428993.3042803,1649428994.4136343,46b4f6dd-8fd0-4163-a2af-7721e3ddf716
0.247476051711927,0.1825872386587849,0.6797788509430666,-1.2443491853327473,0.2896439180810028,0.8981786755121726,0.7294151744678621,0.7030783384268929,0.3848776980714507,20.51573591800965,-4.596112306125155,4.994585136748361,0.9194726212441996,-2.3631014696763915,7379.266438802083,11.59988888888889,7.836666666666667,178.92267168207115,13.607398459908485,34.53356469935889,1553.0,1814.0,1350.0,1528.0,1471.0,999.7000000000002,108.0,294.1,1649428995.3231776,1649428996.460779,12ffb059-77c8-4b2d-83e9-04c0df5b2408
0.25306424729223,0.1850460447546739,0.6783061971073242,-1.2629151607836149,0.2827277042590201,0.9050159970339408,0.7295072153430457,0.7071018390926886,0.6031657598037552,20.681586118125583,-5.719820075105852,5.052786670888907,0.9393043666852922,-2.35317057079125,7382.090006510417,11.581555555555555,7.862222222222223,178.91426447811278,13.585841149659322,34.58563806159106,1553.0,1814.0,1350.0,1528.0,1471.0,999.7000000000002,108.0,294.1,1649428996.5695405,1649428997.6859882,12ffb059-77c8-4b2d-83e9-04c0df5b2408
0.261006059391292,0.1860453456339952,0.6830397273065368,-1.2426135556113165,0.2909587875689763,0.8949966912766092,0.7301909474869723,0.71529347606247,0.4108442732824104,20.662184309300105,-4.3260972783654745,4.984708944707363,0.9298612161721332,-2.369669302599178,7382.7958984375,11.583555555555556,7.788888888888888,178.86398366108278,13.57006179999304,34.54800182198952,1553.0,1814.0,1350.0,1528.0,1471.0,999.7000000000002,108.0,294.1,1649428997.7949283,1649428998.918157,12ffb059-77c8-4b2d-83e9-04c0df5b2408
0.155448330512767,0.1734620437871001,0.6780169258248873,0.2046770472276644,0.4574212695971799,-0.4870890683854326,0.3411999526650396,0.3179399106121811,-1.1468055549478116,22.284437205381906,-14.61799195601846,-1.377675968468458,0.8064242916573948,-2.040813812747848,7373.623860677083,11.608666666666666,7.798888888888888,178.87837411075407,13.118924769674065,34.6604821361512,1553.0,1349.0,1350.0,1528.0,1471.0,999.7000000000002,108.0,294.1,1649429000.8522007,1649429001.989669,f5ca3a68-eae8-4058-bcd2-294711e34032
0.172357553310324,0.1798523099137275,0.6849462880759415,0.1980895506330986,0.464902877016101,-0.485629562755575,0.3494836306247454,0.3283799746614683,-1.268308353492167,22.05144739219356,-14.32090094532143,-1.3607497711028378,0.8298649267799323,-2.0710985711511407,7382.7958984375,11.612000000000002,7.87,178.89862334491343,13.084775246780076,34.72254389113462,1553.0,1349.0,1350.0,1528.0,1471.0,999.7000000000002,108.0,294.1,1649429002.0978768,1649429003.218518,f5ca3a68-eae8-4058-bcd2-294711e34032
0.172028835936247,0.1873733639142695,0.6895877773912329,0.1959594619729031,0.465994218810544,-0.4937160132041224,0.3517057602453015,0.3347702406922668,-1.0817632703941198,22.13196178217012,-14.677009910205776,-1.3733141558240576,0.8604671872261206,-2.081589196030574,7376.44287109375,11.615333333333332,7.833333333333333,178.87370226136176,13.09062558839541,34.742299074944015,1553.0,1349.0,1350.0,1528.0,1471.0,999.7000000000002,108.0,294.1,1649429003.327562,1649429004.4475424,f5ca3a68-eae8-4058-bcd2-294711e34032
0.1459681207886867,0.1690605178680821,0.694172836899555,0.4530175523083672,0.4949290180800918,-0.7112311311657433,0.2829747902209483,0.2590195102013841,-1.7134890751267722,23.660322488852216,-14.761107509146958,-2.431931148375832,0.7656666706221271,-2.030540730675456,7370.10009765625,11.61077777777778,7.826666666666666,178.81764462211376,12.9963984804719,34.81173515750132,1553.0,1264.0,1350.0,1528.0,1471.0,999.7000000000002,108.0,294.1,1649429006.383743,1649429007.5200832,3d3aa0f0-9104-4e9a-8bcc-0b366b08f02f
0.1476254043005296,0.1661568475340023,0.6943098024834585,0.4110649968997684,0.4910939819523709,-0.6727026971663904,0.2987121349881119,0.2676894315261672,-1.3290540648053382,23.36294637697147,-15.117368844841977,-2.2525457237383453,0.7603816372899163,-2.048741367959361,7376.44287109375,11.59011111111111,7.854444444444444,178.79428537515233,12.994363084099234,34.852168359567976,1553.0,1264.0,1350.0,1528.0,1471.0,999.7000000000002,108.0,294.1,1649429007.6289637,1649429008.7447643,3d3aa0f0-9104-4e9a-8bcc-0b366b08f02f
0.1560624841442182,0.1819763721553116,0.7040206615918522,0.4396497123961236,0.5001337098166264,-0.7057251123559413,0.2961508786714442,0.2737296134431068,-1.3704845616025756,23.50328551320514,-13.841100681103322,-2.3896351642490505,0.8057947815885186,-2.0667658005947724,7376.44287109375,11.587222222222222,7.806666666666666,178.80401763580969,12.996037239355797,34.8641944254216,1553.0,1264.0,1350.0,1528.0,1471.0,999.7000000000002,108.0,294.1,1649429008.854172,1649429009.902496,3d3aa0f0-9104-4e9a-8bcc-0b366b08f02f
0.1391965424139044,0.1540282713459825,0.6787664014306167,0.533433875714039,0.4816411659810641,-0.7745854115743246,0.2438601602443448,0.2220859204112103,-1.4254681524673174,24.706589261662995,-15.557941474799796,-2.749509545475657,0.7034504721863069,-1.93821628643556,7379.972330729167,11.573,7.842222222222223,178.81111799690686,12.965951679017968,34.94855560968025,1553.0,1178.0,1350.0,1528.0,1471.0,999.7000000000002,108.0,294.1,1649429011.7068613,1649429013.0495603,be26a4ec-8efd-4e45-99c4-b689ddbd1c34
0.1155420383751394,0.15306841652891,0.6856431689056918,0.5631236289665627,0.494526887122803,-0.7845521309875064,0.242571587975807,0.227003532392873,-2.0723748082415803,24.84905895264713,-13.20012464071826,-2.8375418248746747,0.6803147306806168,-1.9603474399809824,7376.44287109375,11.577444444444444,7.814444444444444,178.79811635236678,12.960895157166172,34.99671223787838,1553.0,1178.0,1350.0,1528.0,1471.0,999.7000000000002,108.0,294.1,1649429013.158307,1649429014.277634,be26a4ec-8efd-4e45-99c4-b689ddbd1c34
0.1335557518546782,0.1466124068853407,0.6657623421088256,0.4982085216698885,0.4703990316996203,-0.7423447942840675,0.2426504803339491,0.2180229733747422,-1.6341951053855672,24.33410247070977,-16.66726292920589,-2.6009994804872942,0.6904519676689693,-1.906219674334348,7370.10009765625,11.566444444444446,7.818888888888888,178.8689044329248,12.983958808718535,35.04332448441417,1553.0,1178.0,1350.0,1528.0,1471.0,999.7000000000002,108.0,294.1,1649429014.38675,1649429015.709613,be26a4ec-8efd-4e45-99c4-b689ddbd1c34
0.116278365347068,0.1307682283219863,0.6809096387175955,0.5805719472945448,0.4941718723439617,-0.7873659501657183,0.2359840915699934,0.2203108465008684,-2.242285102773918,25.169345634726223,-14.468025047815836,-2.8816241018213247,0.6066725089487304,-1.948616255330255,7376.44287109375,11.564333333333332,7.793333333333333,178.87611711268835,12.906230971372578,35.15178902679883,1553.0,1088.0,1350.0,1528.0,1471.0,999.7000000000002,108.0,294.1,1649429016.8250923,1649429017.894817,9243b456-abf1-45a8-8646-c610d128a855
0.1280990430361535,0.1491106590760146,0.697832009154919,0.6418317172449842,0.5118831645480194,-0.8497433971878601,0.2296332713267712,0.2090687115495136,-2.371972372266298,25.57479299295125,-12.725896210914662,-3.1562387815966213,0.6544825023544599,-1.9818079244462208,7370.10009765625,11.564,7.77,178.87291906633695,12.920739146943328,35.18286221351789,1553.0,1088.0,1350.0,1528.0,1471.0,999.7000000000002,108.0,294.1,1649429018.0041854,1649429018.9477365,9243b456-abf1-45a8-8646-c610d128a855
