raw_voltage_G-,raw_voltage_G0,raw_voltage_G1,raw_voltage_G2,raw_voltage_G3,raw_voltage_G4,raw_voltage_G5,raw_voltage_G6,load_x,load_y,load_z,load_l,load_m,load_n,rpm,voltage,current,roll,pitch,yaw,aileron1_pwm,elevator_pwm,throttle_pwm,rudder_pwm,aileron2_pwm,pbaro,pdiff,Tt,sample_start_time,sample_end_time,uid
0.4221564693086868,0.5609540944636192,0.6831054707748306,-0.453770264264754,0.3491023185413957,0.1120576337717995,0.4809705824530049,0.459525060686446,-0.6705008193508584,18.128820744045147,38.90820564091868,1.4354599219338946,1.8633036357187904,-1.9805734615634416,4221.027886284723,11.940555555555555,0.1555555555555555,179.63494202255788,-9.19538596993754,108.53049848583932,1553.0,1435.0,1200.0,1528.0,1471.0,997.6,110.0,292.15,1649408318.1925986,1649408319.1747077,961a02a4-db39-490b-b201-aa7e2c4e1053
0.4144513339513534,0.5489493359237825,0.685958737575556,-0.4440533760067891,0.355347948853997,0.1120839308801446,0.4810757721061658,0.4567638348039602,-1.0701601282330535,18.35884737591153,38.52277745136791,1.415004425961434,1.8235116490993413,-1.9954042096941031,4237.687771267361,11.945,0.16,179.5460326912219,-9.193932562600404,107.61117323739342,1553.0,1435.0,1200.0,1528.0,1471.0,997.6,110.0,292.15,1649408319.2827368,1649408320.4068053,961a02a4-db39-490b-b201-aa7e2c4e1053
0.4113613905781088,0.551973535778598,0.6803179474357285,-0.4497204646988667,0.3473403934080689,0.1180665879024681,0.4774598809597454,0.4500580002388585,-0.835918149368332,18.36720157970348,39.01536329899479,1.4412027585681573,1.8291708397523203,-1.970488983105108,4230.72216796875,11.942666666666668,0.1566666666666666,179.43696974837496,-9.19655402714935,106.77812542072326,1553.0,1435.0,1200.0,1528.0,1471.0,997.6,110.0,292.15,1649408320.5398152,1649408321.629399,961a02a4-db39-490b-b201-aa7e2c4e1053
0.5901917349291987,0.8690072838677614,0.7270519494122504,-0.4892783268316367,0.3290384209160113,-0.1619642380127209,0.4228872332664318,0.393783102211924,-0.3976283851502019,17.96445277566907,38.160912753582735,0.900910538007326,3.030537292102311,-1.894283857403748,4229.554470486111,11.931888888888889,0.1544444444444444,178.87259728853607,-9.13375802683016,105.25423053135307,1658.0,1435.0,1200.0,1528.0,1551.0,997.6,110.0,292.15,1649408323.6550071,1649408324.9062474,8043fe6a-e940-4ba4-8944-49695084c2bf
0.586580900998739,0.8786265657900414,0.7298885274876774,-0.4935187823604162,0.3274069712881524,-0.1677203331540083,0.42395784051562,0.4072984436152218,-0.1340893739672597,18.038536988322743,38.14016850497157,0.8983029603337809,3.0656372103841174,-1.8962012597033144,4230.7138671875,11.92422222222222,0.15,178.7390382516858,-9.137614806981496,104.8211396197312,1658.0,1435.0,1200.0,1528.0,1551.0,997.6,110.0,292.15,1649408325.0147955,1649408326.224355,8043fe6a-e940-4ba4-8944-49695084c2bf
0.5783452664685176,0.8564907375664064,0.7279748866521303,-0.4870910915592368,0.3324773104992224,-0.1542393785421141,0.4251250400105983,0.4064387212467908,-0.6006281464413308,18.09110868645011,37.813891261419776,0.9140635330847408,2.987896420435954,-1.905590687653426,4223.074869791667,11.93,0.15,178.6392947225064,-9.140327909901806,104.55454139931754,1658.0,1435.0,1200.0,1528.0,1551.0,997.6,110.0,292.15,1649408326.3330758,1649408327.361068,8043fe6a-e940-4ba4-8944-49695084c2bf
0.7533240534142105,1.1517800930862183,0.7729585950904768,-0.5270555526373906,0.3111359665141792,-0.4182753508564589,0.3724038294732005,0.34716844888893,0.0494187529715967,18.15972033089688,36.145311350392845,0.4136454404858076,4.1133721189716175,-1.8293243021116927,4222.37744140625,11.928,0.15,178.31262043488303,-9.118138617426942,103.99646030261415,1767.0,1435.0,1200.0,1528.0,1630.0,997.6,110.0,292.15,1649408328.9879673,1649408330.02215,4f3f9bf3-cad6-4074-bad2-fa18a97e7e03
0.7723264467216239,1.1596440246352666,0.7826304717129277,-0.5266004052196392,0.3206308417230594,-0.4263921436281227,0.3785230299766297,0.3615687988609095,-0.172876345501599,18.1215155056349,36.208798720975,0.3945057753378259,4.14443376569359,-1.863247641257032,4220.530436197917,11.897777777777778,0.14,178.2193079082621,-9.088447310786202,103.76791534279636,1767.0,1435.0,1200.0,1528.0,1630.0,997.6,110.0,292.15,1649408330.131567,1649408331.250666,4f3f9bf3-cad6-4074-bad2-fa18a97e7e03
0.7483174349353374,1.1462045403890786,0.775360760557847,-0.5222132909378877,0.3163828015890795,-0.4169351949241157,0.3756783602214488,0.3518463500671491,-0.0862871093374525,18.09939686548137,36.216345552085,0.4053967264231098,4.092346400221367,-1.845009473261356,4214.853515625,11.901,0.15,178.1695194340348,-9.072687870647034,103.57129554093284,1767.0,1435.0,1200.0,1528.0,1630.0,997.6,110.0,292.15,1649408331.3593426,1649408332.5734272,4f3f9bf3-cad6-4074-bad2-fa18a97e7e03
0.8532495842267559,1.3818140054820012,0.813290699936395,-0.5365413283810022,0.3000576849159196,-0.6567993428001856,0.3206879879409701,0.3017670153196821,0.0077886551078486,18.76387698477957,32.987946816023985,-0.0954631922934804,5.008152428221534,-1.772559340877791,4187.31103515625,11.872666666666667,0.1355555555555555,178.01553149110453,-9.092613631316173,103.26037233358169,1886.0,1435.0,1200.0,1528.0,1710.0,997.6,110.0,292.15,1649408333.599364,1649408334.743768,473a5c2c-a1d3-42e0-aa8a-38f7ece45e5f
0.8587851848800415,1.3718735907810329,0.8180110814872142,-0.5352264580973262,0.3067635195105032,-0.6472928317356549,0.3288796251064334,0.3005441866301976,-0.0184151626316503,18.77443202212064,33.17650732492744,-0.0767449364108051,4.969521623869331,-1.8007384468532923,4173.041015625,11.845000000000002,0.13,177.986642826555,-9.079395223133693,102.98790773958088,1886.0,1435.0,1200.0,1528.0,1710.0,997.6,110.0,292.15,1649408334.8770096,1649408336.1678169,473a5c2c-a1d3-42e0-aa8a-38f7ece45e5f
0.854012714260404,1.3764205112314267,0.809635868452754,-0.5320748164962716,0.2993779984539592,-0.6527141429618829,0.3185700364881816,0.3025640284107219,-0.1010489340882562,18.686167441625745,33.38117175970616,-0.0970477952005875,4.984425790566579,-1.7637391948894856,4164.706271701389,11.838333333333331,0.13,177.95930537385695,-9.046474470244137,102.78814140237598,1886.0,1435.0,1200.0,1528.0,1710.0,997.6,110.0,292.15,1649408336.275851,1649408337.2646675,473a5c2c-a1d3-42e0-aa8a-38f7ece45e5f
0.2268325996365701,0.2013241300624825,0.6236996669102584,-0.4039103970698047,0.3628690025669733,0.4216699675619446,0.5317902889241459,0.5114887037432291,-1.2734225848506089,18.795569847733454,39.31799102331867,2.019952306056565,0.5052145101469591,-2.033899371294646,4176.88232421875,11.854111111111113,0.1344444444444444,178.53473818669184,-8.853916733662013,102.4114397736318,1449.0,1435.0,1200.0,1528.0,1386.0,997.6,110.0,292.15,1649408339.0182755,1649408340.1559093,aaae264b-1269-45ad-9ea5-993333a40684
0.221139214421817,0.2050320622461546,0.6233183547572154,-0.4032398133880608,0.3612780104521181,0.4141226165335653,0.5280823569299788,0.5005358408072128,-1.3211435264678222,18.88463959684421,38.83306705259543,2.0019498742020887,0.5236519104541864,-2.026232637848011,4169.883572048611,11.940666666666669,0.16,178.48347230460155,-8.829451090918768,102.31295603489932,1449.0,1435.0,1200.0,1528.0,1386.0,997.6,110.0,292.15,1649408340.2641842,1649408341.3817332,aaae264b-1269-45ad-9ea5-993333a40684
0.2197586013878972,0.2110147187774125,0.6239363434134672,-0.4037526128943952,0.3603050069697885,0.4097835471060759,0.5283058847178083,0.501114383290157,-1.1504066209724888,18.82812084434736,38.98534662276622,1.993122476810288,0.543633781297395,-2.0249912349781827,4166.055121527777,11.942666666666666,0.16,178.4788550967226,-8.781216959046308,102.23155156364136,1449.0,1435.0,1200.0,1528.0,1386.0,997.6,110.0,292.15,1649408341.4959133,1649408342.725808,aaae264b-1269-45ad-9ea5-993333a40684
0.0301078793165754,-0.1264248265176535,0.5947052773333024,-0.3607750794897972,0.3964001983074497,0.7010453479002958,0.603555360494369,0.5899262324316026,-1.5239187441536175,19.58026059863286,39.1845387153688,2.5540540965476497,-0.7282232747617303,-2.182190593613416,4160.21337890625,11.930666666666667,0.1533333333333333,178.7043773183777,-8.716917083881116,102.10049768839671,1342.0,1435.0,1200.0,1528.0,1293.0,997.6,110.0,292.15,1649408343.5225856,1649408344.6659205,5ca93b12-817e-4d4f-a9d1-685896e53f35
0.0483127550440099,-0.1234486695029966,0.5962188944076192,-0.3602435686596998,0.3965428110563456,0.7010271420189729,0.6045157209442747,0.582649441154689,-1.4437376516569822,19.632112200253804,39.674254129553226,2.5533517504351493,-0.7219373196297894,-2.18472514491081,4151.258843315973,11.903666666666668,0.1422222222222222,178.71629675738933,-8.681043412540394,101.86919105542452,1342.0,1435.0,1200.0,1528.0,1293.0,997.6,110.0,292.15,1649408344.7746322,1649408345.8893929,5ca93b12-817e-4d4f-a9d1-685896e53f35
0.0297665189275519,-0.1312418011240708,0.5941616293513271,-0.3596119254121866,0.3968427024116611,0.7063048258949878,0.6043771539187062,0.5906974539674553,-1.5537952252846985,19.6101398806523,39.414253592649,2.563441637384618,-0.7482915238177255,-2.1835041264457704,4163.582139756944,11.906333333333334,0.15,178.7021597836272,-8.710317034140637,101.70700973140237,1342.0,1435.0,1200.0,1528.0,1293.0,997.6,110.0,292.15,1649408345.997216,1649408347.0293615,5ca93b12-817e-4d4f-a9d1-685896e53f35
-0.1851029109933889,-0.4960170351738424,0.5255315100799465,-0.272449710176821,0.3989227248941813,0.977320672117522,0.6262899598157909,0.6034506766516435,-2.313186801461687,21.272569409333343,38.34654824578836,2.982884495431839,-2.116636724741197,-2.1700788031632072,4187.993326822917,11.867666666666668,0.13,178.96390629300043,-8.612216829502774,101.29993576923896,1227.0,1435.0,1200.0,1528.0,1189.0,997.6,110.0,292.15,1649408349.0509615,1649408350.0988057,bcff04e6-b565-4962-93e2-9334f05de95c
-0.1793104040525109,-0.4971169745205382,0.5244735458397574,-0.2632344960473177,0.3973989933734113,0.965726051588602,0.6212302408460262,0.6026956381268996,-2.259534891606589,21.437758230067743,37.72593232464908,2.937013023961534,-2.116840255725077,-2.160315235747582,4187.993326822917,11.806666666666665,0.11,179.00900375536028,-8.61832273402955,100.8896189850396,1227.0,1435.0,1200.0,1528.0,1189.0,997.6,110.0,292.15,1649408350.2071466,1649408351.3220184,bcff04e6-b565-4962-93e2-9334f05de95c
-0.1808907763494482,-0.4918322087011659,0.533715561290483,-0.2649412979460004,0.4060594320617708,0.964461753902908,0.6292711735403101,0.6105342832079602,-2.379078167372881,21.415085661224524,38.12609982935604,2.9383356106078016,-2.098924093539176,-2.1950429270169955,4182.544162326389,11.809111111111111,0.11,179.03235844886228,-8.585404637324674,100.54463675480098,1227.0,1435.0,1200.0,1528.0,1189.0,997.6,110.0,292.15,1649408351.4300928,1649408352.5631187,bcff04e6-b565-4962-93e2-9334f05de95c
0.3859581114565308,0.5464510838772036,0.6469202622220854,-0.4209905573264075,0.3190444010406795,0.0899941217569873,0.431426299381494,0.4209730866566235,-1.2876989836358,18.65498436548288,37.71021702288599,1.3131218489529723,1.817573738621865,-1.8235732427412004,4154.165581597223,11.820444444444442,0.1155555555555555,178.2951366684276,-8.69054354162971,99.90195010484864,1553.0,1435.0,1200.0,1528.0,1471.0,997.6,110.0,292.15,1649408354.50601,1649408355.5132344,813cfb2e-eb33-4482-b8b1-3fa6084103e1
0.405654856870191,0.5564440920774616,0.6559139695776769,-0.4218715199020276,0.3269862130335275,0.0819865659875519,0.4414719024089343,0.4190665258902894,-1.0332077550352337,18.37426444645608,37.9236773993874,1.295864069229659,1.852034332396933,-1.8591568069687483,4151.482259114583,11.939666666666666,0.1566666666666666,178.21292244029806,-8.671320448529404,100.23892963010974,1553.0,1435.0,1200.0,1528.0,1471.0,997.6,110.0,292.15,1649408355.6216424,1649408356.9463866,813cfb2e-eb33-4482-b8b1-3fa6084103e1
0.4207505703768025,0.5591153000340437,0.6508527334524169,-0.4147479596666381,0.3208837012093981,0.0731698592067322,0.4288041461130157,0.3984610032503463,-1.3194458118316976,18.71482145513725,37.904076275971065,1.2618411135661765,1.863060490681905,-1.825891670727116,4156.8505859375,11.938333333333333,0.1533333333333333,178.16294366941136,-8.654659625005232,100.54127933736896,1553.0,1435.0,1200.0,1528.0,1471.0,997.6,110.0,292.15,1649408357.0555146,1649408358.1720693,813cfb2e-eb33-4482-b8b1-3fa6084103e1
0.4364491009508464,0.5642675656020005,0.6341397307124021,-0.7184404545650389,0.2734710226858033,0.363302909399711,0.4962625149004052,0.4803131477933635,-1.0860619869510515,17.84042909172324,40.31484354019815,2.5927378010947706,1.895682918300551,-1.8326956967657275,4163.806315104167,11.933,0.15,178.1090762441572,-8.563940672994171,100.92671298351203,1553.0,1522.0,1200.0,1528.0,1471.0,997.6,110.0,292.15,1649408359.086356,1649408360.227883,23e5e29a-d060-40ed-ba02-16ba74e25acb
0.4228927962487263,0.5673443602339922,0.6344290019971168,-0.7265006083887823,0.2733921304722972,0.3672738154565456,0.5004963946711459,0.4747643983919908,-0.9126734040512896,17.602712476705076,40.27216868425812,2.6183617178806173,1.90738047744554,-1.8385504447109209,4165.605143229167,11.922333333333333,0.15,178.08394114801152,-8.55608007389687,101.064273752306,1553.0,1522.0,1200.0,1528.0,1471.0,997.6,110.0,292.15,1649408360.336203,1649408361.462267,23e5e29a-d060-40ed-ba02-16ba74e25acb
0.4275868803990126,0.5685277427776043,0.6353888567308442,-0.7257511324075767,0.2733263870033661,0.3665637858379404,0.4990763356389269,0.4839158902505059,-1.0104730995134463,17.7593686107753,40.43094487428333,2.616137919096455,1.9110750842329964,-1.837506413464303,4172.369303385417,11.939666666666668,0.1533333333333333,178.09368555122742,-8.54850824001948,101.2352220035828,1553.0,1522.0,1200.0,1528.0,1471.0,997.6,110.0,292.15,1649408361.5707417,1649408362.678582,23e5e29a-d060-40ed-ba02-16ba74e25acb
0.4717664960236303,0.5841878385121055,0.6348234628528373,-1.0151540883023449,0.2362470656555061,0.631089233480705,0.5700398426973707,0.5386407589442651,-0.7690017320499379,17.451977534054933,42.60453426921442,3.8617862321658496,1.9844270636803825,-1.884551213903695,4173.71923828125,11.930666666666667,0.1566666666666666,178.11541465970697,-8.446743544028168,101.50513514247363,1553.0,1613.0,1200.0,1528.0,1471.0,997.6,110.0,292.15,1649408364.5225506,1649408365.7641046,ff1768a1-cd5b-446c-a3d0-ca19a51b83ea
0.458932358171079,0.5835162436322388,0.6387281195397014,-1.0249109329823556,0.2388939992150505,0.6417497907853702,0.5786739838375679,0.5548672600918404,-0.5971514470786675,17.363433492707617,42.79756016369528,3.907475710194756,1.9804283860298784,-1.9055101340755305,4164.93017578125,11.919444444444444,0.1422222222222222,178.1434138818446,-8.461960067134093,101.56595949485242,1553.0,1613.0,1200.0,1528.0,1471.0,997.6,110.0,292.15,1649408365.876294,1649408366.9905307,ff1768a1-cd5b-446c-a3d0-ca19a51b83ea
0.4561458462438214,0.575535997210028,0.6365196445034372,-1.024187248527662,0.2389425482409498,0.648747930820045,0.579756728293548,0.5528939443555365,-0.5994129614704469,17.297756040230087,42.77205041427435,3.921018454563048,1.9505094882722145,-1.9050773332755195,4168.9814453125,11.91611111111111,0.1455555555555555,178.17152390482872,-8.448052758482824,101.59517600848211,1553.0,1613.0,1200.0,1528.0,1471.0,997.6,110.0,292.15,1649408367.1026847,1649408368.2161894,ff1768a1-cd5b-446c-a3d0-ca19a51b83ea
0.4701755039052782,0.5911303494594893,0.63023456830718,-1.253316604328554,0.1987995804052018,0.8542225878058798,0.6209910357423531,0.5925109624296937,-0.6620461369647919,17.70509100956666,44.28898344508814,4.90220473175562,2.023815749324959,-1.8987363648528248,4180.957085503473,11.914555555555555,0.14,178.2045850560512,-8.354800660063335,101.6970338606646,1553.0,1710.0,1200.0,1528.0,1471.0,997.6,110.0,292.15,1649408370.0534248,1649408371.081867,c240aabd-4b63-4e58-87ec-13324883aed1
0.4741464098312032,0.577324219730119,0.6319307499592114,-1.2437048985353414,0.2032175421593783,0.8578516275744112,0.624883049452243,0.5952590396557101,-0.6026984161144497,17.78328463449408,44.16037793416163,4.889290202462584,1.9716795958762008,-1.914365511366138,4168.307508680556,11.89488888888889,0.1377777777777778,178.21329582397271,-8.388077531427111,101.67152613975423,1553.0,1710.0,1200.0,1528.0,1471.0,997.6,110.0,292.15,1649408371.189977,1649408372.4160817,c240aabd-4b63-4e58-87ec-13324883aed1
0.4525602982307199,0.5849575428878049,0.6232910459186747,-1.257668320246731,0.1946688669984478,0.8635581612410148,0.6193464374247892,0.5996866098511855,-0.6449154212238215,17.470851997985225,44.15638107711232,4.931088362520462,2.0018096106323453,-1.882167815416248,4168.983561197917,11.899,0.14,178.24178681973055,-8.384204624440237,101.6599709774984,1553.0,1710.0,1200.0,1528.0,1471.0,997.6,110.0,292.15,1649408372.5249355,1649408373.648696,c240aabd-4b63-4e58-87ec-13324883aed1
0.4513465725287389,0.5749574546318736,0.6094727789320333,-1.3604391316792943,0.1626801130530591,0.9759400592463232,0.6246463729330491,0.5985330646768958,-0.8436139503882937,18.48729522342505,45.241631608625305,5.421574307353013,1.9678855112908007,-1.828444723449528,4168.9814453125,11.886333333333331,0.1277777777777777,178.2720642894113,-8.37097284047063,101.60830363206688,1553.0,1814.0,1200.0,1528.0,1471.0,997.6,110.0,292.15,1649408374.558406,1649408375.5900466,c2441aeb-f799-462b-8ce6-64e44d42d245
0.4469341738790516,0.5763982481693011,0.5940984144837221,-1.3585467283224526,0.1491162219267271,0.973729055450415,0.6085999078900086,0.5983085254794074,-0.9263867971591182,18.374547924145848,45.25654875408619,5.410784844234996,1.972533438425866,-1.765966158333182,4163.360677083333,11.866666666666667,0.1355555555555555,178.31841243529917,-8.365063683337446,101.51252161260606,1553.0,1814.0,1200.0,1528.0,1471.0,997.6,110.0,292.15,1649408375.7267816,1649408376.6744735,c2441aeb-f799-462b-8ce6-64e44d42d245
0.4696101100125257,0.5819394116692045,0.6037530966145737,-1.353365125790895,0.1568552407793158,0.960279963068062,0.612076220535229,0.5929317206584983,-1.0390649165769374,18.57451928036265,44.84377870987317,5.370558367854796,1.9977495296368093,-1.7946440368798933,4157.7470703125,11.84722222222222,0.12,178.33625896069054,-8.353411001158452,101.44721286158224,1553.0,1814.0,1200.0,1528.0,1471.0,997.6,110.0,292.15,1649408376.7828853,1649408377.752824,c2441aeb-f799-462b-8ce6-64e44d42d245
0.399194296069541,0.5439184429302162,0.6734963033410695,-0.1578426274055869,0.3683960060701948,-0.1574506950820675,0.3853249511553031,0.3566380380897819,-1.2317826648729997,19.623259607015296,36.54210637846159,0.1710671140915632,1.7873340264778022,-1.8613844411903824,4166.730740017361,11.900444444444444,0.1422222222222222,178.35133091145903,-8.715245584809232,101.36878787062224,1553.0,1349.0,1200.0,1528.0,1471.0,997.6,110.0,292.15,1649408379.5665,1649408380.9080093,25eeabe7-93f7-4470-bf74-6da0c44f8751
0.3941891946595852,0.5360241687289004,0.6699173297160863,-0.1489834400770769,0.3662350685320913,-0.1606989293512111,0.3791602359420671,0.3500358759347669,-1.356810699073312,19.83203314135582,36.10136759961546,0.1448563256302486,1.7612027701491024,-1.846457662842692,4164.93017578125,11.943222222222223,0.1577777777777777,178.3285089727123,-8.713556725673207,101.6389764938096,1553.0,1349.0,1200.0,1528.0,1471.0,997.6,110.0,292.15,1649408381.0169308,1649408382.1372862,25eeabe7-93f7-4470-bf74-6da0c44f8751
0.3809747559629722,0.5073337161685134,0.6721526078596917,-0.1411862619890251,0.3746896795984172,-0.1427904030732454,0.3889560139187359,0.359529233871678,-1.4067448685345505,19.86972832601374,35.71796747305994,0.1677855879902585,1.6565299613107711,-1.8789615039203964,4167.408908420139,11.94288888888889,0.1544444444444444,178.31009630052975,-8.711705649544395,101.8197791902389,1553.0,1349.0,1200.0,1528.0,1471.0,997.6,110.0,292.15,1649408382.2454674,1649408383.2734663,25eeabe7-93f7-4470-bf74-6da0c44f8751
0.3713630597297552,0.5208111285762766,0.7015136437267858,0.1351467438313041,0.4248519517949807,-0.4216085461679125,0.3313910259620153,0.3061060847017758,-1.7172584616593374,21.099712467330523,34.011637311779964,-1.0729081735965087,1.6922590372856805,-1.9044212829030085,4152.82275390625,11.947,0.15,178.28804996770876,-8.83930496688885,102.2849165905366,1553.0,1264.0,1200.0,1528.0,1471.0,997.6,110.0,292.15,1649408385.504163,1649408386.5524828,a3f69b00-b28c-4b2e-83cb-aa6ba9dd06b3
0.370734956676124,0.5052941512768608,0.6964180187088057,0.1222878249094623,0.4208390711442775,-0.3952524848704991,0.334525472620949,0.3117554723516122,-1.7078140177111725,21.141054767540485,33.90567208779208,-0.984667816487868,1.636194133658717,-1.8986226023363744,4149.02685546875,11.939,0.1544444444444444,178.29133452978962,-8.811398331759994,102.43240541874412,1553.0,1264.0,1200.0,1528.0,1471.0,997.6,110.0,292.15,1649408386.6606724,1649408387.786629,a3f69b00-b28c-4b2e-83cb-aa6ba9dd06b3
0.3513244481226401,0.5087932213209246,0.69404518498084,0.1210644903247335,0.4190928233187082,-0.3961263679999993,0.3311674981844522,0.3126278375327641,-1.857117100236408,21.07710889633241,34.08808021203055,-0.984460140101571,1.64875693483864,-1.887636910562328,4161.110785590277,11.933222222222222,0.15,178.30299290379293,-8.814557294251124,102.56456578463434,1553.0,1264.0,1200.0,1528.0,1471.0,997.6,110.0,292.15,1649408387.9194262,1649408389.1046648,a3f69b00-b28c-4b2e-83cb-aa6ba9dd06b3
0.3511130575807782,0.5181773438252589,0.7061531101693235,0.4006608812028208,0.4524717973866017,-0.6745612150903303,0.2575044606022656,0.2409800903024627,-1.9564001416403616,22.310339504755152,32.16383574870853,-2.232419958767513,1.6680745233096193,-1.844426786683093,4175.751953125,11.924333333333331,0.1433333333333333,178.31544357973996,-8.921173891010348,102.77947085667962,1553.0,1178.0,1200.0,1528.0,1471.0,997.6,110.0,292.15,1649408391.0360782,1649408392.1728537,8aa3c94b-1947-4605-ab39-033de1af126e
0.3599368435447194,0.5204824112034774,0.7000015438054862,0.3935317597992472,0.4470995439728278,-0.6666082737944751,0.2521964333134306,0.2231378159287683,-2.189719056662004,22.23845763296957,32.63994897686812,-2.1992914586856536,1.6746380737036284,-1.8204125649151128,4170.559407552083,11.91877777777778,0.14,178.32917681343113,-8.906335210174754,102.83117387087678,1553.0,1178.0,1200.0,1528.0,1471.0,997.6,110.0,292.15,1649408392.2812674,1649408393.3967228,8aa3c94b-1947-4605-ab39-033de1af126e
0.3502857011922982,0.5152755279742227,0.7271930450142023,0.3802778750355952,0.4697810430273316,-0.6493045832037878,0.2853837407666914,0.2653056827090412,-1.8847800522991809,22.415376722054862,32.8681122298432,-2.1277935963855623,1.6542872408847955,-1.9359060506392145,4173.267740885417,11.915444444444445,0.14,178.3338547341027,-8.933199292817799,102.88956515809124,1553.0,1178.0,1200.0,1528.0,1471.0,997.6,110.0,292.15,1649408393.5103235,1649408394.735221,8aa3c94b-1947-4605-ab39-033de1af126e
0.3577015653580382,0.5290553603662873,0.730427623982374,0.6467361804943568,0.4920549324858169,-0.912541602410058,0.2071095561098776,0.1862162786369114,-1.8365897380396885,23.57776037423604,31.94434402394644,-3.312643335093685,1.6812342931877942,-1.856949783982346,4225.153971354167,11.92111111111111,0.14,178.3390441600521,-9.001709125832658,102.98843138741728,1553.0,1088.0,1200.0,1528.0,1471.0,997.6,110.0,292.15,1649408395.5391662,1649408396.4858418,fed7137b-370a-4c5b-a636-afe8ab69f773
0.366156176414795,0.5498828932619079,0.7249577668636538,0.6147585542910124,0.4796294156571362,-0.9009707434127716,0.2038486795577439,0.1716475235474676,-1.741520538484492,23.44195967734853,32.27159027819543,-3.215580961042763,1.7593650202300524,-1.8251034479963475,4251.946560329861,11.903666666666664,0.14,178.34879615236707,-9.021731161338382,103.00685088978896,1553.0,1088.0,1200.0,1528.0,1471.0,997.6,110.0,292.15,1649408396.5970042,1649408397.706954,fed7137b-370a-4c5b-a636-afe8ab69f773
0.3585956766358869,0.5248083318740054,0.7434448320417308,0.5844771097175868,0.4966964218048819,-0.8510319686725347,0.2352477644954264,0.208700548195823,-1.897311970410993,23.755161894074405,32.103393240214565,-3.0321627915679112,1.6728191364077032,-1.9220290936864068,4268.402615017361,11.896444444444445,0.1388888888888889,178.37706402861198,-9.03183481353186,103.02994755392234,1553.0,1088.0,1200.0,1528.0,1471.0,997.6,110.0,292.15,1649408397.8152287,1649408398.9324396,fed7137b-370a-4c5b-a636-afe8ab69f773
0.4013683822340524,0.5448600917706823,0.6806203674195948,-0.446854048392262,0.3438428404676905,0.1245094487852563,0.4752114541005323,0.4566060504749382,-0.7487924167460921,18.93438295302316,39.30070733142711,1.4530791090351027,1.799021321946199,-1.963541135013916,4239.549533420139,11.906777777777778,0.1344444444444444,178.37393883761175,-8.723826863727705,103.01552447112498,1553.0,1435.0,1200.0,1528.0,1471.0,997.6,110.0,292.15,1649408401.070701,1649408402.1233044,7929bca8-158d-438f-9622-c00424718cb6
0.4130575722572163,0.5459645821604115,0.6871289714253418,-0.4542304686853491,0.3484843299409004,0.1318332725401541,0.485204462375812,0.4696758534755366,-0.5475196655676351,18.884956719377644,39.59295944141546,1.4863204506581014,1.8004690180747192,-1.992320667261394,4256.396592881944,11.941,0.14,178.37601217947983,-8.717339417244794,103.05227771904882,1553.0,1435.0,1200.0,1528.0,1471.0,997.6,110.0,292.15,1649408402.236699,1649408403.5491097,7929bca8-158d-438f-9622-c00424718cb6
0.4188667669381524,0.5333489150107784,0.678882211087415,-0.4443704611698227,0.3468144456270911,0.1330849273087637,0.4765693097316029,0.4530280883288805,-0.9982485928714956,18.83690733261298,39.24257764543672,1.4658794276631468,1.7577105760795473,-1.968740076298304,4257.096462673611,11.942444444444444,0.1455555555555555,178.38427063709628,-8.697410443066511,103.08697432112255,1553.0,1435.0,1200.0,1528.0,1471.0,997.6,110.0,292.15,1649408403.657731,1649408404.7822337,7929bca8-158d-438f-9622-c00424718cb6
0.4834723746769404,0.5719226346839393,0.9214377058225612,-0.4513114572982327,0.5659804359771576,0.0877598549523484,0.7234613442347547,0.692435481279564,0.9325731865533928,18.67955455426576,39.13965710735953,1.3916751789616224,1.9058604192727435,-2.9435273133944784,4258.741373697917,11.930666666666667,0.1433333333333333,178.3798841378293,-8.725917850251115,103.0856477466038,1553.0,1435.0,1200.0,1424.0,1471.0,997.6,110.0,292.15,1649408406.6031148,1649408407.8638432,6087b91d-9be3-43c2-8528-24564d2b92d5
0.4659492098756978,0.5636920573388609,0.8843432138857197,-0.4350905139258837,0.5329949116691763,0.0778730469167027,0.6773397680251256,0.6621302679880431,0.3916595711020539,19.03574240395828,38.38979394319791,1.332990066685246,1.881122524385468,-2.784804413650856,4237.008626302083,11.929333333333332,0.14,178.39519135066922,-8.724693349114911,103.0636886884222,1553.0,1435.0,1200.0,1424.0,1471.0,997.6,110.0,292.15,1649408407.9777975,1649408409.1716137,6087b91d-9be3-43c2-8528-24564d2b92d5
0.4751851567449481,0.5615063396518775,0.871854987819372,-0.4377814462756612,0.5217183885244467,0.0777000907987404,0.6619360718705432,0.6316546273312569,0.0344127579406449,19.14772922558048,37.60215042765225,1.3384866553030428,1.8819756475329728,-2.7321857343641045,4182.568684895833,11.925555555555556,0.1422222222222222,178.4050328943533,-8.712254625998934,103.05221928298592,1553.0,1435.0,1200.0,1424.0,1471.0,997.6,110.0,292.15,1649408409.280595,1649408410.3996356,6087b91d-9be3-43c2-8528-24564d2b92d5
0.5572724598675459,0.6073295416754011,1.1038111225358938,-0.4239753116710412,0.7294151744637176,0.0085510971878367,0.886331701182867,0.8602183926784747,1.7996919532243152,19.348611095870485,37.70717420770633,1.1657432516719048,2.053423838313925,-3.643783724401883,4114.723470052083,11.930111111111112,0.1488888888888888,178.3952292961646,-8.752357227937019,102.94816666335012,1553.0,1435.0,1200.0,1304.0,1471.0,997.6,110.0,292.15,1649408412.542305,1649408413.5938778,281a984c-9789-4888-9857-ede43ab8b09e
0.5492780533054606,0.6000320159648621,1.097710127790115,-0.4207670291893267,0.7250892538159656,0.0113649182818376,0.8804147883845128,0.8581146014335015,1.6985032713454529,19.42351019985776,37.46420377033434,1.16493224383766,2.0281428009744924,-3.622449976469026,4122.8603515625,11.919,0.14,178.3842554588981,-8.754307531536272,102.94230711995218,1553.0,1435.0,1200.0,1304.0,1471.0,997.6,110.0,292.15,1649408413.7027252,1649408414.8144662,281a984c-9789-4888-9857-ede43ab8b09e
0.520099076179942,0.5808485757070337,1.0835712342201882,-0.3989821637542513,0.7172157141156779,0.0113457007841106,0.8641144521610712,0.8499290330782012,1.3968583001330757,19.647512214640333,37.52283915731449,1.1163861607938668,1.9542338068224443,-3.5715952254759458,4116.425537109375,11.919375,0.14,178.39772629948868,-8.77970775997298,102.91749019678537,1553.0,1435.0,1200.0,1304.0,1471.0,997.6,110.0,292.15,1649408414.9231253,1649408416.040641,281a984c-9789-4888-9857-ede43ab8b09e
0.5545764716706814,0.5872712074813116,1.2026680748650267,-0.3443771357099816,0.8274498216299904,-0.057027521924752,0.9633365289833112,0.9440939191561736,1.95163027042108,20.556318890341,36.67287746950847,0.851665421135039,1.982771699952388,-4.025279165109794,4118.018608940973,11.905111111111111,0.1355555555555555,178.43122742873024,-8.80629589585878,102.82872183296476,1553.0,1435.0,1200.0,1166.0,1471.0,997.6,110.0,292.15,1649408416.9832947,1649408418.178169,082e98a0-ab0b-4e5e-a1a1-9429514a2edd
0.561302534883527,0.5843759659957657,1.2121123786420531,-0.3464505840147063,0.8361861180632038,-0.0522611188922483,0.9757519316486186,0.949985546067525,2.1238265206370537,20.540297474998688,36.759140666069136,0.8675178419837787,1.970783205479403,-4.067848671943417,4110.99853515625,11.87375,0.1275,178.45806589816388,-8.811083834751024,102.72208189972588,1553.0,1435.0,1200.0,1166.0,1471.0,997.6,110.0,292.15,1649408418.286421,1649408419.4086874,082e98a0-ab0b-4e5e-a1a1-9429514a2edd
0.5274952171355054,0.5778016184994951,1.2101527172035629,-0.3340351784858216,0.8350356072501559,-0.0586837516274481,0.9692281558768706,0.9469385887639756,1.9863096595001424,20.842773142518915,36.52018385724754,0.8268794716883119,1.9475688794479509,-4.055565908985492,4118.89794921875,11.878,0.1266666666666666,178.45019865860488,-8.846254968960555,102.6439826708438,1553.0,1435.0,1200.0,1166.0,1471.0,997.6,110.0,292.15,1649408419.5176375,1649408420.6459005,082e98a0-ab0b-4e5e-a1a1-9429514a2edd
0.312693581237865,0.5045593415109624,0.4015393152496079,-0.4086044826253948,0.0933470394121275,0.1317675290570217,0.1767755150444682,0.1533182414747914,-3.12853131943323,19.323894686651062,37.51165409562677,1.3703099971246422,1.6581735615325337,-0.8259178077517959,4121.322102864583,11.916,0.1366666666666666,178.5344422118278,-8.813250166798714,102.57759399102116,1553.0,1435.0,1200.0,1623.0,1471.0,997.6,110.0,292.15,1649408422.6877966,1649408423.824728,eee68fea-a8f8-469d-a4dc-746288de7e61
0.3274069713276643,0.5199959094869653,0.3973054353652926,-0.4168355689907472,0.0853263347395019,0.1273890128227406,0.1706482227770988,0.1541992042367382,-3.0080750897584254,19.2542972962414,37.92193889108462,1.37849204863539,1.7123250105997494,-0.7980109871571959,4149.035373263889,11.951,0.15,178.52272312503186,-8.794632494077335,102.67489155356785,1553.0,1435.0,1200.0,1623.0,1471.0,997.6,110.0,292.15,1649408423.9328902,1649408424.99043,eee68fea-a8f8-469d-a4dc-746288de7e61
0.3393065406155677,0.5235855032376867,0.4125973679084754,-0.4151525347194545,0.0989878300407461,0.1228921592926796,0.1844412047055119,0.1576573113772459,-2.967140498410038,19.316223698150555,38.11388775839078,1.3658136622914556,1.7245604663470433,-0.8563782563636825,4167.855685763889,11.950444444444445,0.1455555555555555,178.492627793729,-8.814388057341688,102.75930586152,1553.0,1435.0,1200.0,1623.0,1471.0,997.6,110.0,292.15,1649408425.1037693,1649408426.2833414,eee68fea-a8f8-469d-a4dc-746288de7e61
0.271361162848548,0.4897180048334892,0.2344689573580194,-0.3865794005153865,-0.058696394450036,0.1391914851590844,0.0007761717456797,-0.0186940134469227,-4.190975917804161,19.38814610125347,38.06667480781102,1.328970036616279,1.59180807347076,-0.1420975423121297,4183.2236328125,11.949666666666666,0.15,178.4869723970962,-8.806224084008756,102.92471710610964,1553.0,1435.0,1200.0,1712.0,1471.0,997.6,110.0,292.15,1649408428.3087742,1649408429.3569095,7477c542-ffe0-430c-b38f-250f5923f33f
0.2730108184144607,0.5001939747602349,0.2364968908680289,-0.3921291631481902,-0.059190987647004,0.1347917290709228,0.003317916048347,-0.0165103183053697,-3.952345805379433,19.22716556158016,38.19210290979325,1.330776034409498,1.6291078232690557,-0.1461783003510051,4189.35791015625,11.946333333333332,0.14,178.47204615703,-8.814291960374616,102.98039225476415,1553.0,1435.0,1200.0,1712.0,1471.0,997.6,110.0,292.15,1649408429.4654665,1649408430.797299,7477c542-ffe0-430c-b38f-250f5923f33f
0.2649638167697472,0.4981033322473963,0.2317633604176655,-0.3899727764534104,-0.063477462840316,0.1374083195642949,-0.0028882687123494,-0.0261877589828157,-4.105653446918808,19.359361855266148,38.51206320305648,1.3324060619027762,1.6189525805540297,-0.124995610701019,4191.634114583333,11.950666666666669,0.1411111111111111,178.46890730565144,-8.815547292225823,103.04248702232856,1553.0,1435.0,1200.0,1712.0,1471.0,997.6,110.0,292.15,1649408430.9053345,1649408432.0237768,7477c542-ffe0-430c-b38f-250f5923f33f
0.2223357457363766,0.4860985736469519,0.11245209472332,-0.3514076432440348,-0.1739922618248424,0.1152659154645379,-0.1426063213633552,-0.1565965356431794,-5.066819782889296,20.068317034555584,37.7403361316183,1.1938076320288689,1.5752702656124558,0.3839266436981304,4176.2041015625,11.95077777777778,0.1455555555555555,178.47221615284934,-8.823961231509632,103.14109749901566,1553.0,1435.0,1200.0,1801.0,1471.0,997.6,110.0,292.15,1649408434.124098,1649408435.181785,9b71cad7-c924-46a1-9cdf-25841a794319
0.2189939541481091,0.4825747233628373,0.1067748923469331,-0.3492573256049506,-0.1777300319384796,0.1181156424600091,-0.1476271008544252,-0.1596632165271051,-5.1683158823857145,20.03401171279256,37.895769875536935,1.194824344914015,1.5607692073744035,0.4036595880945461,4166.70361328125,11.949625,0.14625,178.4738214370318,-8.831441640459069,103.16484122870916,1553.0,1435.0,1200.0,1801.0,1471.0,997.6,110.0,292.15,1649408435.2903109,1649408436.314613,9b71cad7-c924-46a1-9cdf-25841a794319
0.2380216338794525,0.4850021747757712,0.0886701493628285,-0.3507491967696095,-0.1941153317620503,0.1215292464614527,-0.1634813953769643,-0.1855181066940512,-5.120715500056979,19.8016315122511,38.39536215490416,1.2035220916982663,1.564140844571047,0.474342786782723,4175.979275173611,11.951444444444444,0.14,178.4825327741357,-8.838023547509563,103.18620027374487,1553.0,1435.0,1200.0,1801.0,1471.0,997.6,110.0,292.15,1649408436.4222877,1649408437.5445037,9b71cad7-c924-46a1-9cdf-25841a794319
0.3782135299603965,0.4707671951965274,0.6324829951430783,-0.5093235196611342,0.3378075892749911,0.2667783366865304,0.5204955598836835,0.4996943242433436,0.4665517687038158,14.39075732445898,41.06355115914772,1.8820677360711728,1.5014645833184823,-1.9584912281251727,7421.14794921875,11.632666666666664,7.736666666666666,-179.4730513610304,-8.952163313048338,88.72650235008068,1553.0,1435.0,1350.0,1528.0,1471.0,997.6,110.0,292.15,1649408442.712468,1649408443.895255,dba1b252-da2d-4a6f-94a6-eac0a02f00a5
0.3850245540831589,0.4728183916224439,0.6283806023131155,-0.5125580999237279,0.3368345858246238,0.2621499958557818,0.5181287947769417,0.5047434232208715,0.3602196917022581,14.01733626426417,40.24853166810576,1.876100488055897,1.5172657497769333,-1.9490549609272512,7434.02099609375,11.625555555555556,7.721111111111112,-179.0045246690846,-8.862626173491167,82.88271164507329,1553.0,1435.0,1350.0,1528.0,1471.0,997.6,110.0,292.15,1649408444.003342,1649408445.1243944,dba1b252-da2d-4a6f-94a6-eac0a02f00a5
0.3601603713741325,0.4573818235781761,0.621188266153832,-0.5079297577479434,0.33473079451432,0.2726163574565974,0.515814624424291,0.4956182288458564,0.2776868995754304,13.90766325279574,40.15733549204584,1.888038145996072,1.459733986747802,-1.9350592638009936,7440.47412109375,11.625555555555556,7.75111111111111,-178.80752531740342,-8.791818361275553,77.85076860846223,1553.0,1435.0,1350.0,1528.0,1471.0,997.6,110.0,292.15,1649408445.2322142,1649408446.4422913,dba1b252-da2d-4a6f-94a6-eac0a02f00a5
0.5439816578093017,0.7937689335395177,0.6399924171308448,-0.5741127278119718,0.2867476650841698,-0.038808990755183,0.4330269001567156,0.420586211573891,1.0300429847147683,12.757027719120924,33.84473283308407,1.3301974426485643,2.781334726503922,-1.745246965075399,7442.629069010417,11.625333333333334,7.753333333333334,-179.14063971450423,-8.667208674649054,71.226191658674,1658.0,1435.0,1350.0,1528.0,1551.0,997.6,110.0,292.15,1649408447.5589058,1649408448.7017896,ee5e6885-4165-45e1-82ee-9a50b2e616b7
0.5469401141871506,0.789394463846403,0.6691976915267278,-0.5315690971233781,0.3088981596591139,-0.0304393395532803,0.4460870944495372,0.4197644181629724,0.7302035458753712,14.388164111314952,40.13529151509295,1.2661562066420613,2.707938022578038,-1.8259848171157564,7440.47412109375,11.6195,7.7675,-179.31670605419907,-8.603313322180643,68.17571932313714,1658.0,1435.0,1350.0,1528.0,1551.0,997.6,110.0,292.15,1649408448.8151624,1649408449.9247885,ee5e6885-4165-45e1-82ee-9a50b2e616b7
0.5559049955842794,0.7898071305824124,0.6390836400176986,-0.557276828282166,0.2851996589967507,-0.0359046458158281,0.4264034978063707,0.3975684091368879,0.8418150084957066,13.281335699462607,35.87413957561329,1.3024054289176612,2.7476996279548267,-1.730285726525004,7446.93896484375,11.618666666666668,7.760000000000001,-179.47436731081052,-8.608800596552905,65.68976098413701,1658.0,1435.0,1350.0,1528.0,1551.0,997.6,110.0,292.15,1649408450.0325043,1649408451.181657,ee5e6885-4165-45e1-82ee-9a50b2e616b7
0.7082518441723228,1.070334037797109,0.72658415930465,-0.5250832480946767,0.3066856387549677,-0.3208864800348717,0.3926958062418502,0.3737060560095174,0.7911101256766334,14.957168234428538,38.836015146288375,0.6053052211816822,3.775565705752572,-1.793150403201896,7446.93896484375,11.606666666666667,7.763333333333334,-59.99875402176372,-8.593638714960338,62.43797849891535,1767.0,1435.0,1350.0,1528.0,1630.0,997.6,110.0,292.15,1649408452.066602,1649408453.2098415,ba9ca688-7467-4fe7-b525-ff8af5bec133
0.7057864638677457,1.0702455369622434,0.6973156700055057,-0.5542506047949144,0.2819812629068667,-0.3134903373596279,0.3726187600251126,0.3438180600537335,0.684614170646898,14.16322618211709,35.87888377857483,0.6804742476516901,3.803918701725566,-1.6952063919893243,7440.47412109375,11.582625,7.75875,179.796144352799,-8.592668045472355,60.72315819331097,1767.0,1435.0,1350.0,1528.0,1630.0,997.6,110.0,292.15,1649408453.317682,1649408454.4344923,ba9ca688-7467-4fe7-b525-ff8af5bec133
0.6839601359375189,1.063181653144431,0.7011060341879868,-0.5408146560029268,0.2918134528178633,-0.3221254918272848,0.3790024516104524,0.360725765100676,0.716064620006494,13.785221018112962,35.47002943417565,0.6283952444660375,3.779405535072176,-1.723990331961196,7434.02099609375,11.578666666666663,7.75,179.53990069916705,-8.614331626824537,59.31708975894784,1767.0,1435.0,1350.0,1528.0,1630.0,997.6,110.0,292.15,1649408454.5439377,1649408455.6611154,ba9ca688-7467-4fe7-b525-ff8af5bec133
0.8295485556247298,1.3183386725535704,0.7908357631397193,-0.5278014886203372,0.3092015911015574,-0.5700290442111344,0.3568150398171357,0.3347783322221004,1.1640579082294855,16.137547834715235,37.70087126760016,0.0626112618849192,4.717582891604767,-1.8049125698102728,7434.02099609375,11.571555555555555,7.7555555555555555,178.97167904827586,-8.613453852652455,56.787862361283125,1886.0,1435.0,1350.0,1528.0,1710.0,997.6,110.0,292.15,1649408457.504631,1649408458.6415987,e867642d-8784-4248-bc55-d846a64660ad
0.8425961068881725,1.3232441478091386,0.7595570405928792,-0.5618616793556277,0.2859258715639189,-0.5817617310953398,0.338040220057111,0.3147645006633117,1.2642144330012974,14.636908267198791,32.085820222674485,0.1007277454661344,4.787223763218614,-1.7107811956876835,7427.57958984375,11.525,7.742222222222221,178.80260150992177,-8.649884658729224,55.91582440973596,1886.0,1435.0,1350.0,1528.0,1710.0,997.6,110.0,292.15,1649408458.755092,1649408459.8712797,e867642d-8784-4248-bc55-d846a64660ad
0.8288658349233997,1.3268853252915436,0.7452831207336137,-0.5829754574473398,0.27165195119884,-0.5797641398744696,0.3264213248651127,0.3148024295139444,1.1582769273216056,14.350730492236837,30.0186454286988,0.1498534113153232,4.82164132447057,-1.6579565895449482,7427.57958984375,11.526888888888887,7.75,178.63964230324416,-8.675566739190904,55.19242958836606,1886.0,1435.0,1350.0,1528.0,1710.0,997.6,110.0,292.15,1649408459.9796836,1649408461.0950336,e867642d-8784-4248-bc55-d846a64660ad
0.1915152030665706,0.1431411511783417,0.5926687467461629,-0.4716130494128889,0.364893901568141,0.5566150251111363,0.5894078704092741,0.5634129003231284,0.2980824490684099,14.602025122534036,41.677609685691614,2.4477350101373383,0.2612543283623403,-2.077879591980776,7429.726725260417,11.559666666666663,7.776666666666666,178.86654422311165,-8.509200785937274,53.90883441437529,1449.0,1435.0,1350.0,1528.0,1386.0,997.6,110.0,292.15,1649408463.033561,1649408464.3755531,e695abf0-6491-49d0-879c-e229a2d58196
0.2055974561583874,0.1457182955729016,0.5926161519754372,-0.4735459080919139,0.3648150094381057,0.5547479104194175,0.5906044016584886,0.5687381218736669,0.4070794787402377,14.457853995885932,41.52378464155711,2.4469714087920105,0.2717442770348021,-2.0791907257968902,7434.02099609375,11.623,7.799999999999999,178.7017226515203,-8.53841008992283,53.45084746322871,1449.0,1435.0,1350.0,1528.0,1386.0,997.6,110.0,292.15,1649408464.4830704,1649408465.4883888,e695abf0-6491-49d0-879c-e229a2d58196
0.1870577951958206,0.1356726919050721,0.5805325012790816,-0.4783583321981565,0.3573071044049061,0.5519866844578593,0.5855027079954671,0.5647803646852816,0.635757680022098,13.963832926748772,39.04208973190048,2.447465118881374,0.2542619220021104,-2.049624868097899,7434.02099609375,11.619777777777776,7.798888888888888,178.55922365595643,-8.515012518011044,53.08174214320645,1449.0,1435.0,1350.0,1528.0,1386.0,997.6,110.0,292.15,1649408465.5965393,1649408466.7220728,e695abf0-6491-49d0-879c-e229a2d58196
-0.006911769749332,-0.2170016512351323,0.5577721102540945,-0.4039366945645685,0.3943995737364414,0.8838991925656452,0.6515617515450451,0.6345078941757024,-0.7578902969554886,16.75940393164801,46.97994464925426,3.04340253669488,-1.1395287719416731,-2.196122653827357,7434.02099609375,11.608222222222222,7.795555555555556,178.63141723766364,-8.450649748187246,52.34012210040123,1342.0,1435.0,1350.0,1528.0,1293.0,997.6,110.0,292.15,1649408468.4810846,1649408469.5858629,1134adfa-c4a1-4cd3-b1de-6379bb6da9a1
0.0097344799928527,-0.2141089377506585,0.5691325827275336,-0.3719722078075119,0.4133205461365676,0.8525132573050288,0.6550330070152345,0.6372296740347341,-1.155143007946538,16.48997241205537,47.16777010354979,2.8993796538197194,-1.1307522613421643,-2.2415936361113813,7434.02099609375,11.573555555555556,7.776666666666667,178.55623203309997,-8.416956330147833,52.08609674042975,1342.0,1435.0,1350.0,1528.0,1293.0,997.6,110.0,292.15,1649408469.694131,1649408470.816654,1134adfa-c4a1-4cd3-b1de-6379bb6da9a1
0.012913430213644,-0.2028642727301666,0.5454861719083087,-0.3958340618816069,0.3852996651796555,0.8372354850556997,0.6384879029958712,0.6048070150980643,-0.152209894114309,15.846852575886489,43.28853507107552,2.913320682261917,-1.0598669408963,-2.150993432354141,7434.02099609375,11.579333333333333,7.788888888888888,178.5162162314826,-8.447728798815941,51.80762309777916,1342.0,1435.0,1350.0,1528.0,1293.0,997.6,110.0,292.15,1649408470.925431,1649408472.052739,1134adfa-c4a1-4cd3-b1de-6379bb6da9a1
-0.2087559006711276,-0.5824950234556684,0.4540268833752266,-0.303148380388152,0.3747427800619716,1.093559185712976,0.6385384748988268,0.6098136335791893,-1.31629678439478,17.020949450310443,38.624189946141215,3.282137746001614,-2.4513236861950145,-2.065014774916277,7434.02099609375,11.549444444444443,7.754444444444443,178.55941793689283,-8.31384902766592,51.36178970935069,1227.0,1435.0,1350.0,1528.0,1189.0,997.6,110.0,292.15,1649408474.093108,1649408475.322586,3f236163-4434-4528-b761-1db1c432400c
-0.212452201879259,-0.5852046671435809,0.4777491522546184,-0.2707798259302478,0.3972791380104877,1.0869676436008302,0.6537575836038577,0.6272629631893426,-1.3953788327928447,17.666911313345263,41.68765088117049,3.200222037590456,-2.4905485925803785,-2.145758674748968,7434.02099609375,11.461,7.73,178.5417110509245,-8.334693721511677,51.147760798793946,1227.0,1435.0,1350.0,1528.0,1189.0,997.6,110.0,292.15,1649408475.430832,1649408476.549384,3f236163-4434-4528-b761-1db1c432400c
-0.2258112786743583,-0.5800898227365682,0.4609188225011235,-0.3107124220112494,0.3789630055299055,1.0964741503717024,0.6470648978666655,0.6266712719738345,-1.137656458044114,17.037741251734925,38.44174288527559,3.306266012813667,-2.4405815773735604,-2.092211738169328,7434.02099609375,11.468777777777778,7.706666666666667,178.49736490937332,-8.289097086159964,50.99728679846417,1227.0,1435.0,1350.0,1528.0,1189.0,997.6,110.0,292.15,1649408476.6576736,1649408477.8955648,3f236163-4434-4528-b761-1db1c432400c
0.3826314915689316,0.5057164266825833,0.6401618330011337,-0.4609363054260307,0.3404636257289145,0.2082271952502278,0.4993919043391484,0.4801685121539517,0.1270818616036459,15.08289665518079,43.88233262370741,1.6465948826754175,1.604506379747159,-1.9344215375168288,7434.02099609375,11.48,7.720000000000001,177.6801039366048,-8.321230564883935,50.84533178544935,1553.0,1435.0,1350.0,1528.0,1471.0,997.6,110.0,292.15,1649408479.480757,1649408480.5543106,d93f1c75-ac72-4809-a359-1d20fff104d1
0.4018548839695382,0.5042306241442202,0.6204519392519906,-0.4816060607681242,0.3170589480532954,0.2305273830458397,0.4822591546787854,0.4594330200133003,0.0720144862105507,15.33875765336785,43.995051948100375,1.7440372471025187,1.5996241680540766,-1.8516289366252952,7440.47412109375,11.628666666666666,7.809999999999999,177.6357911870896,-8.316597419896944,50.85999316595775,1553.0,1435.0,1350.0,1528.0,1471.0,997.6,110.0,292.15,1649408480.6623538,1649408481.7874725,d93f1c75-ac72-4809-a359-1d20fff104d1
0.3775115919300467,0.508379037432708,0.645251895118728,-0.4483656429017786,0.3460179381171269,0.2146700561158096,0.4990738070759311,0.4802104868463459,-0.3190607931215409,15.430022018575109,46.829470167166086,1.6355163174820446,1.590310923453412,-1.944337514422052,7441.910753038194,11.631555555555556,7.800000000000001,177.7042175400146,-8.33117740731772,50.89313969454486,1553.0,1435.0,1350.0,1528.0,1471.0,997.6,110.0,292.15,1649408481.8956406,1649408483.1141355,d93f1c75-ac72-4809-a359-1d20fff104d1
0.3849062158320875,0.4662571927736996,0.5912618364019129,-0.8378964138082746,0.2694475218641806,0.574681332020174,0.5696453818492977,0.5512635062123546,0.3088054895079821,13.259207343763556,41.2393194449846,3.30554171983082,1.5219299557014967,-1.881996911719137,7443.347384982639,11.618222222222222,7.795555555555556,177.72755705531844,-8.219436366269958,51.02854819484036,1553.0,1522.0,1350.0,1528.0,1471.0,997.6,110.0,292.15,1649408484.0184753,1649408485.264732,7c6db5d3-f793-4212-abaa-6c7bfccb2697
0.3932015253674369,0.4579841349676021,0.5880803579234762,-0.845620771032715,0.2715887363112645,0.5766258217327057,0.574628231527016,0.5524524516979192,0.3892093670104075,12.672456133395343,39.36693236636676,3.323029448151248,1.5076661935292388,-1.8910836977319887,7446.93896484375,11.61422222222222,7.797777777777778,177.72787276184008,-8.2324510071422,51.049835997208525,1553.0,1522.0,1350.0,1528.0,1471.0,997.6,110.0,292.15,1649408485.3729658,1649408486.5843525,7c6db5d3-f793-4212-abaa-6c7bfccb2697
0.4061676559932711,0.4730550681428423,0.6163232490139344,-0.8222889037083604,0.2885131302117993,0.5781394388162514,0.5860943992695158,0.5624398969455658,0.1888536298237704,14.040092447912782,44.86976212480288,3.2850486341909595,1.5157789739761347,-1.9598708834891088,7446.93896484375,11.615333333333334,7.79,177.76297993417393,-8.24877658221461,51.07643616893114,1553.0,1522.0,1350.0,1528.0,1471.0,997.6,110.0,292.15,1649408486.6949098,1649408487.7257593,7c6db5d3-f793-4212-abaa-6c7bfccb2697
0.4045240690896529,0.4579472174702049,0.5944701179600052,-1.17112403560642,0.2336041777563597,0.9072907212629032,0.6630142648579057,0.6334165524587425,0.5451842542113376,13.147716394060948,44.11397038450524,4.804637188796686,1.5048404561154598,-1.9701493909913323,7446.93896484375,11.597333333333331,7.783333333333335,177.85751127010676,-8.18389168237426,51.232198253498325,1553.0,1613.0,1350.0,1528.0,1471.0,997.6,110.0,292.15,1649408489.5470371,1649408490.5937471,a7b0d34a-6dd4-432f-b1b1-e8dd69b91bc8
0.424581392134252,0.4641791932199725,0.627779302371385,-1.140998831689926,0.2661016845587818,0.9031053904336503,0.6889080909991814,0.6601326777616465,0.3830894247230365,13.568421965086184,48.55164059242,4.732350391216801,1.4884401646164576,-2.0896924154592744,7446.93896484375,11.593333333333334,7.783333333333333,177.87719132183526,-8.200117650521271,51.26781655165509,1553.0,1613.0,1350.0,1528.0,1471.0,997.6,110.0,292.15,1649408490.7016532,1649408491.8225586,a7b0d34a-6dd4-432f-b1b1-e8dd69b91bc8
0.4147143078590463,0.4475071535494669,0.6159682342461157,-1.1517428422434626,0.2624129696904779,0.903727424852112,0.6869185923098621,0.6609630684389564,0.3683867076861029,12.864788794973473,44.86901262551478,4.752137026318679,1.4592151060797038,-2.072762887167177,7446.93896484375,11.593333333333334,7.793333333333333,177.94997837109037,-8.194703871830388,51.282434294843775,1553.0,1613.0,1350.0,1528.0,1471.0,997.6,110.0,292.15,1649408491.930639,1649408493.143363,a7b0d34a-6dd4-432f-b1b1-e8dd69b91bc8
0.404997422121904,0.4484144135144231,0.5909857138076777,-1.500762165886516,0.2034016239077264,1.209684421312672,0.7546475201425017,0.733806838579771,0.6536576125209215,11.775640579152098,42.97859965025072,6.218343530838237,1.518723007040688,-2.0597351504311683,7446.93896484375,11.571222222222222,7.771111111111111,177.9839608389409,-8.113432684125007,51.405640282732094,1553.0,1710.0,1350.0,1528.0,1471.0,997.6,110.0,292.15,1649408494.4619377,1649408495.5131652,41d72a71-d7f1-4fa8-9902-fe64426624a3
0.4309529463780408,0.4520171559795841,0.6119315849034518,-1.4751484769825556,0.2138548369286675,1.221649734684923,0.7604986894208995,0.7304407726770582,0.4456192927363412,13.353635580473345,48.6162334957644,6.19975061514372,1.4819427442432564,-2.1030363744751965,7446.93896484375,11.57688888888889,7.774444444444445,178.00429658882976,-8.102611862068677,51.4484784702965,1553.0,1710.0,1350.0,1528.0,1471.0,997.6,110.0,292.15,1649408495.630193,1649408496.826906,41d72a71-d7f1-4fa8-9902-fe64426624a3
0.4341647680337542,0.450158132773493,0.5924927565445788,-1.5018929550611186,0.1965273846705879,1.21539955257865,0.7509345309642753,0.7263818716690971,0.8625410387591502,12.545219572537224,43.866501355613146,6.239160333280049,1.5161629528603142,-2.0458563376507968,7446.93896484375,11.57511111111111,7.77,178.07197769222532,-8.13623062234591,51.49994318678264,1553.0,1710.0,1350.0,1528.0,1471.0,997.6,110.0,292.15,1649408496.935403,1649408498.063259,41d72a71-d7f1-4fa8-9902-fe64426624a3
0.3992514423227643,0.4197108120200477,0.6204782366332491,-1.6547598868638955,0.1924093141932261,1.4447305206353798,0.8143557442453085,0.8001814510508057,0.3985034116929088,14.998349665443882,52.53534540881567,7.118131849802479,1.3490565112897182,-2.162822124127515,7446.93896484375,11.557444444444444,7.76111111111111,178.10979569074976,-8.075870533103213,51.67277239626586,1553.0,1814.0,1350.0,1528.0,1471.0,997.6,110.0,292.15,1649408499.9914465,1649408501.171931,6644285d-a890-4d70-8505-bf4e02cadf24
0.4094856786445014,0.4305741628096307,0.6107997856827091,-1.6784523516073857,0.1777904930473955,1.44594424649003,0.804262603666255,0.788016379529068,0.4233855262079849,14.993113746178162,51.044291835191686,7.1735618603098334,1.4051431408702115,-2.116324206812039,7446.93896484375,11.535,7.745555555555557,178.15110771048967,-8.06635456176957,51.69991442966264,1553.0,1814.0,1350.0,1528.0,1471.0,997.6,110.0,292.15,1649408501.2802474,1649408502.2690964,6644285d-a890-4d70-8505-bf4e02cadf24
0.4170021807859564,0.4239972866133504,0.5953773779033903,-1.6807154473897663,0.1762758644491903,1.430464184181332,0.8006679527200644,0.7827594300849308,0.4646771740793119,13.523213024332028,47.57767931534926,7.132837187654109,1.410184112156363,-2.0931936176979304,7446.93896484375,11.52511111111111,7.747777777777778,178.1965755208845,-8.114714388095507,51.746574866977575,1553.0,1814.0,1350.0,1528.0,1471.0,997.6,110.0,292.15,1649408502.3771508,1649408503.5813415,6644285d-a890-4d70-8505-bf4e02cadf24
0.3544932836855875,0.4755007254180114,0.6339819463678463,-0.1383461439594467,0.3790156002791784,-0.107341515688196,0.4183564963796759,0.3998299848105358,0.3149390762576584,14.93762338995131,36.71087615710062,0.2074661243255597,1.5132979703760747,-1.8738810137605448,7446.93896484375,11.556666666666665,7.756666666666667,178.23664596401525,-8.604718989341393,51.90069732668902,1553.0,1349.0,1350.0,1528.0,1471.0,997.6,110.0,292.15,1649408505.5203428,1649408506.6091678,9c7b9924-cafe-4761-abdb-6f42003caefd
0.3608835496133698,0.4952369167258214,0.6512856289498208,-0.1362555007812699,0.388982311284444,-0.1204770640544768,0.4282180177609175,0.3989753196981977,0.4895858516049822,15.229405360245533,37.96567033117057,0.1763166144489028,1.5758078779493077,-1.920904993131814,7464.233235677083,11.625,7.776666666666667,178.21406991207863,-8.622881031526886,52.04683719253547,1553.0,1349.0,1350.0,1528.0,1471.0,997.6,110.0,292.15,1649408506.7196414,1649408507.793642,9c7b9924-cafe-4761-abdb-6f42003caefd
0.3783844629988747,0.4885836770262295,0.6641450526274194,-0.1221338000864269,0.4053655854785093,-0.1184784620530377,0.4409854007231306,0.4169890320202541,0.3038135564262427,15.256153688697797,39.27020521406417,0.1498847117819411,1.5396839637314768,-1.9779086317171377,7480.155490451389,11.629,7.75,178.25358483315688,-8.65610724565432,52.19599979654461,1553.0,1349.0,1350.0,1528.0,1471.0,997.6,110.0,292.15,1649408507.9052637,1649408509.0225868,9c7b9924-cafe-4761-abdb-6f42003caefd
0.3616067278604133,0.5005656782543217,0.6458840439150614,0.1586616694034431,0.416755389899591,-0.432612489754059,0.3372184266538554,0.3129439121526654,0.2054000282785477,15.543041604147648,32.57130125291565,-1.1895470207703596,1.6089677993121705,-1.8265110471455008,7490.32421875,11.626666666666669,7.753333333333334,178.21687939655726,-8.80993230754564,52.5499967381228,1553.0,1264.0,1350.0,1528.0,1471.0,997.6,110.0,292.15,1649408511.0493844,1649408512.1975842,4e1ce2f5-41fa-4764-ab50-78f14d0173d1
0.3480408143520997,0.5047378603326977,0.6926756978305352,0.2052383953047523,0.4515615030713139,-0.4229532533449728,0.361834301363622,0.3410492484464326,-0.2195990740567772,17.645915117191468,40.869578752933975,-1.255528134853126,1.5513440466432529,-1.961291225231362,7479.4296875,11.610555555555557,7.742222222222223,178.24214198956736,-8.787690934878356,52.64715542015632,1553.0,1264.0,1350.0,1528.0,1471.0,997.6,110.0,292.15,1649408512.305767,1649408513.5282729,4e1ce2f5-41fa-4764-ab50-78f14d0173d1
0.3532876494903413,0.4940671885805768,0.6817521666263358,0.1923552020175437,0.4463399539285543,-0.4208165898750334,0.3611389376742213,0.3460685099125039,-0.0409671174174749,16.94967794329335,37.964977206375934,-1.2271978898647622,1.5366835324954982,-1.9433893888768368,7475.806911892361,11.616777777777775,7.751111111111111,178.23078262606776,-8.790754749039799,52.74332600148992,1553.0,1264.0,1350.0,1528.0,1471.0,997.6,110.0,292.15,1649408513.6364164,1649408514.6839058,4e1ce2f5-41fa-4764-ab50-78f14d0173d1
0.3180643175774227,0.4976577937732264,0.6566179304799566,0.5131707252375779,0.4579462059536746,-0.7689916496769194,0.2404743712455173,0.2301956311432769,-0.3790880079842998,17.31824906343493,30.406145597006223,-2.733458296053949,1.578450971974744,-1.7609375468615958,7479.4296875,11.61,7.75,178.2577922296856,-8.943654320298581,52.8569033199233,1553.0,1178.0,1350.0,1528.0,1471.0,997.6,110.0,292.15,1649408515.5553071,1649408516.6899097,d04b38c3-2709-4302-8b59-e130dfe35427
0.3256753893163812,0.5035241346405095,0.6936871359087393,0.5440701585950193,0.4809943513272677,-0.7557797328021947,0.2577446771330989,0.2350252483526325,-0.6876177565846457,19.342449202982458,37.32865266809759,-2.757258258127183,1.539862946580015,-1.85775078601424,7472.90869140625,11.596666666666668,7.75,178.31070039281636,-8.942882129467414,52.930698201535925,1553.0,1178.0,1350.0,1528.0,1471.0,997.6,110.0,292.15,1649408516.7978735,1649408518.039892,d04b38c3-2709-4302-8b59-e130dfe35427
0.3466172152245564,0.509713629973183,0.6701540062274151,0.524505911841957,0.4648634310604374,-0.7659204163437826,0.2438075655912278,0.2110936106728164,-0.5991722127490974,18.09250583468296,34.06043352031192,-2.7458478507923045,1.592313169664615,-1.7873154605120891,7472.90869140625,11.6,7.746666666666666,178.32376275014903,-8.9404040040273,53.019896677546754,1553.0,1178.0,1350.0,1528.0,1471.0,997.6,110.0,292.15,1649408518.1500714,1649408519.359287,d04b38c3-2709-4302-8b59-e130dfe35427
0.3032528179423659,0.5078202178916807,0.6838943924660406,0.7773684651111837,0.491699917732749,-0.9818484197633968,0.1721603228597616,0.1590510729887608,-1.412879411974027,20.57930124506017,35.952069128041465,-3.784401489248321,1.54398587310499,-1.7375206442299944,7464.955295138889,11.590222222222222,7.753333333333334,178.34059385408375,-9.042500817967008,53.10996903831639,1553.0,1088.0,1350.0,1528.0,1471.0,997.6,110.0,292.15,1649408519.9800797,1649408521.1058056,84bef8cd-aa46-4641-855c-ea4d09efc8e1
0.3162563719673272,0.4871894096276811,0.6620164811982703,0.7509471739558354,0.4681617306480621,-0.9398868590057506,0.153794123341293,0.1210993850678209,-1.98017901912867,21.23603456404505,35.42539806351324,-3.627613627820575,1.4771680995207943,-1.6536263055817118,7449.097330729167,11.573666666666666,7.773333333333334,178.39652703210692,-9.05291657186006,53.13525060407423,1553.0,1088.0,1350.0,1528.0,1471.0,997.6,110.0,292.15,1649408521.214714,1649408522.3375194,84bef8cd-aa46-4641-855c-ea4d09efc8e1
0.2864619338811018,0.4893594500315497,0.6677346463521115,0.7696370324780029,0.4823906416141407,-0.9650838219091742,0.1606552140011685,0.1363301266635729,-1.965569254800823,20.456627373144087,34.650508430695616,-3.731392535295561,1.4901196546767517,-1.6909061802698353,7433.305284288194,11.573666666666666,7.786666666666668,178.4310513616316,-9.054534188328493,53.13400371509576,1553.0,1088.0,1350.0,1528.0,1471.0,997.6,110.0,292.15,1649408522.4461024,1649408523.5638304,84bef8cd-aa46-4641-855c-ea4d09efc8e1
0.3596607209468609,0.4669146275311113,0.5978493325774797,-0.4938475001919375,0.3117074289840734,0.2464898994527682,0.4777885983389774,0.445206131860008,-0.2722862804316966,14.245891851687723,39.37758588943454,1.798241279610652,1.5030836183680305,-1.818092361277092,7430.445041232639,11.583666666666666,7.792222222222222,178.48585679953177,-8.68212400538533,53.14147025022344,1553.0,1435.0,1350.0,1528.0,1471.0,997.6,110.0,292.15,1649408525.5893946,1649408526.6324444,ea990700-9b4e-407b-b581-7a2269a81abc
0.3639734929886102,0.4632329929037203,0.5995849602978728,-0.4822371985434818,0.3129302575840264,0.249198530793437,0.4792875495546084,0.4591437485628946,-0.082619218561993,14.44045943026701,40.777922647484814,1.7798328699206538,1.47420553654757,-1.8225737786556904,7440.47412109375,11.625,7.804444444444444,178.50998861677934,-8.674082406275026,53.13022624102978,1553.0,1435.0,1350.0,1528.0,1471.0,997.6,110.0,292.15,1649408526.7403772,1649408527.751107,ea990700-9b4e-407b-b581-7a2269a81abc
0.3680758859229163,0.4612869860307378,0.616362695106351,-0.4733486776441014,0.3309439703240898,0.2466345351424488,0.493435545483928,0.4645873084668092,-0.323178566955795,14.56440120367378,41.42439152495334,1.7556599074933548,1.462851163913334,-1.889587578890733,7446.93896484375,11.625222222222224,7.802222222222222,178.4905301667439,-8.659335458674539,53.14081758770275,1553.0,1435.0,1350.0,1528.0,1471.0,997.6,110.0,292.15,1649408527.8600895,1649408528.889128,ea990700-9b4e-407b-b581-7a2269a81abc
