raw_voltage_G-,raw_voltage_G0,raw_voltage_G1,raw_voltage_G2,raw_voltage_G3,raw_voltage_G4,raw_voltage_G5,raw_voltage_G6,load_x,load_y,load_z,load_l,load_m,load_n,rpm,voltage,current,roll,pitch,yaw,aileron1_pwm,elevator_pwm,throttle_pwm,rudder_pwm,aileron2_pwm,pbaro,pdiff,Tt,sample_start_time,sample_end_time,uid
0.1439563703126669,0.2974016484855031,0.1426283520191892,-0.2434962771470866,-0.0586255936294597,0.2235848718298002,-0.0868032509465876,-0.1068944600595574,-10.752000827633914,19.31504419204776,41.3495364876778,1.1880157780169744,0.8644061715305782,0.0857454902115267,4586.929144965277,11.943,0.1244444444444444,179.90217848620395,-9.560332368801433,109.12638619741855,1553.0,1435.0,1200.0,1528.0,1471.0,997.6,110.0,292.15,1649405763.0442183,1649405764.1323974,56d324d2-3788-4a43-bf28-fdabe1ad14ec
0.1459681207781258,0.3023981527467506,0.1413529285355982,-0.2465467750289834,-0.0591778388703822,0.2209551327053089,-0.0862904517410704,-0.1146916372634933,-10.670669646795162,19.0411558630979,41.27230878229887,1.187137062025076,0.8835450070268412,0.0881442873057595,4598.40478515625,11.95322222222222,0.1355555555555555,179.92689314626074,-9.556192515254494,108.5898399282583,1553.0,1435.0,1200.0,1528.0,1471.0,997.6,110.0,292.15,1649405764.240715,1649405765.474385,56d324d2-3788-4a43-bf28-fdabe1ad14ec
0.132595897046454,0.3052908657297195,0.1429044746371805,-0.2511619679757487,-0.0601245450603838,0.2201267648773829,-0.0850150281673956,-0.106631486322374,-10.53668580527073,19.10907457299714,40.96286278388221,1.1962319680124534,0.8968564874927637,0.0854418046769518,4603.34375,11.950666666666669,0.1333333333333333,179.93957149518008,-9.531156741443027,108.01187387415128,1553.0,1435.0,1200.0,1528.0,1471.0,997.6,110.0,292.15,1649405765.5828447,1649405766.7947814,56d324d2-3788-4a43-bf28-fdabe1ad14ec
0.3492469542891473,0.6456842848974614,0.1925145039249633,-0.3980066311028825,-0.0936537220469836,0.0222257415764381,-0.1174134175367645,-0.1386354147179983,-9.992685069095712,18.71414503516443,41.08842292080075,1.0829135911048016,2.189793661693524,0.1502339300829005,4600.324544270833,11.947888888888889,0.14,179.60645406243964,-9.50015830734988,107.1786757933194,1658.0,1435.0,1200.0,1528.0,1551.0,997.6,110.0,292.15,1649405768.536351,1649405769.6676724,0de2bfb3-fdb7-4f56-95dd-1ea9c865e0e9
0.3214374636577776,0.6478538195664245,0.188122839551794,-0.3971651143613121,-0.095560283091067,0.0203323292991739,-0.1184916106806376,-0.1328105421285124,-9.864128811685068,18.34012850528324,41.214291688865934,1.074147285133121,2.195516914564017,0.1610429994346874,4600.873046875,11.938,0.1366666666666666,179.5410299571098,-9.468230777802132,106.92393402239496,1658.0,1435.0,1200.0,1528.0,1551.0,997.6,110.0,292.15,1649405769.7754138,1649405770.8965886,0de2bfb3-fdb7-4f56-95dd-1ea9c865e0e9
0.3400378103754204,0.6448599628670325,0.1836694774456364,-0.3968328568559087,-0.0994067826687398,0.0241656800185708,-0.1244272359743934,-0.1462869450418053,-10.087940467003383,18.48708482339388,41.34506154252645,1.0826724723791596,2.184392470516508,0.1804118245464705,4606.918619791667,11.938111111111112,0.1322222222222222,179.47523550374498,-9.437371888268276,106.71624694248256,1658.0,1435.0,1200.0,1528.0,1551.0,997.6,110.0,292.15,1649405771.0302875,1649405772.1203527,0de2bfb3-fdb7-4f56-95dd-1ea9c865e0e9
0.475368227039226,0.9190481832974942,0.2295255536356404,-0.5239074502211698,-0.1269937605055841,-0.1432652732646406,-0.1472983832570107,-0.1681972261588406,-9.32256737876565,18.53572015550474,39.18554640684501,0.9957286798467874,3.245041065644919,0.2175751249517951,4605.8173828125,11.930777777777775,0.1377777777777778,179.13033068231695,-9.394603805006597,106.39653868890272,1767.0,1435.0,1200.0,1528.0,1630.0,997.6,110.0,292.15,1649405773.03926,1649405774.169793,b301cc8e-9602-4b39-9e3a-6fbe1d8b92a1
0.4911213751690148,0.9146276931215688,0.2343536535134399,-0.5195400589443588,-0.120910970954566,-0.1430007821592132,-0.1443945440736267,-0.1635784935078889,-9.563359116816926,18.67650892827385,39.2084748237852,0.9875274213917214,3.22973333472386,0.1978840444828087,4600.051106770833,11.910666666666666,0.1266666666666666,179.079819156675,-9.373899604357517,106.20698044886734,1767.0,1435.0,1200.0,1528.0,1630.0,997.6,110.0,292.15,1649405774.278468,1649405775.3977745,b301cc8e-9602-4b39-9e3a-6fbe1d8b92a1
0.4863746962533043,0.9227798841416548,0.2376802734913,-0.522682598318314,-0.1204376178557029,-0.1463536999863615,-0.1409890314970337,-0.1622110289901375,-9.30990776561962,18.62403041976922,39.48100918485184,0.9870705478466458,3.256696589842227,0.1893980772900963,4595.93896484375,11.906777777777778,0.12,179.01763711447117,-9.34676421142244,106.0531190541642,1767.0,1435.0,1200.0,1528.0,1630.0,997.6,110.0,292.15,1649405775.5063603,1649405776.5356395,b301cc8e-9602-4b39-9e3a-6fbe1d8b92a1
0.6240116955588857,1.1585314426566553,0.2855971542708352,-0.6100946515886964,-0.1376012191015507,-0.3163982221137556,-0.1667432836953776,-0.1943302623633293,-8.992988792135549,19.34575722536429,36.77958445214252,0.8090372391827401,4.176420064151572,0.2080029306652974,4580.5889892578125,11.887249999999998,0.125,178.74982084365553,-9.302644225023789,105.71118953902962,1886.0,1435.0,1200.0,1528.0,1710.0,997.6,110.0,292.15,1649405778.5631683,1649405779.697829,5da2bb13-db3c-43de-baca-346548785202
0.6053966835123243,1.14829316009696,0.2819256339381776,-0.6009305129160954,-0.141186261942961,-0.3154591015334342,-0.1730718528714109,-0.1955561255003788,-9.05743077716167,19.72599602111341,36.64397564720986,0.7927592933366153,4.138323673844301,0.2253502406683784,4574.6806640625,11.839666666666666,0.1166666666666666,178.70056607282083,-9.258791280048936,105.49477841027232,1886.0,1435.0,1200.0,1528.0,1710.0,997.6,110.0,292.15,1649405779.8063223,1649405780.927699,5da2bb13-db3c-43de-baca-346548785202
0.6430019511239423,1.15552494277726,0.2821886078339097,-0.6062688854111552,-0.1401475148851001,-0.3196535363159887,-0.1701265446665543,-0.1954903820624939,-8.926673545641934,19.331373983379304,36.37276679750651,0.7927955835494461,4.167592751962015,0.2200826007528623,4566.556640625,11.848,0.12,178.65458523932833,-9.233834053412927,105.2983057420672,1886.0,1435.0,1200.0,1528.0,1710.0,997.6,110.0,292.15,1649405781.0363944,1649405782.2694864,5da2bb13-db3c-43de-baca-346548785202
-0.1079200582448091,-0.1226728963360736,0.0848792791733382,-0.0999256504734844,-0.0236369117691175,0.5004963947501689,-0.0425578862401951,-0.0673037335539042,-11.65730631672394,20.517403066755826,40.93523827946901,1.4909860997871118,-0.7223665396519866,0.0025308859266526,4564.665581597223,11.861777777777778,0.1133333333333333,179.57719808549473,-9.176062795593143,105.0569207855197,1449.0,1435.0,1200.0,1528.0,1386.0,997.6,110.0,292.15,1649405783.0704744,1649405784.1165702,4768e3ef-7dbd-4757-8b8a-6d4235f7847c
-0.0895118824822375,-0.1198853725563319,0.0858259852900728,-0.0989132008219913,-0.024333792685625,0.500588435614469,-0.0424001018714699,-0.0627805818675607,-11.561920580104632,20.60366514168795,41.47151251265204,1.4896615708618035,-0.7174029076260449,0.0030987843825113,4579.570909288194,11.947777777777778,0.14,179.49737290575493,-9.152607167073413,104.918929714808,1449.0,1435.0,1200.0,1528.0,1386.0,997.6,110.0,292.15,1649405784.2239645,1649405785.544058,4768e3ef-7dbd-4757-8b8a-6d4235f7847c
-0.0961448943692986,-0.1241743764070853,0.0879494997196324,-0.0937553715666303,-0.018529654581809,0.4930557505059617,-0.0378607671993899,-0.0594423301714622,-11.482738822536303,20.28811673091689,40.508059925073056,1.4590000289858458,-0.7260164239799021,-0.0158120206985788,4592.657660590277,11.944111111111113,0.14,179.46846450954777,-9.123034914424457,104.76564053817532,1449.0,1435.0,1200.0,1528.0,1386.0,997.6,110.0,292.15,1649405785.652606,1649405786.6668918,4768e3ef-7dbd-4757-8b8a-6d4235f7847c
-0.3017318605438874,-0.4653148218324441,0.0427903026271022,0.0378595415285656,0.0083275694527655,0.7064707017214569,-0.0096598473348266,-0.0310922227557134,-12.299486298361437,21.885304046232232,40.47813193536966,1.6496043424804652,-2.01849489503074,-0.0723805896609082,4598.130805121527,11.938888888888888,0.1377777777777778,179.5169421566369,-9.069024719243888,104.48201693289052,1342.0,1435.0,1200.0,1528.0,1293.0,997.6,110.0,292.15,1649405788.5965211,1649405789.8427265,b54c777b-dd3e-46da-8393-21a849f983f1
-0.286017143402421,-0.4727286654211156,0.0447484469517489,0.0375166639808133,0.0133812203728964,0.7130561750260619,-0.0017397805518946,-0.0241052076419014,-12.176349450411,21.611894068155195,40.37747677146216,1.6635072017189667,-2.046119029608765,-0.0940532210851123,4594.023383246527,11.908333333333337,0.1277777777777777,179.514357309491,-9.05278689312957,104.233711476894,1342.0,1435.0,1200.0,1528.0,1293.0,997.6,110.0,292.15,1649405789.9514985,1649405790.9624405,b54c777b-dd3e-46da-8393-21a849f983f1
-0.2815541718494159,-0.4552434238570199,0.0484528392434415,0.0192349188525521,0.0117882052198245,0.7127021717000217,0.0008899587302663,-0.0160137020864684,-12.132814958756832,21.5475150621468,40.3944224450468,1.7037331401228573,-1.9785124372934737,-0.0986409723116865,4598.40478515625,11.907444444444444,0.1255555555555555,179.5146881942108,-9.030836752139392,104.02045703389813,1342.0,1435.0,1200.0,1528.0,1293.0,997.6,110.0,292.15,1649405791.0707035,1649405792.307623,b54c777b-dd3e-46da-8393-21a849f983f1
-0.5108851801742533,-0.8328134280262087,-0.002182284771998,0.1664623861410969,0.0378580243711261,0.9266339689888478,0.023520888163098,0.0014209638041199,-13.05674505936372,23.64929892876804,37.36123777123984,1.8628204560078765,-3.382508328662742,-0.147531264593884,4592.860961914063,11.8855,0.12,179.59700677245263,-8.991172017502164,103.66154026911528,1227.0,1435.0,1200.0,1528.0,1189.0,997.6,110.0,292.15,1649405794.124658,1649405795.1664612,1f19f7b6-7f3d-464e-b9e0-410bc3dd5bb6
-0.4944391912341169,-0.8292051205890729,-0.0014945068186161,0.1664011941390877,0.0355453709597896,0.9257251918709544,0.0202534370970355,8.333648076230826e-05,-13.119731183406074,23.947210610576462,37.713245085843845,1.862949892320028,-3.37159282570009,-0.1399004818664036,4589.377278645833,11.816666666666666,0.1,179.6320308441516,-8.984289107809495,103.30634026560578,1227.0,1435.0,1200.0,1528.0,1189.0,997.6,110.0,292.15,1649405795.274789,1649405796.4053743,1f19f7b6-7f3d-464e-b9e0-410bc3dd5bb6
-0.502591384994351,-0.8272631583417743,0.0008646727714653,0.1685105483795556,0.0369983019150203,0.9217284942484424,0.0218267292024135,0.0066045844551301,-13.012640181944512,23.96600508410107,37.70605003975408,1.8495054149221533,-3.365113309347329,-0.1470247781761071,4583.650390625,11.815555555555555,0.1,179.62888743931362,-8.96779258828036,102.99034535820468,1227.0,1435.0,1200.0,1528.0,1189.0,997.6,110.0,292.15,1649405796.5151043,1649405797.7214203,1f19f7b6-7f3d-464e-b9e0-410bc3dd5bb6
0.1531493316247167,0.301691663225508,0.1362836005306837,-0.2480755640146691,-0.0620720693234553,0.2242660754079756,-0.0898107624870024,-0.1116578282368959,-10.795992810263993,18.88241334033528,41.41387600798366,1.1966805058512209,0.8803917076864862,0.104086845913551,4589.378200954861,11.837111111111112,0.1033333333333333,179.14003410439784,-8.975713710442806,102.50101239222718,1553.0,1435.0,1200.0,1528.0,1471.0,997.6,110.0,292.15,1649405799.5622904,1649405800.7000716,acf77c03-436a-479c-b769-52738859a3b4
0.130570997887892,0.305882557028956,0.1408795754618245,-0.2492685554892683,-0.0644241689125437,0.2212707013992881,-0.0919049453467205,-0.1147179346370848,-10.732695900339843,19.50423457814393,41.4174493312609,1.1970240056291783,0.8960792260187601,0.1042980772774445,4602.246202256944,11.951666666666666,0.1322222222222222,179.04243525461777,-8.967044113383812,102.76765387050558,1553.0,1435.0,1200.0,1528.0,1471.0,997.6,110.0,292.15,1649405800.8087318,1649405801.9301803,acf77c03-436a-479c-b769-52738859a3b4
0.1524109817811635,0.3014251492834367,0.1469542729811992,-0.2462838010796185,-0.0545757950141748,0.2236243179167474,-0.0821880583192147,-0.1047775197497113,-10.77939857432976,19.228571789648345,41.58614569892144,1.194058481214335,0.8782095765036019,0.0685742098576341,4609.947970920139,11.949111111111112,0.1322222222222222,178.96505224696116,-8.949960197586059,102.99487908599376,1553.0,1435.0,1200.0,1528.0,1471.0,997.6,110.0,292.15,1649405802.0383952,1649405803.158301,acf77c03-436a-479c-b769-52738859a3b4
0.152871186103602,0.3037656170695447,0.1259821029687973,-0.4992121691579125,-0.1014114532440849,0.4671118579615815,-0.0339454899233903,-0.0618601733224626,-10.627478716535114,18.6200982524579,43.52663319407962,2.30705980413666,0.8985150632932692,0.0934246614392149,4615.18701171875,11.950555555555557,0.1311111111111111,178.90844819257956,-8.86759266965515,103.25684567924024,1553.0,1522.0,1200.0,1528.0,1471.0,997.6,110.0,292.15,1649405804.0672083,1649405805.1015549,cd5bae2d-b290-40d0-a3f0-e12a900ba496
0.1483480347391254,0.2946930172288751,0.1286118421667084,-0.4955568306744614,-0.0973616545695842,0.4702149500014116,-0.0295538252399943,-0.0539709551232062,-10.592834717197638,18.6715978496065,43.20896156872638,2.306226458945795,0.8667751461220248,0.076560578481148,4610.77294921875,11.946111111111112,0.13,178.8700852967413,-8.852315054301647,103.39614662845275,1553.0,1522.0,1200.0,1528.0,1471.0,997.6,110.0,292.15,1649405805.2104187,1649405806.258664,cd5bae2d-b290-40d0-a3f0-e12a900ba496
0.1690668393640423,0.3064074934062607,0.1281162374877729,-0.4989375636374682,-0.1003297200430619,0.4648113420394862,-0.0326897893749092,-0.0555230069000233,-10.576559923849356,18.6502992259653,43.6158926983747,2.301617126172211,0.9073742054915368,0.087725572853422,4610.77294921875,11.941222222222224,0.1222222222222222,178.85529262481884,-8.82992180478907,103.50527331973194,1553.0,1522.0,1200.0,1528.0,1471.0,997.6,110.0,292.15,1649405806.3673356,1649405807.4544995,cd5bae2d-b290-40d0-a3f0-e12a900ba496
0.1539711251192301,0.3034490369380307,0.1103022830185988,-0.8160488322685886,-0.1514579230611158,0.7722000165238566,0.0366190126000817,0.0146708040626108,-10.342829786270764,18.055659107804,45.59313818873765,3.703289731249841,0.9150034238319562,0.0830232484793449,4613.25439453125,11.934333333333337,0.1211111111111111,178.80192304446422,-8.677266128201898,103.65720632435942,1553.0,1613.0,1200.0,1528.0,1471.0,997.6,110.0,292.15,1649405809.5976193,1649405810.622845,58120029-3f0c-4a34-90b5-38f5cf12c27d
0.1737826696790535,0.2928415797690914,0.1058519551393162,-0.807565390486264,-0.1542393782506518,0.7776112102329192,0.0303354529179554,0.0091331799898473,-10.568913967210138,18.360899683455912,45.95138378471282,3.6980580212619407,0.8723226131050965,0.1008371994329444,4614.634602864583,11.931444444444445,0.1255555555555555,178.80807325035684,-8.657866588548032,103.68656323632204,1553.0,1613.0,1200.0,1528.0,1471.0,997.6,110.0,292.15,1649405810.731486,1649405811.8479316,58120029-3f0c-4a34-90b5-38f5cf12c27d
0.1544642012120295,0.299314783669469,0.11147807987074,-0.8124329389937969,-0.1491442580608043,0.7742734645756483,0.0386798178985902,0.0163270340996086,-10.342485472899092,18.064270494557192,45.797605425016656,3.699940875879358,0.8973123269856207,0.0751516138675406,4616.291666666667,11.938555555555556,0.1288888888888889,178.80276088100243,-8.63275226756111,103.73385698395504,1553.0,1613.0,1200.0,1528.0,1471.0,997.6,110.0,292.15,1649405811.956315,1649405813.082466,58120029-3f0c-4a34-90b5-38f5cf12c27d
0.1843142692761803,0.3041444006375366,0.0998338981038608,-1.0537875119249005,-0.1920671691811517,1.0049445638285683,0.0847128976041899,0.0686183877054533,-10.339227310280435,18.22781836684763,47.79678708307323,4.763551117222476,0.9266650784302478,0.085168164531502,4615.73876953125,11.922,0.1233333333333333,178.7905151107305,-8.519352723773634,103.74513893864408,1553.0,1710.0,1200.0,1528.0,1471.0,997.6,110.0,292.15,1649405814.1036975,1649405815.336427,9d28a5b1-50b7-4e10-a0de-2450b04ac9ab
0.166816389511292,0.3023617409739594,0.1039681515605389,-1.0578332673435624,-0.1881352029186788,1.0069547970774708,0.0899597330641351,0.0691746787963151,-10.346589364798517,18.21950686757839,47.34117484624032,4.777269039944317,0.9248292751694238,0.065811352332661,4608.844455295139,11.907777777777778,0.1177777777777777,178.8099098123337,-8.519855027268846,103.66872126439016,1553.0,1710.0,1200.0,1528.0,1471.0,997.6,110.0,292.15,1649405815.445093,1649405816.470909,9d28a5b1-50b7-4e10-a0de-2450b04ac9ab
0.168561120286492,0.2971781206644518,0.0983167408658199,-1.0529783608090266,-0.1930153925511802,1.0077133756454384,0.0829808097527197,0.0642439176460754,-10.42827307163353,18.37419673889368,47.31248052857188,4.768720551376986,0.9052666128318168,0.0893526095804522,4614.08251953125,11.903,0.12,178.82207513815538,-8.505162151999286,103.6053705009284,1553.0,1710.0,1200.0,1528.0,1471.0,997.6,110.0,292.15,1649405816.5793064,1649405817.6976063,9d28a5b1-50b7-4e10-a0de-2450b04ac9ab
0.172568943891159,0.2992894977105235,0.0786821975107952,-1.131579806078315,-0.2244711229968032,1.0819276472751969,0.0802878556149277,0.0646105638752134,-10.335913382954384,18.590257864526585,47.77807746373867,5.113370868536254,0.9168417465992622,0.1629935777091037,4614.49658203125,11.8875,0.105,178.81526771628262,-8.450418470392849,103.4597337923508,1553.0,1814.0,1200.0,1528.0,1471.0,997.6,110.0,292.15,1649405819.7247467,1649405820.8618448,762af7f6-aca1-439b-8d65-b23cf5b20cee
0.1851775317085279,0.3037130222800879,0.0882979401445539,-1.119055158284338,-0.2185400488891555,1.06709996452329,0.0797381389826834,0.0621320348105258,-10.480179678566564,19.13834808169493,47.95486642284531,5.055866265960439,0.9319636883458676,0.143159178200505,4613.530436197917,11.869111111111112,0.1011111111111111,178.8292255873065,-8.460222353172757,103.3639400097864,1553.0,1814.0,1200.0,1528.0,1471.0,997.6,110.0,292.15,1649405820.970555,1649405822.0040429,762af7f6-aca1-439b-8d65-b23cf5b20cee
0.1644142239163647,0.3046248337294014,0.0847887554088283,-1.1283305592105002,-0.223017180470468,1.07497401031526,0.0790488438305294,0.0630428346650378,-10.4156063608026,19.073396061048552,47.97129856126424,5.093913145395527,0.9356992992007128,0.1551460007365997,4610.77294921875,11.867,0.11,178.83227944077535,-8.441810439900125,103.26714180995909,1553.0,1814.0,1200.0,1528.0,1471.0,997.6,110.0,292.15,1649405822.1190405,1649405823.2246294,762af7f6-aca1-439b-8d65-b23cf5b20cee
0.1388374818705937,0.3041317576628498,0.1635545014984128,0.0812360789206077,-0.0120058782126399,-0.0960058216108017,-0.1637216118786005,-0.1919154536892249,-10.897836368823029,20.7229810189228,39.13323889421444,-0.252715152683603,0.8716923309703665,0.1030943694718162,4598.40478515625,11.87677777777778,0.1044444444444444,178.82613227052238,-8.7986289136517,103.16278410854036,1553.0,1349.0,1200.0,1528.0,1471.0,997.6,110.0,292.15,1649405825.0486476,1649405826.300329,5eeb2bf1-a7d3-4d76-94c7-6259af9758c5
0.1363169780131993,0.3033711562081696,0.1605237271006826,0.0812633877642432,-0.0140646606571717,-0.0937063167986963,-0.1663923145973528,-0.1917955980494815,-10.980139626416417,20.69070623330655,39.336516349612886,-0.2479833519422883,0.8674244477415695,0.1139828973714364,4593.749728732639,11.953333333333337,0.1388888888888889,178.7786745983493,-8.815008561055038,103.41588283951444,1553.0,1349.0,1200.0,1528.0,1471.0,997.6,110.0,292.15,1649405826.4087284,1649405827.5315337,5eeb2bf1-a7d3-4d76-94c7-6259af9758c5
0.1286775856582249,0.3041863753227325,0.1620621245159815,0.0819076738645539,-0.0109484195799822,-0.0960993796432637,-0.1638809134044265,-0.1892578995064045,-11.001569713391488,20.511964901125936,39.21214834501271,-0.2559531435773803,0.8717511318924045,0.1040530120001875,4597.034884982639,11.951,0.1355555555555555,178.75287773276406,-8.804266381037898,103.61598157925896,1553.0,1349.0,1200.0,1528.0,1471.0,997.6,110.0,292.15,1649405827.6402633,1649405828.764593,5eeb2bf1-a7d3-4d76-94c7-6259af9758c5
0.1060163138588722,0.3058764883998196,0.1872727258118653,0.3419848287275131,0.0319663969882558,-0.3502561203483327,-0.2190346421764528,-0.2439160240850001,-11.093335717832607,21.99754276002991,37.23103621040343,-1.4030062162650947,0.8659004752723392,0.0887806315111201,4597.856825086806,11.949888888888887,0.13,178.72466146239287,-8.889391218391246,103.96790555842404,1553.0,1264.0,1200.0,1528.0,1471.0,997.6,110.0,292.15,1649405830.5349183,1649405831.7236564,f74975d9-ee62-4854-a924-334f5875b34e
0.1254035603801365,0.3144160603356553,0.185164383009363,0.3237910801289444,0.0287080488868938,-0.3388637845653197,-0.2165940416048855,-0.2495052325438294,-11.094419993170897,21.70877505759757,37.66287473701788,-1.3383164429086505,0.89621084718444,0.0942182196781449,4594.023383246527,11.950333333333331,0.13,178.73092398695184,-8.880277564172465,104.11886260491012,1553.0,1264.0,1200.0,1528.0,1471.0,997.6,110.0,292.15,1649405831.8322427,1649405833.0585816,f74975d9-ee62-4854-a924-334f5875b34e
0.1309482643249865,0.3075200753238631,0.1785237859351481,0.3260673215838413,0.0242541808502417,-0.3361465554557579,-0.2211586625647051,-0.2436378784940084,-11.076801204904385,21.64699685964036,37.344280033520405,-1.3381272188561295,0.8723434258273696,0.1146093312150293,4589.650336371527,11.940777777777775,0.13,178.73012713154867,-8.880768863474012,104.21536558878334,1553.0,1264.0,1200.0,1528.0,1471.0,997.6,110.0,292.15,1649405833.1678188,1649405834.380901,f74975d9-ee62-4854-a924-334f5875b34e
0.0886701494326364,0.3081648671160304,0.2075773462884858,0.6083344054027454,0.0735617918283896,-0.6100946513856061,-0.280062300383621,-0.2978889007235655,-11.383232219431983,23.2864344418836,35.30852091228765,-2.578614612024639,0.8620900371385315,0.0905081662380189,4591.015625,11.938666666666668,0.1255555555555555,178.74740447450915,-8.982335673706872,104.42022648819916,1553.0,1178.0,1200.0,1528.0,1471.0,997.6,110.0,292.15,1649405836.0334983,1649405837.3568144,36983631-b344-478e-81ea-2ee852990c91
0.1120970800413403,0.3073157648237289,0.2026915943975855,0.6104063362992252,0.0706655386376002,-0.606860576770572,-0.2827582892097445,-0.3064259458818921,-11.366295753358957,23.12178833948245,35.893571984854,-2.577253933841697,0.8530326003054456,0.1057713053340426,4591.015625,11.934666666666669,0.12,178.76246580053896,-8.981981642234892,104.50000461552472,1553.0,1178.0,1200.0,1528.0,1471.0,997.6,110.0,292.15,1649405837.465226,1649405838.6810076,36983631-b344-478e-81ea-2ee852990c91
0.1001054692550776,0.307289467432991,0.2058341326809956,0.606054118263391,0.0742025379235986,-0.6061636956376797,-0.2792212893915134,-0.2992730540266198,-11.476827414891767,23.068976341134736,35.44646264069824,-2.566190941627432,0.8584131795746807,0.0909066513634496,4597.582845052083,11.934666666666669,0.1266666666666666,178.7571519133647,-8.979082226932222,104.53793948617496,1553.0,1178.0,1200.0,1528.0,1471.0,997.6,110.0,292.15,1649405838.7895858,1649405839.905881,36983631-b344-478e-81ea-2ee852990c91
0.0807242912231786,0.3118126186491229,0.2055185639406482,0.7243923729820685,0.0775817527920733,-0.721004450927691,-0.3204293095552971,-0.3417827956648453,-11.444239052004734,24.15136874609246,35.06916930570938,-3.0840797039380368,0.8639194148038782,0.1460369534271747,4598.40478515625,11.932,0.13,178.78744152560398,-9.053204862761277,104.64703582105784,1553.0,1088.0,1200.0,1528.0,1471.0,997.6,110.0,292.15,1649405841.5361884,1649405842.4799385,78e11351-2b35-4f04-9935-e56b9ca0fb7e
0.0988856748360334,0.3138036345595428,0.210497873859546,0.7536274848443818,0.0852186166547851,-0.7457159185915943,-0.3212910549993814,-0.3431507660813269,-11.30881743345403,24.123341530515784,35.67568432947048,-3.205329930638136,0.8617686450735813,0.1315337549074623,4620.454481336806,11.907,0.1144444444444444,178.80105181589008,-9.04200819057312,104.64732724246244,1553.0,1088.0,1200.0,1528.0,1471.0,997.6,110.0,292.15,1649405842.5885427,1649405843.8094313,78e11351-2b35-4f04-9935-e56b9ca0fb7e
0.107876348616956,0.3225682514585951,0.2124610752454918,0.7537797062959223,0.0859969182646717,-0.7514568443942891,-0.3215338002058106,-0.3508159515962647,-11.316777749930148,24.07601347931736,36.107291603878,-3.2187251271304573,0.8909772161947318,0.1298276935546903,4676.747287326389,11.901888888888887,0.11,178.80642641585695,-9.070280620277524,104.65243242941207,1553.0,1088.0,1200.0,1528.0,1471.0,997.6,110.0,292.15,1649405843.9173543,1649405845.0290325,78e11351-2b35-4f04-9935-e56b9ca0fb7e
0.1385214074451028,0.3177482431733234,0.1487369327085507,-0.2332200641180847,-0.0579251726573305,0.2043660302478321,-0.0876361703117673,-0.1146415711024296,-10.406324647733376,19.42478332336919,42.81297014470337,1.1230867808020553,0.9244251764028636,0.0824635110202536,4722.263671875,11.920777777777776,0.1222222222222222,178.8382687577676,-8.79444466387516,104.64530702428794,1553.0,1435.0,1200.0,1528.0,1471.0,997.6,110.0,292.15,1649405846.0524335,1649405847.2000988,c0d2ca3b-e101-40a7-8bc9-fbaab3af0636
0.1520296695781921,0.3140084507744992,0.1462705407766016,-0.2309787168702892,-0.0588228240949756,0.2036645979030457,-0.089538179916467,-0.1160328044297092,-10.435655885126428,19.379563497269764,42.4698325545554,1.1159625981521006,0.9132144194091454,0.0888373836108776,4736.176540798611,11.952,0.1277777777777777,178.8459124983587,-8.777982200428136,104.6790071776528,1553.0,1435.0,1200.0,1528.0,1471.0,997.6,110.0,292.15,1649405847.3168747,1649405848.422533,c0d2ca3b-e101-40a7-8bc9-fbaab3af0636
0.1426415007260609,0.3075655900277694,0.1479535738480834,-0.2235760000724198,-0.0556276907736524,0.2064915674718097,-0.0878157006019703,-0.1179525141727338,-10.4914811743053,19.48207287513868,42.95521698831457,1.1064290837345685,0.88433994299428,0.0796276947776132,4721.393663194444,11.953555555555557,0.1277777777777777,178.84134993199316,-8.775102991101761,104.72631838021364,1553.0,1435.0,1200.0,1528.0,1471.0,997.6,110.0,292.15,1649405848.5308125,1649405849.6468475,c0d2ca3b-e101-40a7-8bc9-fbaab3af0636
0.1928300726425129,0.3347965381326723,0.330865078222279,-0.245179310465329,0.1075870773040033,0.189003802185864,0.1012362571178287,0.0846820486456491,-9.154821572262216,19.48012154617124,42.85925982650743,1.125615895969236,0.9921178833379856,-0.6572691928024823,4717.3505859375,11.947777777777778,0.12,178.84927902270962,-8.78954058805109,104.74320867912118,1553.0,1435.0,1200.0,1424.0,1471.0,997.6,110.0,292.15,1649405850.6501296,1649405851.7952547,6ae796da-262d-45ec-a401-e16ab73c4a41
0.1869394569556625,0.33406021119369,0.3243959200913264,-0.2453502435428794,0.1025116806132635,0.1884121108710217,0.0959767786580276,0.0795540571811698,-9.13695533840562,19.342992109910327,42.60675803003687,1.1234094443994784,0.9910762836395244,-0.6344277188797417,4715.332465277777,11.943555555555555,0.12,178.8525362640338,-8.801514668576031,104.7778438094924,1553.0,1435.0,1200.0,1424.0,1471.0,997.6,110.0,292.15,1649405851.9273503,1649405852.9208462,6ae796da-262d-45ec-a401-e16ab73c4a41
0.1837832642516865,0.3306187930520806,0.3235640122621228,-0.2436252355401402,0.1021222769191488,0.1916851246762793,0.094195130355622,0.0715768444299616,-9.28067479110304,19.479757235540056,42.807437530485146,1.1276980018616738,0.9771446623695772,-0.6305015510559294,4711.588758680556,11.947333333333336,0.12,178.8638880384344,-8.817377024013478,104.77875298356192,1553.0,1435.0,1200.0,1424.0,1471.0,997.6,110.0,292.15,1649405853.0294423,1649405854.244933,6ae796da-262d-45ec-a401-e16ab73c4a41
0.2907302027151797,0.3614170832166171,0.5774349721983911,-0.2460400444562041,0.3319210196043717,0.142364872411241,0.3496717582857754,0.3184183207329827,-7.4321381433402,19.628441975211995,41.719998533003725,1.0366999171607447,1.105605333511553,-1.649890703422276,4704.40771484375,11.949,0.1233333333333333,178.82750741527525,-8.82836300383849,104.75751868434229,1553.0,1435.0,1200.0,1304.0,1471.0,997.6,110.0,292.15,1649405856.0947564,1649405857.3165388,fd21b216-0dc8-4528-b6a4-4296db1d53a9
0.2547988637035325,0.3578517639199349,0.5572062106699545,-0.2488088567928259,0.3130450559796351,0.1449313967072578,0.3289119912533736,0.3132852724161318,-7.59081748157693,19.660680681189746,41.06882797661337,1.04773578372611,1.0981866712088548,-1.5685477444942115,4645.759765625,11.945,0.12,178.8263599434947,-8.82925405893396,104.78509443475131,1553.0,1435.0,1200.0,1304.0,1471.0,997.6,110.0,292.15,1649405857.4254067,1649405858.553291,fd21b216-0dc8-4528-b6a4-4296db1d53a9
0.2540402851137818,0.3522003535387265,0.5629081928281593,-0.2469250529834374,0.3193665441388603,0.1453612579079643,0.3343484710499173,0.3182286762216357,-7.670960136038591,19.76192480003909,40.63170790929633,1.045297398282864,1.0815631161135997,-1.5940520794322508,4585.562879774306,11.938888888888888,0.1255555555555555,178.82204478175905,-8.8283970599206,104.80649797088044,1553.0,1435.0,1200.0,1304.0,1471.0,997.6,110.0,292.15,1649405858.6835487,1649405859.885399,fd21b216-0dc8-4528-b6a4-4296db1d53a9
0.3478132407857005,0.387208754666027,0.7690898444387299,-0.2204506557813731,0.5056102256811379,0.0762421029923894,0.5293663775761943,0.5001484599677217,-6.265629792679023,20.16984339657177,40.68003865606723,0.8439433975153983,1.212309138741585,-2.401083259074828,4556.84521484375,11.932,0.1255555555555555,178.82263217802767,-8.85639002105147,104.71446951982348,1553.0,1435.0,1200.0,1166.0,1471.0,997.6,110.0,292.15,1649405861.5358064,1649405862.641549,f402d929-cda7-4eef-882f-1b869d685f84
0.3460685100595441,0.3930371666790003,0.7705311437056815,-0.2262664259089563,0.5066343067295325,0.0774558287858234,0.5320466884793464,0.5106421301309317,-6.255192907880509,20.00584292738473,40.920748043155456,0.8588179662551547,1.2327665916361108,-2.407190583456281,4567.368489583333,11.910666666666666,0.1133333333333333,178.81702535162904,-8.869683940769773,104.66040933145274,1553.0,1435.0,1200.0,1166.0,1471.0,997.6,110.0,292.15,1649405862.749857,1649405863.872351,f402d929-cda7-4eef-882f-1b869d685f84
0.3198464715079699,0.3839069150062106,0.772963652276604,-0.2143850604172383,0.5090298978292103,0.0788177302805499,0.532040114134966,0.5027448215977404,-6.2800156695313225,20.379534860818765,41.40261274988423,0.8377395796971421,1.1931252266255987,-2.41425156766335,4573.595648871527,11.916222222222224,0.1111111111111111,178.82890836296502,-8.883165500962779,104.6211896263286,1553.0,1435.0,1200.0,1166.0,1471.0,997.6,110.0,292.15,1649405863.9812462,1649405865.0047195,f402d929-cda7-4eef-882f-1b869d685f84
0.0831173539178554,0.2670018645827153,-0.0513017695569239,-0.1942018096441942,-0.2334506720544448,0.216813293577865,-0.2968142474400057,-0.3119746965930607,-11.953323282393384,19.77683063290959,41.05121709623487,1.0543554398748305,0.7431796531804378,0.8825260302950758,4601.971788194444,11.92311111111111,0.1122222222222222,178.92302229844853,-8.864930318834922,104.6676834829188,1553.0,1435.0,1200.0,1623.0,1471.0,997.6,110.0,292.15,1649405867.147443,1649405868.1716695,f598797e-da06-4a2e-9aea-ac5256c9ee56
0.0742156866134828,0.274338836666206,-0.047856810995413,-0.197686214495208,-0.2355150175927586,0.215800844008994,-0.2994965818635162,-0.3273718223739431,-12.051413470967091,20.2430364131223,41.47072668694338,1.0632198607019407,0.7683292180231337,0.8856499262545124,4609.946451822917,11.952666666666666,0.13,178.9107173332038,-8.87065496599678,104.70357157354778,1553.0,1435.0,1200.0,1623.0,1471.0,997.6,110.0,292.15,1649405868.2807877,1649405869.3961506,f598797e-da06-4a2e-9aea-ac5256c9ee56
0.0744129170464524,0.2725111679928518,-0.0493952085292971,-0.197239158792377,-0.2332665902815329,0.2144596770536901,-0.2969457344301633,-0.3226514401121098,-12.004953170871724,19.83642812564724,41.0927866082227,1.056388715048712,0.7643357239479895,0.8805017198868239,4613.25439453125,11.950666666666669,0.12,178.90111408723078,-8.893957294715138,104.72675095886107,1553.0,1435.0,1200.0,1623.0,1471.0,997.6,110.0,292.15,1649405869.506405,1649405870.7117715,f598797e-da06-4a2e-9aea-ac5256c9ee56
0.0402657529641098,0.2461874795549954,-0.2003028053398282,-0.1703632212007558,-0.3715908953006711,0.2253204996495283,-0.4605681414052326,-0.4834337296666451,-13.21625956716588,20.519484901385635,41.2754622019172,1.0166021568448904,0.6596960114387466,1.5037522284576752,4600.873046875,11.949555555555555,0.12,178.94112229974908,-8.894615079877704,104.78734991499726,1553.0,1435.0,1200.0,1712.0,1471.0,997.6,110.0,292.15,1649405872.565258,1649405873.7017927,e13e68ed-9a3e-4523-aa7e-d3af295adbbc
0.0162258902703004,0.2499692466842406,-0.2019286923290332,-0.1746577880625889,-0.3739743497754534,0.2242534324212801,-0.4608695500410434,-0.4824764033712168,-13.079477993392288,20.38720407104702,41.08191110103416,1.0229719402434283,0.6750507067781029,1.5099408816682176,4600.873046875,11.932666666666668,0.12,178.96529358031182,-8.928459426125025,104.73426796149764,1553.0,1435.0,1200.0,1712.0,1471.0,997.6,110.0,292.15,1649405873.8101375,1649405874.9268477,e13e68ed-9a3e-4523-aa7e-d3af295adbbc
0.0172292369508264,0.2489092595324117,-0.2019069464187535,-0.1748863731010431,-0.3717749770579447,0.2248339979047308,-0.4586878773909349,-0.4732697854774084,-13.106771191919645,20.17771207261933,40.9980756533936,1.023377412722836,0.6720372859374584,1.5036277647464291,4600.873046875,11.933222222222222,0.12,178.9716517275192,-8.938248415297993,104.71433822840946,1553.0,1435.0,1200.0,1712.0,1471.0,997.6,110.0,292.15,1649405875.0351856,1649405876.2740717,e13e68ed-9a3e-4523-aa7e-d3af295adbbc
-0.0317289231186461,0.2295508396028585,-0.3503446212575196,-0.1349841226320819,-0.5069911422059387,0.2144424826017722,-0.6260248079961971,-0.6525497835189621,-14.366005887473849,20.83559551369219,40.83093990751253,0.9063260639273076,0.5955134940085183,2.1250072393827,4600.873046875,11.93588888888889,0.1188888888888888,179.033792788588,-8.94296817087821,104.70101480606849,1553.0,1435.0,1200.0,1801.0,1471.0,997.6,110.0,292.15,1649405877.0683615,1649405878.1177895,0248271b-ca42-4b4c-a5a9-812534c7420d
-0.036180768329328,0.2268325996493252,-0.3436367621870961,-0.1338755863070545,-0.5024861954384087,0.2149724761810484,-0.6196016677421722,-0.638509499714459,-14.200273997042958,21.036192633404845,40.72009537493082,0.9067459890035732,0.5854200041672302,2.1001406531204427,4598.40478515625,11.931,0.1122222222222222,179.0287612158994,-8.95198136439795,104.64615472665494,1553.0,1435.0,1200.0,1801.0,1471.0,997.6,110.0,292.15,1649405878.2260334,1649405879.4422038,0248271b-ca42-4b4c-a5a9-812534c7420d
-0.0168860675269714,0.2300944875992082,-0.3450472129102934,-0.1330876759081171,-0.5035016795814419,0.2129758973190518,-0.6218146951483843,-0.6492752510580666,-14.25981673619384,20.975896629421293,40.98069095872484,0.9000237045120362,0.5955783977064354,2.107349509592497,4595.93896484375,11.929444444444444,0.12,179.0230238569966,-8.950654695015412,104.61433211640194,1553.0,1435.0,1200.0,1801.0,1471.0,997.6,110.0,292.15,1649405879.554882,1649405880.6663024,0248271b-ca42-4b4c-a5a9-812534c7420d
0.1292561282737648,0.2834377339308598,0.0681935836309861,-0.237881783391383,-0.1023318622126564,0.2420587891325773,-0.1204507666243499,-0.1342043038679015,-9.811848105425492,15.92806149186124,42.38466975396884,1.1913433976288592,0.7907369993229348,0.2965117933119101,7551.91748046875,11.647666666666668,7.556666666666666,-179.15577541370496,-9.014455207461287,91.17422130583007,1553.0,1435.0,1350.0,1528.0,1471.0,997.6,110.0,292.15,1649405884.7125692,1649405885.6960154,0cd91863-d372-4613-abe8-e38d6380bd1e
0.1211828289549437,0.2820571209047772,0.0630655921406076,-0.2429571807385033,-0.1071574339691013,0.2450698404149824,-0.1229227216397346,-0.1415938719341022,-9.71416606922636,15.806355756826818,41.927973227888494,1.2084727136577622,0.7892129200998683,0.3128565262314778,7560.0595703125,11.64788888888889,7.537777777777778,-178.67621720733965,-8.909508022771702,85.55338922480931,1553.0,1435.0,1350.0,1528.0,1471.0,997.6,110.0,292.15,1649405885.8037715,1649405886.8535516,0cd91863-d372-4613-abe8-e38d6380bd1e
0.1270077012576525,0.2862121086726027,0.079422570222855,-0.2284541670623718,-0.0934038968694458,0.2433473613005975,-0.1155857486388413,-0.1456831164400403,-10.080859297562007,16.40348629905659,44.2449691216045,1.1768445048306493,0.7861179795448175,0.2647773889058141,7565.248046875,11.643888888888888,7.529999999999999,-178.4453021718799,-8.82400097941605,81.4276126977532,1553.0,1435.0,1350.0,1528.0,1471.0,997.6,110.0,292.15,1649405886.9840028,1649405887.9478924,0cd91863-d372-4613-abe8-e38d6380bd1e
0.3264865626825403,0.623121124335796,0.1136223286546083,-0.3915769176458996,-0.1385433739546975,0.053335556993405,-0.1549660967084979,-0.1770164621095593,-9.48227024356284,15.42919281611206,42.79724012333038,1.1131423183217108,2.080561607670252,0.3738225098361025,7558.5771484375,11.644444444444446,7.588888888888889,-178.83626827125067,-8.678294545990676,73.4553650515505,1658.0,1435.0,1350.0,1528.0,1551.0,997.6,110.0,292.15,1649405889.5344048,1649405890.6144283,1f804116-95f5-4f5d-8d1e-0a59d2d06c14
0.324040905339667,0.6246595216472159,0.1217745202231085,-0.3862911406860398,-0.1333759358825495,0.0555182406062555,-0.1497986586289995,-0.1682462810763608,-9.451109867752228,15.775867878004664,44.059924222654864,1.1090447221088442,2.074791742707709,0.3502075134477123,7558.5771484375,11.623111111111111,7.58,-178.99136213564404,-8.649223648199548,70.80446466401119,1658.0,1435.0,1350.0,1528.0,1551.0,997.6,110.0,292.15,1649405890.745599,1649405891.8367736,1f804116-95f5-4f5d-8d1e-0a59d2d06c14
0.3317723382070771,0.6277889110495841,0.1054043936280579,-0.4004522893678118,-0.1472215141400733,0.0495224351271955,-0.1591079363621479,-0.1894419814592591,-9.127305975200224,15.062182660099388,41.69911945146168,1.121755868699469,2.1058544625315965,0.4020785407143863,7558.5771484375,11.624000000000002,7.6,-179.2282755950149,-8.622468374264532,68.31903547494423,1658.0,1435.0,1350.0,1528.0,1551.0,997.6,110.0,292.15,1649405891.945783,1649405893.1587036,1f804116-95f5-4f5d-8d1e-0a59d2d06c14
0.4630752085632369,0.9046741308669736,0.1569867278126935,-0.515542854594868,-0.1674968053619786,-0.1202140900084908,-0.1843797327127446,-0.2077581168889261,-9.029174885360517,15.435675846936896,41.167755483539686,1.004960432463256,3.165803790467229,0.4270233842975136,7565.248046875,11.625,7.59,179.95599126994478,-8.663626240429382,63.67419265063375,1767.0,1435.0,1350.0,1528.0,1630.0,997.6,110.0,292.15,1649405895.0322793,1649405896.0260248,b02479d8-e7c0-477d-8762-c48deff3bc7d
0.461246022790467,0.902346811824861,0.1622017029005364,-0.5113656137407413,-0.1647836221710551,-0.1158932259026742,-0.182660793369488,-0.2001713186556718,-9.126419656120662,15.874695983894018,42.026063235936846,1.0085050162544076,3.14997978303626,0.4144893426342756,7565.248046875,11.590666666666666,7.591111111111112,179.7637882288808,-8.699541936406247,62.27543213922758,1767.0,1435.0,1350.0,1528.0,1630.0,997.6,110.0,292.15,1649405896.134864,1649405897.3702075,b02479d8-e7c0-477d-8762-c48deff3bc7d
0.4683260893731441,0.8981872726829002,0.1509873824719384,-0.5196341230704759,-0.1741141401676273,-0.1147932867832266,-0.1892098561602632,-0.2063284493386827,-8.9886442898616,15.572121731740909,40.45612082102351,1.0268833527224766,3.147620173015899,0.4492391312510356,7565.248046875,11.589333333333332,7.586666666666667,179.48118839306164,-8.721181683244142,60.87623297789472,1767.0,1435.0,1350.0,1528.0,1630.0,997.6,110.0,292.15,1649405897.478732,1649405898.6874578,b02479d8-e7c0-477d-8762-c48deff3bc7d
0.6000057185735055,1.1505415870716984,0.1992203386358856,-0.6201013190556435,-0.1946094194580326,-0.2895693149143091,-0.215081941476129,-0.2327932377551722,-8.540569080295484,16.092270224774747,37.68822072279416,0.8664017973502888,4.130898940491285,0.4740939352876668,7565.248046875,11.556222222222225,7.594444444444445,178.91799831485903,-8.737351492057977,59.17768028561851,1886.0,1435.0,1350.0,1528.0,1710.0,997.6,110.0,292.15,1649405899.710605,1649405900.857397,a8ac5109-e810-4223-aad1-01a5029ca68c
0.5965385088517764,1.1447379550386456,0.1949090836136461,-0.6213848343098268,-0.1970611458151486,-0.2894307477730464,-0.2179094171685322,-0.2407932083569687,-8.580413941195475,16.014020838255714,36.705775514990094,0.8686984114791032,4.11800458157134,0.4852408174410008,7559.318359375,11.534666666666668,7.569999999999999,178.77474648066664,-8.746278359575706,58.42540249152341,1886.0,1435.0,1350.0,1528.0,1710.0,997.6,110.0,292.15,1649405900.9918206,1649405901.9456246,a8ac5109-e810-4223-aad1-01a5029ca68c
0.6338110133428182,1.1541969245201036,0.2134735247718742,-0.6218106498931446,-0.1844060302011115,-0.2822191926182786,-0.2017228647094025,-0.2241150967332809,-8.467778275001743,16.37712204797641,39.12012053403154,0.8896372599457435,4.132521453134097,0.4241282827066009,7558.5771484375,11.531777777777778,7.58,178.59572722252062,-8.762345146369562,57.79369650902671,1886.0,1435.0,1350.0,1528.0,1710.0,997.6,110.0,292.15,1649405902.0541,1649405903.200097,a8ac5109-e810-4223-aad1-01a5029ca68c
-0.1315877129861847,-0.1513633535842408,0.0263675808087815,-0.0609792105260163,-0.0447142726123239,0.5091087900025678,-0.0627937305554015,-0.0910897262501708,-10.884440303850074,17.211086608631256,42.99277740080986,1.3983712367662493,-0.8622398139499508,0.1414778022737133,7558.5771484375,11.569,7.6,179.28208382529633,-8.736835623048165,56.96259491681506,1449.0,1435.0,1350.0,1528.0,1386.0,997.6,110.0,292.15,1649405904.1059272,1649405905.2415082,4c4bdb0c-96c8-461f-b111-0166d4dc2026
-0.1232908851460226,-0.1466429712684299,0.0163877202805986,-0.0767313492932689,-0.0569820066395735,0.5122250307262987,-0.0705777590529008,-0.0941665213274975,-10.756638017775384,17.09372288334733,41.96420489592886,1.4395322347925044,-0.835019086213326,0.1819932291312503,7565.248046875,11.633,7.65,179.08781958492278,-8.74074078370612,56.463244340054885,1449.0,1435.0,1350.0,1528.0,1386.0,997.6,110.0,292.15,1649405905.3508236,1649405906.477357,4c4bdb0c-96c8-461f-b111-0166d4dc2026
-0.1374914780136232,-0.1560179924005685,0.0160721515546824,-0.06786912758342,-0.0544443081550576,0.5161301931548633,-0.0718794800442484,-0.0980848329635075,-11.012002475886836,17.2507606396829,42.3666196047315,1.42927756758611,-0.8730487712729846,0.1800881833103734,7571.93115234375,11.635333333333334,7.623333333333333,178.97162896022198,-8.724281735353681,56.10675286160982,1449.0,1435.0,1350.0,1528.0,1386.0,997.6,110.0,292.15,1649405906.58895,1649405907.6988056,4c4bdb0c-96c8-461f-b111-0166d4dc2026
-0.3444150639034857,-0.5167515231215802,-0.0327782903317414,0.0608050277985364,-0.0240040639327105,0.7434625321680994,-0.0341816607737131,-0.0480636504147804,-11.578761937590052,18.25961056269783,41.22984519636445,1.6536551795295864,-2.230854539340471,0.1066080508229178,7571.93115234375,11.62322222222222,7.615555555555555,178.91310031031423,-8.678791916571488,55.55928474051176,1342.0,1435.0,1350.0,1528.0,1293.0,997.6,110.0,292.15,1649405908.6090145,1649405909.6603034,6ce6f665-3c2e-47f1-8b3b-47ef5daac219
-0.3063217676555337,-0.5093933084659759,-0.0293014715115179,0.0456081692646734,-0.0262418709484562,0.7530964798431671,-0.0312737759343029,-0.0551310746271117,-11.546977227636846,18.51196750502371,41.65608890015537,1.7115143082523934,-2.2051637620405105,0.1020534619485707,7571.93115234375,11.589666666666666,7.606666666666667,178.84992864959068,-8.657849038756414,55.22282848363207,1342.0,1435.0,1350.0,1528.0,1293.0,997.6,110.0,292.15,1649405909.7739327,1649405910.8834188,6ce6f665-3c2e-47f1-8b3b-47ef5daac219
-0.3177763067146599,-0.5170170257364092,-0.0222340471123293,0.0616394642978666,-0.0172274280153068,0.7466106331839995,-0.0255212211923793,-0.0509715350408841,-11.48016313915882,18.616333402898217,41.81838796091573,1.6618803395162536,-2.237192671713591,0.0714022679666849,7571.93115234375,11.590333333333334,7.616666666666666,178.75142821484025,-8.66114545880459,54.93683935616474,1342.0,1435.0,1350.0,1528.0,1293.0,997.6,110.0,292.15,1649405910.991401,1649405912.3168004,6ce6f665-3c2e-47f1-8b3b-47ef5daac219
-0.546126730203937,-0.8867964396385974,-0.0900509791905005,0.1786163324442331,-0.0085159108185585,0.9674722992951484,-0.0129470215081919,-0.0383503037101328,-12.327570316497845,20.140978641314515,36.79840653999933,1.899818287934936,-3.592276320606472,0.082059549752837,7571.93115234375,11.568,7.58111111111111,178.79248524085108,-8.615271347017845,54.58641612134229,1227.0,1435.0,1350.0,1528.0,1189.0,997.6,110.0,292.15,1649405913.1127746,1649405914.2528913,cda834d6-7ff1-4a5e-ab54-e02cb3339e91
-0.5442879350660845,-0.8883287693215453,-0.0722875954501552,0.203190233282459,0.0118514199969128,0.9605045022347742,0.0008899586917553,-0.0185928695548011,-12.463102520548489,20.2705978161526,38.93082417731671,1.830743473264248,-3.617861059769875,0.0132938122173759,7565.248046875,11.488,7.545555555555556,178.75833429500102,-8.611194577856995,54.34054335105512,1227.0,1435.0,1350.0,1528.0,1189.0,997.6,110.0,292.15,1649405914.3612254,1649405915.4845643,cda834d6-7ff1-4a5e-ab54-e02cb3339e91
-0.5262843305106117,-0.8876966200907795,-0.0760678457366242,0.1914449080254758,0.0057575049805537,0.9713016039362636,-0.0002984811548209,-0.0336632991330447,-12.381831064438485,20.32016188869845,38.9960505801362,1.8816922210446008,-3.615436141361701,0.0285409223178886,7565.248046875,11.49125,7.5475,178.7362868238151,-8.611237195391505,54.1650555853012,1227.0,1435.0,1350.0,1528.0,1189.0,997.6,110.0,292.15,1649405915.5933025,1649405916.823103,cda834d6-7ff1-4a5e-ab54-e02cb3339e91
0.1045628772236489,0.2754696244767377,0.0724932073254269,-0.2216957364598125,-0.0929962872990835,0.2481597838808009,-0.1215158110395971,-0.1415281281001199,-10.605696721995244,16.232576239389644,44.27281621365825,1.1706755270693878,0.7480207039849591,0.2806126456029114,7565.990614149306,11.506,7.559999999999999,178.2066720582976,-8.633510133967766,53.85698720729563,1553.0,1435.0,1350.0,1528.0,1471.0,997.6,110.0,292.15,1649405918.5524194,1649405919.576669,3d2fd982-8f9a-4b08-8651-cf0f9ae96c4e
0.138862767831265,0.2833846334281216,0.0740927967902637,-0.2275433669220896,-0.0939070874408047,0.2439764758092029,-0.1193321159078992,-0.1425319805470231,-10.365215409430052,16.116229789357835,44.029953077093225,1.1738566094947689,0.7789766228321279,0.2773434876172815,7575.278564453125,11.6415,7.605,178.16950065101457,-8.625096716434516,53.86418831368307,1553.0,1435.0,1350.0,1528.0,1471.0,997.6,110.0,292.15,1649405919.6858203,1649405920.8015718,3d2fd982-8f9a-4b08-8651-cf0f9ae96c4e
0.1189627222170379,0.2756724178170092,0.0748387324392508,-0.2239527609888031,-0.0903417677017354,0.2485532333044881,-0.1165380177751316,-0.1464133749069804,-10.457628394639574,16.066377967161134,44.09105477661178,1.1757115578872166,0.7497680213175667,0.266632716382515,7578.6259765625,11.643333333333334,7.621111111111111,178.17766348598263,-8.598991116812428,53.86940221447699,1553.0,1435.0,1350.0,1528.0,1471.0,997.6,110.0,292.15,1649405920.909766,1649405922.0383022,3d2fd982-8f9a-4b08-8651-cf0f9ae96c4e
0.1386574458658431,0.2695527115030783,0.0557812144799458,-0.5254438254246536,-0.1384644817211369,0.5366290086994386,-0.0493163163455297,-0.0694601200674718,-10.088293718476228,15.185853446126428,44.91783507267476,2.496677931977247,0.7527705339383691,0.2608474896464685,7578.6259765625,11.641555555555556,7.626666666666665,178.15047629744635,-8.483480190797772,53.89463976346019,1553.0,1522.0,1350.0,1528.0,1471.0,997.6,110.0,292.15,1649405923.0592945,1649405924.2884386,af48ee1b-9265-42ab-89fb-d17df95c0f10
0.128993154344542,0.2749436766558137,0.0507978585606781,-0.5258119890068048,-0.1446180720503029,0.537273294758643,-0.0572186831028044,-0.078887735597546,-10.237805623610557,15.309454230522636,45.66138907180451,2.4995707086202428,0.7671895459292241,0.2888155625634989,7578.6259765625,11.63211111111111,7.618888888888888,178.13030143645796,-8.46616253074842,53.91358670821781,1553.0,1522.0,1350.0,1528.0,1471.0,997.6,110.0,292.15,1649405924.396289,1649405925.5174172,af48ee1b-9265-42ab-89fb-d17df95c0f10
0.1457911191270018,0.2726633894268181,0.045519668465817,-0.5305070862160057,-0.1448709315872699,0.5299353114994863,-0.0550552167758392,-0.0853983636176938,-9.97851235002404,14.569533696299551,43.68272713460606,2.4883195396805187,0.7745696084827287,0.2906516023181996,7578.6259765625,11.629222222222223,7.633333333333334,178.15695890587858,-8.465083740314514,53.935219055684094,1553.0,1522.0,1350.0,1528.0,1471.0,997.6,110.0,292.15,1649405925.6259658,1649405926.7464733,af48ee1b-9265-42ab-89fb-d17df95c0f10
0.1635671444809479,0.2675682699210072,0.0485539829725631,-0.8993787377377797,-0.1873007665344994,0.9070373559733186,0.0440783691203144,0.0120157784131892,-9.990421054999985,14.794432743140392,48.68170502574677,4.170235099870707,0.756850453604955,0.2062605387808802,7578.6259765625,11.631333333333332,7.606666666666666,178.19590919798546,-8.30753850205526,53.97624724311847,1553.0,1613.0,1350.0,1528.0,1471.0,997.6,110.0,292.15,1649405927.5641258,1649405928.9056928,2e550c66-142e-4fec-ae4a-e3bf47e5001b
0.1563161444442731,0.2617292376818463,0.0400159276302073,-0.9088862617013376,-0.1940966202089122,0.9106962332703522,0.0410546747028626,0.0099448589493341,-9.840091066039664,14.511013446893523,47.102991183085145,4.197423787664275,0.7485031407689127,0.2286650698905865,7578.6259765625,11.63211111111111,7.611111111111111,178.1986625231309,-8.313065453186141,54.00679678200116,1553.0,1613.0,1350.0,1528.0,1471.0,997.6,110.0,292.15,1649405929.0140069,1649405930.130707,2e550c66-142e-4fec-ae4a-e3bf47e5001b
0.1461390538334769,0.2626364976696791,0.0406470650215312,-0.9003659018616261,-0.1945436759638999,0.9057523238817649,0.0383460432544764,0.0205295596847223,-9.804260113095475,14.712320455771906,47.630972119059535,4.168562433363771,0.7459672190559365,0.2331417740351021,7578.6259765625,11.624333333333333,7.62,178.26020556319236,-8.323702808772264,54.04775818536363,1553.0,1613.0,1350.0,1528.0,1471.0,997.6,110.0,292.15,1649405930.2400846,1649405931.3711443,2e550c66-142e-4fec-ae4a-e3bf47e5001b
0.1705561820133039,0.2573244246732419,0.0368339431316501,-1.226887701430244,-0.2351731515905848,1.2325105575927138,0.1214195054729182,0.1011179188329955,-9.825541115424407,14.555979238832997,50.90424026047768,5.638669788244084,0.7371408837012313,0.1765595881313312,7578.6259765625,11.614,7.602222222222222,178.35750995592815,-8.229032687190088,54.12863483478071,1553.0,1710.0,1350.0,1528.0,1471.0,997.6,110.0,292.15,1649405933.5945427,1649405934.6394968,b14ed081-bb63-4e90-8b48-96ee7b038c1e
0.1547676326540009,0.2666453326424497,0.024519683285323,-1.2436851752510687,-0.2521592462835246,1.2351478826158369,0.1086460530265444,0.0958513601610098,-9.712602347625888,14.614290596316009,50.28107670100887,5.682218094978974,0.7781121447927629,0.2348243099413942,7578.6259765625,11.576333333333334,7.573333333333333,178.38632728294635,-8.230324162125651,54.16549926300603,1553.0,1710.0,1350.0,1528.0,1471.0,997.6,110.0,292.15,1649405934.7477176,1649405935.865494,b14ed081-bb63-4e90-8b48-96ee7b038c1e
0.1734792382455617,0.2638006629380692,0.0158592438299681,-1.256795953885513,-0.260832329697816,1.23758797719139,0.1070024660162325,0.085509405142332,-9.304839884893802,14.260516726329136,48.4789538556813,5.714417564380383,0.7815882227147969,0.2582120692965949,7578.6259765625,11.579333333333333,7.586666666666667,178.42000466901396,-8.236164258457226,54.20786578806276,1553.0,1710.0,1350.0,1528.0,1471.0,997.6,110.0,292.15,1649405935.9741633,1649405937.1987865,b14ed081-bb63-4e90-8b48-96ee7b038c1e
0.1503173048170289,0.2631432281608303,0.0220290167218192,-1.3107562292268964,-0.2668630306107809,1.3034452454740617,0.1191902957140682,0.0989236037250642,-9.71137226635343,15.153487323402098,50.74658826192171,5.990512459911836,0.7689517320672247,0.2426579801749547,7578.6259765625,11.578,7.59111111111111,178.4334829089761,-8.251596691431919,54.27528165244556,1553.0,1814.0,1350.0,1528.0,1471.0,997.6,110.0,292.15,1649405938.101992,1649405939.1503704,c5de5146-9709-4f0f-84dd-5cbea7077d3c
0.169269126991796,0.2680866319524661,0.0079953119236621,-1.305370317941888,-0.2822495358397238,1.2803591693237109,0.1001246864973834,0.0812360788719199,-9.478700494418426,15.153275842484405,48.7308679647881,5.925581284829082,0.8021581997862242,0.3078549866663425,7578.6259765625,11.525666666666668,7.536666666666666,178.4685308863371,-8.22730436473886,54.304201052846345,1553.0,1814.0,1350.0,1528.0,1471.0,997.6,110.0,292.15,1649405939.2658494,1649405940.3748243,c5de5146-9709-4f0f-84dd-5cbea7077d3c
0.1751187794570832,0.2645562072121348,0.0215683066245008,-1.3182054813945383,-0.2700566470901005,1.3085363202007525,0.1183953052677819,0.1003815916637837,-9.69900816515421,15.32117243541617,50.685114263949714,6.019841561450312,0.7755993946693952,0.2487264735028203,7578.6259765625,11.535111111111112,7.571111111111112,178.49503202031684,-8.239165462551277,54.330536744466094,1553.0,1814.0,1350.0,1528.0,1471.0,997.6,110.0,292.15,1649405940.48303,1649405941.6123483,c5de5146-9709-4f0f-84dd-5cbea7077d3c
0.0836827478500424,0.2768107914128642,0.0825256624698039,0.1535154720896688,-0.0480277441820235,-0.1240798069725868,-0.217527599189967,-0.2372243483635378,-10.510355664729264,17.277853283156702,40.31803051368304,-0.5053347013911982,0.74188446132962,0.3399008172461768,7578.6259765625,11.59722222222222,7.618888888888888,178.54517623356344,-8.738222056585938,54.47042660776703,1553.0,1349.0,1350.0,1528.0,1471.0,997.6,110.0,292.15,1649405943.631148,1649405944.775484,abfcf37f-9f13-4005-8a78-ca07a72598a1
0.1122022696048385,0.2861200678026223,0.0794094214697086,0.1399065718674013,-0.0535107507197419,-0.1254998662387661,-0.2188030228601721,-0.240130211041212,-10.334522711113182,17.056328718276163,39.61661843701786,-0.4794743998823351,0.783246239829754,0.3536642828323648,7578.6259765625,11.643333333333333,7.63,178.5539537855568,-8.76359715798992,54.596080080107946,1553.0,1349.0,1350.0,1528.0,1471.0,997.6,110.0,292.15,1649405944.886155,1649405945.996168,abfcf37f-9f13-4005-8a78-ca07a72598a1
0.0897574454469823,0.2830685590193179,0.075432952339577,0.1433004525709875,-0.0547770713315292,-0.1268294018000783,-0.2224861753658394,-0.2379106093434173,-10.45986478203461,16.947255778804458,39.41945566531877,-0.4911333893736467,0.7737640195253113,0.3653930019278789,7578.6259765625,11.643666666666668,7.62,178.57022329615975,-8.779584638698411,54.724448932098895,1553.0,1349.0,1350.0,1528.0,1471.0,997.6,110.0,292.15,1649405946.1043024,1649405947.2298076,abfcf37f-9f13-4005-8a78-ca07a72598a1
0.0946619090763462,0.2883158999423993,0.1066798171563831,0.4756453610273806,0.0003463105810222,-0.4388201928339687,-0.2947367532013968,-0.3203109714242703,-10.986322974636591,18.911351221311985,39.12541580284476,-1.9276428090861173,0.7608723705496436,0.3525494514937062,7578.6259765625,11.642555555555557,7.584444444444443,178.57730999687865,-8.890403604208224,55.03466170491262,1553.0,1264.0,1350.0,1528.0,1471.0,997.6,110.0,292.15,1649405949.067124,1649405950.2034156,60ceae8f-c56b-4140-b21c-094d638213ca
0.0692191820842434,0.2870799225707017,0.0961871577082521,0.4589202208714502,-0.0071747438001546,-0.4320091666816271,-0.2953547420206374,-0.3171684323420807,-10.740003947254388,18.245038982716327,37.69688553056769,-1.879652959373053,0.7685370900359281,0.3761106404308666,7578.6259765625,11.620555555555557,7.615555555555555,178.6009075415511,-8.870794700283547,55.170265624509376,1553.0,1264.0,1350.0,1528.0,1471.0,997.6,110.0,292.15,1649405950.315982,1649405951.362832,60ceae8f-c56b-4140-b21c-094d638213ca
0.0784419810011787,0.2878349611183234,0.1098344927563755,0.4695271720662389,0.0054414304565425,-0.4350020128798088,-0.2874584430962565,-0.3107720963844266,-10.992573859401675,18.61154300442577,38.84428961785356,-1.9071400563706573,0.762552599136294,0.330557114416253,7579.371202256944,11.625555555555556,7.595555555555555,178.60711846023636,-8.87949655101362,55.29831421651923,1553.0,1264.0,1350.0,1528.0,1471.0,997.6,110.0,292.15,1649405951.4718468,1649405952.5563018,60ceae8f-c56b-4140-b21c-094d638213ca
0.0682330298605496,0.2912217616370562,0.130860269095438,0.8137246068759498,0.0517445646946881,-0.77048301579998,-0.3722746276769216,-0.396455084783525,-11.19547128955982,20.433542171644827,36.416866097550944,-3.424799631012923,0.7571911623920975,0.3587047171851468,7585.3330078125,11.628,7.603333333333334,178.65998564223207,-9.019068146471986,55.47352602365794,1553.0,1178.0,1350.0,1528.0,1471.0,997.6,110.0,292.15,1649405954.595907,1649405955.830989,ff3d3dff-1d38-485f-b668-ab0246119180
0.0773546849755219,0.2926392921461589,0.1239819839779402,0.8155527812172806,0.0457093131265294,-0.7728224733414368,-0.3822807873543961,-0.4018141909435638,-11.452391093815471,20.50631865304066,36.45652329285995,-3.4341636717760453,0.7633147983979794,0.390581391999042,7585.3330078125,11.61,7.650000000000001,178.68725631085823,-9.028412129847776,55.56977021925259,1553.0,1178.0,1350.0,1528.0,1471.0,997.6,110.0,292.15,1649405955.9399002,1649405957.0594723,ff3d3dff-1d38-485f-b668-ab0246119180
0.0543444666399188,0.2884797529161037,0.1207580248322341,0.8150976340663637,0.0458357428712278,-0.7726454715652574,-0.3814842796950993,-0.3975535073442163,-11.39989541871023,20.18432057089671,35.837345096224745,-3.4351065961215546,0.7526764022193135,0.3924580178955606,7581.606879340277,11.618333333333332,7.597777777777777,178.69023427333636,-9.018299086144188,55.63130832639964,1553.0,1178.0,1350.0,1528.0,1471.0,997.6,110.0,292.15,1649405957.168292,1649405958.2819831,ff3d3dff-1d38-485f-b668-ab0246119180
0.0486677698868736,0.2964154963265605,0.1306761873398276,1.0115730235221048,0.0645250974324428,-0.9759840975429234,-0.4376631074220165,-0.4534809925569681,-11.280397103448284,21.58696839869611,33.56183184259023,-4.325746378147443,0.7782245225687952,0.4324509994528948,7578.6259765625,11.61075,7.632499999999999,178.78235986486146,-9.117017826072823,55.74552976961724,1553.0,1088.0,1350.0,1528.0,1471.0,997.6,110.0,292.15,1649405960.1249654,1649405961.1524744,7e10cd67-58b6-4524-9965-40043d101f5a
0.0488518516205428,0.2956134259108194,0.1267710245900238,0.9931122553249804,0.0593708084559599,-0.9535261108927856,-0.4370977134088699,-0.4551508776114196,-11.44892391686724,21.61092604677872,34.21344917973488,-4.233653906789645,0.77265954970253,0.4445219384055369,7578.6259765625,11.57933333333333,7.586666666666667,178.81174789213028,-9.10206860526598,55.79634353112997,1553.0,1088.0,1350.0,1528.0,1471.0,997.6,110.0,292.15,1649405961.2642145,1649405962.381451,7e10cd67-58b6-4524-9965-40043d101f5a
0.0458802462763823,0.2968231058878425,0.1283620168333895,1.0063266940861415,0.0636967295427828,-0.9665170305659494,-0.4383073937762241,-0.4648020226984565,-11.51654740900078,21.495064534281795,34.2682071804175,-4.29336892453506,0.7756618040069359,0.4385232361808638,7578.6259765625,11.582555555555556,7.59111111111111,178.8207667774744,-9.117652061312318,55.84011973134041,1553.0,1088.0,1350.0,1528.0,1471.0,997.6,110.0,292.15,1649405962.4902427,1649405963.6193502,7e10cd67-58b6-4524-9965-40043d101f5a
0.1287959239262815,0.2770869140198122,0.074136794326761,-0.2174355584385394,-0.0918260533156344,0.2396920239353699,-0.1214895136630481,-0.1421329685692651,-10.496636384598302,16.235077888034244,43.85807397932978,1.142124631248212,0.756570188755392,0.2764642430272202,7578.6259765625,11.594111111111111,7.59111111111111,178.89125584752873,-8.741933315762454,55.878308457354805,1553.0,1435.0,1350.0,1528.0,1471.0,997.6,110.0,292.15,1649405964.6325026,1649405965.659394,5ea1534f-f44b-4bb7-b36b-f57f64bffa73
0.1157524175207252,0.2776917540099975,0.0602912172932462,-0.2274285686842884,-0.105461252002169,0.2377197195851224,-0.1296943006290467,-0.1547294203268996,-10.080240426778872,15.838625701866128,42.27241873557023,1.156873676603467,0.7702910747782732,0.3237938367368603,7585.3330078125,11.644666666666666,7.593333333333334,178.89916065312815,-8.756643740823632,55.88523958154255,1553.0,1435.0,1350.0,1528.0,1471.0,997.6,110.0,292.15,1649405965.7679932,1649405967.0050805,5ea1534f-f44b-4bb7-b36b-f57f64bffa73
