raw_voltage_G-,raw_voltage_G0,raw_voltage_G1,raw_voltage_G2,raw_voltage_G3,raw_voltage_G4,raw_voltage_G5,raw_voltage_G6,load_x,load_y,load_z,load_l,load_m,load_n,rpm,voltage,current,roll,pitch,yaw,aileron1_pwm,elevator_pwm,throttle_pwm,rudder_pwm,aileron2_pwm,pbaro,pdiff,Tt,sample_start_time,sample_end_time,uid
0.0723880178248703,0.1112687121804587,0.4424054598399624,0.055741768444022,0.221296998772733,-0.2672165281977859,0.1021172197316813,0.0791201501893234,-6.492996807146764,25.49873828930406,-13.359140073275247,-0.5405458692280608,0.6032984623418406,-1.069750493904551,4339.24267578125,11.959666666666667,0.16,178.76881787646707,12.903799708619268,54.34250020025232,1553.0,1435.0,1200.0,1528.0,1471.0,999.7000000000002,107.0,294.1,1649427522.4505167,1649427523.635298,f81750e4-53bb-48bd-ba21-7d55e76e41f7
0.0629209565875135,0.1051545685447708,0.4376456321964437,0.0553341588538705,0.2193641405093623,-0.2627459708548871,0.1007497553174744,0.073229533928847,-6.507742368590766,25.32581017684759,-13.649867245556154,-0.5310175977115201,0.5827932844176953,-1.0597754941265638,4342.650444878473,11.949555555555555,0.1422222222222222,178.82561014050583,12.904234089677734,53.911606332813456,1553.0,1435.0,1200.0,1528.0,1471.0,999.7000000000002,107.0,294.1,1649427523.7461834,1649427524.8649654,f81750e4-53bb-48bd-ba21-7d55e76e41f7
0.0659714541102865,0.1083628503743572,0.4475728970155582,0.06285521311321,0.2263066517901957,-0.2696490372396344,0.1042736058676254,0.0716911365020986,-6.603932788789865,25.727762325444893,-13.152604955399566,-0.5603056177860362,0.5908100306529522,-1.086857357064504,4346.56494140625,11.962333333333332,0.16,178.88873323099526,12.916016924905913,53.5753777489061,1553.0,1435.0,1200.0,1528.0,1471.0,999.7000000000002,107.0,294.1,1649427524.9731324,1649427526.06273,f81750e4-53bb-48bd-ba21-7d55e76e41f7
0.2528560596250561,0.4417315892233192,0.4924636377838405,-0.0433594088831666,0.1983711521393602,-0.4956335314297737,0.0604742033394145,0.0357108250016146,-6.411224785098651,25.106358924328426,-12.73677195276485,-0.8302495942269368,1.85200861892299,-1.007255552321903,4344.3623046875,11.962,0.15,178.61706928694718,12.907628314240274,53.13641970478717,1658.0,1435.0,1200.0,1528.0,1551.0,999.7000000000002,107.0,294.1,1649427527.217064,1649427528.350621,6b02fc6d-1874-4a14-94c8-a53b8619aee6
0.2412961647830947,0.4309003516025861,0.4757636993138086,-0.0310396279686562,0.1857955203924645,-0.4974765408598441,0.0410152286120902,0.0223046335388806,-6.699289150794295,25.258666417944884,-13.03406620428433,-0.8621957652321808,1.8134857199877443,-0.941543626387766,4342.1611328125,11.924333333333331,0.1433333333333333,178.6959443114825,12.9198876500268,52.91920602880242,1658.0,1435.0,1200.0,1528.0,1551.0,999.7000000000002,107.0,294.1,1649427528.4595082,1649427529.5731623,6b02fc6d-1874-4a14-94c8-a53b8619aee6
0.2505002516694312,0.4332534201733559,0.4759044999320309,-0.0360043566736847,0.184660897542435,-0.4947980411439179,0.0419975458134759,0.0207267898859139,-6.63951568249954,25.248869081679555,-12.971359135071182,-0.8449954596222892,1.8219523489154137,-0.9412133110201012,4346.809950086806,11.937222222222225,0.15,178.7466637784392,12.91323371768287,52.82973813977433,1658.0,1435.0,1200.0,1528.0,1551.0,999.7000000000002,107.0,294.1,1649427529.6812985,1649427530.802063,6b02fc6d-1874-4a14-94c8-a53b8619aee6
0.4338325106122888,0.7718460131907967,0.5302124455289592,-0.1314299286422564,0.1620358271253328,-0.7361123089634231,-0.0001401910647847,-0.0192846934732658,-6.354866465946006,25.041351039699112,-12.557622073750537,-1.1704663810638911,3.101387062174338,-0.8834288868775695,4353.1875,11.935,0.15,178.7007937457932,13.048578659273597,52.69839284312508,1767.0,1435.0,1200.0,1528.0,1630.0,999.7000000000002,107.0,294.1,1649427532.7352922,1649427533.881262,05346c53-80d5-4825-8608-71c3c56a2765
0.4407355755541515,0.7678356612142813,0.5260706065964585,-0.1261441524096561,0.1580780696743716,-0.7380320194812171,-0.0071747437025269,-0.0386921694989307,-6.47830387962477,25.26090852295908,-12.742094874492937,-1.1855459472043224,3.087944802294814,-0.8632523143440867,4357.61328125,11.900499999999996,0.14,178.77729186449733,13.100961087565716,52.7616070976672,1767.0,1435.0,1200.0,1528.0,1630.0,999.7000000000002,107.0,294.1,1649427533.9930222,1649427535.1014287,05346c53-80d5-4825-8608-71c3c56a2765
0.4283774457081906,0.7688327705847513,0.5302113498015046,-0.1237034255341585,0.1611986934763354,-0.7391721215262738,-0.0039818018967271,-0.0259510829750947,-6.4255615253791705,25.347851765630512,-12.41906664881376,-1.1927530102261057,3.088411750059691,-0.8770942198009773,4362.048828125,11.88511111111111,0.1244444444444444,178.82277485309035,13.141003451029867,52.79062544094721,1767.0,1435.0,1200.0,1528.0,1630.0,999.7000000000002,107.0,294.1,1649427535.210336,1649427536.5363123,05346c53-80d5-4825-8608-71c3c56a2765
0.5920113120265121,1.0693615400207497,0.5834383628979857,-0.2035899797718828,0.145074009464175,-0.9531579471951452,-0.0383503032947284,-0.0618733217212915,-6.193187874394973,25.35432679046964,-11.365083896018357,-1.490424982772327,4.21780141261566,-0.8414427160735167,4363.282823350694,11.882222222222222,0.1311111111111111,178.76733648432707,13.154518972441249,52.830420399781424,1886.0,1435.0,1200.0,1528.0,1710.0,999.7000000000002,107.0,294.1,1649427537.2445817,1649427538.592058,6a2f5f00-2024-44e1-8d7c-f7bfe2d7bb4b
0.5919718659401341,1.0629712739877897,0.5816369916856994,-0.198987935606531,0.143706545096037,-0.9499102171192948,-0.0412561652753606,-0.0693812276062817,-6.287990005026611,25.567490771941767,-11.211339070832553,-1.4922078034139,4.192465187065103,-0.8336571966562673,4359.83056640625,11.850888888888887,0.12,178.8073340721067,13.172060510913395,52.98373386153117,1886.0,1435.0,1200.0,1528.0,1710.0,999.7000000000002,107.0,294.1,1649427538.7045429,1649427539.8127406,6a2f5f00-2024-44e1-8d7c-f7bfe2d7bb4b
0.5986382542939096,1.0654958235281748,0.5870279566291771,-0.1940966202134434,0.1475854103854947,-0.958049265095182,-0.0392181172729592,-0.0566269917338418,-6.251472056292977,25.710636645547048,-11.3496599634487,-1.5203172416980235,4.202643212745088,-0.8490705191475527,4357.61328125,11.853111111111112,0.1244444444444444,178.83179373843438,13.189362897900851,53.13227985124023,1886.0,1435.0,1200.0,1528.0,1710.0,999.7000000000002,107.0,294.1,1649427539.9213238,1649427541.0485666,6a2f5f00-2024-44e1-8d7c-f7bfe2d7bb4b
-0.1563467098853756,-0.3132632688803341,0.4197502580940901,0.1859664534353394,0.2791249617966367,0.0330471186527576,0.1895166012853405,0.1632586556492699,-6.305297777301513,27.25284579386572,-12.53363433864527,-0.1488421609303705,-1.0150394205265367,-1.291721777261289,4356.87548828125,11.886666666666668,0.1366666666666666,179.76324333156705,13.279746696323892,53.336467977022814,1449.0,1435.0,1200.0,1528.0,1386.0,999.7000000000002,107.0,294.1,1649427542.2763565,1649427543.5062826,5c586968-9c46-4d2c-8536-a5259fb5f680
-0.161159133106301,-0.3130791871088845,0.4126762600792119,0.182929104693141,0.2748647844397667,0.0367550509300538,0.1862951708218282,0.1645866739888902,-6.308029182565695,26.91653636865655,-12.414133703250773,-0.1362224269177581,-1.0154689955635818,-1.2713896883766744,4350.243326822917,11.949666666666666,0.15,179.74793915436675,13.261892866424695,53.261977554479685,1449.0,1435.0,1200.0,1528.0,1386.0,999.7000000000002,107.0,294.1,1649427543.6190894,1649427544.7253325,5c586968-9c46-4d2c-8536-a5259fb5f680
-0.1637099803801048,-0.3222043837168386,0.4032617943530314,0.1912259317269608,0.2683561802119913,0.036886537960382,0.1776696264266276,0.1572365530002624,-6.305043531331331,26.92169776509768,-12.649787746335685,-0.1551131907939551,-1.049244823168296,-1.2387746457004984,4344.3623046875,11.94111111111111,0.1444444444444445,179.70704453507614,13.266305927538433,53.14996548773112,1449.0,1435.0,1200.0,1528.0,1386.0,999.7000000000002,107.0,294.1,1649427544.8343084,1649427545.9568715,5c586968-9c46-4d2c-8536-a5259fb5f680
-0.365803824345887,-0.683386015984884,0.378617852302957,0.3139701003793552,0.3112718785042751,0.2919460355412924,0.2430904138321625,0.221285493346059,-6.126699485917087,28.702447585448777,-10.49892469366243,0.1521691201625916,-2.440865389585896,-1.3969795465783497,4349.505859375,11.939666666666666,0.1533333333333333,179.8004223279491,13.262032600711466,53.075887153267935,1342.0,1435.0,1200.0,1528.0,1293.0,999.7000000000002,107.0,294.1,1649427546.8665974,1649427548.0107524,c15ae152-3ddb-4a6d-bcc4-6fa8316f008e
-0.3626399188073503,-0.6890426968229182,0.3740295055370136,0.3213525449175343,0.3094365397881446,0.2891245446120096,0.2373926457567009,0.2164506082665789,-6.2785787498879175,28.71504945586921,-10.760329185267546,0.1289128158886952,-2.4598891963887906,-1.3812127213376002,4352.205837673611,11.909888888888888,0.14,179.8155534736904,13.283555095968604,53.1345349520312,1342.0,1435.0,1200.0,1528.0,1293.0,999.7000000000002,107.0,294.1,1649427548.1441648,1649427549.2334974,c15ae152-3ddb-4a6d-bcc4-6fa8316f008e
-0.3707345863098301,-0.6927270724928789,0.371317587152941,0.3201335513405635,0.3070396421964591,0.2930280636383595,0.2353929483223256,0.2072054318197983,-6.3131339617083455,28.768196274906828,-10.896694786804192,0.1406124447773528,-2.472275602681077,-1.37209908130016,4351.714192708333,11.914333333333332,0.14,179.81992934821866,13.276951441406062,53.221277975035406,1342.0,1435.0,1200.0,1528.0,1293.0,999.7000000000002,107.0,294.1,1649427549.3424735,1649427550.6631706,c15ae152-3ddb-4a6d-bcc4-6fa8316f008e
-0.541297870223944,-1.0017900733870022,0.3370898897153342,0.426405141359214,0.3291732793999042,0.5258832376424801,0.2773455049839166,0.2530341146681567,-6.254367196690335,30.59204897586965,-6.9273206011998125,0.435194993682221,-3.682269394262143,-1.4468951272135335,4355.39990234375,11.915,0.14,179.9343805514108,13.294475714677809,53.31264883065725,1227.0,1435.0,1200.0,1528.0,1189.0,999.7000000000002,107.0,294.1,1649427551.2178185,1649427552.3098252,52ae8813-0296-4e6e-9d07-120a5a29b7f7
-0.5477834664782022,-1.0012559072422489,0.3357300954643974,0.4343979044280013,0.3257502357030337,0.5187336347235637,0.2720772609739237,0.2477653229342135,-6.135922088151778,30.8560641905385,-6.85237226732376,0.4028532155773797,-3.6828343433921504,-1.4326635135188115,4358.598741319444,11.808444444444444,0.1155555555555555,179.95777470822804,13.28971383959771,53.52728638696004,1227.0,1435.0,1200.0,1528.0,1189.0,999.7000000000002,107.0,294.1,1649427552.418706,1649427553.5353396,52ae8813-0296-4e6e-9d07-120a5a29b7f7
-0.527839417177626,-0.993834475000318,0.3336910362529692,0.424037744111957,0.3218572104485094,0.522210453131761,0.2709060156468056,0.2485026613418816,-6.124799840846932,30.766065084839905,-6.692011544935998,0.4333690887940568,-3.6553546881843606,-1.421835961210228,4366.4931640625,11.821,0.12,179.98536108337584,13.279374166422912,53.75174120182986,1227.0,1435.0,1200.0,1528.0,1189.0,999.7000000000002,107.0,294.1,1649427553.643757,1649427554.7592385,52ae8813-0296-4e6e-9d07-120a5a29b7f7
0.0806545019902353,0.1097207061004483,0.431547671950699,0.0546478980357951,0.2086519992733438,-0.26631938242111,0.0878104269128727,0.0640669160082999,-6.60738610681032,25.8125386930273,-13.690270837584334,-0.534633148614352,0.6006885961695447,-1.0182300782867666,4357.121419270833,11.92677777777778,0.151111111111111,179.35784580138989,13.208605058612594,54.07393754154239,1553.0,1435.0,1200.0,1528.0,1471.0,999.7000000000002,107.0,294.1,1649427556.9015903,1649427558.2453651,f96a8bfa-ac41-441b-8ca1-9a8d918dc114
0.0554261997498636,0.1094804895309645,0.4292173185672215,0.0539272483626161,0.2072278943466963,-0.2665196471718052,0.0859574721699487,0.0576877754584598,-6.648521709279189,25.735381741945467,-13.861391014003594,-0.53413306409793,0.6015351063616479,-1.0107494903208658,4362.048828125,11.960111111111113,0.1555555555555555,179.28269702450177,13.194031237334816,53.89480065236065,1553.0,1435.0,1200.0,1528.0,1471.0,999.7000000000002,107.0,294.1,1649427558.3534174,1649427559.3883436,f96a8bfa-ac41-441b-8ca1-9a8d918dc114
0.0713113419342734,0.0998212551429937,0.4249986103299586,0.0570500637092087,0.2061992618114794,-0.25956803170251,0.0853956183194019,0.0549892583984281,-6.650124005437987,25.639988894554417,-13.827076574105522,-0.5263939331221302,0.5643607704680723,-1.0038528910037052,4362.048828125,11.957666666666666,0.16,179.24090082024074,13.19297768065534,53.77224391189842,1553.0,1435.0,1200.0,1528.0,1471.0,999.7000000000002,107.0,294.1,1649427559.4983222,1649427560.699416,f96a8bfa-ac41-441b-8ca1-9a8d918dc114
0.0790281094009435,0.1041552676382674,0.4146880104366963,-0.2093359606007515,0.1665721271387915,-0.0055180079665159,0.1467833398877752,0.1210644904281924,-6.423838154182696,25.11789404039773,-11.778882229972009,0.6418579690745578,0.5929965918261532,-1.0217778133518944,4365.258083767361,11.959333333333332,0.1555555555555555,179.1244233275948,13.264557114519691,53.49541179137836,1553.0,1522.0,1200.0,1528.0,1471.0,999.7000000000002,107.0,294.1,1649427562.0228264,1649427563.1596203,b0ed2056-8cd1-42e6-95ea-1d59e9efa426
0.0829069747658227,0.1119787417738962,0.4176859129412561,-0.2106902764342252,0.167558279336796,-0.0123553301586805,0.1481639529506334,0.121445802736359,-6.3117533599631,25.08292692691533,-11.821710764668603,0.6295156657102386,0.6222818593503456,-1.0282060629578706,4360.817111545139,11.957444444444445,0.15,179.10403141837276,13.258942034975773,53.38138064482013,1553.0,1522.0,1200.0,1528.0,1471.0,999.7000000000002,107.0,294.1,1649427563.2684252,1649427564.3896186,b0ed2056-8cd1-42e6-95ea-1d59e9efa426
0.0752544335957641,0.1072583599051707,0.4205654771737388,-0.2062591653623414,0.1689914871491072,-0.0113297318284841,0.1465861094336236,0.1273890133919695,-6.5219757157746026,25.52183025230968,-11.752551687069662,0.6247829511720698,0.6050969322843094,-1.0325987129928194,4358.598958333333,11.95788888888889,0.1522222222222222,179.0765345945941,13.273063735675988,53.21315004992309,1553.0,1522.0,1200.0,1528.0,1471.0,999.7000000000002,107.0,294.1,1649427564.498296,1649427565.6205254,b0ed2056-8cd1-42e6-95ea-1d59e9efa426
0.0912777634118358,0.1061385293019583,0.4103116864022962,-0.5053991802281033,0.1271079600523984,0.2817010103956556,0.2189433822398103,0.1904545411784273,-6.332715473072142,24.955928851654164,-9.167405480753148,1.9542940958320083,0.612816169229698,-1.0633437842688682,4350.9775390625,11.96,0.16,179.0327682602125,13.34809013834147,53.03502554655833,1553.0,1613.0,1200.0,1528.0,1471.0,999.7000000000002,107.0,294.1,1649427566.216884,1649427567.2562122,7dfc075e-5268-49ef-96ae-4cbe50f2f728
0.100646209353094,0.1074944885756862,0.4167764615179039,-0.5045226002950999,0.1314223758854052,0.2794684714598619,0.2252301023163174,0.2032060366854178,-6.124010942510517,25.038073919941933,-9.13418695943956,1.9482767371764256,0.6164335662890478,-1.0866524773893025,4353.1875,11.960555555555556,0.15,179.01846584409046,13.345794720461654,52.84788633185401,1553.0,1613.0,1200.0,1528.0,1471.0,999.7000000000002,107.0,294.1,1649427567.3642998,1649427568.48411,7dfc075e-5268-49ef-96ae-4cbe50f2f728
0.0884973620558236,0.1065631226114359,0.4108869418272209,-0.5019339500596397,0.1267381530005415,0.2769620013869295,0.2185324855141025,0.1960701302558301,-6.191048397439346,25.0128664398564,-9.329047764118302,1.9362798344667136,0.6144493887820163,-1.0631097207188465,4355.891764322917,11.958888888888888,0.1577777777777777,179.02102792393916,13.345328465187064,52.7016580530033,1553.0,1613.0,1200.0,1528.0,1471.0,999.7000000000002,107.0,294.1,1649427568.5923417,1649427569.9278927,7dfc075e-5268-49ef-96ae-4cbe50f2f728
0.1109399947681975,0.1096777199788721,0.4153585939023504,-0.8070627055290762,0.092847388990784,0.5715650913210676,0.3002943614582571,0.2786779060305746,-6.054791079227284,25.01796939750688,-6.6282767558476055,3.287343622489124,0.639081207661538,-1.1378522568279346,4352.943033854167,11.944777777777777,0.1444444444444444,179.00010325996183,13.451142799310023,52.4352370380531,1553.0,1710.0,1200.0,1528.0,1471.0,999.7000000000002,107.0,294.1,1649427571.8538086,1649427572.9910889,99158aa8-dccd-4bd9-b14e-5dc79c47758e
0.1052071633213386,0.1108742513136068,0.4217751571310072,-0.8051561436952559,0.098606517843264,0.56907998796595,0.3068555604415628,0.2793484895549554,-5.9375890780371545,25.00539558669352,-6.515887458409711,3.2777715877523024,0.6419151212714356,-1.163377494632454,4338.010145399306,11.932555555555558,0.1411111111111111,179.01682204523024,13.446113787942387,52.38668653561284,1553.0,1710.0,1200.0,1528.0,1471.0,999.7000000000002,107.0,294.1,1649427573.099929,1649427574.2194774,99158aa8-dccd-4bd9-b14e-5dc79c47758e
0.1228757235539112,0.1154110992901218,0.4184885311904681,-0.8003409794194568,0.094578633925819,0.5624941353506654,0.300383115110906,0.2846457700805853,-5.943855279653079,25.07476175467067,-6.22840151558259,3.252449324038376,0.6556274016000821,-1.14323215394853,4326.2720947265625,11.92675,0.1325,179.03434603391077,13.457407316007526,52.326193637136285,1553.0,1710.0,1200.0,1528.0,1471.0,999.7000000000002,107.0,294.1,1649427574.3274524,1649427575.4444792,99158aa8-dccd-4bd9-b14e-5dc79c47758e
0.1411162519985232,0.1153053618640222,0.4072721463157108,-1.013457905627652,0.053361854318252,0.7695449915832363,0.3380574144750213,0.3152049819622028,-5.941776350420928,25.58014253531373,-4.612438453143668,4.201510184966694,0.6664306350597684,-1.125252631504604,4321.727701822917,11.922666666666666,0.13,179.03642468814814,13.502583040951638,52.158026980398965,1553.0,1814.0,1200.0,1528.0,1471.0,999.7000000000002,107.0,294.1,1649427577.3833375,1649427578.5202796,44a97a1c-d15e-444e-93b4-9ac4ac44a1b1
0.1191842271784254,0.116501893201086,0.4150298764962294,-1.02715885608818,0.0587396711268548,0.7762771234407979,0.3485763707107154,0.3356775006126684,-5.868800991453435,25.560688097405773,-5.211694359059876,4.247742698058059,0.6778913924306867,-1.1588903354999929,4309.41455078125,11.911,0.12,179.06467890401478,13.501409102188042,52.13820804815732,1553.0,1814.0,1200.0,1528.0,1471.0,999.7000000000002,107.0,294.1,1649427578.6295865,1649427579.7448893,44a97a1c-d15e-444e-93b4-9ac4ac44a1b1
0.1119711559869872,0.108962127482081,0.3984610033849196,-1.0211938954680415,0.0453553097382505,0.7773709937144366,0.3338553948677737,0.3107693201233586,-5.8189613594528335,25.46288313105384,-5.444981677439802,4.235259801335583,0.6495411025605508,-1.0982296678386645,4336.066569010417,11.90788888888889,0.1255555555555555,179.0704451014941,13.516454965428457,52.14636860639567,1553.0,1814.0,1200.0,1528.0,1471.0,999.7000000000002,107.0,294.1,1649427579.8533895,1649427580.9791057,44a97a1c-d15e-444e-93b4-9ac4ac44a1b1
0.0386616119796951,0.0932944446987645,0.439276070384938,0.3966742980429665,0.2512497273109205,-0.5767500528893115,-0.0004557598333253,-0.0222825960978975,-7.20944408877073,27.232282135010983,-15.65833457210581,-1.9945603839493744,0.5191874930577411,-0.9638803017728724,4359.101128472223,11.923333333333334,0.1344444444444444,179.10143291084853,13.076846156063604,52.17901235716889,1553.0,1349.0,1200.0,1528.0,1471.0,999.7000000000002,107.0,294.1,1649427582.9113348,1649427584.056284,d18e5606-0ca8-4b02-bf42-ef8b3efec918
0.0368996866819224,0.0968314439375777,0.4337404697197424,0.3938078825022419,0.2483570142743239,-0.5765922684543042,-0.0018889677642898,-0.016115857730612,-7.122605181836438,26.788809683832024,-15.540491538493324,-1.9908928611322645,0.5307887949503417,-0.9495423169378134,4370.94677734375,11.94488888888889,0.14,179.13789549627768,13.059534662157253,52.30214397188624,1553.0,1349.0,1200.0,1528.0,1471.0,999.7000000000002,107.0,294.1,1649427584.1872654,1649427585.2791755,d18e5606-0ca8-4b02-bf42-ef8b3efec918
0.0331391595135421,0.093215552507682,0.4407750216087534,0.3975289632354292,0.2522753255215801,-0.5767237554654083,0.0018715593777732,-0.0228874363519201,-7.081408519205354,27.220206195045712,-15.53958374991405,-1.996351241095632,0.51692250268387,-0.9703741158704452,4368.71875,11.943,0.14,179.16776011896863,13.06651843571985,52.45335069973198,1553.0,1349.0,1200.0,1528.0,1471.0,999.7000000000002,107.0,294.1,1649427585.386922,1649427586.7090263,d18e5606-0ca8-4b02-bf42-ef8b3efec918
0.0210281144537497,0.0925652399288116,0.4573319681037553,0.6708339033268654,0.2947264368042577,-0.8389926861880065,-0.0595487417521554,-0.0756969852766212,-7.319733528525109,28.13352452467532,-17.318222280509357,-3.1957381009617087,0.4993496928456255,-0.9640460295653606,4370.94677734375,11.94,0.1355555555555555,179.23203978815752,12.972430113445723,52.81796782655962,1553.0,1264.0,1200.0,1528.0,1471.0,999.7000000000002,107.0,294.1,1649427588.850249,1649427589.9890406,1a3af18b-5228-49fc-84f0-fbc7bceff105
0.0169794116782884,0.0876668027616351,0.4445486971235465,0.6766757589274522,0.2842003582257312,-0.8411309940346857,-0.0743251376817834,-0.1017796171136394,-7.500191629354923,28.204972848542244,-17.64558260858125,-3.214026862297152,0.4836277626863248,-0.912404409925188,4366.4931640625,11.92288888888889,0.13,179.25100798239254,12.966627962609538,53.05039157491608,1553.0,1264.0,1200.0,1528.0,1471.0,999.7000000000002,107.0,294.1,1649427590.0976112,1649427591.217553,1a3af18b-5228-49fc-84f0-fbc7bceff105
0.0213842249875125,0.0899902869404931,0.451825952023174,0.6726418488846443,0.2896724069998607,-0.8384722168238774,-0.0656574071320376,-0.0868322879382813,-7.36066564895608,28.20169245192168,-17.41149325489169,-3.19850456057055,0.4902379265885057,-0.941443384377154,4368.228569878473,11.914444444444444,0.13,179.25119315641007,12.96816342708045,53.25632671130638,1553.0,1264.0,1200.0,1528.0,1471.0,999.7000000000002,107.0,294.1,1649427591.3259003,1649427592.4485853,1a3af18b-5228-49fc-84f0-fbc7bceff105
0.0184783631032655,0.0925318203187338,0.4461791353046828,0.8200622778834843,0.2916688172202935,-0.9808885643642477,-0.1232908853053659,-0.1446838156328436,-7.6871107841565,29.502518748781007,-18.26209106030532,-3.843035232308001,0.4911330202049812,-0.8547692872141991,4355.39990234375,11.893,0.1166666666666666,179.23827954541926,12.9308506728271,53.53163152563704,1553.0,1178.0,1200.0,1528.0,1471.0,999.7000000000002,107.0,294.1,1649427594.3825614,1649427595.5197425,27e7444d-335d-4079-9e49-a4621c96e459
0.002095087322111,0.0899678245599901,0.4403542632926385,0.8040734647485934,0.2858833911057949,-0.9639267364956774,-0.1225677073758836,-0.1357689995764729,-7.640902379187664,29.32380903461121,-18.31868782504985,-3.770313384898351,0.483287309676119,-0.8404036367168957,4357.61328125,11.879,0.1112499999999999,179.2348906332261,12.89164705896462,53.79961570526977,1553.0,1178.0,1200.0,1528.0,1471.0,999.7000000000002,107.0,294.1,1649427595.628543,1649427596.9483423,27e7444d-335d-4079-9e49-a4621c96e459
0.0038570126353063,0.0984355848532032,0.4367909670046445,0.8417576247585598,0.2863830416703513,-1.0071465271574147,-0.1383329946978155,-0.1613563638021669,-7.713309179669157,29.25517211368041,-18.42335388929264,-3.9531258205492894,0.5116199046430946,-0.8125956738836898,4347.054958767361,11.887555555555556,0.1177777777777777,179.2408704638444,12.884907689966228,54.01309876987536,1553.0,1178.0,1200.0,1528.0,1471.0,999.7000000000002,107.0,294.1,1649427597.0561326,1649427598.188041,27e7444d-335d-4079-9e49-a4621c96e459
-0.0020467520384317,0.0567016232912761,0.4435362476158162,0.8223501508883295,0.2906695164059642,-0.9448085208002084,-0.1206742944890508,-0.1520733839479376,-7.875542552980887,30.235414302998755,-17.832495296584423,-3.762418954589865,0.3538373724024735,-0.8576731834437582,4349.505859375,11.883333333333333,0.12,179.2266135823169,12.849629762903112,54.34596538289125,1553.0,1088.0,1200.0,1528.0,1471.0,999.7000000000002,107.0,294.1,1649427600.3201358,1649427601.4585557,1e4ff91c-00ac-464b-a3bf-9ce2902419ac
-0.0082923829134997,0.0638282166415169,0.4464947040139018,0.8318698060865682,0.2913663972515739,-0.961665159140072,-0.1240666583820973,-0.1537827140754176,-7.799492443979866,30.41153674812013,-17.99406745269813,-3.820444706976188,0.3804786403336628,-0.8571262544875716,4348.280002170139,11.852444444444444,0.11,179.20622470873448,12.86327192740535,54.48756544966937,1553.0,1088.0,1200.0,1528.0,1471.0,999.7000000000002,107.0,294.1,1649427601.5665407,1649427602.6871302,1e4ff91c-00ac-464b-a3bf-9ce2902419ac
-0.0026121460234352,0.0687721264080396,0.444404061467868,0.8398773613870568,0.2915636276577175,-0.9757079751022334,-0.1283531337090398,-0.1468270531371961,-7.831339532985985,30.18105520222337,-18.274939850035352,-3.871756666119732,0.4006137328120699,-0.8480974846748538,4347.299967447917,11.864333333333336,0.1066666666666666,179.2016879453058,12.868746608616329,54.62310258519424,1553.0,1088.0,1200.0,1528.0,1471.0,999.7000000000002,107.0,294.1,1649427602.7967846,1649427603.9159744,1e4ff91c-00ac-464b-a3bf-9ce2902419ac
0.0663001715005244,0.107534482522585,0.4331882245395591,0.0538615048934787,0.2118693839764883,-0.2623778072992645,0.0944778273095161,0.0765561544559091,-6.3908877994039415,25.541551870191405,-13.503427224988382,-0.5255779449030905,0.5894968448720502,-1.0340867653649255,4344.3623046875,11.931,0.14,179.17960366698946,12.870256934196547,54.79103644631735,1553.0,1435.0,1200.0,1528.0,1471.0,999.7000000000002,107.0,294.1,1649427605.031504,1649427606.174955,daa3cca2-eb99-4f51-a3d2-e48cad15526b
0.0602123251653611,0.1037082119797779,0.4285204377539176,0.0576614781034231,0.2075303143915579,-0.2613259114625338,0.0868121374534617,0.0652219783064345,-6.612652188298747,25.78329882392386,-13.438667963481358,-0.5305171654683029,0.5753819671524514,-1.0114924055073578,4361.310384114583,11.955333333333334,0.14,179.06948280373106,13.094336373253237,54.59193415528174,1553.0,1435.0,1200.0,1528.0,1471.0,999.7000000000002,107.0,294.1,1649427606.288459,1649427607.3979027,daa3cca2-eb99-4f51-a3d2-e48cad15526b
0.0618033173982463,0.1022881528080159,0.4307688646419623,0.0613694104335682,0.2092790909465117,-0.2635743388113711,0.0882979401534351,0.0599230535921545,-6.538070014439462,25.869167576055705,-13.457756606923349,-0.543218177917236,0.5693846584615821,-1.0192039458834985,4370.94677734375,11.957222222222224,0.14,179.02303903519476,13.093901517876075,54.44070579850364,1553.0,1435.0,1200.0,1528.0,1471.0,999.7000000000002,107.0,294.1,1649427607.5065553,1649427608.6225746,daa3cca2-eb99-4f51-a3d2-e48cad15526b
0.1322145848567639,0.1395910032944091,0.629208970104893,0.0541902222925879,0.386681289692724,-0.3013242509157726,0.286369893002383,0.2624918618653873,-5.153459856152445,25.93190205429013,-13.049860498287352,-0.6007939159938206,0.7093429446794889,-1.8073715720804544,4366.4931640625,11.955222222222224,0.14,178.89361757516176,13.088642556806384,53.99848975415061,1553.0,1435.0,1200.0,1424.0,1471.0,999.7000000000002,107.0,294.1,1649427610.240672,1649427611.2897098,48c7ab65-4065-4ff6-a8a6-716c30d63797
0.1350519638584509,0.1403251388156799,0.6309084389283334,0.0527219511935183,0.3877260630920829,-0.3004712291567697,0.2875768336574425,0.2595262831698592,-5.186251665093804,25.9843485775157,-13.007834141853388,-0.5951425131097916,0.7122454153796759,-1.8127388067455543,4364.27001953125,11.954444444444444,0.14,178.87606095335516,13.071107089613498,53.87278581430083,1553.0,1435.0,1200.0,1424.0,1471.0,999.7000000000002,107.0,294.1,1649427611.3979597,1649427612.516674,48c7ab65-4065-4ff6-a8a6-716c30d63797
0.1280530225911793,0.1427631261799573,0.6290457071399937,0.0549955799193683,0.3860413865043131,-0.3068675229774506,0.2847416461674919,0.2609918145269289,-5.135112365653481,25.915471212726448,-13.29725893731584,-0.6152143304803923,0.7231933758113579,-1.803897649528952,4362.048828125,11.957555555555556,0.14,178.86528443266468,13.067381221421256,53.72185608857144,1553.0,1435.0,1200.0,1424.0,1471.0,999.7000000000002,107.0,294.1,1649427612.6249635,1649427613.8040097,48c7ab65-4065-4ff6-a8a6-716c30d63797
0.2031123526755118,0.1746454264189209,0.8797967996570987,0.1214326541771206,0.6157710038464821,-0.4125359434269194,0.5132111828492486,0.4918182559729723,-3.522551564052224,26.800306648905824,-13.355216705916526,-0.9833772480847812,0.8396032178304851,-2.7787678804158475,4362.048828125,11.940444444444443,0.1322222222222222,178.77222689977282,13.052590636501073,53.54491320793308,1553.0,1435.0,1200.0,1304.0,1471.0,999.7000000000002,107.0,294.1,1649427614.8514512,1649427615.8071983,00741ac1-3816-45e0-a255-4e7fb3e913fd
0.208279790075111,0.1779720464411375,0.8746819572699807,0.1136749235047096,0.6133779413592477,-0.4095643375591125,0.5132506289276517,0.490016884713009,-3.486804859090583,26.31131753072132,-13.498698770159242,-0.9627012440191643,0.8537213330305947,-2.768234691612138,4360.816460503473,11.936222222222222,0.13,178.7813505146841,13.04612415490436,53.455803144926506,1553.0,1435.0,1200.0,1304.0,1471.0,999.7000000000002,107.0,294.1,1649427615.9152057,1649427617.02254,00741ac1-3816-45e0-a255-4e7fb3e913fd
0.2146447702151434,0.1795605100353812,0.8819536913943746,0.1076978297578796,0.6188912903038994,-0.4062771627319023,0.520238148901502,0.4911213751167548,-3.548776002634203,26.40722662369552,-13.538473547244944,-0.940871322423338,0.8616687005493756,-2.7956039888955377,4359.83056640625,11.935,0.14,178.7931788845068,13.056959301385202,53.356642079101306,1553.0,1435.0,1200.0,1304.0,1471.0,999.7000000000002,107.0,294.1,1649427617.1315963,1649427618.2525914,00741ac1-3816-45e0-a255-4e7fb3e913fd
0.2498296682059626,0.1987338370189734,1.018186817279102,0.1645603766814065,0.7430635198545729,-0.4857610495792238,0.636164629740505,0.6122077074500495,-2.604576580130327,27.16117882938272,-13.766640651105712,-1.235529748296977,0.9305680055715372,-3.312638802634827,4357.61328125,11.890555555555556,0.12,178.81796943555432,13.0422342673083,53.32360559245082,1553.0,1435.0,1200.0,1166.0,1471.0,999.7000000000002,107.0,294.1,1649427619.3742049,1649427620.508397,02c56ae6-4e6f-45bb-8606-8095d624c35a
0.2260568266075848,0.1921857865536301,1.0155570781783512,0.172344404630206,0.7433001963605602,-0.4876150161374381,0.6338373107313873,0.61350942831023,-2.657814965831818,27.122623181223247,-13.94153930560458,-1.257695930858496,0.906810019949404,-3.307055084103207,4355.645833333333,11.885111111111108,0.1111111111111111,178.83505705103786,13.04872237783738,53.39543603576716,1553.0,1435.0,1200.0,1166.0,1471.0,999.7000000000002,107.0,294.1,1649427620.617761,1649427621.740531,02c56ae6-4e6f-45bb-8606-8095d624c35a
0.2527633444863595,0.1900036087755948,1.0147175845680492,0.1765894105053281,0.7437786065724706,-0.4889116801874426,0.6326089191891361,0.6071838945790331,-2.713611551519901,27.11546432429905,-13.881747823484032,-1.2702932149109585,0.8979145187372365,-3.3049919803687806,4353.433322482639,11.885,0.1188888888888888,178.84516421318966,13.054699172816097,53.4252627129627,1553.0,1435.0,1200.0,1166.0,1471.0,999.7000000000002,107.0,294.1,1649427621.8488066,1649427622.8971398,02c56ae6-4e6f-45bb-8606-8095d624c35a
0.0054874510391778,0.0709416612826965,0.2294886361342845,0.0937940951108282,0.0276035583654768,-0.2523979456324257,-0.1259995167525602,-0.1518235581432313,-8.08037981418216,26.289750645640098,-13.58741902285682,-0.5992768186953219,0.447136407995417,-0.1972169702441205,4356.383626302083,11.956333333333331,0.14,179.03227041531298,13.105658645031127,53.60909953120332,1553.0,1435.0,1200.0,1623.0,1471.0,999.7000000000002,107.0,294.1,1649427624.8965309,1649427626.0367498,0f4ef218-f45d-431a-95a6-84d7a4adde56
-0.0110141630750458,0.0650773427855738,0.2326311743736058,0.0997767518543431,0.0331391595165385,-0.2538574510523689,-0.1195961012761871,-0.1503114578825305,-7.891224376451478,26.104721760194824,-13.790489278259583,-0.6170591860607036,0.4250621481182554,-0.2188927030212721,4354.171006944444,11.953111111111111,0.14,179.0128074118181,13.09435904568673,53.497527252746295,1553.0,1435.0,1200.0,1623.0,1471.0,999.7000000000002,107.0,294.1,1649427626.1449587,1649427627.4688654,0f4ef218-f45d-431a-95a6-84d7a4adde56
-0.0142487424372333,0.0583846564029964,0.2173918361179754,0.1008812423015047,0.0210818049209873,-0.2483349980181086,-0.1330603671860457,-0.1535197401358104,-8.01971482632232,26.02545612617341,-13.901874694859188,-0.60850766963746,0.4007537115272188,-0.1635415640023985,4362.295627170139,11.956666666666669,0.1388888888888889,178.9910949993565,13.088704977146298,53.35382462606867,1553.0,1435.0,1200.0,1623.0,1471.0,999.7000000000002,107.0,294.1,1649427627.577235,1649427628.7057793,0f4ef218-f45d-431a-95a6-84d7a4adde56
-0.0570148782859136,0.0457093132252945,0.0898670178530894,0.1357230951939601,-0.0974882108377389,-0.2585871473019113,-0.2797757262387985,-0.3095246564006678,-9.109714418831675,26.79350621460896,-13.623329328638452,-0.7119029658107948,0.346098330986352,0.3787640164596126,4360.817111545139,11.956555555555555,0.14,179.04076109936122,13.084311078507731,53.18109748996804,1553.0,1435.0,1200.0,1712.0,1471.0,999.7000000000002,107.0,294.1,1649427630.839056,1649427631.9125955,6069790c-f5e0-46d2-a443-207e7242e4e4
-0.0575079544194482,0.0369983019273148,0.0812655791577304,0.1426398570868041,-0.1030353173710959,-0.254053585872504,-0.287130779210414,-0.3087165591529515,-9.184226273017332,26.80395375164328,-13.348095167730406,-0.7176706378511009,0.3101180159319991,0.4078545233918303,4359.092556423611,11.955666666666666,0.14,179.0572188196213,13.076704524502064,53.12493094714825,1553.0,1435.0,1200.0,1712.0,1471.0,999.7000000000002,107.0,294.1,1649427632.0240777,1649427633.2034545,6069790c-f5e0-46d2-a443-207e7242e4e4
-0.057323872677584,0.0443812949018226,0.0844453721992245,0.1384339180398388,-0.1013457097641546,-0.2583017109377019,-0.2859271254179281,-0.3083588050269268,-9.25135511275556,26.785237666090858,-13.456674485425395,-0.7177460119097683,0.3399652912181781,0.4001691221870737,4355.646267361111,11.949333333333334,0.1288888888888889,179.05965340260548,13.076996040770387,53.045188109133406,1553.0,1435.0,1200.0,1712.0,1471.0,999.7000000000002,107.0,294.1,1649427633.311813,1649427634.632333,6069790c-f5e0-46d2-a443-207e7242e4e4
-0.0985844834146013,0.021989065051485,-0.053668535000158,0.174290411613801,-0.2280597060329162,-0.2611681270749906,-0.4389253824973162,-0.4678130750648563,-10.223327129173802,27.45896559310313,-13.413144526532522,-0.8079639500096224,0.2493154278931522,0.9755696351722382,4357.61328125,11.879555555555555,0.1022222222222222,179.06746562119616,13.066509897983387,52.9332716650332,1553.0,1435.0,1200.0,1801.0,1471.0,999.7000000000002,107.0,294.1,1649427635.3138793,1649427636.479882,5beb28a4-f0b0-4a41-985f-41b6339f6c07
-0.1109705559876646,0.016926816933861,-0.05308999234442,0.1747506159422156,-0.2266133493019769,-0.2585646849229171,-0.4368873341257673,-0.4559529481211392,-10.206852054040064,27.460943616686407,-13.677799939617294,-0.8031437504418466,0.2325379964105457,0.9689382201083646,4357.61328125,11.939,0.13,179.1383766451592,13.067846622922202,52.96089067330701,1553.0,1435.0,1200.0,1801.0,1471.0,999.7000000000002,107.0,294.1,1649427636.5882273,1649427637.710081,5beb28a4-f0b0-4a41-985f-41b6339f6c07
-0.0997810148145757,0.0164271664758651,-0.0530768436401378,0.1788793064387619,-0.2256929404367249,-0.2605106922096595,-0.4379523787599849,-0.4556110818196483,-10.283471008984517,27.473765323133467,-13.487481169424186,-0.8167525816347276,0.2290122239125412,0.9693683905442092,4353.433322482639,11.936333333333332,0.1211111111111111,179.15957603452313,13.0784644365782,52.96598333824316,1553.0,1435.0,1200.0,1801.0,1471.0,999.7000000000002,107.0,294.1,1649427637.8177683,1649427638.9340303,5beb28a4-f0b0-4a41-985f-41b6339f6c07
0.0699555090202892,0.1133725035468057,0.3892452852164756,-0.0218223917987568,0.1880570960124851,-0.2046550242604291,0.0945435707465215,0.0778315779423906,-6.473359169865664,22.297018445927755,-14.520712422905255,-0.2490429600729011,0.6274703927512961,-0.9419661604655564,7414.72802734375,11.657,7.63,178.00008008538214,12.94401842377324,47.47429419731929,1553.0,1435.0,1350.0,1528.0,1471.0,999.7000000000002,107.0,294.1,1649427643.8969047,1649427645.082287,af08297a-63e4-4e20-9d2c-096d146420c6
0.0657216288641995,0.1139641948745987,0.3788446672814299,-0.0354575901437517,0.1765651359168886,-0.2045366859445738,0.0862467435041471,0.0706786872403862,-6.372395636611125,22.170365939401293,-16.27632859512515,-0.2196058802552216,0.645552274850408,-0.9027251091284288,7420.434624565973,11.65511111111111,7.644444444444444,177.79332722356625,12.868810926231014,45.55252219550314,1553.0,1435.0,1350.0,1528.0,1471.0,999.7000000000002,107.0,294.1,1649427645.2032273,1649427646.3090675,af08297a-63e4-4e20-9d2c-096d146420c6
0.0616849791197397,0.1080341329658267,0.3806986333024915,-0.0212307004020164,0.1812066255090896,-0.2035899797335834,0.0849450225669433,0.0614877485866397,-6.686567067163834,22.372465948499865,-15.104712374618812,-0.2481102056299963,0.6135198847997443,-0.9089637595152468,7421.14794921875,11.652555555555557,7.702222222222222,177.66269757896,12.839799223412692,43.545704852146486,1553.0,1435.0,1350.0,1528.0,1471.0,999.7000000000002,107.0,294.1,1649427646.4171083,1649427647.540292,af08297a-63e4-4e20-9d2c-096d146420c6
0.2396936674895071,0.4395675331478443,0.4056548568370925,-0.1060074708299042,0.1355313433470786,-0.4562559158751615,0.01170075788776,-0.0113094615614516,-6.615534613616899,21.95029015595184,-16.122184057778906,-0.6263311129458076,1.8774995483849428,-0.7383260928786868,7435.455023871527,11.62188888888889,7.705555555555555,177.41237569933847,12.821001404451955,40.48433551897132,1658.0,1435.0,1350.0,1528.0,1551.0,999.7000000000002,107.0,294.1,1649427649.2680156,1649427650.406433,97f704db-de2b-46c5-a881-e05a9b12ac03
0.2483361955237674,0.4384444154364552,0.4063122916097894,-0.1046241183930048,0.1368736060911029,-0.4517223539396005,0.0123718893054542,-0.0200067762050974,-6.734026343864787,21.992533858357053,-15.448221096437758,-0.6189035357760719,1.868024586723126,-0.7412794117393,7440.47412109375,11.617555555555557,7.694444444444445,177.4481203559949,12.81101177847212,39.499744018456376,1658.0,1435.0,1350.0,1528.0,1551.0,999.7000000000002,107.0,294.1,1649427650.514634,1649427651.634003,97f704db-de2b-46c5-a881-e05a9b12ac03
0.2423918894159209,0.4391840295358251,0.4062712019192551,-0.1095685764707439,0.1356135226765834,-0.4451069146273379,0.0139743866620679,-0.0046392370399268,-6.670074839154094,22.013258142078865,-15.04683791040936,-0.5926527621612306,1.8673950224205929,-0.7411402648907681,7445.502332899306,11.611777777777778,7.685555555555556,177.61394672430407,12.832154629047896,38.71436447145871,1658.0,1435.0,1350.0,1528.0,1551.0,999.7000000000002,107.0,294.1,1649427651.7429235,1649427652.863261,97f704db-de2b-46c5-a881-e05a9b12ac03
0.4328332097791025,0.7906092009782043,0.445219280558121,-0.168995756854461,0.0999082387285248,-0.7223719157885755,-0.0608740208627492,-0.0776780555228834,-6.848249920507865,22.10240383473299,-13.43087268842111,-1.0789528643326542,3.1821792707136747,-0.5949113054526312,7446.93896484375,11.594,7.71,177.73373458196772,12.8881025109505,37.24439316667589,1767.0,1435.0,1350.0,1528.0,1630.0,999.7000000000002,107.0,294.1,1649427655.2355812,1649427656.2339947,35007223-eb2f-4ca5-8277-09906bf19d86
0.437502513712882,0.7973721816915498,0.438564523672813,-0.197807081625394,0.0928296887936991,-0.7267640878810149,-0.0620973553256434,-0.0875729557065582,-6.739130209284075,21.525416952280526,-16.90665251744064,-1.0284867811477925,3.240693616021742,-0.5784805946125098,7440.47412109375,11.578555555555557,7.716666666666667,177.8672890653586,12.910623826510015,36.87589838967444,1767.0,1435.0,1350.0,1528.0,1630.0,999.7000000000002,107.0,294.1,1649427656.3424034,1649427657.5720034,35007223-eb2f-4ca5-8277-09906bf19d86
0.4326885741292551,0.7906486470615499,0.437132833074024,-0.1799617705550505,0.0938072437823733,-0.7283677239174764,-0.0660677560318627,-0.0814254341667634,-6.832748527167024,21.71571178646218,-15.758388229270096,-1.071018901387074,3.2036771692817028,-0.5713886269088296,7440.47412109375,11.586,7.741111111111111,178.02337558391133,12.935580104508643,36.570844686413785,1767.0,1435.0,1350.0,1528.0,1630.0,999.7000000000002,107.0,294.1,1649427657.6805918,1649427658.8010533,35007223-eb2f-4ca5-8277-09906bf19d86
0.6149557847588256,1.1317258034364583,0.5010617886100526,-0.3240714992385651,0.0600019459680633,-0.9051783271523344,-0.0975325876873124,-0.1239746174009147,-6.4773540587037175,23.08968333681592,-12.145066655095745,-1.1302133546969289,4.470202754899161,-0.5228998691822784,7449.097330729167,11.525666666666666,7.703333333333335,178.12868799399405,12.99170054355153,36.17439166840976,1886.0,1435.0,1350.0,1528.0,1710.0,999.7000000000002,107.0,294.1,1649427659.9198532,1649427661.05288,987328e8-ab72-4604-a489-3ef072957b80
0.6131387362571779,1.128264156413821,0.4858366111709191,-0.3427461909621068,0.0529537390520287,-0.9173444180288284,-0.101442302200176,-0.1199769082430693,-6.289358292058134,21.86892467039888,-16.85849137942334,-1.124934039893668,4.498977206424419,-0.4935777424750786,7441.192437065973,11.518444444444446,7.71,178.25279253121315,13.032435412306532,36.042507925180935,1886.0,1435.0,1350.0,1528.0,1710.0,999.7000000000002,107.0,294.1,1649427661.1612585,1649427662.2134793,987328e8-ab72-4604-a489-3ef072957b80
0.646743766279533,1.132979986709697,0.5049907198257416,-0.31972332575977,0.0641048448556742,-0.9102896329278748,-0.0941093750559676,-0.1263110402208429,-6.397125254013338,23.044475835884903,-12.099392686241144,-1.151563940916899,4.473647011095922,-0.5383886963833567,7446.93896484375,11.521888888888888,7.692222222222221,178.38376216745806,13.077706380444068,35.95185575724176,1886.0,1435.0,1350.0,1528.0,1710.0,999.7000000000002,107.0,294.1,1649427662.3259914,1649427663.5133235,987328e8-ab72-4604-a489-3ef072957b80
-0.1706393438853799,-0.3276610935337258,0.3604890887002019,0.0931629575563248,0.2458982081730236,0.1283883142909965,0.1902134821366831,0.1727388653254684,-6.35094946721166,23.57047621476033,-13.314468809541085,0.2472350526866433,-1.0541895851367409,-1.1688562090090404,7446.93896484375,11.548555555555556,7.689999999999999,178.81309723394634,13.17563089743828,35.82856856599331,1788.888888888889,1435.0,1350.0,1528.0,1638.0,999.7000000000002,107.0,294.1,1649427665.4476173,1649427666.5880382,12a6e913-0d62-4411-8ee0-efad312cf450
-0.165918961503756,-0.3259780601443784,0.3538752949704017,0.0795935032440683,0.2415591386445597,0.1286644369453345,0.1893062221343501,0.1565396719746942,-6.27202279515185,23.0490968632867,-14.839276063490647,0.274475958649319,-1.0336789132539803,-1.1544359237789248,7448.377875434027,11.639111111111111,7.779999999999999,179.6665308885593,13.247314396823734,35.67736145869261,1449.0,1435.0,1350.0,1528.0,1386.0,999.7000000000002,107.0,294.1,1649427666.706475,1649427667.8216903,12a6e913-0d62-4411-8ee0-efad312cf450
-0.1658066497839152,-0.3251113417986824,0.3668251161869006,0.0889219551933669,0.2509248448619222,0.126532704582101,0.1986039935366997,0.1758403138405102,-6.121715836413441,23.446061700580845,-13.721053633740707,0.2521732236058982,-1.0417236556086384,-1.1963764199671707,7450.536241319444,11.641444444444444,7.79,179.7362868516427,13.275123417165702,35.613502605047564,1449.0,1435.0,1350.0,1528.0,1386.0,999.7000000000002,107.0,294.1,1649427667.9352658,1649427669.0449684,12a6e913-0d62-4411-8ee0-efad312cf450
-0.3651189963433923,-0.7002738792445126,0.3440203478386054,0.2088764119713634,0.3019856123508985,0.3992448678837895,0.2772633256509746,0.255567977776487,-5.859910381980463,24.72823619018766,-11.30986213635294,0.6022863106379993,-2.488227508998238,-1.3881170526064182,7453.4140625,11.600666666666667,7.753333333333334,179.94873760904622,13.34451197299003,35.44111052767121,1342.0,1435.0,1350.0,1528.0,1293.0,999.7000000000002,107.0,294.1,1649427670.7743473,1649427671.905915,70c94e2f-72bb-483b-b85d-5d543bb24b7c
-0.359380137221301,-0.6954526887424747,0.3548817179041457,0.2123279445781983,0.3116279888824777,0.3940401760902727,0.2849744875896386,0.2607452767679138,-5.941944445986084,24.83094763012312,-10.855950282729893,0.5840576338821533,-2.473322168400341,-1.4258803050861726,7453.4140625,11.598,7.754444444444443,179.97666245801287,13.356208482216202,35.45729731709424,1342.0,1435.0,1350.0,1528.0,1293.0,999.7000000000002,107.0,294.1,1649427672.0147502,1649427673.140483,70c94e2f-72bb-483b-b85d-5d543bb24b7c
-0.3624344703341371,-0.6922066030767656,0.3526902688012858,0.2125607861228834,0.3079847046350665,0.3906160367168407,0.2813859895288917,0.2504317687566855,-5.858606121117091,24.884827970525546,-10.883421950631908,0.5761235330323403,-2.4616604212173865,-1.4124293383370794,7453.4140625,11.596333333333332,7.75111111111111,-179.99612394368796,13.339208900281948,35.46152216855084,1342.0,1435.0,1350.0,1528.0,1293.0,999.7000000000002,107.0,294.1,1649427673.2481377,1649427674.3697956,70c94e2f-72bb-483b-b85d-5d543bb24b7c
-0.5397233133258813,-1.007422649720543,0.3146527367696894,0.3207537313447233,0.3244879609178808,0.6277626136518976,0.3195177540648974,0.3056458802950749,-5.633564790910749,26.98261578723304,-6.943079831224138,0.8777206458704445,-3.696124852794954,-1.4696881520592298,7453.4140625,11.444333333333336,7.686666666666667,-179.798127384388,13.37101566829062,35.56014592616134,1227.0,1435.0,1350.0,1528.0,1189.0,999.7000000000002,107.0,294.1,1649427676.303981,1649427677.4408238,39c4b34f-5b71-42be-8b18-745b08a1ee18
-0.5302858340591659,-0.9992288153630176,0.3136824725619997,0.2985614728593661,0.3193802405755292,0.6375101795237885,0.3202842133577288,0.3077929525953353,-5.651752533207737,26.9778439367046,-7.32154181264436,0.9495355957816995,-3.6592392132656975,-1.4622476270241345,7453.4140625,11.465888888888887,7.685555555555556,-179.75346250067554,13.385784908869647,35.73314778764859,1227.0,1435.0,1350.0,1528.0,1189.0,999.7000000000002,107.0,294.1,1649427677.549174,1649427678.6736202,39c4b34f-5b71-42be-8b18-745b08a1ee18
-0.5391973653884649,-1.0028206031359372,0.317085245383214,0.3146527366455585,0.3241460948127014,0.6362566706003424,0.3205827983730773,0.2936279728405803,-5.763812842794311,27.194845234660534,-5.882245661844571,0.9122018321542954,-3.686435692487525,-1.4722333126455411,7446.93896484375,11.461,7.683333333333334,-179.7511538967361,13.38637562536912,35.85300736229856,1227.0,1435.0,1350.0,1528.0,1189.0,999.7000000000002,107.0,294.1,1649427678.782842,1649427679.8937137,39c4b34f-5b71-42be-8b18-745b08a1ee18
0.0622210413876133,0.1128561643725707,0.3775368778421719,-0.0289348251374668,0.1775249907135826,-0.1969094299178115,0.0840048908377558,0.0732962891255976,-6.677813774491481,22.234723916461743,-14.50640824922082,-0.21669026387404,0.6269864945260093,-0.8968784475317462,7453.4140625,11.642555555555557,7.79,179.60772751326488,13.308957043810576,36.05131507466072,1553.0,1435.0,1350.0,1528.0,1471.0,999.7000000000002,107.0,294.1,1649427680.8076398,1649427681.9462469,b2b3684a-1984-48ae-a521-3439b510c267
0.0620005478503446,0.1165281905884509,0.389113798226726,-0.02350542496806,0.1892273298760748,-0.2009470915228458,0.0929262810443036,0.0712572299153918,-6.830929984509324,22.28141371957189,-13.779445018239162,-0.2370860521565495,0.6354657190049019,-0.9399092337324992,7453.4140625,11.643777777777778,7.756666666666667,179.58466879462694,13.30483511951021,35.979515746650584,1553.0,1435.0,1350.0,1528.0,1471.0,999.7000000000002,107.0,294.1,1649427682.0548909,1649427683.1767955,b2b3684a-1984-48ae-a521-3439b510c267
0.0794225703028235,0.1068770477154097,0.3770958907984058,-0.0266216660572079,0.1785374402546531,-0.192518776385458,0.0849976173431858,0.063065592204121,-6.709977985826251,22.25205644023705,-14.41024005179234,-0.2119497189895505,0.6036240241902049,-0.8996669193151244,7453.4140625,11.645555555555555,7.76111111111111,179.55802802122423,13.288890991530202,35.96193597809183,1553.0,1435.0,1350.0,1528.0,1471.0,999.7000000000002,107.0,294.1,1649427683.2854052,1649427684.4041526,b2b3684a-1984-48ae-a521-3439b510c267
0.0835512608397598,0.1153053618471949,0.3723229144462644,-0.3188514658440372,0.1407086423456223,0.0769769127881934,0.1587618017772824,0.1391702448650517,-6.270398090472244,21.56002112327488,-12.908893215657022,1.048477258455457,0.6544831145014064,-0.9454946393676846,7453.4140625,11.646333333333336,7.763333333333334,179.53659944106823,13.35254086035938,35.91217615271352,1553.0,1522.0,1350.0,1528.0,1471.0,999.7000000000002,107.0,294.1,1649427686.338473,1649427687.3832865,fab33f8f-b424-4ee4-8591-028fd59fc5c7
0.0811976442452033,0.1084943373279473,0.3695485397329422,-0.3148937076460529,0.1410768058214798,0.0817893355889144,0.1588143965501955,0.1250748426404879,-6.302863429802412,21.437289326142665,-12.66436334125924,1.0494345702165544,0.6263349043098391,-0.9427060741865142,7453.4140625,11.642333333333331,7.776666666666666,179.5151572005338,13.348130265702842,35.90519797611149,1553.0,1522.0,1350.0,1528.0,1471.0,999.7000000000002,107.0,294.1,1649427687.491867,1649427688.704594,fab33f8f-b424-4ee4-8591-028fd59fc5c7
0.0788966224265157,0.1046549180794104,0.3618828503986498,-0.3120798862953898,0.1337792795995401,0.0775949014656337,0.1498469860214719,0.1295059533703168,-6.287570375511299,21.519681870754862,-13.491698697421327,1.033702131190794,0.6183281515506187,-0.9111796218814572,7455.576334635417,11.645666666666664,7.79,179.5044429104558,13.33660745198182,35.89141806946098,1553.0,1522.0,1350.0,1528.0,1471.0,999.7000000000002,107.0,294.1,1649427688.82137,1649427689.9302683,fab33f8f-b424-4ee4-8591-028fd59fc5c7
0.0949621376296595,0.1088367512827762,0.3726598497249189,-0.6306405500832549,0.1040703488079165,0.3883698012794241,0.2424329790107352,0.2202582516252922,-6.090533057063588,21.511308426286387,-10.036289951026465,2.451780745860793,0.6418974848074707,-1.014500335438363,7453.4140625,11.632777777777775,7.77,179.45175634901813,13.436234962809088,35.86037485968328,1553.0,1613.0,1350.0,1528.0,1471.0,999.7000000000002,107.0,294.1,1649427691.8678453,1649427693.2174194,4f4de26b-6e29-4f0f-a474-e03e34cc37f5
0.0947703857934239,0.1054810944934647,0.3629352938375108,-0.6212584041884962,0.0960578621606491,0.3852743792913657,0.2305169735925206,0.1998640767610263,-6.174097463683043,21.600113649564904,-9.799654238390591,2.423761236348302,0.6260357617171673,-0.9734504494935576,7458.459364149306,11.632333333333332,7.79,179.4151131430309,13.433679523422118,35.84460964471403,1553.0,1613.0,1350.0,1528.0,1471.0,999.7000000000002,107.0,294.1,1649427693.329791,1649427694.3917277,4f4de26b-6e29-4f0f-a474-e03e34cc37f5
0.0949248829939057,0.1107953591346811,0.3582406618310312,-0.6305282382735021,0.090888233258874,0.3820003541867885,0.226780004841287,0.2135261193937437,-6.136788449874143,21.393873300411027,-10.767920216032564,2.43557801904447,0.6551253407201526,-0.9553824506266948,7453.4140625,11.63577777777778,7.786666666666666,179.39429927990017,13.411386260289888,35.83337246570954,1553.0,1613.0,1350.0,1528.0,1471.0,999.7000000000002,107.0,294.1,1649427694.5009758,1649427695.667452,4f4de26b-6e29-4f0f-a474-e03e34cc37f5
0.1197803013651887,0.1031389830155782,0.3649212947272728,-0.9744380291985778,0.0585429885185947,0.7199771507768676,0.3261189470179884,0.3106966229423608,-5.9817851200083405,21.151128788116512,-8.398883397891689,3.970012369445715,0.6470775422298799,-1.062263496720412,7459.90087890625,11.62588888888889,7.76111111111111,179.29396228317285,13.408785476035929,35.80288553689424,1553.0,1656.111111111111,1350.0,1528.0,1471.0,999.7000000000002,107.0,294.1,1649427698.0095725,1649427699.1449115,8abb6b59-0cf6-4158-ab7c-2dea01477396
0.1154237001066434,0.1008680936301765,0.3666295294158913,-0.9732623158749802,0.0597258233618032,0.718107296775305,0.3289059225776835,0.3118915107437485,-5.786257486765999,21.148901734146296,-8.810565381571385,3.963261531045372,0.6407886565844503,-1.070878590849757,7458.459364149306,11.617555555555557,7.765555555555555,179.26031980696098,13.515706585395646,35.79665260982165,1553.0,1710.0,1350.0,1528.0,1471.0,999.7000000000002,107.0,294.1,1649427699.254681,1649427700.3764184,8abb6b59-0cf6-4158-ab7c-2dea01477396
0.1256561248947894,0.1038375074807299,0.3668388127781973,-0.968616988386894,0.0585703816089931,0.7175391635796716,0.3265983265330709,0.3089845531807786,-5.793340319336129,21.31709707058944,-7.880251392613011,3.9527762794277983,0.6431747257375711,-1.06466641636948,7453.4140625,11.61277777777778,7.75,179.2671575852301,13.519628726662788,35.782819200022644,1553.0,1710.0,1350.0,1528.0,1471.0,999.7000000000002,107.0,294.1,1649427700.4859188,1649427701.6119282,8abb6b59-0cf6-4158-ab7c-2dea01477396
0.1140036409606172,0.09788333961295,0.3691803762414072,-1.2097812337515206,0.0247108450263755,0.9696023880006528,0.3859975574689504,0.3625797312529172,-5.790241184611835,22.242618767323425,-4.22203067830523,5.070040143639692,0.6182549426739765,-1.104365252482075,7453.4140625,11.579222222222224,7.735555555555556,179.24101010326746,13.58533704375308,35.81864278330946,1553.0,1814.0,1350.0,1528.0,1471.0,999.7000000000002,107.0,294.1,1649427703.951002,1649427705.0885086,88c8a78f-0dff-43b3-b989-6e7433cf5ac8
0.1123995000327891,0.0901256089355628,0.3435930152388772,-1.2319631031707567,0.0035940386291982,0.9719034097465488,0.3688253614687008,0.3490234263216775,-5.754043422112675,21.611876752338866,-8.034140352433147,5.119202913493125,0.6237874326586137,-1.0225011022861443,7453.4140625,11.584222222222222,7.75,179.20883384099744,13.585836691063614,35.85252583396208,1553.0,1814.0,1350.0,1528.0,1471.0,999.7000000000002,107.0,294.1,1649427705.1972797,1649427706.323012,88c8a78f-0dff-43b3-b989-6e7433cf5ac8
0.1129122991897883,0.093373336866814,0.3548745958166979,-1.2212732037502003,0.0141655906159944,0.9670515411535072,0.3788709646652474,0.3539804845378675,-5.585711570082611,21.65083214525521,-6.792142007101754,5.08528902596542,0.6231688728202512,-1.064240607831683,7453.4140625,11.58111111111111,7.743333333333333,179.18067676559903,13.57789375024132,35.878340533930135,1553.0,1814.0,1350.0,1528.0,1471.0,999.7000000000002,107.0,294.1,1649427706.434785,1649427707.551625,88c8a78f-0dff-43b3-b989-6e7433cf5ac8
0.036215954474412,0.1033268997970316,0.3769644038656752,0.3175454497907739,0.2141046621885813,-0.5130971960855523,-0.0142618912090391,-0.0299614352863898,-7.440326953009017,23.440443402881964,-15.816599820558272,-1.7014093316815206,0.5655800528163848,-0.8070010515128808,7440.47412109375,11.62677777777778,7.763333333333334,179.1246843926031,13.059771821503432,35.87873478762723,1553.0,1349.0,1350.0,1528.0,1471.0,999.7000000000002,107.0,294.1,1649427709.8901966,1649427711.0248437,07f22299-272a-4c8c-941b-6f5e0b565e13
0.0414885817017285,0.0996452648916902,0.3717443718143379,0.3112472246699047,0.2093579830174696,-0.5146881887775335,-0.0154847200503577,-0.0309212897916502,-7.178375782951462,23.22133108500158,-17.402665133536598,-1.6926106651039703,0.5644157224934814,-0.7941439672744524,7446.93896484375,11.624000000000002,7.760000000000001,179.08955445297198,13.05341101811138,35.89416722060192,1553.0,1349.0,1350.0,1528.0,1471.0,999.7000000000002,107.0,294.1,1649427711.1329114,1649427712.257535,07f22299-272a-4c8c-941b-6f5e0b565e13
0.041015228621876,0.1043919441654125,0.3760702925886409,0.3051988248244795,0.209502618717289,-0.5043270134088728,-0.0115138136106206,-0.0246230644505357,-7.121873306912128,23.47692766804241,-16.032602487660476,-1.653527391999481,0.5706991769684321,-0.8035031169319192,7440.47412109375,11.631222222222222,7.7555555555555555,179.09723158559908,13.050209936120366,35.88898766048133,1553.0,1349.0,1350.0,1528.0,1471.0,999.7000000000002,107.0,294.1,1649427712.3660195,1649427713.486632,07f22299-272a-4c8c-941b-6f5e0b565e13
0.025780820305233,0.1031389830076952,0.3936155827592637,0.5953795693859374,0.2564171645743786,-0.787685353266359,-0.0770255514079065,-0.099912502429946,-7.496522930184956,24.31065664949149,-18.693815794206817,-2.939060354734345,0.55763671182561,-0.8000086930090715,7440.47412109375,11.618888888888888,7.782222222222221,179.1195936249417,13.006462005304003,35.92369678456856,1553.0,1264.0,1350.0,1528.0,1471.0,999.7000000000002,107.0,294.1,1649427715.419522,1649427716.556783,a544ae26-9c0c-401c-8361-e323ed4c08ae
0.024465950703109,0.0974138216073908,0.3937799414615358,0.5969546734633873,0.2576909444722069,-0.7857130479602533,-0.0770803375607546,-0.0998577161945319,-7.621499324420533,24.39888217682943,-19.00449096875764,-2.937700761968022,0.5396199208218183,-0.8031303852663152,7440.47412109375,11.614777777777778,7.7266666666666675,179.11988504634624,12.939230081710106,35.96212722338859,1553.0,1264.0,1350.0,1528.0,1471.0,999.7000000000002,107.0,294.1,1649427716.6653235,1649427717.783919,a544ae26-9c0c-401c-8361-e323ed4c08ae
0.0203569830666746,0.1013858235371243,0.3874932215705337,0.60624093929333,0.2505824309721874,-0.7946706014886326,-0.0880101918687831,-0.1183206779710132,-7.613443488260611,24.55253840331136,-18.577437282506125,-2.9779994224016018,0.5491360830449227,-0.7682101306535755,7450.536241319444,11.61188888888889,7.723333333333333,179.1136559138232,12.93249086686529,35.985141925251895,1553.0,1264.0,1350.0,1528.0,1471.0,999.7000000000002,107.0,294.1,1649427717.8940327,1649427719.0108416,a544ae26-9c0c-401c-8361-e323ed4c08ae
0.0311772644694958,0.1203555568470752,0.4164066544558129,0.769243667334293,0.2876179232956565,-0.9730683724719564,-0.1139514752958621,-0.1425635887976047,-7.5619829104521825,25.33102636232574,-19.95533231118509,-3.740170606256577,0.6139091754035811,-0.8196334964780719,7453.4140625,11.568666666666664,7.735555555555556,179.12481796074684,12.900160356156512,36.06664846989244,1553.0,1178.0,1350.0,1528.0,1471.0,999.7000000000002,107.0,294.1,1649427719.7379313,1649427720.8569658,461ad1d1-2ede-49ee-8f17-16dfbf0eb5c0
0.0227516894020272,0.1148057114074348,0.3969898666363123,0.752688364596786,0.2689610200651369,-0.9622305530877528,-0.1280507137287063,-0.1575695393239692,-7.526184835854622,25.155851592199166,-21.481059445652804,-3.680825143113991,0.6071674123103695,-0.7505522537959571,7453.4140625,11.575888888888889,7.757777777777777,179.09975571995233,12.895261782429277,36.13422294644595,1553.0,1178.0,1350.0,1528.0,1471.0,999.7000000000002,107.0,294.1,1649427720.9646876,1649427722.292838,461ad1d1-2ede-49ee-8f17-16dfbf0eb5c0
0.0277309995919036,0.1114654369016868,0.4156807368594167,0.7781295722875926,0.2897946223142153,-0.962239656003561,-0.1149702887436938,-0.1394091652285253,-7.87441179774169,25.52043709082407,-18.49924877066677,-3.734587138848105,0.568735031521603,-0.8193985026171003,7459.90087890625,11.58211111111111,7.720000000000001,179.06211985980576,12.888597130482896,36.18273815957551,1553.0,1178.0,1350.0,1528.0,1471.0,999.7000000000002,107.0,294.1,1649427722.400998,1649427723.522684,461ad1d1-2ede-49ee-8f17-16dfbf0eb5c0
-0.0047553835508857,0.1028666954275371,0.3769644038578335,0.8521713912759039,0.2570877480825606,-1.0631731590826623,-0.180619205329107,-0.2000266830053101,-7.617793873873733,25.927646721352744,-24.75734903958674,-4.128515175925454,0.5785699934545909,-0.6378112736486496,7453.4140625,11.55788888888889,7.67,179.05541109622098,12.835815515579284,36.31552234940992,1553.0,1088.0,1350.0,1528.0,1471.0,999.7000000000002,107.0,294.1,1649427725.8644264,1649427727.0008404,15907b74-0ba2-40dc-9942-b397e04b1a66
0.0082881233540861,0.1056673676751909,0.3972265432083365,0.8744058347117771,0.2751277583171489,-1.0506161454297578,-0.1667210321525299,-0.1869437288180461,-7.900344613891028,26.590944158886217,-19.549664725661195,-4.144359442264358,0.5434766919588412,-0.702380992586516,7453.4140625,11.546555555555557,7.727777777777779,179.06422052243047,12.837183925006748,36.34515588403392,1553.0,1088.0,1350.0,1528.0,1471.0,999.7000000000002,107.0,294.1,1649427727.1082928,1649427728.4376042,15907b74-0ba2-40dc-9942-b397e04b1a66
0.0291288071325286,0.1175932349660407,0.4127420034796107,0.869659155769759,0.2867512050547316,-1.0551261514080967,-0.1551238813129417,-0.1783313322137848,-7.989706832239274,26.72113843082733,-19.04801285250508,-4.1421160596933575,0.585962524316873,-0.7538806789485315,7453.4140625,11.555333333333335,7.736666666666666,179.08759191195043,12.83119166723866,36.40480696169527,1553.0,1088.0,1350.0,1528.0,1471.0,999.7000000000002,107.0,294.1,1649427728.5455773,1649427729.66345,15907b74-0ba2-40dc-9942-b397e04b1a66
