raw_voltage_G-,raw_voltage_G0,raw_voltage_G1,raw_voltage_G2,raw_voltage_G3,raw_voltage_G4,raw_voltage_G5,raw_voltage_G6,load_x,load_y,load_z,load_l,load_m,load_n,rpm,voltage,current,roll,pitch,yaw,aileron1_pwm,elevator_pwm,throttle_pwm,rudder_pwm,aileron2_pwm,pbaro,pdiff,Tt,sample_start_time,sample_end_time,uid
-0.1656686305200151,0.0644209194120731,-0.4042416431065541,0.0882782169665275,-0.5132620606384157,-0.21203043224902,-0.8490470190738596,-0.8764570083024503,-22.5047595595289,26.328025677537266,-14.625746016303008,-0.5348513443262491,0.4944791925966347,2.420366399535161,4224.7021484375,11.96022222222222,0.1655555555555555,178.66114981003062,12.960119456376685,63.33218382941378,1553.0,1435.0,1200.0,1528.0,1471.0,999.7000000000002,110.0,294.1,1649428170.4414952,1649428171.4278023,17d4bf93-b0e5-4349-80a0-6ce4bbe32dec
-0.1609093078545855,0.0743603222823006,-0.390511872817821,0.0805533581432551,-0.5018024630516476,-0.21542380753548,-0.8347144271109751,-0.8532146520626378,-22.401759940394328,26.163951862812144,-14.625435282884528,-0.5254034401082146,0.5328449435635956,2.366911011845326,4243.747395833333,11.961,0.1622222222222222,178.44152583617878,12.884674989215751,63.1116590295014,1553.0,1435.0,1200.0,1528.0,1471.0,999.7000000000002,110.0,294.1,1649428171.5363448,1649428172.6514056,17d4bf93-b0e5-4349-80a0-6ce4bbe32dec
-0.1545453383468806,0.0751360953542634,-0.4012412111441986,0.0851685504765239,-0.5128342221508472,-0.2205386509182111,-0.8481918476206706,-0.8734505070298014,-22.393986839508813,26.27039552225273,-14.734798025230653,-0.5471500611199955,0.5354222207964144,2.415692748886582,4246.08349609375,11.962000000000002,0.16,178.28861915013962,12.836352444339036,62.87486699571577,1553.0,1435.0,1200.0,1528.0,1471.0,999.7000000000002,110.0,294.1,1649428172.7603588,1649428173.8850691,17d4bf93-b0e5-4349-80a0-6ce4bbe32dec
0.0122897099579447,0.3934512241474068,-0.3852529411610228,-0.1326198858001034,-0.5759501735937579,-0.3233033958091786,-0.8854925266389433,-0.9164056768145326,-22.328408854454867,25.31927610387605,-13.58671652747187,-0.2920917658073736,1.7464697842822885,2.571635462813596,4242.115234375,11.927222222222222,0.151111111111111,177.96515656924598,12.775251848753827,62.63400644591454,1658.0,1435.0,1200.0,1528.0,1551.0,999.7000000000002,110.0,294.1,1649428174.7867997,1649428175.925936,584827fd-ec6f-47bc-96ae-7fa79de2aaf3
0.0133854346606976,0.3913008646191349,-0.386937618248261,-0.1245389157156391,-0.5775800646381627,-0.3237964720575852,-0.8895878000137319,-0.9130089283753674,-22.38454298163386,25.515450230070684,-12.923212144534402,-0.3101343763776472,1.7318228966490017,2.582609336306276,4245.38232421875,11.925222222222224,0.1477777777777777,177.8981099145333,12.745396902164224,62.54049660271762,1658.0,1435.0,1200.0,1528.0,1551.0,999.7000000000002,110.0,294.1,1649428176.0345547,1649428177.160875,584827fd-ec6f-47bc-96ae-7fa79de2aaf3
0.0108258217484695,0.3883774713818576,-0.3862911405457389,-0.1319953226756057,-0.5785777222729113,-0.3163137669601024,-0.8874012802367754,-0.9110163529563576,-22.34821515726213,25.632771458052435,-13.233276559163968,-0.2757211243354507,1.7243103844982175,2.579094649763627,4234.89453125,11.92677777777778,0.15,177.8808249824737,12.742262035062664,62.398777007629015,1658.0,1435.0,1200.0,1528.0,1551.0,999.7000000000002,110.0,294.1,1649428177.2916868,1649428178.5852048,584827fd-ec6f-47bc-96ae-7fa79de2aaf3
0.2092736122971098,0.7308111275689103,-0.3568873631197504,-0.3483544057154547,-0.6350097535649483,-0.4396419866507857,-0.9210214191370996,-0.946387461994494,-22.24565589792516,24.889128396359496,-11.39916450110943,-0.0679246120753211,3.020153080058908,2.706245676901334,4232.802734375,11.897,0.14,177.62850868761456,12.74173924099994,62.25787779415074,1767.0,1435.0,1200.0,1528.0,1630.0,999.7000000000002,110.0,294.1,1649428179.2242515,1649428180.225953,eade0f3b-b778-426c-8b80-f9ad566267ee
0.1943684700368767,0.7330442142667603,-0.3516837656459355,-0.3389032310180522,-0.6324610970302248,-0.4473011040838839,-0.9207595408128636,-0.9393912545525536,-22.166277699147926,25.21160791076068,-10.923267557145946,-0.1039425284110871,3.022920538372199,2.6962558221671444,4230.7138671875,11.891555555555556,0.14,177.65647907117565,12.748152883494322,62.23884053911408,1767.0,1435.0,1200.0,1528.0,1630.0,999.7000000000002,110.0,294.1,1649428180.334028,1649428181.452315,eade0f3b-b778-426c-8b80-f9ad566267ee
0.2085296152613242,0.7225252582838695,-0.3666338359976509,-0.3461087177006455,-0.6443343739497362,-0.4320880590958161,-0.92914841379941,-0.9454922526655803,-22.162588330450703,25.0305403238366,-11.256527496773684,-0.0554989714728619,2.9863319440644283,2.743021100459473,4228.858832465277,11.894222222222222,0.14,177.67436657770202,12.738586160060596,62.24872154611338,1767.0,1435.0,1200.0,1528.0,1630.0,999.7000000000002,110.0,294.1,1649428181.5640953,1649428182.6846912,eade0f3b-b778-426c-8b80-f9ad566267ee
0.3560711271357016,0.9877607361490984,-0.2882938911555231,-0.498475842098713,-0.6439793590271534,-0.5316763090197155,-0.9089388563001506,-0.9308051505326864,-21.77050248705545,25.622365203429936,-8.046457226167643,0.0729489908527449,3.973636414849328,2.6422938565441227,4226.54150390625,11.849,0.13,177.45899705279317,12.770249304369225,62.19755356340119,1886.0,1435.0,1200.0,1528.0,1710.0,999.7000000000002,110.0,294.1,1649428183.2261188,1649428184.3225527,c5f7ccb7-82d4-492e-8b7c-1288fc8396c0
0.3449604795958682,0.9805815485016584,-0.2964329353382489,-0.4863001463088134,-0.6488969731966531,-0.5336354652857758,-0.9192474400634442,-0.9399040538997042,-21.96969242552097,25.725008671890816,-7.802443177953134,0.0412949144928027,3.9439439033319177,2.674164275154274,4223.533854166667,11.852333333333332,0.13,177.5365485384493,12.772603348039414,62.23932624145508,1886.0,1435.0,1200.0,1528.0,1710.0,999.7000000000002,110.0,294.1,1649428184.4308803,1649428185.5501804,c5f7ccb7-82d4-492e-8b7c-1288fc8396c0
0.3466121580225705,0.983464147087305,-0.2943867955892323,-0.489657616209921,-0.6474420188858812,-0.535134417100059,-0.9161180484977358,-0.9337170830990108,-21.865124842461817,25.613567756450628,-8.032674726392777,0.0448792643590032,3.956597034183779,2.6650513731351184,4224.458984375,11.833888888888888,0.13,177.5877931710622,12.780880588676087,62.33798832401591,1886.0,1435.0,1200.0,1528.0,1710.0,999.7000000000002,110.0,294.1,1649428185.658909,1649428186.7808218,c5f7ccb7-82d4-492e-8b7c-1288fc8396c0
-0.3894599768740386,-0.3434921264215419,-0.4097221219377961,0.3533756445882159,-0.4226472930212891,-0.0604269651057567,-0.7796345126578074,-0.7983319681143122,-22.15342443709428,27.65941322892604,-14.961336529135847,-0.7834965629464783,-1.0679190928620836,2.15778051541902,4228.626953125,11.961111111111112,0.17,178.5295806349585,12.702726908008124,62.37031409153777,1449.0,1435.0,1200.0,1528.0,1386.0,999.7000000000002,110.0,294.1,1649428187.8954651,1649428189.043544,46b651aa-6d1c-45ed-8162-68698cc4f73d
-0.3955872705256296,-0.3463716913946802,-0.409090984397767,0.3545853245709668,-0.4217005866993997,-0.0624518643776754,-0.7797397022564726,-0.7970696917990057,-22.193926833321825,27.71721984682834,-15.490069048067465,-0.7904655610528287,-1.0738543496737614,2.154644923939225,4232.107421875,11.962,0.16,178.5578925279782,12.700431964447,62.20482771486726,1449.0,1435.0,1200.0,1528.0,1386.0,999.7000000000002,110.0,294.1,1649428189.1576622,1649428190.4661038,46b651aa-6d1c-45ed-8162-68698cc4f73d
-0.4030162853925181,-0.3473052489851141,-0.4224106164276962,0.3604627913323935,-0.4334949697155608,-0.0637535853978058,-0.7942690181865925,-0.8243401007772014,-22.24849206824029,27.72263776936545,-15.142970620502076,-0.8072482769596898,-1.081613827244116,2.2099398176502554,4238.850640190973,11.958333333333334,0.1611111111111111,178.58514346494673,12.70857990580813,62.07025553329012,1449.0,1435.0,1200.0,1528.0,1386.0,999.7000000000002,110.0,294.1,1649428190.5749404,1649428191.6957676,46b651aa-6d1c-45ed-8162-68698cc4f73d
-0.6015353531007311,-0.6982604843204389,-0.4336565890994754,0.6028031034265154,-0.3698443097982578,0.0606522585987036,-0.7575666075278721,-0.7791660914476592,-22.29189649901336,30.16815418891253,-14.550278919044052,-1.0586278256806316,-2.433363884257466,2.0457795471027427,4236.522623697917,11.910666666666666,0.1422222222222222,178.8023905329674,12.705611714295069,61.79190938750404,1342.0,1435.0,1200.0,1528.0,1293.0,999.7000000000002,110.0,294.1,1649428193.8370502,1649428194.7793896,8c3df0c7-070c-4b9b-a7a7-09ec724e68ff
-0.6055325581066873,-0.6956143081784311,-0.4518242564381349,0.5920113120116217,-0.3824648691578787,0.067588743667442,-0.7669460151525136,-0.781080870379998,-22.25060567448076,29.37132643960349,-14.70491062227178,-1.024887740530922,-2.4221974106838746,2.101451391905504,4233.96484375,11.920333333333332,0.14,178.8674321477037,12.726434589480975,61.7952326539902,1342.0,1435.0,1200.0,1528.0,1293.0,999.7000000000002,110.0,294.1,1649428194.8882096,1649428196.0028725,8c3df0c7-070c-4b9b-a7a7-09ec724e68ff
-0.5945139470740974,-0.6923008354577993,-0.441186958845973,0.5951669988184479,-0.3729978061245805,0.063078740946002,-0.7585308458635192,-0.7732442441021875,-22.26710149814698,29.45680788028276,-14.399186190297923,-1.041004011254204,-2.4120754828847613,2.062888872407856,4234.89453125,11.924,0.15,178.9035274207375,12.721929984859614,61.781895571270894,1342.0,1435.0,1200.0,1528.0,1293.0,999.7000000000002,110.0,294.1,1649428196.134342,1649428197.225443,8c3df0c7-070c-4b9b-a7a7-09ec724e68ff
-0.8182286932554774,-1.0808055727135149,-0.4819506660315149,0.7830908867560572,-0.3418485391828141,0.2847827358333108,-0.7252701089029303,-0.752841294107963,-22.0867036348004,32.26462637623464,-12.461695320287552,-0.9497325193990086,-3.913327236750855,1.985016719020288,4236.98779296875,11.842,0.1233333333333333,179.19106927787615,12.731752935250954,61.7647062618597,1227.0,1435.0,1200.0,1528.0,1189.0,999.7000000000002,110.0,294.1,1649428199.3640275,1649428200.5030878,e9066f84-c1a8-4b41-af0a-b532eff0c540
-0.828074332228891,-1.0858678243413733,-0.486431633329526,0.7883870715434556,-0.3440443718671822,0.2864750824958725,-0.72955110703694,-0.7468285013849159,-22.19043503648239,32.26548513102852,-12.266248692120476,-0.9581149756791664,-3.934247939927376,1.9998474737717056,4234.89453125,11.842999999999998,0.13,179.2515118985713,12.7405072456284,61.85422044439216,1227.0,1435.0,1200.0,1528.0,1189.0,999.7000000000002,110.0,294.1,1649428200.6116312,1649428201.7317927,e9066f84-c1a8-4b41-af0a-b532eff0c540
-0.8105865577704663,-1.0754671982634416,-0.4757548893307162,0.7986956484432061,-0.3367468442393384,0.268947871448634,-0.7281047498561268,-0.7519564952630428,-22.28791560504844,32.59349401075444,-11.916698340929502,-1.0180418908678737,-3.898234176057788,1.9749341774597315,4233.96484375,11.84122222222222,0.13,179.2863868444734,12.77939805817124,61.91704604219774,1227.0,1435.0,1200.0,1528.0,1189.0,999.7000000000002,110.0,294.1,1649428201.841107,1649428202.9594755,e9066f84-c1a8-4b41-af0a-b532eff0c540
-0.1807769895348763,0.0631970792196402,-0.4000841256846199,0.0904148802205773,-0.5077062293029657,-0.2127546219409582,-0.8401579901819585,-0.8545032258017704,-22.18039420380243,26.02383107071997,-14.56734012035848,-0.542935422769315,0.4870709560692753,2.394780629027804,4229.090711805556,11.960333333333333,0.16,178.97945180355137,12.795950262714856,62.0014072264564,1553.0,1435.0,1200.0,1528.0,1471.0,999.7000000000002,110.0,294.1,1649428203.870325,1649428205.013298,447e72b1-ee50-4341-b46b-7149ab19bbdb
-0.1777527891240049,0.0609355034769266,-0.4036211255966006,0.0938992846928595,-0.5114799060322527,-0.2127546219410342,-0.845733040097465,-0.8642201166194,-22.25661695888833,26.202708089348416,-14.463120833589931,-0.5498074626249265,0.4775542669536625,2.412456690511996,4228.626953125,11.957666666666666,0.1622222222222222,178.96830797046556,12.804217922113942,61.8288698178327,1553.0,1435.0,1200.0,1528.0,1471.0,999.7000000000002,110.0,294.1,1649428205.1276608,1649428206.2367232,447e72b1-ee50-4341-b46b-7149ab19bbdb
-0.1677800079097833,0.0604257386383666,-0.4050507938071678,0.0955352858896712,-0.5121115493989897,-0.2121315759568559,-0.8464046354871453,-0.8652679668808632,-22.237275944935845,26.142143917910268,-14.238994377680797,-0.552525025300413,0.4732259335744543,2.416529171406461,4232.802734375,11.957444444444445,0.1644444444444444,178.9511171432345,12.80475399710005,61.69049397979778,1553.0,1435.0,1200.0,1528.0,1471.0,999.7000000000002,110.0,294.1,1649428206.344695,1649428207.4612644,447e72b1-ee50-4341-b46b-7149ab19bbdb
-0.170100247267393,0.0525203378749371,-0.4152840216927946,-0.1657348797943232,-0.550386909148608,0.0477736585040858,-0.785235859850836,-0.8116910493714087,-22.15082137324232,25.886889944321005,-12.396458312124691,0.6190137959507773,0.4581485079906178,2.3950358679028354,4227.468370225694,11.959444444444443,0.1644444444444444,178.9888410369304,12.8867660706029,61.452526394565,1553.0,1522.0,1200.0,1528.0,1471.0,999.7000000000002,110.0,294.1,1649428209.4002335,1649428210.4820187,a58a9aff-cf4d-4cc5-bd8d-177831efc575
-0.167983307047603,0.0517182674164065,-0.4190314008366131,-0.1652089319241673,-0.5531218387358677,0.0490753794129389,-0.7881154255651924,-0.811717346748016,-22.161066276967134,25.81639593861464,-12.278961934311042,0.620112191939124,0.4538678847665629,2.408063965937013,4226.54150390625,11.959333333333335,0.16,178.99293004351352,12.880454406627376,61.35163235796537,1553.0,1522.0,1200.0,1528.0,1471.0,999.7000000000002,110.0,294.1,1649428210.5914783,1649428211.5412557,a58a9aff-cf4d-4cc5-bd8d-177831efc575
-0.1615141479141974,0.0578192624774239,-0.40986675757102,-0.1662608276441287,-0.5432997597308734,0.0447231609968984,-0.7768338390089076,-0.8027104853670665,-22.03590340801256,25.49983789173415,-12.103798910894858,0.6111537573780024,0.4750171199190295,2.3673244468259065,4228.626953125,11.960888888888888,0.16,179.00785021230047,12.89296996937152,61.26703667054523,1553.0,1522.0,1200.0,1528.0,1471.0,999.7000000000002,110.0,294.1,1649428211.6495163,1649428212.7962525,a58a9aff-cf4d-4cc5-bd8d-177831efc575
-0.1676693818510281,0.0313827128752855,-0.4531878861527513,-0.4568859577506299,-0.6186697536220667,0.3539229590410377,-0.7433221806563495,-0.7704687719592712,-22.23567508028048,25.958039089102467,-9.91869878624254,1.9626742043156984,0.3909550494222363,2.4783261871939883,4227.700086805556,11.944111111111113,0.1555555555555555,179.06486711367194,13.000401635371697,61.04115244886412,1553.0,1613.0,1200.0,1528.0,1471.0,999.7000000000002,110.0,294.1,1649428214.9294126,1649428216.0662577,cf488f4a-9795-444d-8413-02657b3cce5b
-0.1640649951988696,0.03912181638217,-0.4519820408551631,-0.4600421936383988,-0.6134086297836882,0.3485763707882799,-0.7377690455766341,-0.7523904029863847,-22.21738488341333,25.28118493194528,-9.97983742414113,1.953351957531188,0.4208473749490043,2.4627232770983976,4231.236083984375,11.94225,0.16,179.06550194180977,13.003529933159369,60.96207479538342,1553.0,1613.0,1200.0,1528.0,1471.0,999.7000000000002,110.0,294.1,1649428216.1752732,1649428217.2968438,cf488f4a-9795-444d-8413-02657b3cce5b
-0.1586214345519054,0.0384775302629152,-0.4448291484036346,-0.4588588106287535,-0.6082411903740362,0.346367389989441,-0.7325358622020844,-0.7473413009641006,-22.17843001522513,25.48658133778537,-10.18356288357172,1.9474235583409805,0.4202720497559601,2.4380719440670933,4228.626953125,11.943777777777775,0.1522222222222222,179.1061108315201,13.012596084361109,60.92671718277999,1553.0,1613.0,1200.0,1528.0,1471.0,999.7000000000002,110.0,294.1,1649428217.4058828,1649428218.555585,cf488f4a-9795-444d-8413-02657b3cce5b
-0.155702423676958,0.0236720981855308,-0.48631329494089,-0.7721266036766622,-0.6834780569526674,0.6705221696848633,-0.6898288797686,-0.713733219639293,-22.237901747967,25.50145970646668,-7.169866661695271,3.380981481256588,0.3743936397028052,2.535953727482229,4224.458984375,11.937,0.15,179.14026177737014,13.096021153248504,60.83379018239225,1553.0,1710.0,1200.0,1528.0,1471.0,999.7000000000002,110.0,294.1,1649428219.22425,1649428220.367527,281dd0fb-8395-4e6a-8ca8-ddddefac6b80
-0.1597259250716299,0.0183731735465391,-0.497463392282849,-0.7717715886918932,-0.6924717687428822,0.6735463695258003,-0.6968765837100321,-0.7290646050468423,-22.051553498697903,25.29681745798429,-7.499963223885047,3.385105820335304,0.3553721237343024,2.572547403920966,4223.0712890625,11.937,0.1566666666666666,179.14170522401477,13.13352543738983,60.71964178425326,1553.0,1710.0,1200.0,1528.0,1471.0,999.7000000000002,110.0,294.1,1649428220.4757278,1649428221.5963042,281dd0fb-8395-4e6a-8ca8-ddddefac6b80
-0.150762559264428,0.0218140862404502,-0.4911621308473378,-0.7717857491346176,-0.6862306870619667,0.6707401345901834,-0.6915154536452524,-0.7214540357986421,-22.1224682917087,25.25475230862189,-7.375749251884619,3.378850787747844,0.3680791469965685,2.548383496575149,4220.298828125,11.942555555555556,0.1577777777777777,179.1441762346745,13.125129901671285,60.66280246780025,1553.0,1710.0,1200.0,1528.0,1471.0,999.7000000000002,110.0,294.1,1649428221.7047012,1649428222.82672,281dd0fb-8395-4e6a-8ca8-ddddefac6b80
-0.1408443958098474,0.0206084519273063,-0.4860634696831903,-0.9908026874654317,-0.7122737129894641,0.8845434786224172,-0.6349593502492094,-0.6571543575251256,-22.085996185300328,25.763969776866183,-5.590231183411819,4.35727652713917,0.37477167996919,2.4966497487817354,4218.2216796875,11.910999999999998,0.14,179.17170796830885,13.203981684590666,60.58666027784285,1553.0,1814.0,1200.0,1528.0,1471.0,999.7000000000002,110.0,294.1,1649428223.7345889,1649428224.8734171,81a01808-6281-4978-a3ca-263e0f486e5a
-0.151626327571887,0.0193461770722976,-0.4750974544365035,-0.9895667094426976,-0.7030696221124266,0.8824265387245762,-0.6244140923257243,-0.6475558065445642,-21.95309507126232,25.89108823147276,-5.824475090649871,4.351149694071208,0.3717180056203098,2.4537198485879235,4217.529947916667,11.911,0.14,179.18500862335264,13.216760968527758,60.524494172747104,1553.0,1814.0,1200.0,1528.0,1471.0,999.7000000000002,110.0,294.1,1649428224.9826186,1649428226.1091485,81a01808-6281-4978-a3ca-263e0f486e5a
-0.1660372997692298,0.0141655906800285,-0.4868786893533516,-0.995010272857218,-0.7125366873233117,0.8933268069851574,-0.6312777144312808,-0.6469904122111249,-21.94390974547808,25.698019673700443,-5.778645770758357,4.38606882514023,0.3517365386771339,2.4919215085998747,4219.837239583333,11.907333333333334,0.1322222222222222,179.196205580132,13.230363479987314,60.53648039583057,1553.0,1814.0,1200.0,1528.0,1471.0,999.7000000000002,110.0,294.1,1649428226.217458,1649428227.3277938,81a01808-6281-4978-a3ca-263e0f486e5a
-0.1687240169745204,0.080457482253966,-0.3646122235491609,0.4074080162234163,-0.4471066126852793,-0.5287929086991249,-0.9013257569879598,-0.9289517323994364,-22.45639429152152,27.21233553813633,-15.705641661030086,-1.9588498819472089,0.5270904060477072,2.3535611841750903,4224.922092013889,11.944777777777778,0.1588888888888889,179.2190639465543,12.774508211907944,60.50223155060241,1553.0,1349.0,1200.0,1528.0,1471.0,999.7000000000002,110.0,294.1,1649428229.268246,1649428230.4012177,46e4c755-8f3f-437a-9a3a-0156680fed6c
-0.167694035656624,0.0834197739107285,-0.3599805944886473,0.4043662847317244,-0.4437509550843301,-0.5320444725531095,-0.8978676480756408,-0.9205097157732608,-22.468988687259543,27.23920571997373,-16.12229521968365,-1.9589591858636908,0.5426513093713932,2.3374779054231563,4229.090711805556,11.948444444444444,0.15,179.2570686369161,12.742305198063669,60.64642898653991,1553.0,1349.0,1200.0,1528.0,1471.0,999.7000000000002,110.0,294.1,1649428230.5277529,1649428231.6283786,46e4c755-8f3f-437a-9a3a-0156680fed6c
-0.1664914777090006,0.0879905894150895,-0.3575447980213924,0.4024772555297159,-0.444257727827639,-0.5330936291860096,-0.8982303330116478,-0.923760732857097,-22.47437695212676,27.444768928886862,-15.876667076273735,-1.9555351618572896,0.5580462699739105,2.336159083284812,4230.7138671875,11.94611111111111,0.15,179.27312565274485,12.744327503240422,60.760213107923136,1553.0,1349.0,1200.0,1528.0,1471.0,999.7000000000002,110.0,294.1,1649428231.738248,1649428232.866788,46e4c755-8f3f-437a-9a3a-0156680fed6c
-0.176216035195497,0.0999065952262329,-0.3341647685660883,0.6639719281413738,-0.401579242187086,-0.7953828229419061,-0.956399650620916,-0.9886002799359072,-22.66802277430747,28.62472813931656,-17.418648748027312,-3.126158932132419,0.5870822481281506,2.32992072331126,4227.932291666667,11.915,0.14,179.33198063391296,12.68326627610668,61.05982390932521,1553.0,1264.0,1200.0,1528.0,1471.0,999.7000000000002,110.0,294.1,1649428234.7659523,1649428235.9342642,91ca61fb-919f-4302-af9a-cf64f3c87786
-0.1707785009507633,0.098523242816116,-0.3392051032664889,0.6603286439120203,-0.4080577159865403,-0.7944925461982923,-0.9597416132317292,-0.9824368249367388,-22.427393761914203,28.631601188742,-17.994992027739183,-3.1161161634839982,0.5854279909586549,2.349526657531739,4230.7138671875,11.906,0.14,179.3582465058212,12.69623016487884,61.248755289776746,1553.0,1264.0,1200.0,1528.0,1471.0,999.7000000000002,110.0,294.1,1649428236.0424984,1649428237.1616364,91ca61fb-919f-4302-af9a-cf64f3c87786
-0.1719290119573744,0.1071794677267874,-0.3391092271225633,0.6464266382936253,-0.4051951344874356,-0.7886988992027627,-0.9532357438364232,-0.968206091579661,-22.477306944973847,27.98014574018489,-17.75211514597788,-3.07603775837121,0.6178014231066834,2.3377345868795305,4230.7138671875,11.918555555555557,0.14,179.36851455687344,12.658670195723031,61.38663024727253,1553.0,1264.0,1200.0,1528.0,1471.0,999.7000000000002,110.0,294.1,1649428237.270829,1649428238.3904088,91ca61fb-919f-4302-af9a-cf64f3c87786
-0.1530069407594804,0.1226817803117343,-0.3080695332451527,0.6966354779015951,-0.3830302633021251,-0.8536880057188668,-0.949555202304912,-0.9701329243268444,-22.273462612145533,29.11242627312473,-18.139742322904286,-3.32624338510752,0.6737424614298841,2.261441552183149,4228.626953125,11.902444444444445,0.13,179.41026522654,12.66736350871664,61.75606000128036,1553.0,1178.0,1200.0,1528.0,1471.0,999.7000000000002,110.0,294.1,1649428240.3246453,1649428241.4633777,a169289d-f098-4fd0-8cf1-0c32b11157fe
-0.1503640526132922,0.133884469258568,-0.3085560351982331,0.6556246982913804,-0.3905118730333906,-0.8250501309958058,-0.9436251370499036,-0.9651364176637556,-22.260703805446656,29.095402898029825,-17.855802962313053,-3.1694653762356086,0.7181706794999134,2.2652641022880307,4226.54150390625,11.885888888888893,0.13,179.37770343803683,12.690292169169162,61.89171514729589,1553.0,1178.0,1200.0,1528.0,1471.0,999.7000000000002,110.0,294.1,1649428241.571108,1649428242.6876552,a169289d-f098-4fd0-8cf1-0c32b11157fe
-0.1511266771283656,0.1218402637609629,-0.289700801846483,0.7101391876510658,-0.3634781482869952,-0.8654692438296522,-0.93643279584285,-0.9685813771689844,-22.51613515511414,29.271468058812378,-18.04348501505742,-3.381316324770152,0.6709552944025114,2.1910061112650725,4223.0712890625,11.893333333333334,0.13,179.37886760583535,12.667260866151617,61.9959650835077,1553.0,1178.0,1200.0,1528.0,1471.0,999.7000000000002,110.0,294.1,1649428242.7965577,1649428243.848172,a169289d-f098-4fd0-8cf1-0c32b11157fe
-0.1637848267776811,0.1398109910851097,-0.2891905316949542,0.7214890399938524,-0.3723434059585929,-0.8940939705054324,-0.9478898692232556,-0.9652486874916388,-22.03054396286876,29.80520420889888,-18.17490844688172,-3.467455299747091,0.7347283459203457,2.22090693525576,4221.6845703125,11.877333333333333,0.1266666666666666,179.35018536478077,12.633050725328744,62.26510185756289,1553.0,1088.0,1200.0,1528.0,1471.0,999.7000000000002,110.0,294.1,1649428245.8538864,1649428246.9918458,501c796b-58bf-4f64-927f-802d84e43edb
-0.1456831164290423,0.139669895461205,-0.283704995789227,0.7341224072738238,-0.3652400742206778,-0.9052966657558512,-0.9471621385143698,-0.9689758388926784,-22.22781547166449,29.90012512835676,-18.10955189185743,-3.5203135311058484,0.7338100628971352,2.2027273814985544,4214.304036458333,11.862444444444446,0.12,179.3508258847429,12.613894985482752,62.38933389164653,1553.0,1088.0,1200.0,1528.0,1471.0,999.7000000000002,110.0,294.1,1649428247.100127,1649428248.2197742,501c796b-58bf-4f64-927f-802d84e43edb
-0.1471426217981666,0.138473364132752,-0.2730414017619412,0.7455880693674487,-0.3538533013435747,-0.915789331853462,-0.938063235703414,-0.9595087715612968,-22.108922169471143,29.8982029475141,-18.191396727408144,-3.56919064267025,0.7284705480637044,2.1596518843514114,4214.07373046875,11.860666666666669,0.12,179.33845565324611,12.615198033794409,62.48286270759114,1553.0,1088.0,1200.0,1528.0,1471.0,999.7000000000002,110.0,294.1,1649428248.328551,1649428249.4501443,501c796b-58bf-4f64-927f-802d84e43edb
-0.164853917027321,0.0660634950003566,-0.3865804119753992,0.0906778541395166,-0.4951229237148259,-0.211084737331251,-0.8271013283759383,-0.8546610105368729,-22.23232506896976,26.069456280848417,-13.794742754499149,-0.5387043081850814,0.4921662604477215,2.342028540210753,4209.9345703125,11.961333333333334,0.16,179.31253736207566,12.832151308817048,62.63318985885376,1553.0,1435.0,1200.0,1528.0,1471.0,999.7000000000002,110.0,294.1,1649428251.38822,1649428252.526625,8e843bc4-9f09-430c-9beb-6c66816c659e
-0.1743867226104812,0.0579376007430527,-0.3901963040347665,0.0991193170018616,-0.5006322287771117,-0.2098882058921836,-0.8347407245116071,-0.8575405754249046,-22.24998993424276,26.59178150268881,-13.701056631372415,-0.5517688625399627,0.4597242115680102,2.364334336202921,4222.840115017361,11.96377777777778,0.1588888888888889,179.22773069770113,12.817024052489025,62.40535599761956,1553.0,1435.0,1200.0,1528.0,1471.0,999.7000000000002,110.0,294.1,1649428252.6350276,1649428253.7498064,8e843bc4-9f09-430c-9beb-6c66816c659e
-0.1665500989711411,0.0615140461134375,-0.3919187835682097,0.0965290238911399,-0.5007505670470692,-0.2127283245626964,-0.8332680698339019,-0.8505980605680825,-22.10993380613554,26.220395952927905,-13.942814982449503,-0.5548236864316514,0.4744928975400277,2.3650661275628666,4232.802734375,11.964666666666666,0.16,179.2015968761169,12.812647798505816,62.26419951368254,1553.0,1435.0,1200.0,1528.0,1471.0,999.7000000000002,110.0,294.1,1649428253.8620677,1649428254.9787843,8e843bc4-9f09-430c-9beb-6c66816c659e
-0.1024463652722728,0.0923597915475738,-0.2084988268559725,0.0740474928734732,-0.3383285230404831,-0.2310844543186131,-0.6478434335056673,-0.6789346341135465,-21.03152558494368,26.429093321708155,-13.786991388240496,-0.5342752832020327,0.5955687723336089,1.6342381646495965,4232.571940104167,11.960444444444445,0.1544444444444444,179.1528718243978,12.796202315667976,62.02138856541831,1553.0,1435.0,1200.0,1424.0,1471.0,999.7000000000002,110.0,294.1,1649428255.889974,1649428257.0348864,4615b34a-7c2a-44d3-9ae0-7a5f8bc13ea7
-0.1140747442239152,0.0925652399263198,-0.2257290993531289,0.0635285359106598,-0.3497788479313072,-0.2237020084706133,-0.6539110110580482,-0.6700044737495995,-20.80175571249831,25.54517798703384,-14.165942782332328,-0.5006200327388757,0.5982595213633376,1.6818812261565348,4236.98779296875,11.96,0.15,179.1220251722862,12.790920871892268,61.87508667230654,1553.0,1435.0,1200.0,1424.0,1471.0,999.7000000000002,110.0,294.1,1649428257.1574457,1649428258.259528,4615b34a-7c2a-44d3-9ae0-7a5f8bc13ea7
-0.1032544623029517,0.1011118923729538,-0.2173194115807873,0.0638572532946076,-0.343368857518977,-0.2300435157934938,-0.6480351854925553,-0.6677445406804926,-20.781892983174387,25.55996549523293,-13.779461021060431,-0.5150233720032144,0.6272416107467844,1.6549112816337537,4232.802734375,11.962333333333332,0.15,179.1300043510566,12.78462296315882,61.77089061869818,1553.0,1435.0,1200.0,1424.0,1471.0,999.7000000000002,110.0,294.1,1649428258.3688672,1649428259.4944696,4615b34a-7c2a-44d3-9ae0-7a5f8bc13ea7
-0.0384686415613368,0.1328194248899594,-0.0007713285898342,0.0595285929293546,-0.14931215691245,-0.2696753347196424,-0.4328901296644261,-0.4540595361509254,-19.357246766668258,25.85901634848722,-13.9125970169536,-0.5808559625883343,0.7515268371752591,0.7935838854751219,4232.5416259765625,11.962625,0.15,179.0803695560856,12.77478028110988,61.54317789845801,1553.0,1435.0,1200.0,1304.0,1471.0,999.7000000000002,110.0,294.1,1649428260.2421958,1649428261.3303406,6b0f516c-8294-404f-aa74-eef020b7ad84
-0.0422817636064459,0.1327931275014199,-0.0013498712470571,0.0587791172528843,-0.1494830899731569,-0.2690704945608967,-0.4314963676006211,-0.456702424277942,-19.23851103406385,25.73532560261065,-13.924386712592634,-0.5785970517510782,0.7507458176919449,0.7927283175474514,4232.802734375,11.959222222222223,0.15,179.07398465730395,12.787076329163195,61.47296232056166,1553.0,1435.0,1200.0,1304.0,1471.0,999.7000000000002,110.0,294.1,1649428261.4410312,1649428262.757808,6b0f516c-8294-404f-aa74-eef020b7ad84
-0.0483301640873394,0.1339765101285977,0.0079068110908864,0.0646171383494267,-0.142645767404328,-0.2738829181039179,-0.4271047021131267,-0.4517322158603089,-19.3095788788372,26.07870101426885,-13.630835107077273,-0.599832137136738,0.7529593446644557,0.7649627434492714,4234.89453125,11.959444444444443,0.15,179.06706643458466,12.77080160105461,61.39282067539028,1553.0,1435.0,1200.0,1304.0,1471.0,999.7000000000002,110.0,294.1,1649428262.8662395,1649428263.9907942,6b0f516c-8294-404f-aa74-eef020b7ad84
0.0143673726101519,0.1720505818702485,0.1946815100915631,0.0634347671256634,0.0215359406908521,-0.3213795558204219,-0.2470767688207898,-0.2632597819549666,-18.0167185358608,26.46234380065522,-13.833466418769111,-0.6914344443397298,0.9003982325599724,0.0354829095373594,4229.323079427083,11.948,0.15,179.06517523109449,12.781344662084694,61.2426043249742,1553.0,1435.0,1200.0,1166.0,1471.0,999.7000000000002,110.0,294.1,1649428265.925584,1649428266.9352877,d5307750-4f8d-40b0-ac98-f3518267e677
0.0136972948119686,0.1665635299678552,0.1860337140602396,0.0675943065724904,0.014911020591592,-0.3186233864065851,-0.2552441330565835,-0.2806185915599939,-18.08529546423945,26.4767157054217,-13.72605465941639,-0.6949765927941359,0.8782917260003245,0.0673929507587897,4223.996419270833,11.950333333333331,0.1422222222222222,179.06076596453028,12.787947083418636,61.19693768018348,1553.0,1435.0,1200.0,1166.0,1471.0,999.7000000000002,110.0,294.1,1649428267.0430996,1649428268.2913952,d5307750-4f8d-40b0-ac98-f3518267e677
0.0374387832579833,0.1685049854826859,0.1929615595567394,0.0682067324316542,0.0210292101616884,-0.3200874433588616,-0.2494394886458128,-0.2696753346800387,-18.113028743169515,26.532524223344307,-13.535204371610066,-0.6989166226680871,0.8844428848279793,0.0418189267790487,4223.302571614583,11.949111111111112,0.1455555555555555,179.08693773160996,12.789904881253229,61.16330886434998,1553.0,1435.0,1200.0,1166.0,1471.0,999.7000000000002,110.0,294.1,1649428268.4005282,1649428269.5203245,d5307750-4f8d-40b0-ac98-f3518267e677
-0.2512277115127357,0.0171240473750223,-0.6229940325609065,0.1535023234787878,-0.7084737382594949,-0.2090729866226643,-1.08478963066837,-1.1075894864860956,-23.93438751682608,27.0894943291893,-14.00691576220375,-0.6818007074506857,0.2998357399254678,3.3144920725845024,4225.384548611111,11.940666666666669,0.1455555555555555,179.21792406387283,12.791998713688791,61.27226707762965,1553.0,1435.0,1200.0,1623.0,1471.0,999.7000000000002,110.0,294.1,1649428270.438073,1649428271.5645387,1d676fe7-f8e9-4abd-bdbc-7730376afad6
-0.2384734746981806,0.0236063546928769,-0.6098847781729789,0.1438511807241952,-0.6970080707388782,-0.2066930723606321,-1.0679592878024406,-1.099410991421701,-23.734005211579284,26.84808241795986,-13.912003451828204,-0.6555137072807079,0.3239040963512616,3.258116055290736,4226.281188964844,11.944624999999998,0.14,179.21936049060076,12.792660008809682,61.250042400980334,1553.0,1435.0,1200.0,1623.0,1471.0,999.7000000000002,110.0,294.1,1649428271.6727543,1649428272.7983434,1d676fe7-f8e9-4abd-bdbc-7730376afad6
-0.2366984004173838,0.0198458275378556,-0.606005911362037,0.1465335145775915,-0.6918537796898079,-0.2032481136762297,-1.062016072885403,-1.0935861146081651,-23.69536427781737,26.791843861163706,-13.556876284021532,-0.6539267234670956,0.3062935519733244,3.237466004629088,4210.625922309027,11.936888888888893,0.14,179.2180576320166,12.796649218739924,61.22417571568359,1553.0,1435.0,1200.0,1623.0,1471.0,999.7000000000002,110.0,294.1,1649428272.9143631,1649428274.0283678,1d676fe7-f8e9-4abd-bdbc-7730376afad6
-0.2908836367944094,0.010906357562296,-0.7412266062926568,0.2366393351057672,-0.8146401933130072,-0.2694759127441563,-1.2352480877130665,-1.2583815964035734,-24.836315639199047,27.893923285529848,-13.616291729794389,-1.0060171531172,0.2617195396687935,3.834046079394165,4185.26708984375,11.91588888888889,0.13,179.27816785017214,12.771279429705295,61.27002981122151,1553.0,1435.0,1200.0,1712.0,1471.0,999.7000000000002,110.0,294.1,1649428274.93596,1649428276.0106497,b026d7a2-dc45-4512-9111-fa2af94a8030
-0.2953284445933785,0.0020819386559756,-0.7549675474778774,0.2427162238652745,-0.8246425208107769,-0.2666248367689084,-1.2476363615374009,-1.2731317063642025,-24.9262295089258,27.83809891353229,-13.74401933327801,-1.014438271424462,0.2287707941417313,3.882803699788683,4183.45068359375,11.90088888888889,0.1311111111111111,179.28582373332182,12.76649554623787,61.30885032973416,1553.0,1435.0,1200.0,1712.0,1471.0,999.7000000000002,110.0,294.1,1649428276.1194685,1649428277.3025446,b026d7a2-dc45-4512-9111-fa2af94a8030
-0.2972481545499103,0.0059871015151109,-0.7608713146556215,0.241256718697065,-0.8283110088720254,-0.272857319568641,-1.252501383282543,-1.276865939375555,-24.94253665486347,27.50500375849036,-14.314143467630322,-1.0277523922748868,0.2483857228630609,3.902555474699987,4187.085232204861,11.914555555555555,0.13,179.2764253930239,12.761932600417346,61.35320709602402,1553.0,1435.0,1200.0,1712.0,1471.0,999.7000000000002,110.0,294.1,1649428277.4114494,1649428278.5274506,b026d7a2-dc45-4512-9111-fa2af94a8030
-0.3412699964323393,-0.0062543349200823,-0.8704526017086732,0.3168354202635418,-0.92938509046306,-0.3279766623095132,-1.395072831420071,-1.418096222538867,-25.835837184020143,28.68938359394731,-14.941213059549828,-1.3202545916458666,0.1981210182051709,4.3897709900679365,4213.846462673611,11.870666666666668,0.11,179.29799057696334,12.740413330527312,61.42208651816398,1553.0,1435.0,1200.0,1801.0,1471.0,999.7000000000002,110.0,294.1,1649428279.2226737,1649428280.3747394,20f9f0bd-6bb4-440a-828e-6fefb9882018
-0.3311652217084447,-0.0018040490087165,-0.8734532453629682,0.3129017688450319,-0.9291845727326256,-0.3292340067067858,-1.3947720547519369,-1.4120708266897983,-25.88607302001412,28.22017785027756,-15.019440506734156,-1.3175042494726608,0.216147315368432,4.39371094451464,4224.458984375,11.868666666666666,0.1133333333333333,179.3205924318368,12.743555786727953,61.52420391753492,1553.0,1435.0,1200.0,1801.0,1471.0,999.7000000000002,110.0,294.1,1649428280.4829626,1649428281.6072404,20f9f0bd-6bb4-440a-828e-6fefb9882018
-0.330699538662578,-0.0054336371086289,-0.8688375027207318,0.3217223520330541,-0.927376625988965,-0.3318500497275379,-1.396045836008723,-1.4143444592068295,-25.96370657086597,28.767647447362265,-14.735718994483053,-1.3394146986876585,0.1997849034168635,4.386529624134273,4222.37744140625,11.868000000000002,0.11,179.3358783951993,12.74300197222275,61.62039574834594,1553.0,1435.0,1200.0,1801.0,1471.0,999.7000000000002,110.0,294.1,1649428281.715558,1649428282.8382146,20f9f0bd-6bb4-440a-828e-6fefb9882018
-0.1786206031891488,0.0152569324946912,-0.387277293028156,0.0436449676499856,-0.4562027734031411,-0.1295759625088985,-0.7694048224107984,-0.7878524520700193,-22.93160271933428,22.4674895198644,-15.173927347914525,-0.2739329605623909,0.3244692439578098,2.2003043691501447,7401.9228515625,11.648555555555554,7.623333333333333,178.1434245065833,12.714097370565163,55.80333536811034,1553.0,1435.0,1350.0,1528.0,1471.0,999.7000000000002,110.0,294.1,1649428287.7904882,1649428288.7755983,19c1836c-a837-4a44-b888-e6f850c58349
-0.1788704284698059,0.0171240473796161,-0.3851735013456425,0.0543217091074144,-0.4548221600331302,-0.1339807759548238,-0.7696546478177518,-0.7956890790715596,-22.819673832219305,22.59513281636503,-14.13802052970675,-0.306742888124397,0.3203196373543147,2.197718400712182,7408.3203125,11.645555555555555,7.723333333333334,177.83119531014458,12.67454744476742,53.12900211934853,1553.0,1435.0,1350.0,1528.0,1471.0,999.7000000000002,110.0,294.1,1649428288.8877656,1649428290.0115993,19c1836c-a837-4a44-b888-e6f850c58349
-0.1794358224158382,0.0214894145856031,-0.3811762968527823,0.0444996329964212,-0.4517848104612877,-0.1296943006822618,-0.7643425721038237,-0.7821327664271231,-22.88687963255323,22.503070310931705,-14.16904164126196,-0.2754044425701276,0.3389041718915524,2.1809586490993937,7414.72802734375,11.648,7.75,177.69752091898837,12.66507975907666,50.76739249683034,1553.0,1435.0,1350.0,1528.0,1471.0,999.7000000000002,110.0,294.1,1649428290.1238365,1649428291.1771374,19c1836c-a837-4a44-b888-e6f850c58349
8.607606221942207e-05,0.3518958685275632,-0.3775417773255247,-0.1928984454086086,-0.5332990778530632,-0.2338511596401776,-0.8168590367911758,-0.8370751682980629,-22.780220567149485,21.702190017913903,-14.209112405883646,0.0209722346544773,1.6071751106092595,2.400046489391423,7414.72802734375,11.611666666666666,7.7555555555555555,177.5733268304001,12.726825902402176,46.40859116477081,1658.0,1435.0,1350.0,1528.0,1551.0,999.7000000000002,110.0,294.1,1649428293.254865,1649428294.3004763,7e7ffeaa-8e08-4330-a0d2-6cffecd1ee0a
-0.0003933035026479,0.3420343470470831,-0.3775006876360421,-0.1904330645552348,-0.5329292706751021,-0.2266467688827854,-0.8149415177296849,-0.8328703220040766,-22.705759914484407,21.86436609298645,-14.230627627410954,0.0327113501820647,1.5695538980885055,2.395540188608201,7408.3203125,11.610222222222225,7.788888888888888,177.70540143947073,12.767273523757082,45.20443298810206,1658.0,1435.0,1350.0,1528.0,1551.0,999.7000000000002,110.0,294.1,1649428294.409457,1649428295.5309706,7e7ffeaa-8e08-4330-a0d2-6cffecd1ee0a
-0.0020094974359232,0.3450338931652978,-0.3766788939550797,-0.1779281052763894,-0.5311761106509333,-0.2260852099886022,-0.815420897524132,-0.8341167105663935,-22.703583782467007,21.889674642230272,-12.096317602787147,0.0063151336359734,1.5603851801239703,2.3961886415861624,7413.304090711806,11.614333333333333,7.76111111111111,177.8418306735922,12.810523230218989,44.0240787796007,1658.0,1435.0,1350.0,1528.0,1551.0,999.7000000000002,110.0,294.1,1649428295.6394775,1649428296.9630787,7e7ffeaa-8e08-4330-a0d2-6cffecd1ee0a
0.2028225334697554,0.6973367416165951,-0.3508334832521089,-0.4076605162696348,-0.5972894187921151,-0.3444782789628465,-0.8601538801737908,-0.8922723283163353,-23.01585627228944,21.69773094165216,-9.997658046402204,0.2586819933660004,2.8952650643308986,2.5581321911141184,7414.72802734375,11.571666666666664,7.783333333333333,177.7888268878131,12.919238782055649,42.68158233093746,1767.0,1435.0,1350.0,1528.0,1630.0,999.7000000000002,110.0,294.1,1649428297.875288,1649428299.010205,aaffa453-8c22-4bcb-8336-2b608c103e5b
0.1952072472134261,0.6903104077430088,-0.3480530815767773,-0.4023873396270807,-0.5938515816897733,-0.3413691597652321,-0.8574145671543247,-0.8872045980575889,-23.04515940321308,21.85652587294261,-9.82469335598997,0.254977542117291,2.8671161737861817,2.545113876348864,7414.72802734375,11.579,7.760000000000001,177.98780395871393,13.008313840342725,42.08964740161289,1767.0,1435.0,1350.0,1528.0,1630.0,999.7000000000002,110.0,294.1,1649428299.118603,1649428300.2005596,aaffa453-8c22-4bcb-8336-2b608c103e5b
0.2020210109218842,0.6915732303220008,-0.3542477620289417,-0.399374096338973,-0.5976301893071132,-0.3484886321617517,-0.8646145776782705,-0.8907541998258495,-23.162595154658096,21.68182630401812,-10.314981896819834,0.2305781711520115,2.876262455351322,2.568433076332683,7414.72802734375,11.576,7.779999999999999,178.11508225716736,13.043908517428598,41.56994627622066,1767.0,1435.0,1350.0,1528.0,1630.0,999.7000000000002,110.0,294.1,1649428300.309481,1649428301.4685235,aaffa453-8c22-4bcb-8336-2b608c103e5b
0.3530853618609256,0.9805056906422424,-0.3110249560954254,-0.5774378316416321,-0.6384655020293318,-0.4418671513393687,-0.8832715762084119,-0.9030704890660886,-22.939269430791,22.3101918527936,-6.569913851379967,0.4294394517342934,3.949835972014051,2.630278347280996,7421.14794921875,11.517333333333331,7.746666666666666,178.11078834490914,13.119109184781657,40.93036963907039,1886.0,1435.0,1350.0,1528.0,1710.0,999.7000000000002,110.0,294.1,1649428302.3796158,1649428303.5145142,0381c682-6dc6-48cc-bc97-fe9080f34d1c
0.3622115678312866,0.9832770310435488,-0.295946433584936,-0.5547128319077443,-0.624782256013233,-0.4422125576032653,-0.878026254984681,-0.9022198689329626,-23.361008244586245,22.963076521669027,-3.1875822104769007,0.3828069777460498,3.931406663677592,2.5883615456604008,7434.02099609375,11.514,7.75,178.30375484934035,13.237111517159812,40.67791560206295,1886.0,1435.0,1350.0,1528.0,1710.0,999.7000000000002,110.0,294.1,1649428303.6262083,1649428304.7418969,0381c682-6dc6-48cc-bc97-fe9080f34d1c
0.3635001399445282,0.980318574593574,-0.3136445814607723,-0.5689791715948798,-0.6387987711009321,-0.4577674688010073,-0.8874670240225453,-0.9175775547975834,-22.86533387615276,22.12293969105337,-7.772708489610272,0.3731023784674607,3.958060525864155,2.638760179433892,7434.02099609375,11.521555555555556,7.734444444444445,178.41417168746275,13.232151092275087,40.4577543199964,1886.0,1435.0,1350.0,1528.0,1710.0,999.7000000000002,110.0,294.1,1649428304.8504384,1649428305.9793794,0381c682-6dc6-48cc-bc97-fe9080f34d1c
-0.4220556014896641,-0.4150867909873936,-0.3907616984299375,0.3452891969322784,-0.3590601858417789,0.0051981796805694,-0.7066066230703075,-0.736572514177903,-22.82831405201168,24.397755938683968,-16.265364540164914,-0.6390124650715877,-1.3179660550641403,1.9316448749345425,7440.47412109375,11.637,7.809999999999999,179.52086723867993,13.199320934255775,40.03190948017399,1449.0,1435.0,1350.0,1528.0,1386.0,999.7000000000002,110.0,294.1,1649428307.723003,1649428308.8387344,f45b59ae-6a3e-4fee-ad67-1761cb7b22c8
-0.4206355419927172,-0.4173615159133892,-0.4025823785315534,0.346893337726,-0.3696580368118794,0.0051850309660932,-0.7190715918266245,-0.7417662510110739,-22.90846487683976,24.4110279136148,-16.467202885546428,-0.643233690111642,-1.325088127629412,1.9793325284529864,7440.47412109375,11.645666666666664,7.803333333333334,179.60909051545931,13.215157012437666,39.80000179055482,1449.0,1435.0,1350.0,1528.0,1386.0,999.7000000000002,110.0,294.1,1649428308.9483464,1649428310.072806,f45b59ae-6a3e-4fee-ad67-1761cb7b22c8
-0.4223185754776663,-0.4128909582611061,-0.39859832280267,0.3425937143560715,-0.3668310665968936,0.0054085587865804,-0.711958144350121,-0.7408326933818052,-22.622567144552928,24.20826975407161,-16.332005438650537,-0.6340127604127094,-1.310764078875858,1.9609004261739529,7440.47412109375,11.643111111111113,7.800000000000001,179.70628410734855,13.24353341279944,39.63186681830616,1449.0,1435.0,1350.0,1528.0,1386.0,999.7000000000002,110.0,294.1,1649428310.1815376,1649428311.300829,f45b59ae-6a3e-4fee-ad67-1761cb7b22c8
-0.6220801978265714,-0.7697154602969855,-0.4092493167962017,0.6011047303179412,-0.2954719847386706,0.1064809432077257,-0.6741134425218988,-0.690165815805817,-22.609335884623903,26.142657162935663,-17.74331028906492,-0.9779525040897028,-2.669128846818688,1.7806581330611395,7440.47412109375,11.602,7.779999999999999,179.9499837391148,13.258790537585432,39.308712354835066,1342.0,1435.0,1350.0,1528.0,1293.0,999.7000000000002,110.0,294.1,1649428313.2341654,1649428314.370591,11d49abb-48d1-4caf-ae0f-41b520495c4a
-0.6176288147529144,-0.7640861722040034,-0.4127282433482142,0.5940510033207443,-0.3031694517759756,0.1194652805398711,-0.6776060663555481,-0.7016161432178443,-22.53997322549287,26.3894263032127,-16.06793964872392,-0.9310988701809618,-2.662703189036008,1.8037867610474976,7440.47412109375,11.596888888888891,7.79,-179.9665112790864,13.26987669351827,39.25701275573246,1342.0,1435.0,1350.0,1528.0,1293.0,999.7000000000002,110.0,294.1,1649428314.4794166,1649428315.4204378,11d49abb-48d1-4caf-ae0f-41b520495c4a
-0.6177109941284353,-0.7567311170288603,-0.4023462497713208,0.5901063948252624,-0.2922806860732154,0.1113569180003619,-0.665484607303734,-0.6918641903535434,-22.431965349045083,26.02105905081878,-16.62165872801722,-0.9423802677862324,-2.629836533760517,1.7578468145837427,7435.455023871527,11.597111111111111,7.795555555555556,-179.8757274402782,13.308735536981242,39.23144849603397,1342.0,1435.0,1350.0,1528.0,1293.0,999.7000000000002,110.0,294.1,1649428315.5292504,1649428316.6237247,11d49abb-48d1-4caf-ae0f-41b520495c4a
-0.8253656994791673,-1.1464307639603102,-0.4382153529914193,0.7774342086248961,-0.2578283580729968,0.3322588398692392,-0.6281877695068728,-0.6447814299554038,-22.197767364832263,28.97405073164829,-15.010110334438496,-0.850385330204478,-4.1326757461757735,1.6624258592278909,7427.57958984375,11.512,7.7666666666666675,-179.5885225391386,13.295890702200865,39.31793159239477,1227.0,1435.0,1350.0,1528.0,1189.0,999.7000000000002,110.0,294.1,1649428318.766346,1649428319.899904,41874d39-edcc-49e9-a9b5-11e2c2d588d3
-0.8362002305567117,-1.1458916669550414,-0.4186369399373212,0.791910921823113,-0.2380001216631699,0.3396484066735645,-0.6117255961759422,-0.6288320562071938,-22.472086079150785,29.27447715568241,-11.85475737566522,-0.8631045713086186,-4.157214189107802,1.589620297983503,7421.14794921875,11.511111111111113,7.762222222222222,-179.5306571764903,13.32903115950872,39.37938432217718,1227.0,1435.0,1350.0,1528.0,1189.0,999.7000000000002,110.0,294.1,1649428320.0173843,1649428321.1318076,41874d39-edcc-49e9-a9b5-11e2c2d588d3
-0.8349248063013855,-1.1460939547934372,-0.4413361460529114,0.7488231539821129,-0.2616288373750723,0.3332991039650997,-0.6234709259392291,-0.6375552076620148,-21.94446710290801,28.468790820651808,-18.54763060319861,-0.7874494082979722,-4.098536128415656,1.6603254898030069,7421.14794921875,11.514333333333331,7.786666666666666,-179.48857865774357,13.306296779992596,39.47722184912322,1227.0,1435.0,1350.0,1528.0,1189.0,999.7000000000002,110.0,294.1,1649428321.239991,1649428322.3598485,41874d39-edcc-49e9-a9b5-11e2c2d588d3
-0.1923346945915985,0.0168084786729331,-0.3975990215631118,0.0413176485097885,-0.4711528445272345,-0.118964963831707,-0.781790899755123,-0.8074571671982912,-22.83972384217384,22.91415134253845,-13.84812618218059,-0.2421341560704515,0.3175274224121671,2.2542898852099595,7427.57958984375,11.642888888888889,7.827777777777778,-179.85605194200917,13.361584694866648,39.66629590463742,1553.0,1435.0,1350.0,1528.0,1471.0,999.7000000000002,110.0,294.1,1649428323.2712986,1649428324.3936975,7b7e136e-b78c-40ad-b123-f5d7d5e959c4
-0.1746759939286627,0.0121012453529088,-0.3899859249317902,0.0661029409791693,-0.461080940801496,-0.1142708789783371,-0.7789507801583174,-0.8024475112411771,-23.172352274341964,23.29112479562707,-10.556482610859865,-0.2842601137299927,0.2704903667833126,2.23005335945543,7434.02099609375,11.643333333333333,7.812222222222222,-179.91110478453928,13.35943280582314,39.613769093735336,1553.0,1435.0,1350.0,1528.0,1471.0,999.7000000000002,110.0,294.1,1649428324.5025482,1649428325.6353872,7b7e136e-b78c-40ad-b123-f5d7d5e959c4
-0.1709154664878909,0.0216734963353255,-0.3867644938224355,0.0487992567537847,-0.4557688663593011,-0.1286424048959908,-0.7674193684591611,-0.7914683447191199,-22.723522547740703,22.30735702802126,-13.46332818192267,-0.2841205273669404,0.3312967117281456,2.199632991213796,7440.47412109375,11.64188888888889,7.827777777777778,-179.94752335319376,13.325172387218878,39.56138951135537,1553.0,1435.0,1350.0,1528.0,1471.0,999.7000000000002,110.0,294.1,1649428325.744088,1649428326.8607583,7b7e136e-b78c-40ad-b123-f5d7d5e959c4
-0.1698334382918749,0.0154536150718441,-0.4089479923122908,-0.2410692470087444,-0.5101792805990392,0.1413660771867374,-0.7157099070746226,-0.739569323233007,-22.6370717588544,22.103576389083127,-13.775167707811898,0.9740352418007788,0.3443995693985318,2.226767307531322,7440.47412109375,11.650444444444444,7.812222222222222,-179.89279987756362,13.394180444588194,39.5646554801435,1553.0,1522.0,1350.0,1528.0,1471.0,999.7000000000002,110.0,294.1,1649428327.774428,1649428328.912164,19fc3fbd-ffa4-49ad-9b19-fca6a274df89
-0.1710863995854332,0.0118119740180178,-0.4131144864588748,-0.2272444870385161,-0.5105726460007277,0.145547362496722,-0.7192556738684229,-0.7455530776494104,-22.736576970742693,22.041271488461888,-11.90782034573218,0.9518729640517242,0.3129279081996814,2.2403011833472632,7440.47412109375,11.650333333333332,7.825555555555557,-179.94454387289585,13.39217540461184,39.53355421375785,1553.0,1522.0,1350.0,1528.0,1471.0,999.7000000000002,110.0,294.1,1649428329.021373,1649428330.1404448,19fc3fbd-ffa4-49ad-9b19-fca6a274df89
-0.1699030168182022,0.0099054130411402,-0.4039892893137187,-0.2372637946617243,-0.5014737457328075,0.1523452382577737,-0.7052917526925531,-0.7296825941976003,-22.63986079512728,21.85735227418208,-12.427682092762389,0.9889507685016388,0.31150909450169,2.194679211993222,7440.47412109375,11.649777777777778,7.821111111111112,-179.9473503217348,13.404601890305557,39.542675931394406,1553.0,1522.0,1350.0,1528.0,1471.0,999.7000000000002,110.0,294.1,1649428330.2485838,1649428331.369549,19fc3fbd-ffa4-49ad-9b19-fca6a274df89
-0.1660942774784,-0.0027354150214637,-0.4515990852440124,-0.5456944668048248,-0.5803193775061812,0.4560855813773794,-0.669771632053342,-0.6908232509572868,-22.57487770387896,21.53040235206826,-11.42793994855514,2.362893940971325,0.2897283452931445,2.313749910251899,7427.57958984375,11.638333333333334,7.83,179.99376221605496,13.481199615935097,39.57469661713333,1553.0,1613.0,1350.0,1528.0,1471.0,999.7000000000002,110.0,294.1,1649428333.3046792,1649428334.4406006,e450c02c-4d32-483a-9725-a1737f18e40d
-0.1622592407857213,-0.0004070000157119,-0.4419704021767508,-0.5375313158301087,-0.5713892183829269,0.4563458159759319,-0.6636218746982857,-0.6880428489895972,-22.733541113338777,21.75373475737369,-9.940014738603574,2.3471819126400275,0.2860059903669731,2.281955095794709,7427.57958984375,11.64111111111111,7.827777777777778,179.9837977289658,13.496280009576315,39.56311906703521,1553.0,1613.0,1350.0,1528.0,1471.0,999.7000000000002,110.0,294.1,1649428334.5498805,1649428335.677065,e450c02c-4d32-483a-9725-a1737f18e40d
-0.1621633648661104,0.0016748769250368,-0.4322458433645684,-0.5346002512615661,-0.5627877769106732,0.4525929592400586,-0.6538288317288267,-0.672401372243569,-22.55716203967349,21.745013439021864,-9.725659310217395,2.3326863365735075,0.2909215606688236,2.243747633015833,7427.57958984375,11.635333333333332,7.83,179.94678872840302,13.482700929460158,39.525593248825245,1553.0,1613.0,1350.0,1528.0,1471.0,999.7000000000002,110.0,294.1,1649428335.7931802,1649428336.8998966,e450c02c-4d32-483a-9725-a1737f18e40d
-0.1605482243549066,-0.0215513261919077,-0.500606437302723,-0.8610957826270874,-0.6588586314268011,0.7853992834405574,-0.6321313682418359,-0.6624239526094726,-22.89972603149126,21.305638144601115,-8.562851644680935,3.810736858161412,0.2317852658436416,2.432797745454942,7442.8984375,11.617375,7.792499999999999,179.91443298393983,13.59327471963789,39.55826659708487,1553.0,1710.0,1350.0,1528.0,1471.0,999.7000000000002,110.0,294.1,1649428337.8099625,1649428338.9434688,3d2372e4-9c3e-48fc-a8d6-cec0e5c6ed0b
-0.1651492148579947,-0.0131174066461679,-0.5061661878735022,-0.8819999030024485,-0.671921992330487,0.7985816930820636,-0.6415978006622425,-0.6655393947273458,-23.11449027019593,21.82759366468839,-8.31369459931269,3.890628944769553,0.2649595059327807,2.47247146988615,7453.4140625,11.61077777777778,7.77,179.89584917757307,13.608240849906116,39.55343006424258,1553.0,1710.0,1350.0,1528.0,1471.0,999.7000000000002,110.0,294.1,1649428339.051442,1649428340.3830874,3d2372e4-9c3e-48fc-a8d6-cec0e5c6ed0b
-0.1766543250812538,-0.0241705296910905,-0.5115900264858652,-0.8736313010960687,-0.672757482733612,0.8019921358429857,-0.6438851266284967,-0.6578008356790785,-23.13440946063599,21.690950912020103,-8.300917950673123,3.87823126703128,0.2221548044567677,2.4830555106382124,7457.468322753906,11.616125,7.786250000000001,179.87586802833863,13.592683161222745,39.56061447461205,1553.0,1710.0,1350.0,1528.0,1471.0,999.7000000000002,110.0,294.1,1649428340.4915512,1649428341.5428288,3d2372e4-9c3e-48fc-a8d6-cec0e5c6ed0b
-0.1729798119845385,-0.0165892103991182,-0.5211836467699489,-1.14376157697123,-0.7237656785159428,1.0680335218306185,-0.5932516721116317,-0.6167746972784086,-23.05858282636272,22.51006917562732,-4.640835294905977,5.090983447085375,0.2502779848501382,2.496944310020825,7451.975151909723,11.583555555555556,7.777777777777778,179.87538744863957,13.69496689230114,39.61559730770318,1553.0,1814.0,1350.0,1528.0,1471.0,999.7000000000002,110.0,294.1,1649428342.2211463,1649428343.455413,2c89d9f7-9ab5-4a0e-8cbc-7248b0a3784c
-0.160015196412325,-0.0094100220763281,-0.4964903886934829,-1.1235520154424634,-0.6905783559644013,1.037923009129272,-0.5642587879418113,-0.578945886419326,-22.754527418513803,21.424129577319576,-5.057370920584121,4.971850675339956,0.2778027957566518,2.377919376674745,7446.93896484375,11.583,7.779999999999999,179.8292942964807,13.68362185322601,39.6320129084634,1553.0,1814.0,1350.0,1528.0,1471.0,999.7000000000002,110.0,294.1,1649428343.563894,1649428344.6839695,2c89d9f7-9ab5-4a0e-8cbc-7248b0a3784c
-0.1622767723551424,-0.0226902056095951,-0.5181988917432182,-1.1363720039813967,-0.7185456437805914,1.0666003140002784,-0.5915028948061448,-0.6081885955867706,-23.2356340777836,22.58482991857768,-4.708742785498624,5.071638042449784,0.2285312018907723,2.4823522925771964,7441.192437065973,11.585777777777777,7.777777777777778,179.78408755109407,13.661905930806125,39.64906068117679,1553.0,1814.0,1350.0,1528.0,1471.0,999.7000000000002,110.0,294.1,1649428344.7924154,1649428345.9075568,2c89d9f7-9ab5-4a0e-8cbc-7248b0a3784c
-0.1851160597125263,0.0363868875527709,-0.36109823400324,0.3764647534182833,-0.4025560811485005,-0.4731251494000743,-0.843747586161943,-0.8699398024837347,-22.98641060841028,23.408000434185027,-17.696212488104138,-1.7895851032154892,0.387160612563967,2.198892080209631,7446.93896484375,11.611444444444444,7.791111111111111,179.68221452071344,13.13882243881865,39.67202377716639,1553.0,1349.0,1350.0,1528.0,1471.0,999.7000000000002,110.0,294.1,1649428348.2551384,1649428349.597501,a4d2c82e-dc09-4b31-9686-8af710d28b2e
-0.1898441121941947,0.0303280778435049,-0.3740354577867266,0.3774536448982022,-0.4147416379328311,-0.4660489576237778,-0.8555929239034349,-0.8888892766186269,-22.983646205332587,23.50545802077926,-17.50147746780411,-1.7758803482019576,0.3617506431989892,2.249501491678757,7446.93896484375,11.633,7.800000000000001,179.67801623110358,13.11467439987181,39.725872609127805,1553.0,1349.0,1350.0,1528.0,1471.0,999.7000000000002,110.0,294.1,1649428349.7058055,1649428350.825509,a4d2c82e-dc09-4b31-9686-8af710d28b2e
-0.1824863202237152,0.0406996599293678,-0.3634124049347399,0.3665243397942832,-0.4073816536018713,-0.4746372497989606,-0.846548259790397,-0.8796961407609339,-22.93682790011587,23.428033784014925,-18.631325703533708,-1.770666387537456,0.4123505930717898,2.211748961562812,7446.93896484375,11.627333333333333,7.793333333333333,179.6515105436645,13.081649581461152,39.77431800254585,1553.0,1349.0,1350.0,1528.0,1471.0,999.7000000000002,110.0,294.1,1649428350.9337788,1649428352.062418,a4d2c82e-dc09-4b31-9686-8af710d28b2e
-0.1855296958730183,0.0590908509701422,-0.3425059741885449,0.6280732515713962,-0.367926791354721,-0.7385420795620493,-0.9085849370577282,-0.932143032336068,-23.151342491549883,24.58288613804301,-19.518349345470057,-2.945238763707954,0.4598513634755169,2.220482821134365,7446.93896484375,11.630000000000004,7.809999999999999,179.6071325278972,12.955438784656716,39.80749678480405,1553.0,1264.0,1350.0,1528.0,1471.0,999.7000000000002,110.0,294.1,1649428353.7023177,1649428354.815951,5ffc0365-b71b-4f7a-b87f-229ab43749d4
-0.1872965520314574,0.0563926289310264,-0.3462999216834658,0.6291826727033301,-0.371186573050132,-0.7396651979248245,-0.912241920424429,-0.9347316832000592,-23.12716430750463,24.587441647759505,-19.93723436965261,-2.950478459138912,0.4528957982121581,2.234408575507942,7446.93896484375,11.601333333333336,7.786666666666666,179.5981667662467,12.951992954220444,39.84861452360752,1553.0,1264.0,1350.0,1528.0,1471.0,999.7000000000002,110.0,294.1,1649428354.9247084,1649428356.0572536,5ffc0365-b71b-4f7a-b87f-229ab43749d4
-0.1893784291583039,0.0476953142234217,-0.3322198569671457,0.6381676142697322,-0.354668520323965,-0.7317348872077557,-0.8978194361004265,-0.9224869534103216,-23.366555152838828,24.73578999473392,-18.736648095964807,-2.951170429459536,0.4111180421301587,2.172674597043472,7440.47412109375,11.592555555555556,7.772222222222222,179.57941562024527,12.94682098319893,39.89193044495888,1553.0,1264.0,1350.0,1528.0,1471.0,999.7000000000002,110.0,294.1,1649428356.1902702,1649428357.2836215,5ffc0365-b71b-4f7a-b87f-229ab43749d4
-0.1979228910911462,0.0500352342948006,-0.2895693150427614,0.8107135557386921,-0.3004432884152798,-0.910924310757755,-0.9041132823872124,-0.9252958440757956,-22.97728821859096,25.35833194686852,-21.16495549125701,-3.736994881020817,0.4201313328422036,2.048029420451782,7444.065700954861,11.593333333333334,7.794444444444445,179.54970277953595,12.851232390900863,39.98126818093778,1553.0,1178.0,1350.0,1528.0,1471.0,999.7000000000002,110.0,294.1,1649428358.3379755,1649428359.5272348,e2ab4bb6-0c6f-4f9e-863c-4f38572c6c03
-0.1897575499380448,0.0499037473294024,-0.2881361068992065,0.8022589448381461,-0.3018764964543591,-0.8917929472015647,-0.904257918042532,-0.928767101804955,-23.328947755062146,25.78938392832372,-19.56965585300673,-3.671926478453299,0.4091271477618532,2.04997096453356,7441.192437065973,11.572666666666668,7.779999999999999,179.5008654091505,12.858143403976056,40.024210339159566,1553.0,1178.0,1350.0,1528.0,1471.0,999.7000000000002,110.0,294.1,1649428359.6359303,1649428360.7597768,e2ab4bb6-0c6f-4f9e-863c-4f38572c6c03
-0.191391823463861,0.0526123787526679,-0.290678188500067,0.7900487378916452,-0.3047993424705146,-0.8894371379566604,-0.9015038124340348,-0.9215692829676256,-23.06434023120794,25.448573635877327,-20.451810922379533,-3.641482700402092,0.4265682570352851,2.0527972677285296,7440.47412109375,11.580666666666666,7.783333333333335,179.48091973895424,12.883049024738336,40.05614982153836,1553.0,1178.0,1350.0,1528.0,1471.0,999.7000000000002,110.0,294.1,1649428360.8682308,1649428362.2059011,e2ab4bb6-0c6f-4f9e-863c-4f38572c6c03
-0.195303771648381,0.0624486149659811,-0.2622736296452362,0.8735587553591001,-0.276939485001854,-0.973428697592114,-0.9037026388240624,-0.9220349666214248,-23.00885910595921,26.328560782714085,-20.000190939531404,-4.011253271842338,0.4505984959163716,1.9815002701879083,7436.172037760417,11.579,7.77,179.4051228530049,12.84127871827791,40.11528218427775,1553.0,1088.0,1350.0,1528.0,1471.0,999.7000000000002,110.0,294.1,1649428363.4616077,1649428364.6566763,5409248d-618b-43db-a89e-5ba1ef7aebf4
-0.1742026408326575,0.0633022687981587,-0.2720289518637624,0.8755366224838178,-0.2865582631457351,-0.9718291070477696,-0.9163547255846716,-0.9376687741018253,-23.22413772507804,26.48445435790684,-19.48228903332296,-4.011598483749121,0.4498744450861858,2.026549405667265,7439.757107204861,11.55511111111111,7.752222222222222,179.38550654970862,12.82777439078767,40.13505975592942,1553.0,1088.0,1350.0,1528.0,1471.0,999.7000000000002,110.0,294.1,1649428364.770032,1649428365.7351828,5409248d-618b-43db-a89e-5ba1ef7aebf4
