raw_voltage_G-,raw_voltage_G0,raw_voltage_G1,raw_voltage_G2,raw_voltage_G3,raw_voltage_G4,raw_voltage_G5,raw_voltage_G6,load_x,load_y,load_z,load_l,load_m,load_n,rpm,voltage,current,roll,pitch,yaw,aileron1_pwm,elevator_pwm,throttle_pwm,rudder_pwm,aileron2_pwm,pbaro,pdiff,Tt,sample_start_time,sample_end_time,uid
-0.0442014733151627,0.0861941488140533,0.0491279742275536,0.1240229472374818,-0.116151142604319,-0.2992862027831308,-0.3636753787128997,-0.3793749255585507,-14.51684514713578,26.581684169609545,-15.74866420937387,-0.7834598393445789,0.5539025186551698,0.5772747164841728,4422.061794704861,11.963111111111113,0.1477777777777777,179.24916990259592,13.113118065378432,59.34092484242145,1553.0,1435.0,1200.0,1528.0,1471.0,999.7000000000002,110.0,294.1,1649424346.3823411,1649424347.3624313,3e1ff0a3-e0b4-4569-95a7-2c0f2d053f40
-0.0525771931173712,0.0835644095879803,0.0395688720340979,0.1245488951087761,-0.1262493419662093,-0.2989969313685197,-0.3759168171385609,-0.390787995484927,-14.648079051823302,26.806720625125426,-16.090724960471384,-0.7831009892760962,0.5473329797364,0.6205079697492579,4443.972330729167,11.960111111111113,0.1444444444444445,179.19176292153188,13.097955045421005,58.960293578174806,1553.0,1435.0,1200.0,1528.0,1471.0,999.7000000000002,110.0,294.1,1649424347.4708197,1649424348.5997322,3e1ff0a3-e0b4-4569-95a7-2c0f2d053f40
-0.0572581291621767,0.080724291219283,0.0374124858438786,0.1258374673258432,-0.1278271856285134,-0.2993782435943857,-0.3768109286643851,-0.4014515907849392,-14.544080865216806,26.761420785776764,-16.383429544272552,-0.7872665324897574,0.5382428463567384,0.6262155959300864,4476.200792100694,11.963111111111113,0.1411111111111111,179.1416885279968,13.093498631578788,58.55313082355219,1553.0,1435.0,1200.0,1528.0,1471.0,999.7000000000002,110.0,294.1,1649424348.7312667,1649424349.8267677,3e1ff0a3-e0b4-4569-95a7-2c0f2d053f40
0.121286922778382,0.4045591322829319,0.0584745058212998,-0.0357304255257832,-0.1820644661545229,-0.4583240967514199,-0.4276985848041089,-0.4478188346177059,-14.596936133809058,26.09019249003057,-15.12913597740315,-0.783209075251874,1.7632940166071125,0.7836070595112273,4490.00830078125,11.948333333333332,0.14,178.90248467852422,13.097814647088065,58.11769032685581,1658.0,1435.0,1200.0,1528.0,1551.0,999.7000000000002,110.0,294.1,1649424350.9425688,1649424352.0801003,45578902-2ef5-421b-8102-5a38430821ac
0.1185004949757441,0.3925719051569652,0.0488255542201638,-0.0296721635154958,-0.1880087731467452,-0.4516007284677165,-0.4352831927729614,-0.4492865580443446,-14.702793957226447,26.104071799085816,-15.115961814004214,-0.7822063556608589,1.7176097416648388,0.8141963887951613,4492.36181640625,11.931,0.14,178.9253020638115,13.089506860327605,57.95831469276272,1658.0,1435.0,1200.0,1528.0,1551.0,999.7000000000002,110.0,294.1,1649424352.188754,1649424353.30834,45578902-2ef5-421b-8102-5a38430821ac
0.1254693038060275,0.4023282369996171,0.0621451834879696,-0.034813303911698,-0.1772662873530659,-0.4564131524292136,-0.423593999280021,-0.4406610114697918,-14.699046657400874,26.07444276974941,-15.017562671504727,-0.7809389758356836,1.7547801616957408,0.7660546963908235,4488.44091796875,11.931,0.13,178.9418174612246,13.07759586418875,57.81433885851831,1658.0,1435.0,1200.0,1528.0,1551.0,999.7000000000002,110.0,294.1,1649424353.4227989,1649424354.738377,45578902-2ef5-421b-8102-5a38430821ac
0.308888677492303,0.7189088193025016,0.0874290304924537,-0.2017464227659125,-0.2283588388547077,-0.5961936935640846,-0.4668844478280245,-0.4839503647629355,-14.777022662340949,25.620042825630893,-12.709154240372364,-0.719908881109628,2.9443905487365014,0.9030466748414688,4453.727267795139,11.92122222222222,0.1377777777777778,178.64800093696843,13.076472677525237,57.55207401367807,1767.0,1435.0,1200.0,1528.0,1630.0,999.7000000000002,110.0,294.1,1649424355.8545735,1649424356.881459,19fb4473-6917-470b-823e-b7b4662764c9
0.2820045261133584,0.7054976982934454,0.0664579558621691,-0.1960426273596098,-0.2451530130896487,-0.5875714333103449,-0.4827631460200426,-0.5099678058180068,-14.62933976437552,25.490242271001584,-12.745892305762188,-0.7152360755734773,2.891337121421821,0.975646712670264,4413.472493489583,11.897777777777778,0.13,178.67633711510513,13.07941402260031,57.50144561591029,1767.0,1435.0,1200.0,1528.0,1630.0,999.7000000000002,110.0,294.1,1649424357.0107384,1649424357.956293,19fb4473-6917-470b-823e-b7b4662764c9
0.2774682261816037,0.7040118957615136,0.0675624463299444,-0.1970156309490925,-0.2451398643990758,-0.5840081354302691,-0.4819742240842288,-0.5041429316421866,-14.634512094068768,25.63271454855,-12.56817393711186,-0.7040088238376058,2.8844181862378413,0.9730002568959856,4391.599717881944,11.901444444444444,0.13,178.72037665705355,13.088828964052482,57.46647732408956,1767.0,1435.0,1200.0,1528.0,1630.0,999.7000000000002,110.0,294.1,1649424358.065519,1649424359.2424724,19fb4473-6917-470b-823e-b7b4662764c9
0.4539631628475069,0.9750065016851012,0.0577403702513485,-0.4205697986983853,-0.3382326471104344,-0.6186549614326871,-0.5398942464421893,-0.5617605347004513,-14.750390222038329,26.28560708832536,-9.281012624250767,-0.2732767444833403,3.8994115592894185,1.2307678209581066,4391.099609375,11.871777777777778,0.1155555555555555,178.57844229046103,13.124152994892494,57.42800666304442,1886.0,1435.0,1200.0,1528.0,1710.0,999.7000000000002,110.0,294.1,1649424361.3823369,1649424362.5184166,0c0b770d-3d22-4d04-94f7-d439cc2342d8
0.46264939312652,0.9816056295770392,0.0698826854066808,-0.4239773346655159,-0.3303940000963305,-0.6234329970527634,-0.53083580371951,-0.5596112283584272,-14.66992224534038,26.495619860328468,-9.408373710282268,-0.2743100524992915,3.92591442698002,1.191201761909863,4393.35009765625,11.845,0.11,178.6128284983825,13.143643603735295,57.53200615898666,1886.0,1435.0,1200.0,1528.0,1710.0,999.7000000000002,110.0,294.1,1649424362.627858,1649424363.7558987,0c0b770d-3d22-4d04-94f7-d439cc2342d8
0.4370144948311476,0.9756902338473152,0.0717437316821915,-0.4196362414467367,-0.3263725212131112,-0.6234805349569986,-0.5281261600387528,-0.5564747579354685,-14.723919355257904,26.46188619854454,-9.652377750196482,-0.2844063525099944,3.905855803200049,1.1782838329853889,4387.603786892361,11.83911111111111,0.11,178.63543490671543,13.144949782550322,57.60592929637372,1886.0,1435.0,1200.0,1528.0,1710.0,999.7000000000002,110.0,294.1,1649424363.871147,1649424364.947657,0c0b770d-3d22-4d04-94f7-d439cc2342d8
-0.2681632344021962,-0.3156431832675532,0.0387930989554455,0.2991635736566905,-0.041453395709065,-0.0643715741232102,-0.2778143787208415,-0.3107124224657392,-14.197348686797683,27.840120317804512,-15.125295035731083,-0.6425617334285494,-0.9832154079114356,0.3208729321003675,4397.8583984375,11.87211111111111,0.1244444444444444,179.59625127763945,13.103264663727042,57.70880864129208,1449.0,1435.0,1200.0,1528.0,1386.0,999.7000000000002,110.0,294.1,1649424365.892955,1649424367.0272348,b2973bb4-26c6-48cc-97d6-7ee5eb850af7
-0.2636663797087092,-0.3100155404225723,0.0456830157996985,0.3036209814045742,-0.0369302440660159,-0.076573564759109,-0.275289828717643,-0.306833555590521,-14.12146417390695,27.977037002200124,-15.458139876871826,-0.678800205390175,-0.9598051184568788,0.3019735544231842,4403.885308159723,11.955,0.14,179.55143309412566,13.098123902875484,57.5923584694028,1449.0,1435.0,1200.0,1528.0,1386.0,999.7000000000002,110.0,294.1,1649424367.1357963,1649424368.2571435,b2973bb4-26c6-48cc-97d6-7ee5eb850af7
-0.2671639333777078,-0.3213234209346755,0.0351640587601058,0.3044756466063483,-0.0443987037674019,-0.0661992429829347,-0.2820614081860607,-0.3010612769993188,-14.164386467042824,27.94339411576625,-15.512446097854555,-0.6581926937651806,-1.002204081331782,0.3346720852018543,4418.515245225694,11.953,0.14,179.5505800793893,13.103038603438264,57.532665651696526,1449.0,1435.0,1200.0,1528.0,1386.0,999.7000000000002,110.0,294.1,1649424368.365569,1649424369.6878023,b2973bb4-26c6-48cc-97d6-7ee5eb850af7
-0.4605018500510426,-0.6715658814516775,0.0399704551409789,0.485327731406866,0.0337933071890505,0.1154521889667115,-0.2023764644765276,-0.2165524043656485,-13.79785020551197,29.419579473558883,-14.495149452906888,-0.6475838604531324,-2.349373809506696,0.0684573461726412,4441.1533203125,11.951,0.14,179.64889230448267,13.11104415432795,57.51855296305146,1342.0,1435.0,1200.0,1528.0,1293.0,999.7000000000002,110.0,294.1,1649424370.296872,1649424371.3231733,da629bc8-86f6-4e51-9c83-109bdb10ce59
-0.4584199726675074,-0.6784552530011588,0.032231899447788,0.4858482005840878,0.0273833176914341,0.1235468549226056,-0.2094575860265048,-0.2352345126479178,-13.94305204742218,29.53543582805825,-14.293714997904305,-0.6302263999102213,-2.3765234462846614,0.0971244567885259,4465.060709635417,11.921666666666663,0.1233333333333333,179.6604990726122,13.1017656269317,57.537697983295,1342.0,1435.0,1200.0,1528.0,1293.0,999.7000000000002,110.0,294.1,1649424371.4323783,1649424372.7607105,da629bc8-86f6-4e51-9c83-109bdb10ce59
-0.4651312879829621,-0.6832216571969639,0.0222334116452832,0.4940798315582966,0.0190147203438356,0.1197666048305706,-0.221044875769946,-0.2437400763940057,-13.970046382020618,29.609718072155022,-14.50119228883044,-0.6573417626407502,-2.394016515704676,0.137803107327583,4466.093804253473,11.915444444444445,0.1222222222222222,179.6695301005148,13.087245877984854,57.560326400015256,1342.0,1435.0,1200.0,1528.0,1293.0,999.7000000000002,110.0,294.1,1649424372.868688,1649424373.8132832,da629bc8-86f6-4e51-9c83-109bdb10ce59
-0.6420464999316345,-1.0329311369965453,0.0360187240206634,0.5610066892210908,0.0821969451613412,0.4248651004733424,-0.1084328575204166,-0.1372022069222434,-13.329969514028797,32.05354000791695,-10.62752328261961,-0.1048888082026755,-3.7518269916908,-0.1641997469324995,4470.752875434027,11.901,0.12,179.80592138914088,13.10072364362832,57.668459678225176,1227.0,1435.0,1200.0,1528.0,1189.0,999.7000000000002,110.0,294.1,1649424374.900005,1649424376.041674,17ae36b6-8ae6-4cae-8a2e-105e2be916df
-0.6723411069939478,-1.039334556315332,0.0073019711022831,0.5674758471473923,0.061027544306803,0.4260090368956781,-0.1321925531475415,-0.1577273233126797,-13.347318472043748,31.52759717823361,-10.705562842364374,-0.1218486797678523,-3.777655153532975,-0.0630178543552703,4466.61083984375,11.813,0.1111111111111111,179.86028817711437,13.12372534915946,57.891463836806274,1227.0,1435.0,1200.0,1528.0,1189.0,999.7000000000002,110.0,294.1,1649424376.1506035,1649424377.265695,17ae36b6-8ae6-4cae-8a2e-105e2be916df
-0.6664697062548567,-1.0417008175339184,0.0082608144670268,0.5634265548242201,0.0609061717076354,0.4346957729891191,-0.1305970093659803,-0.1505476288027669,-13.408074240537555,31.681271536476064,-10.322264350934535,-0.0920972255197503,-3.7889352759138544,-0.0663180363935765,4468.066223144531,11.829875,0.0975,179.87446954710606,13.136411583627082,58.04345129321965,1227.0,1435.0,1200.0,1528.0,1189.0,999.7000000000002,110.0,294.1,1649424377.3734958,1649424378.5039566,17ae36b6-8ae6-4cae-8a2e-105e2be916df
-0.073733446229786,0.0724274639555238,0.0274720714165278,0.1190001453977394,-0.1368471918719602,-0.2842046460172517,-0.3804136721269489,-0.4050543337802877,-14.374909987265326,26.672013982501085,-16.329088269245936,-0.7387399457557131,0.5056558595777912,0.6563483644512202,4466.870442708333,11.887333333333334,0.1122222222222222,179.41219133988596,13.085784786684902,58.25637200558357,1553.0,1435.0,1200.0,1528.0,1471.0,999.7000000000002,110.0,294.1,1649424380.4299157,1649424381.574499,f618beec-b55e-4e9b-9511-fac12eda1e2a
-0.0516041895516156,0.0725195048246413,0.0296942010842436,0.1188160636632532,-0.1356638091370078,-0.2831921962588449,-0.3792434379363603,-0.4066716242654569,-14.402543163916905,26.79531424063362,-16.184799777826743,-0.7351124825585451,0.5050834510345414,0.6501844827469635,4468.939453125,11.956,0.14,179.34444345241852,13.073949396945608,58.14110421533061,1553.0,1435.0,1200.0,1528.0,1471.0,999.7000000000002,110.0,294.1,1649424381.6879363,1649424382.7992802,f618beec-b55e-4e9b-9511-fac12eda1e2a
-0.04612118301256,0.0790018120312807,0.0224098233237987,0.1120313365369113,-0.1390167268925517,-0.2858745306391652,-0.3813209323168038,-0.4113788581258433,-14.358007475924415,26.115248429929817,-16.579207158612007,-0.730746768423651,0.5329384752342531,0.6681174463991418,4475.064758300781,11.957625,0.14,179.33073526275427,13.069131125372987,58.02145125390304,1553.0,1435.0,1200.0,1528.0,1471.0,999.7000000000002,110.0,294.1,1649424382.9076726,1649424384.0316582,f618beec-b55e-4e9b-9511-fac12eda1e2a
-0.0401516747290303,0.0729665605014338,0.0135870480083951,-0.1446969641101848,-0.1760040124141755,-0.031315750593047,-0.3193905623190879,-0.33656276253455,-14.155346515943686,25.824554726337976,-14.633560640576002,0.418442749735133,0.5226685140667583,0.6423701400181343,4472.048828125,11.955666666666666,0.14,179.26506754734407,13.136013902977435,57.82660587826766,1553.0,1522.0,1200.0,1528.0,1471.0,999.7000000000002,110.0,294.1,1649424385.3452284,1649424386.4790432,dbb94c58-58d1-4e0f-8420-05e6772d004a
-0.0426236297335072,0.0698634682000013,0.0088798147079812,-0.1442499083978096,-0.1800801085737857,-0.0272528033338414,-0.3232825770024899,-0.338811189834303,-14.1733979182411,25.852710212543315,-14.463141790047812,0.4265346230245051,0.5092943985683889,0.6597244339011216,4471.27099609375,11.962666666666667,0.1377777777777778,179.2439410133313,13.143169854225365,57.69639439302062,1553.0,1522.0,1200.0,1528.0,1471.0,999.7000000000002,110.0,294.1,1649424386.5874996,1649424387.7177436,dbb94c58-58d1-4e0f-8420-05e6772d004a
-0.0498948589794269,0.068048948121954,0.0089850042691289,-0.1462485104066257,-0.1785285622966107,-0.0223483395261031,-0.3193511162011965,-0.3341697000152404,-14.08378530576386,25.651386063112856,-14.262939206332668,0.4408116223104174,0.5003295233834888,0.6520608068057727,4472.82666015625,11.963333333333331,0.14,179.23681333147744,13.138603967628947,57.57603583510628,1553.0,1522.0,1200.0,1528.0,1471.0,999.7000000000002,110.0,294.1,1649424387.826497,1649424388.9452317,dbb94c58-58d1-4e0f-8420-05e6772d004a
-0.0334704932576893,0.0631313357507729,0.0004695797297189,-0.4378340404656619,-0.2212229310507256,0.2653336238051959,-0.2516703842997436,-0.2846517025676444,-14.005869692369378,25.611291539027008,-11.995093431282728,1.7447278485239863,0.4965940670125457,0.6255744597408296,4473.0859375,11.960888888888888,0.14,179.200205035346,13.231497575980754,57.3869428068444,1553.0,1613.0,1200.0,1528.0,1471.0,999.7000000000002,110.0,294.1,1649424390.8744853,1649424392.0157585,3920459a-85dd-4e65-990a-d948adf33804
-0.0425924016011457,0.0693906630037255,-0.0010918279943997,-0.4386010478680187,-0.2256332234202909,0.2593482280476614,-0.2570942222231129,-0.2808577548270349,-13.993434346509783,25.7828309579412,-12.10346782422342,1.7340564378401129,0.5209412143402717,0.6419682924178097,4473.34521484375,11.96288888888889,0.14,179.22342919634386,13.2307071713118,57.21106543571656,1553.0,1613.0,1200.0,1528.0,1471.0,999.7000000000002,110.0,294.1,1649424392.1233718,1649424393.241267,3920459a-85dd-4e65-990a-d948adf33804
-0.0458247895037327,0.0616247143098419,-0.0112135850052976,-0.4352179971850825,-0.2336594076652323,0.262868243403225,-0.2658600208266251,-0.294307777253914,-14.005699902580362,25.7941774417874,-12.314593914341287,1.7338664412559934,0.492714203939087,0.6779569171174256,4472.82666015625,11.962333333333332,0.1366666666666666,179.22175504108728,13.221269747153617,57.1307803565726,1553.0,1613.0,1200.0,1528.0,1471.0,999.7000000000002,110.0,294.1,1649424393.3492975,1649424394.465728,3920459a-85dd-4e65-990a-d948adf33804
-0.0298167991639402,0.0629604026980548,-0.0122106944831897,-0.7314708173023025,-0.2766046985152562,0.5516842644877266,-0.1977256606013567,-0.2241282461384267,-13.970935410948307,26.43605456182996,-9.603033453782148,3.0558035533732384,0.5098680385417514,0.6419496507293617,4475.94091796875,11.955,0.1377777777777778,179.21955572017455,13.325665963250152,57.02842200330593,1553.0,1710.0,1200.0,1528.0,1471.0,999.7000000000002,110.0,294.1,1649424395.3801658,1649424396.519992,37f95c08-6a96-4f8c-b272-7a18966c3194
-0.0299482861265336,0.0575431398546325,-0.0107643378372029,-0.7314182226019057,-0.2734095648722481,0.5545243826010398,-0.1938336461301365,-0.2216957368709864,-13.965839065034602,26.344757283831232,-9.925154354887264,3.061485052888985,0.4924525553700603,0.6290165033142169,4478.27978515625,11.936333333333332,0.12,179.227756500638,13.321357157384996,56.96413474501795,1553.0,1710.0,1200.0,1528.0,1471.0,999.7000000000002,110.0,294.1,1649424396.6284163,1649424397.7856388,37f95c08-6a96-4f8c-b272-7a18966c3194
-0.0256355136638322,0.0538878023040565,-0.0219538786283867,-0.7265006080276045,-0.2800233599999929,0.5551555199699736,-0.2019989873083582,-0.2217483318298423,-13.989379356501606,26.026264944108792,-9.771498176881176,3.049154524643319,0.4762273564443441,0.6648348064540506,4475.94091796875,11.931666666666668,0.12,179.25212206213718,13.340596851639535,56.90760734053702,1553.0,1710.0,1200.0,1528.0,1471.0,999.7000000000002,110.0,294.1,1649424397.8939476,1649424399.1830971,37f95c08-6a96-4f8c-b272-7a18966c3194
-0.0056889409656518,0.0564386493760005,-0.0120266127711852,-0.9449268587716264,-0.3030467304708253,0.7638516066567245,-0.1416859124963119,-0.1629079099216403,-13.809180248943552,26.566061546913712,-8.079476838305578,4.015271718017301,0.4970542734158277,0.5974729387120565,4479.059895833333,11.924333333333331,0.12,179.23721403590875,13.387940023280263,56.78300989133278,1553.0,1814.0,1200.0,1528.0,1471.0,999.7000000000002,110.0,294.1,1649424401.5225096,1649424402.6698182,43d62ab8-b606-4d87-b025-42358a110244
-0.0146861894402821,0.0517779422733033,-0.0219432585727395,-0.947181861381124,-0.3096342282634228,0.769342703969751,-0.1475006709377354,-0.1753405089890535,-13.833147567617315,26.302464162066745,-8.300388235063602,4.030409199512514,0.4813458612035604,0.6274379358978823,4473.6044921875,11.898888888888887,0.11,179.26113184056234,13.435746035101,56.81752473448363,1553.0,1814.0,1200.0,1528.0,1471.0,999.7000000000002,110.0,294.1,1649424402.785909,1649424403.895684,43d62ab8-b606-4d87-b025-42358a110244
-0.0333092952651026,0.0536111739679036,-0.0261912989772222,-0.9421625964281822,-0.3113031014505383,0.7644751582249458,-0.1500292665688015,-0.1672110739977497,-13.7320172791641,25.99869802332093,-8.103045891682289,4.006006079727944,0.4848643453903235,0.6398412882815765,4472.048828125,11.898333333333332,0.11,179.2709506169492,13.433247798548328,56.80861285543657,1553.0,1814.0,1200.0,1528.0,1471.0,999.7000000000002,110.0,294.1,1649424404.008706,1649424405.1212883,43d62ab8-b606-4d87-b025-42358a110244
-0.0857119091192924,0.0709548099835799,0.0416069199545678,0.473922882008674,-0.0862378569835695,-0.6228230993711912,-0.4652622270842642,-0.489455834261223,-14.745519493941028,27.61234238189651,-18.4907143796109,-2.293873320177463,0.479127468228549,0.6881954466251113,4470.752875434027,11.914,0.1222222222222222,179.2908249496141,12.971293456131349,56.8722899501587,1553.0,1349.0,1200.0,1528.0,1471.0,999.7000000000002,110.0,294.1,1649424405.7995446,1649424406.964093,1c333429-58f8-4179-873a-54954400a02f
-0.0679611683418609,0.0780156598162954,0.0511660221461508,0.4650738102165774,-0.0816621104580603,-0.6234673856965436,-0.4569785464806264,-0.4723625254942562,-14.591224945967951,27.777694910680008,-18.69118132419051,-2.2737419459321324,0.5079929331734714,0.6576728810267046,4472.5673828125,11.952,0.1244444444444444,179.33685435334075,12.960893639346356,57.01622100871857,1553.0,1349.0,1200.0,1528.0,1471.0,999.7000000000002,110.0,294.1,1649424407.0736148,1649424408.1907024,1c333429-58f8-4179-873a-54954400a02f
-0.0727341453036523,0.0766218980236363,0.0529147987474178,0.4652052971685822,-0.0775860144273383,-0.6211926604465909,-0.4533100593834234,-0.4746635473685602,-14.68577279887466,27.601057054598467,-18.521350508013043,-2.2700313341752314,0.5020211378630894,0.6445925867282432,4474.642903645833,11.937777777777775,0.1255555555555555,179.37240776470037,12.96027806854741,57.18371659936992,1553.0,1349.0,1200.0,1528.0,1471.0,999.7000000000002,110.0,294.1,1649424408.3059125,1649424409.6224196,1c333429-58f8-4179-873a-54954400a02f
-0.0821891540669676,0.0823476073280583,0.0704863876487731,0.7308248241327086,-0.0378259990194927,-0.8849035743299437,-0.5146032700727886,-0.5383257173238817,-14.776248781191969,28.594884387264432,-20.620089343391072,-3.4547144897408857,0.5111648156861331,0.6533450155236968,4469.201985677083,11.939444444444446,0.12,179.3606461789496,12.86446872832992,57.35211415444668,1553.0,1264.0,1200.0,1528.0,1471.0,999.7000000000002,110.0,294.1,1649424410.2824423,1649424411.4653325,9a343ae1-b3bb-4a05-a28f-f7e959908711
-0.0874075431613689,0.0789508608315768,0.0693906629699464,0.7459184302470877,-0.0364426465535459,-0.8933406589050215,-0.5199312327695648,-0.5423935963608835,-14.971054610970254,28.71693200992381,-20.34212345420001,-3.5070204650189303,0.4954143950013241,0.6604673752827569,4463.767795138889,11.926666666666668,0.1222222222222222,179.38802005932317,12.86229426171665,57.58253817519614,1553.0,1264.0,1200.0,1528.0,1471.0,999.7000000000002,110.0,294.1,1649424411.5738838,1649424412.6976612,9a343ae1-b3bb-4a05-a28f-f7e959908711
-0.0809153740631489,0.0842788220761474,0.0742529412376212,0.7339750323009898,-0.0328541481025461,-0.891245084299975,-0.5131788275827972,-0.5412430852011978,-14.963340089789646,28.55838170396053,-20.81866492178445,-3.4762510697687894,0.5213425040900527,0.6392762141766325,4466.61083984375,11.910111111111112,0.12,179.42803737876042,12.87736915326104,57.786978638523046,1553.0,1264.0,1200.0,1528.0,1471.0,999.7000000000002,110.0,294.1,1649424412.80618,1649424414.1311378,9a343ae1-b3bb-4a05-a28f-f7e959908711
-0.0845449622563925,0.0908120804551866,0.0810601308193993,0.9057709512179146,-0.0171989812127002,-1.060082665294685,-0.5637054465125476,-0.5965908949028296,-15.071990083779989,29.80751354493092,-21.60364368025781,-4.234741383968953,0.5328734093268666,0.6812145575420802,4474.123697916667,11.913333333333334,0.11,179.41049441733216,12.809970174623691,58.09412920985889,1553.0,1178.0,1200.0,1528.0,1471.0,999.7000000000002,110.0,294.1,1649424415.7820215,1649424417.0022078,e50c1c2a-656c-411a-a880-b3b4d8fc758e
-0.0848703924996567,0.0876273566812615,0.0978307448137667,0.9122872254820428,-0.0005083545770314,-1.0629890775166648,-0.5469682470885018,-0.5802739056518608,-14.98565473077242,29.873752892691986,-21.47972582605928,-4.254634213054276,0.5194814156990651,0.6116706711504475,4474.123697916667,11.897444444444444,0.11,179.42132102607653,12.815675279855425,58.2717611806935,1553.0,1178.0,1200.0,1528.0,1471.0,999.7000000000002,110.0,294.1,1649424417.1104696,1649424418.2228615,e50c1c2a-656c-411a-a880-b3b4d8fc758e
-0.0920627297108859,0.091795493341883,0.0934259315821715,0.9071855317031272,-0.0048737218547132,-1.0618319911398784,-0.5518464148128077,-0.579984633788426,-15.126830661349135,29.807952367876425,-21.43671405379515,-4.241245652188552,0.5360802287572138,0.6310147311161439,4469.198513454861,11.909777777777776,0.1088888888888888,179.43849060383016,12.799358432246954,58.43021625706845,1553.0,1178.0,1200.0,1528.0,1471.0,999.7000000000002,110.0,294.1,1649424418.33164,1649424419.4533155,e50c1c2a-656c-411a-a880-b3b4d8fc758e
-0.0796766572175827,0.0971470126514172,0.1005656735938975,0.9628834046475724,-0.0023623207779717,-1.1246039117480795,-0.5719639259956041,-0.5941063374081156,-15.118699377472865,30.934948086000364,-22.386708423955515,-4.500264133795985,0.5581280391375444,0.6458440688936576,4467.387044270833,11.889666666666663,0.1066666666666666,179.40173963263604,12.771140074873475,58.63406173502766,1553.0,1088.0,1200.0,1528.0,1471.0,999.7000000000002,110.0,294.1,1649424420.3699188,1649424421.4151986,683963bc-d641-4c85-8498-f1de05213c78
-0.1009775462370165,0.0948591395285933,0.1005788222954261,0.9655657384896844,0.0009117046582335,-1.1221714011756343,-0.5682559925213888,-0.5860330356006959,-15.088029090992894,30.64178254253785,-21.991002861095627,-4.502712904412195,0.5454885276970743,0.6365340604805199,4468.939453125,11.883222222222225,0.1044444444444444,179.38343320784057,12.7826258917365,58.7332702327221,1553.0,1088.0,1200.0,1528.0,1471.0,999.7000000000002,110.0,294.1,1649424421.5246067,1649424422.4691954,683963bc-d641-4c85-8498-f1de05213c78
-0.0897880051350176,0.0981200161603987,0.0918612368029436,0.966223173238183,-0.0033090269130314,-1.125511172383496,-0.5735943647873575,-0.5941457837105611,-15.104916107765243,30.11400731188421,-21.9731948005088,-4.515639253082705,0.557037943977956,0.6623968295473236,4466.61083984375,11.878444444444446,0.11,179.37086565976773,12.774894497051,58.82530171941866,1553.0,1088.0,1200.0,1528.0,1471.0,999.7000000000002,110.0,294.1,1649424422.578201,1649424423.7635567,683963bc-d641-4c85-8498-f1de05213c78
-0.0591120954428629,0.06849600379702,0.0271170565824697,0.1194077549635799,-0.1363343927069842,-0.2827319918501785,-0.3782441368892901,-0.4012938062895704,-14.240123527656031,26.58216710357263,-16.6064786683269,-0.7369398152730728,0.4923407971039254,0.6523126482504032,4470.76611328125,11.906555555555556,0.1144444444444444,179.35199612382073,13.022034741747897,59.02939763764745,1553.0,1435.0,1200.0,1528.0,1471.0,999.7000000000002,110.0,294.1,1649424425.8963273,1649424427.0382037,72482e1c-f620-477a-bbc1-06a9b79ee1f3
-0.055903813433374,0.0730980474539964,0.0340464195784945,0.1147662652980062,-0.1304569250511772,-0.2842177946942731,-0.372563898981197,-0.395850244843749,-14.354938039941732,26.58418847080703,-16.73505722876383,-0.7295284041018861,0.5125642619362769,0.6270280716892686,4504.961100260417,11.955333333333334,0.1233333333333333,179.29735157482096,13.01632508305672,58.85926900907105,1553.0,1435.0,1200.0,1528.0,1471.0,999.7000000000002,110.0,294.1,1649424427.1461868,1649424428.2633388,72482e1c-f620-477a-bbc1-06a9b79ee1f3
-0.0602428833472974,0.0756225971178454,0.035308694410665,0.1185004949750681,-0.1310749138328302,-0.2904897236738104,-0.3737735792803739,-0.3952979995777533,-14.233307206035692,26.715998733944748,-16.788189946475473,-0.7510563780000582,0.5212653921923497,0.6281657380225423,4513.65283203125,11.954777777777776,0.13,179.231928987311,13.018339229951964,58.65625529637076,1553.0,1435.0,1200.0,1528.0,1471.0,999.7000000000002,110.0,294.1,1649424428.3711994,1649424429.5166464,72482e1c-f620-477a-bbc1-06a9b79ee1f3
-0.0005850553136715,0.1040977421046892,0.1941252191568715,0.0989615326798691,0.0111802887293637,-0.3085521999009089,-0.209293227260859,-0.2410418544826508,-13.066880724756931,26.53898822711233,-16.70677273711575,-0.740235355605766,0.6315580033620659,-0.0119830044318954,4523.1796875,11.952333333333334,0.1266666666666666,179.061969595644,12.99565066962152,58.20024910008348,1553.0,1435.0,1200.0,1424.0,1471.0,999.7000000000002,110.0,294.1,1649424431.4322827,1649424432.7676103,a0bf10f6-97a3-4f9a-96ae-4b42a7896a64
-0.0009137727335652,0.108302585521144,0.2064384247992552,0.0963591865943404,0.021658156172656,-0.3108943117551241,-0.1988427520303579,-0.2223871392952445,-13.138508653559764,26.62510374137683,-16.707700105755844,-0.7384803563950543,0.6489463633595501,-0.0575185170142936,4513.65283203125,11.955777777777778,0.13,179.04712380002806,12.981042981989107,58.08606806881845,1553.0,1435.0,1200.0,1424.0,1471.0,999.7000000000002,110.0,294.1,1649424432.8762314,1649424433.9969623,a0bf10f6-97a3-4f9a-96ae-4b42a7896a64
-0.0074744244337093,0.1030294105492674,0.1825927172641905,0.098084952940848,0.0004147934980456,-0.3065114123728765,-0.2213872898039817,-0.2455069330462204,-13.178669439138956,26.563292459173724,-16.770836884588803,-0.7341516941086157,0.6282873612386107,0.0353039645046132,4513.9169921875,11.956333333333331,0.1288888888888889,179.02692465392258,12.927632515363165,57.93382922349814,1553.0,1435.0,1200.0,1424.0,1471.0,999.7000000000002,110.0,294.1,1649424434.1059768,1649424435.4310646,a0bf10f6-97a3-4f9a-96ae-4b42a7896a64
0.0625396444020274,0.1358567736559497,0.4048133403819233,0.0977518526427103,0.1994175691872904,-0.3493301485702127,-0.0004557597825235,-0.0314866840859877,-11.578808002302194,26.85762495278008,-16.63492198241712,-0.8157764547208521,0.753015501462524,-0.8480566932913893,4515.76611328125,11.952555555555556,0.1288888888888889,178.96933553448065,12.8433657205243,57.7029293662365,1553.0,1435.0,1200.0,1304.0,1471.0,999.7000000000002,110.0,294.1,1649424437.3650577,1649424438.49884,c0df6a6b-fcaa-40a5-af16-7a1bcee9842b
0.0681015428922112,0.1422338911716835,0.3986597510270466,0.0857470931243587,0.1936584404634963,-0.3394817734242457,-0.0025464025272182,-0.027305398317498,-11.609421140929175,26.55896203469642,-15.946508127316246,-0.7687579974608696,0.7721317200084751,-0.8271094139341162,4511.870849609375,11.9465,0.12,178.9600848021598,12.826701244746202,57.65498086908058,1553.0,1435.0,1200.0,1304.0,1471.0,999.7000000000002,110.0,294.1,1649424438.606655,1649424439.731779,c0df6a6b-fcaa-40a5-af16-7a1bcee9842b
0.0529410961664952,0.1317675292227562,0.3810799455159758,0.0839588703898119,0.1796550794944066,-0.3228486700376322,-0.0156293555832725,-0.0324991333551562,-11.75228694975602,26.49994614186765,-15.390844145478988,-0.7285973202794211,0.7280675341227943,-0.7660198658933158,4474.92138671875,11.949333333333334,0.1255555555555555,178.95981576859748,12.809596601221587,57.62731537757494,1553.0,1435.0,1200.0,1304.0,1471.0,999.7000000000002,110.0,294.1,1649424439.8399055,1649424441.1664708,c0df6a6b-fcaa-40a5-af16-7a1bcee9842b
0.1262450769094089,0.1733963003199551,0.5778501675289072,0.0911380585165897,0.3507853516298237,-0.3760220067411818,0.1696752193779407,0.1480193172766602,-10.40307037012913,27.210746271323064,-14.756704733546746,-0.8489893271188029,0.8806332767469239,-1.5245129417164076,4382.1201171875,11.94422222222222,0.1277777777777777,178.9823326255613,12.752267977605518,57.64652869971016,1553.0,1435.0,1200.0,1166.0,1471.0,999.7000000000002,110.0,294.1,1649424443.3041174,1649424444.4430072,16acccf3-0887-46f6-ae0c-0a7e6f0b2803
0.1301643997453832,0.1661842406705783,0.5812657939085365,0.0963191504584883,0.3559047455600578,-0.3743662821965973,0.1746423920708751,0.1399374203831734,-10.369338769660216,27.213151383418182,-14.815567003655588,-0.8567623512263558,0.8534452889795533,-1.5441014610911152,4371.693684895833,11.932,0.1266666666666666,178.985034344833,12.740128739311896,57.70818633516769,1553.0,1435.0,1200.0,1166.0,1471.0,999.7000000000002,110.0,294.1,1649424444.5514338,1649424445.608961,16acccf3-0887-46f6-ae0c-0a7e6f0b2803
0.1381314980470242,0.1729360959623593,0.585962912331799,0.0891657540704456,0.3588060557435618,-0.375482910136059,0.1794578490393624,0.1572102556613022,-10.331104035050334,27.135140461581337,-14.932822658024376,-0.8434179571670746,0.880714654724935,-1.5606643942041831,4368.71875,11.936555555555556,0.1277777777777777,178.97576501921938,12.71217002399062,57.72003367773803,1553.0,1435.0,1200.0,1166.0,1471.0,999.7000000000002,110.0,294.1,1649424445.7283905,1649424446.9001763,16acccf3-0887-46f6-ae0c-0a7e6f0b2803
-0.1101684854349995,0.0400685225194252,-0.1568069142837976,0.1370401562686471,-0.3034017452420057,-0.2537259640594939,-0.5679009776178464,-0.5850337341554546,-15.525590769939676,26.857921978975146,-15.56994848630844,-0.7193457912652346,0.371805890445043,1.397768646302016,4378.888888888889,11.933333333333334,0.1211111111111111,179.18802756696576,12.728512389944736,57.95997746437068,1553.0,1435.0,1200.0,1623.0,1471.0,999.7000000000002,110.0,294.1,1649424448.834965,1649424449.9764526,6103b095-982f-4769-884d-4c336d8c8891
-0.1187677333538914,0.0392401546527871,-0.1492069672640763,0.1392491371867178,-0.2973270466833556,-0.2558297557244373,-0.5633515273395419,-0.5812732063779033,-15.618919499938675,27.107807770222248,-15.650919901676584,-0.7270811486807476,0.3702912739040505,1.372294783182536,4404.638671875,11.953,0.13,179.18527272400053,12.726776004075738,57.94368442756056,1553.0,1435.0,1200.0,1623.0,1471.0,999.7000000000002,110.0,294.1,1649424450.0849798,1649424451.424935,6103b095-982f-4769-884d-4c336d8c8891
-0.1189518151000527,0.0412387564875645,-0.1535591860529609,0.1415107128924198,-0.3014031431192107,-0.2614442497283404,-0.5676248548877677,-0.5922129250465735,-15.481299106856811,26.994010693729656,-15.907048552151144,-0.7457418668652784,0.3785269786166503,1.389906794606813,4417.24951171875,11.95377777777778,0.13,179.1790132350812,12.717071443630012,57.93725646064167,1553.0,1435.0,1200.0,1623.0,1471.0,999.7000000000002,110.0,294.1,1649424451.5367472,1649424452.6385615,6103b095-982f-4769-884d-4c336d8c8891
-0.1769830424933283,0.0074274316309372,-0.3113599948898413,0.1868660433654372,-0.4418197398585939,-0.2623263082588915,-0.7416511996400749,-0.7622097434144761,-16.89183905428503,27.6842683903202,-16.083030573274574,-0.8540541911155719,0.247680897022514,2.038824162627287,4427.3896484375,11.951,0.12,179.24054261476428,12.700688950314522,58.02542130135812,1553.0,1435.0,1200.0,1712.0,1471.0,999.7000000000002,110.0,294.1,1649424454.7803576,1649424455.9168425,b2fa58b0-cea0-44f7-9567-0830799b7550
-0.1705182662925772,0.0172341677160778,-0.3026626788725788,0.1861538223180555,-0.4369026742298221,-0.2722974042311094,-0.7386790451999934,-0.7609085696718715,-16.950116318179074,27.89660561091816,-16.1850080181515,-0.8730588926625259,0.2864210696698697,2.016948466978373,4437.32275390625,11.934,0.11,179.24514616226486,12.710057408534835,58.099046187151394,1553.0,1435.0,1200.0,1712.0,1471.0,999.7000000000002,110.0,294.1,1649424456.0256703,1649424457.1446812,b2fa58b0-cea0-44f7-9567-0830799b7550
-0.1778711274321845,0.0184652144176497,-0.3019553884589973,0.1826003873127545,-0.4357302485483585,-0.2707140818579919,-0.7342320446706916,-0.7611211405268989,-16.75300671540761,27.65103596885885,-16.231839601138716,-0.8629862148637676,0.2905363947434446,2.008346262839068,4443.45556640625,11.937111111111111,0.1177777777777777,179.25870788231688,12.707987292033897,58.13372381647746,1553.0,1435.0,1200.0,1712.0,1471.0,999.7000000000002,110.0,294.1,1649424457.2531185,1649424458.3073845,b2fa58b0-cea0-44f7-9567-0830799b7550
-0.2438512920070585,-0.0181670539792394,-0.4740718556904287,0.2582579820516274,-0.587624028032586,-0.2968010987793466,-0.931725559666118,-0.9448216694992548,-18.207213018862355,28.56344679519896,-16.564937764556788,-1.0955791001547528,0.1461770097386678,2.725403084548846,4453.975260416667,11.932111111111112,0.12,179.25244839339751,12.694965346653788,58.18673063789621,1553.0,1435.0,1200.0,1801.0,1471.0,999.7000000000002,110.0,294.1,1649424459.485051,1649424460.6171134,b7fa34e2-fa40-4aac-b8cb-b9900bd263cd
-0.2394119629339871,-0.0187740854653713,-0.4621180443878169,0.2590195106584135,-0.5754844904833688,-0.298855034980708,-0.9184738578217516,-0.940689689633809,-18.12264858940793,28.478253458982014,-16.744060750629853,-1.1018679135891016,0.1455519114569497,2.6734813270279645,4455.26123046875,11.934,0.1111111111111111,179.25867145464133,12.686521240701143,58.2482190364443,1553.0,1435.0,1200.0,1801.0,1471.0,999.7000000000002,110.0,294.1,1649424460.7262676,1649424461.7773793,b7fa34e2-fa40-4aac-b8cb-b9900bd263cd
-0.2364672024994701,-0.0221845286411986,-0.472691790198082,0.2570609028647872,-0.5854008020295562,-0.2919930582173408,-0.927499895060774,-0.9494007066849158,-18.135926218580583,28.49182062219266,-16.57566347534244,-1.082446399960021,0.1309332085386381,2.7140448538221613,4456.29052734375,11.929555555555558,0.1155555555555555,179.26626814281818,12.69010841810774,58.2793791183478,1553.0,1435.0,1200.0,1801.0,1471.0,999.7000000000002,110.0,294.1,1649424461.886428,1649424463.0774822,b7fa34e2-fa40-4aac-b8cb-b9900bd263cd
-0.0718400339429289,0.0497985577669304,0.0081434876570153,0.0801063024452708,-0.1219760154767347,-0.2347655418336919,-0.3560359848690108,-0.3868170884353614,-15.128303665704507,23.27923677154807,-17.47930832601876,-0.5639248521756254,0.4398162058302083,0.6238958230612119,7446.93896484375,11.64711111111111,7.59111111111111,178.12049328480984,12.619839147335432,52.38897540789471,1553.0,1435.0,1350.0,1528.0,1471.0,999.7000000000002,110.0,294.1,1649424466.810644,1649424467.9939806,3c3ef8bd-e784-419c-910a-ead019fa105b
-0.0708933277445133,0.0507978586803485,-0.0021519416911893,0.0673126210760782,-0.135624363114623,-0.2283621260373066,-0.3635175944115923,-0.3862911406873994,-14.83645370581062,23.309040151371804,-18.17451490179661,-0.520955094736543,0.4485831540317676,0.6663914648700197,7453.4140625,11.651666666666666,7.59,177.83586412389724,12.5858677785423,49.69267475294231,1553.0,1435.0,1350.0,1528.0,1471.0,999.7000000000002,110.0,294.1,1649424468.1023667,1649424469.2184477,3c3ef8bd-e784-419c-910a-ead019fa105b
-0.0627279870238417,0.0599099051787397,0.004461852653262,0.066300171474593,-0.1299572746305507,-0.2338319843090701,-0.3590075907612328,-0.382228192748491,-14.909638512350645,23.23595495596476,-17.771561256676723,-0.5310905323851491,0.4802481785917438,0.6448768990563281,7466.3994140625,11.651444444444444,7.592222222222222,177.69764234457358,12.567763318646056,47.29620384490037,1553.0,1435.0,1350.0,1528.0,1471.0,999.7000000000002,110.0,294.1,1649424469.3283615,1649424470.6537068,3c3ef8bd-e784-419c-910a-ead019fa105b
0.1020646249515532,0.3733748101199392,0.0017137750440174,-0.0815963670004828,-0.2034716415567436,-0.3946931589909791,-0.4350991110971917,-0.4604892497246529,-15.102503377437618,22.61613902149109,-16.63283896324464,-0.5631099494615193,1.665229244652658,0.8954482601200482,7466.3994140625,11.645111111111111,7.609999999999999,177.5550158521452,12.614802926323671,43.6904600868662,1658.0,1435.0,1350.0,1528.0,1551.0,999.7000000000002,110.0,294.1,1649424472.279267,1649424473.5194125,8dfb3753-8ab6-4a9a-86f2-f2b82aec089f
0.1067685709359602,0.3730981396573578,0.0068247829712151,-0.0896126892758132,-0.1993769179274283,-0.3861843072843682,-0.4284381992178862,-0.4569270479980249,-15.181253707815566,22.659631897139807,-16.466030983248075,-0.525376801667377,1.664582251877497,0.8734790934932667,7460.622938368056,11.617333333333336,7.638888888888889,177.7285967618921,12.66848887724614,42.51619650982973,1658.0,1435.0,1350.0,1528.0,1551.0,999.7000000000002,110.0,294.1,1649424473.62868,1649424474.7528312,8dfb3753-8ab6-4a9a-86f2-f2b82aec089f
0.1015364856533319,0.3745636713154441,0.0067836932945943,-0.0848462865865172,-0.1994043110512304,-0.3903617584373252,-0.4305200765634754,-0.4528865622352727,-15.211738980585,22.712880443997324,-16.240597735340803,-0.5451443939697581,1.6677080967121825,0.8770304656085086,7456.297092013889,11.615333333333334,7.686666666666667,177.88153076868795,12.711429612511845,41.52890670513768,1658.0,1435.0,1350.0,1528.0,1551.0,999.7000000000002,110.0,294.1,1649424474.8618164,1649424476.192627,8dfb3753-8ab6-4a9a-86f2-f2b82aec089f
0.2906958137862784,0.7016845767522432,0.0146257949865914,-0.2459287863148052,-0.2715818959537984,-0.5429973395611394,-0.5004218496402769,-0.5261012610450281,-15.364642422787504,22.621381816771688,-13.699317161398085,-0.5246622150630195,2.8934975865036807,1.1058586811583622,7459.90087890625,11.616888888888887,7.647777777777778,177.81284335075466,12.77184415354042,40.467021368880296,1767.0,1435.0,1350.0,1528.0,1630.0,999.7000000000002,110.0,294.1,1649424476.7784245,1649424477.838107,8436d18d-2581-4962-a801-8c1f4e28213d
0.2761139105486428,0.707798719913088,0.0035414439184751,-0.2471384665210905,-0.2817984342719785,-0.5612740326815389,-0.5135574005704039,-0.5358707442153751,-15.295554087677262,22.34541411494186,-15.69330185500769,-0.5656680679778221,2.93305455504625,1.151663835177672,7463.511176215277,11.583555555555554,7.667777777777778,177.9912752126321,12.827950457886276,39.95129389576518,1767.0,1435.0,1350.0,1528.0,1630.0,999.7000000000002,110.0,294.1,1649424477.9509962,1649424479.0553043,8436d18d-2581-4962-a801-8c1f4e28213d
0.3049095535652261,0.717686538532553,0.0141524419329789,-0.2504650870840966,-0.275171490482779,-0.5616027502063548,-0.5061152365462657,-0.5281393088993127,-15.32363158434818,22.53283504239324,-14.731407629416085,-0.5569927083468408,2.962898805401644,1.1200050536550348,7471.462185329861,11.593444444444446,7.71111111111111,178.12535789731868,12.866127610524584,39.51701073667817,1767.0,1435.0,1350.0,1528.0,1630.0,999.7000000000002,110.0,294.1,1649424479.1637287,1649424480.281842,8436d18d-2581-4962-a801-8c1f4e28213d
0.4367515209262863,0.9992789932775444,0.0149150662580662,-0.4742296402332042,-0.3598491075882351,-0.6139214291161257,-0.5581314935551558,-0.5876766228932498,-15.430562747929551,23.151376734116635,-12.44335562554708,-0.1653524927778256,4.027128645097534,1.343368737826183,7479.4296875,11.539,7.646666666666667,178.31201027131715,13.017848784424062,38.614764755706815,1886.0,1435.0,1350.0,1528.0,1710.0,999.7000000000002,110.0,294.1,1649424482.421509,1649424483.7728088,fc67f139-40b8-4b95-8c34-81efa1a06266
0.4373002260891293,1.006891582173235,0.0251897610873664,-0.4745239687769447,-0.3509135554195256,-0.6043294520446069,-0.5483589749777287,-0.571116340538732,-15.580147277708884,23.22347366369492,-9.982321677173482,-0.1418275500094967,4.035615944332227,1.3075340852523696,7485.9619140625,11.522222222222222,7.647777777777778,178.44391184892882,13.051491734954604,38.37393342393703,1886.0,1435.0,1350.0,1528.0,1710.0,999.7000000000002,110.0,294.1,1649424483.8857696,1649424484.941126,fc67f139-40b8-4b95-8c34-81efa1a06266
0.468176902258283,1.0046568096807786,0.0161378950404374,-0.4783188859828102,-0.3587972116993132,-0.6176425115605654,-0.5563038241586026,-0.5887416681496637,-15.384644123870151,22.96597746298384,-12.744650256389043,-0.1656829846366798,4.050221942525128,1.33796507080737,7485.9619140625,11.522777777777778,7.642222222222222,178.54766394024116,13.08523913046121,38.20895248126509,1886.0,1435.0,1350.0,1528.0,1710.0,999.7000000000002,110.0,294.1,1649424485.0746286,1649424486.233175,fc67f139-40b8-4b95-8c34-81efa1a06266
-0.2800233599785899,-0.3550366837290765,0.0267094470080528,0.2653056828348656,-0.0185746636226221,-0.0137490919788057,-0.2412084037697504,-0.274921666122648,-14.517351611164218,24.49229686708504,-17.71021356756185,-0.4757990939776418,-1.1024442008661517,0.2465044477373374,7485.9619140625,11.556333333333331,7.67,179.72420197027122,13.12935105344209,37.87724434422343,1449.0,1435.0,1350.0,1528.0,1386.0,999.7000000000002,110.0,294.1,1649424488.361251,1649424489.5048306,2dfa2bb8-4024-43dc-99c1-d2ef73b64d21
-0.2898191400699278,-0.3608484084894242,0.0083933128523015,0.2642143411118879,-0.0342610587185076,-0.0095415090841591,-0.2584463467089879,-0.2753687210648362,-14.65801640275646,24.437853382668933,-18.19963475041737,-0.4653040511348549,-1.1199360848436608,0.3159008504160629,7485.9619140625,11.650333333333334,7.7155555555555555,179.7542821233759,13.151696871085433,37.69325877964088,1449.0,1435.0,1350.0,1528.0,1386.0,999.7000000000002,110.0,294.1,1649424489.621323,1649424490.727093,2dfa2bb8-4024-43dc-99c1-d2ef73b64d21
-0.286334735091293,-0.3602304196485931,0.0096555877436368,0.2626759436948942,-0.0325385794561155,-0.0027173355945372,-0.2560664323513755,-0.269872565828124,-14.75235494526676,24.414749714788496,-17.330548106598613,-0.4464982287882563,-1.124384199617114,0.3096762277659311,7492.50537109375,11.647444444444444,7.720000000000001,179.7968979503374,13.169494541651456,37.56682818355441,1449.0,1435.0,1350.0,1528.0,1386.0,999.7000000000002,110.0,294.1,1649424490.8356285,1649424492.1622217,2dfa2bb8-4024-43dc-99c1-d2ef73b64d21
-0.4701579261896571,-0.6961101238015625,0.0202474105767617,0.4216113463326121,0.0447642506295044,0.1893451203934751,-0.1689568585015708,-0.1964458543449628,-14.218607156675004,25.92644132396441,-15.652511316470202,-0.3623428223509923,-2.421658684235655,0.0287953266201482,7479.4296875,11.612555555555556,7.723333333333333,-139.99947873019877,13.192809866701984,37.35445787060111,1353.888888888889,1435.0,1350.0,1528.0,1303.3333333333333,999.7000000000002,110.0,294.1,1649424493.7987163,1649424494.8219197,9451c90f-45c2-4a46-bc8b-f14415bde6be
-0.4675418828590661,-0.7041637033846732,0.0097284534083572,0.4293909909166168,0.0369572121512211,0.1912489419451069,-0.1801743409821328,-0.2065676130426602,-14.36667550518106,26.019717820619025,-15.56932805248082,-0.375580359895784,-2.4531768686554787,0.0688078178720205,7475.806911892361,11.603444444444444,7.724444444444446,-179.9385788410207,13.209074444390556,37.34131317154341,1342.0,1435.0,1350.0,1528.0,1293.0,999.7000000000002,110.0,294.1,1649424494.931596,1649424496.0520363,9451c90f-45c2-4a46-bc8b-f14415bde6be
-0.4791154776754006,-0.7042321862162861,0.006085168695869,0.4259805481387708,0.0329304238355345,0.1927418667759036,-0.183379336058996,-0.2059512671328636,-14.357549742271408,26.01972110159815,-15.839331735559291,-0.3647522710957535,-2.450916341251674,0.0834092519458163,7479.4296875,11.607555555555557,7.718888888888888,-179.9112353170434,13.192706749818266,37.33903454454531,1342.0,1435.0,1350.0,1528.0,1293.0,999.7000000000002,110.0,294.1,1649424496.1611395,1649424497.2805245,9451c90f-45c2-4a46-bc8b-f14415bde6be
-0.6689355934446928,-1.055165597272736,-0.0012578303749208,0.5496199193413712,0.0837879373123531,0.4445618458057269,-0.1047512223802823,-0.1298783829583675,-13.681950773758258,28.313231776159785,-12.496416614367444,-0.0620679979329414,-3.817189157749579,-0.124933731383157,7479.4296875,11.48322222222222,7.655555555555556,-179.7652210507867,13.212958165843617,37.40674296869756,1227.0,1435.0,1350.0,1528.0,1189.0,999.7000000000002,110.0,294.1,1649424498.3960507,1649424499.5395834,77e3fca0-ef8d-4e35-8c65-dfe3b23eee55
-0.66966838061943,-1.047074086407124,0.0082228855690818,0.561239319945172,0.0943594890170093,0.4373128689765113,-0.0992929959069791,-0.1232767249978167,-13.879647048813826,28.286615566827354,-10.82093296481825,-0.1041047369565634,-3.801121617557328,-0.1567104322848042,7479.4296875,11.488333333333337,7.667777777777778,-179.7387381306448,13.207957139278829,37.5805439623177,1227.0,1435.0,1350.0,1528.0,1189.0,999.7000000000002,110.0,294.1,1649424499.6472569,1649424500.974964,77e3fca0-ef8d-4e35-8c65-dfe3b23eee55
-0.6673884297231699,-1.0578638211204243,-0.0038859260589525,0.539442829365928,0.0808135926954573,0.4581126718021819,-0.1040351662583744,-0.1344415284025794,-13.74238306255223,28.316499011061467,-12.285330214520874,-0.0087664354061669,-3.827665800473214,-0.1184812970952293,7479.4296875,11.489,7.663333333333333,-179.70966732771743,13.198031451458723,37.71697395534907,1227.0,1435.0,1350.0,1528.0,1189.0,999.7000000000002,110.0,294.1,1649424501.088598,1649424502.1422498,77e3fca0-ef8d-4e35-8c65-dfe3b23eee55
-0.0783091927600678,0.0453411497244765,-0.0065173089093361,0.0772004405829376,-0.1343357907754651,-0.2277704346534451,-0.3664760515657443,-0.3826358022636005,-15.054045664636694,23.075339195683664,-17.580684523698423,-0.5437114517391852,0.4228960298922751,0.6750067997145952,7484.510308159723,11.646444444444445,7.716666666666665,99.91595806392642,13.168194813570643,37.83690334971056,1553.0,1435.0,1350.0,1528.0,1471.0,999.7000000000002,110.0,294.1,1649424503.1064065,1649424504.2446373,ccdbf9f0-9286-49bf-ab10-689b537be696
-0.0835145595372183,0.0499194246277443,-0.0041925182118575,0.0776328303523423,-0.1335301802016633,-0.232802845901315,-0.3666287787196959,-0.3800176943911896,-15.057551284074233,23.14903503707925,-17.59426932337618,-0.5553949495781209,0.44030795072812,0.6714639393910716,7501.979166666667,11.648111111111112,7.73,179.85490902368804,13.174755494859657,37.81674973819957,1553.0,1435.0,1350.0,1528.0,1471.0,999.7000000000002,110.0,294.1,1649424504.353093,1649424505.6740878,ccdbf9f0-9286-49bf-ab10-689b537be696
-0.0575342517723619,0.0503771004051383,-0.009725590855098,0.0753201770453439,-0.1370575710796726,-0.239643708730245,-0.3697763749274816,-0.3926551107096702,-14.93217786487606,22.810407227323186,-18.835006866465143,-0.5682054881986737,0.4520620033730031,0.6868038728235084,7505.62744140625,11.644222222222222,7.727777777777779,179.79388659582332,13.166704409375503,37.79687692335446,1553.0,1435.0,1350.0,1528.0,1471.0,999.7000000000002,110.0,294.1,1649424505.7827418,1649424506.9161975,ccdbf9f0-9286-49bf-ab10-689b537be696
-0.0594276641715267,0.0459985845382953,-0.0283441452755891,-0.1999872366325171,-0.1851686546297175,0.0402000094490002,-0.3104757450163996,-0.3249393132256468,-14.667370026362748,22.388896078539275,-15.543643401095792,0.678603418303493,0.437303160289583,0.6953372238629936,7499.060546875,11.651666666666666,7.733333333333332,179.72645593269732,13.228932365628722,37.729181780125614,1553.0,1522.0,1350.0,1528.0,1471.0,999.7000000000002,110.0,294.1,1649424508.8406136,1649424509.985698,34f0111a-8525-4638-baf4-654d9fb6504b
-0.0698282832907523,0.0429217896170475,-0.02639813813872,-0.2036294258388506,-0.1828807812421222,0.0397003589961955,-0.3072674625934481,-0.339679004018307,-14.650342880685358,22.33862967314605,-16.499084170073974,0.6853164678664438,0.4346817875767207,0.6832812703262188,7499.060546875,11.65011111111111,7.735555555555556,179.6760521722623,13.21998273081376,37.71423429058199,1553.0,1522.0,1350.0,1528.0,1471.0,999.7000000000002,110.0,294.1,1649424510.0982456,1649424511.1467574,34f0111a-8525-4638-baf4-654d9fb6504b
-0.0522616244131351,0.046695465449068,-0.0146957981595981,-0.2031297753330998,-0.1722303363242023,0.0447626070891333,-0.2961568126134581,-0.3296465471969044,-14.74724529643717,22.42252481061155,-15.10190632047716,0.6968777155539503,0.4378198368577483,0.639333597588936,7492.50537109375,11.649888888888889,7.73,179.64371198545217,13.206006076769665,37.72273559936893,1553.0,1522.0,1350.0,1528.0,1471.0,999.7000000000002,110.0,294.1,1649424511.2559557,1649424512.438233,34f0111a-8525-4638-baf4-654d9fb6504b
-0.0499606024735111,0.032284494299486,-0.0397309164895358,-0.5291123125988916,-0.2318333822969515,0.3773062699905176,-0.2315704083210503,-0.2589459974438145,-14.698892362031236,22.23087695234212,-12.355500268988196,2.177429560029166,0.3976314599488094,0.6620675043511355,7491.05126953125,11.642333333333331,7.737777777777778,179.60781706463402,13.313612766367322,37.67056281993884,1553.0,1613.0,1350.0,1528.0,1471.0,999.7000000000002,110.0,294.1,1649424513.346275,1649424514.4832983,46310335-e16e-4672-a7e6-72f01c0ac817
-0.0443329602955381,0.0413439460580333,-0.0313814941407494,-0.536344097511892,-0.2255614535095801,0.3710343423439173,-0.2246673420536467,-0.2453502437778076,-14.71237545233408,22.148933868507324,-12.871795404754875,2.179432283544804,0.4376995595702315,0.6326440321365028,7492.50537109375,11.637111111111109,7.73,179.59158094606698,13.32316895992608,37.66383584251628,1553.0,1613.0,1350.0,1528.0,1471.0,999.7000000000002,110.0,294.1,1649424514.5911355,1649424515.7155912,46310335-e16e-4672-a7e6-72f01c0ac817
-0.0450577822154427,0.0409840004980087,-0.034155321269656,-0.5394351378040751,-0.2290025772703253,0.372468097999896,-0.2260030305633159,-0.2580803748072303,-14.582615638293278,22.11765025500212,-13.13872190955882,2.1893040207631973,0.438001096509588,0.642670185901172,7492.50537109375,11.645,7.720000000000001,179.54245063645718,13.306927149534744,37.63649725145339,1553.0,1613.0,1350.0,1528.0,1471.0,999.7000000000002,110.0,294.1,1649424515.8280065,1649424516.9472382,46310335-e16e-4672-a7e6-72f01c0ac817
-0.0333609207806205,0.0314374991074053,-0.0598089763752361,-0.8777402703980526,-0.2937188248296054,0.7086090082426867,-0.1640671866734989,-0.1864062759172926,-14.572996074883395,22.17701355264604,-10.831588999465874,3.7072797805408,0.4217070711058781,0.6767163178607013,7492.50537109375,11.626125,7.728750000000001,179.52521806918125,13.430415902511518,37.63949357006492,1553.0,1710.0,1350.0,1528.0,1471.0,999.7000000000002,110.0,294.1,1649424518.8759048,1649424520.0101268,107a1ba7-742f-405b-9fe8-99646ad1430d
-0.0209808750490898,0.0342567987495916,-0.0566269917796326,-0.8814449176479967,-0.2917388500653262,0.7077724225265797,-0.1600283451559049,-0.1933208472688548,-14.453521856055552,22.118999114038832,-11.01480039300961,3.713561429475659,0.4337162060315317,0.6640892863674117,7492.50537109375,11.625999999999998,7.73,179.49324595367642,13.439546371327944,37.64958389390314,1553.0,1710.0,1350.0,1528.0,1471.0,999.7000000000002,110.0,294.1,1649424520.1190882,1649424521.4485884,107a1ba7-742f-405b-9fe8-99646ad1430d
-0.0220196221052371,0.0366893075725165,-0.0523668140014732,-0.8787625820228968,-0.286374181203443,0.703893557507662,-0.1554394497827462,-0.1828018892476433,-14.442186095819055,21.96298961369995,-10.840475297078642,3.698005827015214,0.4411514962265164,0.6450773924681618,7492.50537109375,11.626333333333331,7.7266666666666675,179.4760566442652,13.433903781299868,37.66261020301522,1553.0,1710.0,1350.0,1528.0,1471.0,999.7000000000002,110.0,294.1,1649424521.557006,1649424522.677137,107a1ba7-742f-405b-9fe8-99646ad1430d
-0.0402305669024934,0.0243821277908689,-0.0656601465074675,-1.16284034999878,-0.3370755617761612,0.9945849090979236,-0.0987817139376192,-0.1130217530305743,-14.496733303122824,22.640216014862936,-8.260261292089178,4.99624929267315,0.4066546019848547,0.6509293190720681,7492.50537109375,11.588666666666668,7.713333333333334,179.46846906300726,13.506776587374548,37.67955817907574,1553.0,1814.0,1350.0,1528.0,1471.0,999.7000000000002,110.0,294.1,1649424524.8136015,1649424525.9531977,c3a5ecc4-9fc2-4cb4-b596-67770455c61b
-0.0246756588044258,0.0300623646199703,-0.0589806084856525,-1.160999530935206,-0.3318818258291567,0.9833296258493828,-0.0929962872442584,-0.1130217530220708,-14.253871284889346,22.54158365405894,-8.77992162912146,4.966522895833865,0.4310408925680318,0.6266939369023511,7492.50537109375,11.583333333333334,7.706666666666667,179.4702874111463,13.510435766358642,37.707353633903104,1553.0,1814.0,1350.0,1528.0,1471.0,999.7000000000002,110.0,294.1,1649424526.061722,1649424527.1827204,c3a5ecc4-9fc2-4cb4-b596-67770455c61b
-0.0217662568160279,0.0189947023035528,-0.078002221313588,-1.1596725230648408,-0.3486757480587977,0.99268087683844,-0.1102923866665709,-0.1339094698049163,-14.329026299669655,22.64423514765286,-8.959023299063581,4.984209959634439,0.3902822211070906,0.6984475306114221,7491.7783203125,11.579555555555554,7.701111111111111,179.47276601090505,13.522569882010384,37.71946242093668,1553.0,1814.0,1350.0,1528.0,1471.0,999.7000000000002,110.0,294.1,1649424527.290969,1649424528.406637,c3a5ecc4-9fc2-4cb4-b596-67770455c61b
-0.0841603628599283,0.0528227579078812,0.0239876668382493,0.4522406837881785,-0.0691576998087008,-0.5993526688258598,-0.4458547469766856,-0.4786213066254149,-15.414737742033465,24.23806321088008,-20.46586287856877,-2.216119944895354,0.4348588527347241,0.6570635219468458,7492.50537109375,11.648555555555555,7.73888888888889,179.44850821461284,12.952508254047826,37.80503710213787,1553.0,1349.0,1350.0,1528.0,1471.0,999.7000000000002,110.0,294.1,1649424530.351393,1649424531.4838674,c499f1e9-3b65-4493-ba3a-e0f612a8f80f
-0.086356195229895,0.0566095824198399,0.0209240205749199,0.4466130422708956,-0.0731812010403061,-0.6016010966318808,-0.4486422712069235,-0.4762808376190514,-15.350047305969415,24.15247702857531,-21.0162242419124,-2.2092529594466326,0.4539789357010919,0.6704015957560244,7492.50537109375,11.649555555555557,7.747777777777778,179.4364794925745,12.982095495167462,37.82778277043887,1553.0,1349.0,1350.0,1528.0,1471.0,999.7000000000002,110.0,294.1,1649424531.5922606,1649424533.1326902,c499f1e9-3b65-4493-ba3a-e0f612a8f80f
-0.0965595840703691,0.0454200419113539,0.0118514200437166,0.4544365158701982,-0.0794662781560865,-0.5919893965604431,-0.4568733569620029,-0.4739403691595732,-15.499017281464123,24.30917565811058,-20.252477976880503,-2.204668248597476,0.4047609305554915,0.7026717313479657,7492.50537109375,11.654,7.739999999999999,179.42620081678356,12.963040785202942,37.853803134991935,1553.0,1349.0,1350.0,1528.0,1471.0,999.7000000000002,110.0,294.1,1649424533.2417262,1649424534.288954,c499f1e9-3b65-4493-ba3a-e0f612a8f80f
-0.0998988052557909,0.0598989479278557,0.0329030307263639,0.7179226671827026,-0.0371274746677485,-0.8615372330781025,-0.5148908980627535,-0.5399419120395862,-15.491605868982992,25.122434082035493,-22.21344067370067,-3.3986078708175147,0.4453007052903436,0.6998815662604624,7499.060546875,11.606666666666667,7.699999999999999,179.38921458351803,12.870726604565723,37.91320111619905,1553.0,1264.0,1350.0,1528.0,1471.0,999.7000000000002,110.0,294.1,1649424536.692916,1649424537.8421023,fd6ff4a0-ff76-4370-a3e5-64bac3ba230e
-0.0941462503307253,0.0661993648638947,0.0432165395381104,0.7240176351706605,-0.0287177872892545,-0.8743161288872182,-0.5090972520415723,-0.5426538304414261,-15.454261361369484,25.231172539193505,-22.29406163743608,-3.439832179392205,0.469286570325621,0.6668034739972648,7496.147135416667,11.607111111111111,7.708888888888889,179.41021665630592,12.868127243267844,37.99126372767808,1553.0,1264.0,1350.0,1528.0,1471.0,999.7000000000002,110.0,294.1,1649424537.95522,1649424539.0616486,fd6ff4a0-ff76-4370-a3e5-64bac3ba230e
-0.0971868864753756,0.0603235412443159,0.0331358723285869,0.717977453412456,-0.0361139291939556,-0.8641532770813241,-0.515315491366573,-0.5385996480582608,-15.583255762558831,25.076247922205777,-22.518527594376973,-3.404999401822222,0.4502530737462263,0.6983646430320825,7492.50537109375,11.60477777777778,7.71,179.4293760958377,12.882235852772151,38.03620219841226,1553.0,1264.0,1350.0,1528.0,1471.0,999.7000000000002,110.0,294.1,1649424539.1701863,1649424540.2888458,fd6ff4a0-ff76-4370-a3e5-64bac3ba230e
-0.0954419448195339,0.0702316316847252,0.0632628225732828,0.8641104064426246,-0.0015339530063862,-1.0089610487051168,-0.5363966925629187,-0.555606943496267,-15.717130579897631,26.349901878785207,-22.57425183011189,-4.050174883961289,0.4727952465019887,0.641999494700175,7496.147135416667,11.586111111111112,7.694444444444445,179.39713608513546,12.799675182269716,38.1879587564862,1553.0,1178.0,1350.0,1528.0,1471.0,999.7000000000002,110.0,294.1,1649424542.429021,1649424543.570712,443e2598-56a6-4365-a333-4571b80c557d
-0.1038023246709155,0.0667472271999649,0.0599400375403132,0.8567509722011746,-0.0045844505279303,-1.0036391104108071,-0.5362986249416796,-0.5705948187958371,-15.634904476980871,26.24577726891943,-23.27760095687845,-4.022541131962137,0.4660720917444018,0.6491661608918879,7492.50537109375,11.588,7.69888888888889,179.39704046248704,12.81119685762588,38.22674815969261,1553.0,1178.0,1350.0,1528.0,1471.0,999.7000000000002,110.0,294.1,1649424543.6794996,1649424544.7948067,443e2598-56a6-4365-a333-4571b80c557d
-0.1041721317730418,0.0639120395730555,0.0520234266992791,0.8649415135212067,-0.0096795704107762,-1.0075563287862517,-0.5457766461551279,-0.5784566452899198,-15.786881752110077,26.21566743940196,-23.22302705880922,-4.050481097370208,0.4545195725723563,0.6801035984532385,7499.060546875,11.582555555555556,7.699999999999999,179.40867455137334,12.811201031630372,38.28489545737169,1553.0,1178.0,1350.0,1528.0,1471.0,999.7000000000002,110.0,294.1,1649424544.9060962,1649424546.0295289,443e2598-56a6-4365-a333-4571b80c557d
-0.0899852355896331,0.075017757090542,0.0571223814899085,0.9111301402443704,-0.0079899629491063,-1.0620949651952205,-0.5619051704564001,-0.5864011997151716,-15.659223192934602,26.89886649355255,-23.43414076371282,-4.27241341080609,0.4917883496071024,0.6950753364276667,7492.50537109375,11.570222222222222,7.691111111111111,179.3912879253861,12.776496935321278,38.33960565207845,1553.0,1088.0,1350.0,1528.0,1471.0,999.7000000000002,110.0,294.1,1649424546.9333727,1649424548.0735614,06a7046f-d46c-4011-ad09-28340ce6283d
-0.0990315391051046,0.0749388649080295,0.0531777726360494,0.9060284465263488,-0.0125920067146332,-1.056414724528799,-0.565415873353291,-0.5909112041237488,-15.72409895818689,26.955753530200354,-23.33457667365221,-4.24797707034754,0.4914482219491959,0.7117363469753122,7492.50537109375,11.559888888888889,7.680000000000001,179.4140385266015,12.759558161043383,38.3850332402482,1553.0,1088.0,1350.0,1528.0,1471.0,999.7000000000002,110.0,294.1,1649424548.1821375,1649424549.3018503,06a7046f-d46c-4011-ad09-28340ce6283d
