raw_voltage_G-,raw_voltage_G0,raw_voltage_G1,raw_voltage_G2,raw_voltage_G3,raw_voltage_G4,raw_voltage_G5,raw_voltage_G6,load_x,load_y,load_z,load_l,load_m,load_n,rpm,voltage,current,roll,pitch,yaw,aileron1_pwm,elevator_pwm,throttle_pwm,rudder_pwm,aileron2_pwm,pbaro,pdiff,Tt,sample_start_time,sample_end_time,uid
0.0155178835535812,0.136751390697129,-0.0366723273080217,-0.118143675920175,-0.1733808472360652,0.2716898802414018,-0.2670526751063287,-0.289152602168517,-14.418885535358385,19.90070622836765,40.84885580609854,1.0063782180569083,0.2654704962832158,0.7212391630216182,4562.516276041667,11.947666666666668,0.1344444444444444,-20.030237045096445,-9.530803658608432,108.97129157411526,1553.0,1435.0,1200.0,1528.0,1471.0,997.6,110.0,292.15,1649405135.3437288,1649405136.3248866,fedbc0af-f598-42b3-8a6a-04f19dcab80f
0.0056583840722907,0.1410899546263743,-0.03086869492302,-0.1186493950581146,-0.16964004286409,0.2682641393377046,-0.2633245135555808,-0.2924620284157896,-14.396183148725475,20.00299839748089,40.93527100534252,1.0008131914871263,0.2812480902050024,0.7035412619994774,4571.42724609375,11.949333333333334,0.1333333333333333,-179.9227282486868,-9.536575927367002,108.621163175792,1553.0,1435.0,1200.0,1528.0,1471.0,997.6,110.0,292.15,1649405136.4335768,1649405137.552703,fedbc0af-f598-42b3-8a6a-04f19dcab80f
0.0166243969236408,0.1404982633100382,-0.029751055707629,-0.11804455497495,-0.1690352027857559,0.2688295332524828,-0.2622463203253386,-0.2803126313683737,-14.353976564114562,20.05410904635957,41.01996862171261,1.001148552712713,0.2779767377657343,0.6997205716692294,4574.951985677083,11.95111111111111,0.1388888888888889,-179.84547425571452,-9.545376056930133,108.2267243046832,1553.0,1435.0,1200.0,1528.0,1471.0,997.6,110.0,292.15,1649405137.6610937,1649405138.7887228,fedbc0af-f598-42b3-8a6a-04f19dcab80f
0.2024417692036357,0.4915158360274307,0.0152437837825826,-0.319127588329651,-0.2121497818114058,0.1093490025767568,-0.2839022259028743,-0.3087401168466547,-13.565834456762223,19.118014541411185,41.01596016919248,1.092799614454949,1.6165574858041412,0.7695844144904284,4581.20068359375,11.940111111111111,0.13,179.9569975844825,-9.543556001243802,107.83428212554178,1658.0,1435.0,1200.0,1528.0,1551.0,997.6,110.0,292.15,1649405139.6904895,1649405140.8361654,f2ced175-673c-428f-8bb0-13e12367322e
0.2204099675522288,0.4934982546683426,0.0153029529242504,-0.3181555961096121,-0.2120810040033074,0.1090253423598467,-0.2835644054931893,-0.310392806953476,-13.5212510174645,19.06607362903367,41.37501761285331,1.0896180320680018,1.6203780903978169,0.7697364083234598,4578.75390625,11.943,0.14,179.96130060365962,-9.52648982496514,107.643961939959,1658.0,1435.0,1200.0,1528.0,1551.0,997.6,110.0,292.15,1649405140.9685452,1649405142.0550845,f2ced175-673c-428f-8bb0-13e12367322e
0.2196134600282991,0.4888709254429088,0.0142788717335476,-0.3150833521726219,-0.2122959346604916,0.1095310614418609,-0.2855240672467959,-0.3078768541163767,-13.62508237157822,19.17770115687468,41.19237393260083,1.084431840196841,1.604935164395645,0.7733062296547822,4580.386067708333,11.939666666666668,0.1333333333333333,179.92802392202327,-9.497193910386354,107.475344301009,1658.0,1435.0,1200.0,1528.0,1551.0,997.6,110.0,292.15,1649405142.1634312,1649405143.29396,f2ced175-673c-428f-8bb0-13e12367322e
0.3723097657917282,0.7683221629293765,0.0701264421060205,-0.4774116253103963,-0.2366326569042549,-0.0240182239572697,-0.2916205116829439,-0.3108044623903974,-12.87065763510669,19.37771811461788,40.068281084232446,1.1548089216899913,2.6812002988395296,0.7702577590416925,4588.012424045139,11.901999999999996,0.12,179.6022102382354,-9.462275042573358,107.16861340685216,1767.0,1435.0,1200.0,1528.0,1630.0,997.6,110.0,292.15,1649405145.0862072,1649405146.1604702,cd4c06bd-d337-4fe6-9183-b0480feee7c0
0.3566886101041482,0.7682933369451569,0.0661782932254052,-0.4746503984551966,-0.2384669002328876,-0.0245097829221767,-0.2955246635736888,-0.3106077379730786,-12.99090487606499,19.26510275926189,40.32745353423406,1.146513323717438,2.679054057802493,0.7840448969945852,4588.55810546875,11.899666666666668,0.12,179.5856584131467,-9.430375877283414,107.02583816808183,1767.0,1435.0,1200.0,1528.0,1630.0,997.6,110.0,292.15,1649405146.2744172,1649405147.389509,cd4c06bd-d337-4fe6-9183-b0480feee7c0
0.3549666367405355,0.7654820448097732,0.06569533146294,-0.4755708074176503,-0.2382236493789328,-0.0237421013375622,-0.2954073367785809,-0.319640387586216,-13.03006859175013,19.250476517740704,39.92373585189762,1.1501095475147007,2.6724477906201183,0.7832658319132121,4583.650390625,11.894666666666666,0.12,179.5306602121299,-9.413544393893732,106.83565382737255,1767.0,1435.0,1200.0,1528.0,1630.0,997.6,110.0,292.15,1649405147.4978454,1649405148.6135335,cd4c06bd-d337-4fe6-9183-b0480feee7c0
0.5073205674772923,1.0172664085695888,0.1113870504341523,-0.612448774631775,-0.2651653312624145,-0.1570567395518553,-0.3134342020100903,-0.3354977179469851,-12.614062109788408,19.762797978289505,38.22420987715682,1.164906789946221,3.648668610022929,0.8102943498571501,4587.193901909723,11.832555555555556,0.1011111111111111,179.22563458853585,-9.34487395656964,106.46528302507907,1886.0,1435.0,1200.0,1528.0,1710.0,997.6,110.0,292.15,1649405150.7515333,1649405151.8878386,a594e362-2025-43d4-bd32-2ad2e89da06c
0.4898570775683567,0.998762148415213,0.1043347978993585,-0.6060236114526489,-0.2682790440713209,-0.1481328198430973,-0.3164867228711339,-0.3391682275154412,-12.602858845081492,19.810855874577232,37.71720573716665,1.1703586816683096,3.5824433196092165,0.825584820323206,4581.20068359375,11.832,0.11,179.18979430923108,-9.315082853276028,106.23808740707732,1886.0,1435.0,1200.0,1528.0,1710.0,997.6,110.0,292.15,1649405151.9961214,1649405153.0446205,a594e362-2025-43d4-bd32-2ad2e89da06c
0.4936064785339383,0.9947558420708236,0.1151081313895742,-0.6001547395276176,-0.2584200492347064,-0.1481550714544615,-0.3084376966735264,-0.3311454987301839,-12.707010479387565,20.11115563174605,37.99351118023806,1.159588723005453,3.5656709875293573,0.785771490693458,4567.370442708333,11.842666666666666,0.1055555555555555,179.14349928703672,-9.301394774724368,106.04450390889107,1886.0,1435.0,1200.0,1528.0,1710.0,997.6,110.0,292.15,1649405153.1579494,1649405154.348196,a594e362-2025-43d4-bd32-2ad2e89da06c
-0.2259377084684642,-0.2801255152261027,-0.0812514665347808,0.0926400442061017,-0.1234157977317991,0.4786427578337781,-0.2345096479422197,-0.2557751383662803,-15.41974623140326,21.758530011629105,39.73199259389631,1.0053666890745845,-1.3098353433229142,0.6159852708858077,4539.149088541667,11.942,0.1366666666666666,179.87437961628203,-9.290086068461072,105.81529869745351,1449.0,1435.0,1200.0,1528.0,1386.0,997.6,110.0,292.15,1649405155.1428144,1649405156.2831986,bd972433-63b5-4111-8346-8d15bdba2f33
-0.2373163891956035,-0.2769860107140112,-0.0869084405211805,0.0943857864551485,-0.1291289066424572,0.4760398219235274,-0.2417869464429957,-0.265270520995202,-15.458974120497526,21.764945674604053,39.97797752143707,0.9953598934975442,-1.3005362568677803,0.6425511936112368,4543.694769965277,11.935666666666668,0.1322222222222222,179.84970138390085,-9.259638602960974,105.7208015124666,1449.0,1435.0,1200.0,1528.0,1386.0,997.6,110.0,292.15,1649405156.3920772,1649405157.5166996,bd972433-63b5-4111-8346-8d15bdba2f33
-0.2396305600062502,-0.2769071185304565,-0.0857119091075432,0.0935837159977451,-0.1270908585800599,0.4747381011129896,-0.2398803852625244,-0.2647445731517413,-15.475105403110408,21.660725166724013,39.71236961108409,0.993562256894955,-1.2975992755118662,0.6350891473925089,4541.822048611111,11.938777777777778,0.1311111111111111,179.79329464609523,-9.22157092307686,105.6116581251694,1449.0,1435.0,1200.0,1528.0,1386.0,997.6,110.0,292.15,1649405157.631879,1649405158.6563098,bd972433-63b5-4111-8346-8d15bdba2f33
-0.4627027821432499,-0.6450524951730092,-0.1421021192859278,0.2836754218688372,-0.0977884815169277,0.6579201569987034,-0.2284157322804349,-0.2489605725590425,-16.437515677432454,23.21140799925772,39.1719404131768,0.9832976871210836,-2.6937196525328626,0.6107705110944124,4565.746744791667,11.892666666666663,0.1266666666666666,179.81148723440452,-9.180282239816655,105.32725208376972,1342.0,1435.0,1200.0,1528.0,1293.0,997.6,110.0,292.15,1649405160.674366,1649405161.813653,5ca35ec1-fcc7-4b7a-9bae-79a699489ab7
-0.4610809406413046,-0.6492651366579055,-0.1488256550424596,0.2887235094927463,-0.102318713340867,0.6581492477227335,-0.2341344043417128,-0.254646373024422,-16.42813664618115,23.13947696570231,39.23142339682643,0.9716278120678234,-2.711162181880172,0.6339024488396892,4576.9222412109375,11.89525,0.1275,179.81129371237807,-9.15459838065988,105.11665743027314,1342.0,1435.0,1200.0,1528.0,1293.0,997.6,110.0,292.15,1649405161.9226348,1649405162.947485,5ca35ec1-fcc7-4b7a-9bae-79a699489ab7
-0.4637895727066627,-0.6490679061264077,-0.1415281280792636,0.2875795729905281,-0.0957575135538423,0.6575181103644866,-0.2269815127860182,-0.2502941539151419,-16.42001376638711,23.17364338502633,39.074703466104005,0.973358970867854,-2.7084868876214903,0.6046187846298071,4578.75390625,11.895444444444443,0.12,179.77595507252232,-9.1346300143142,104.92318036920148,1342.0,1435.0,1200.0,1528.0,1293.0,997.6,110.0,292.15,1649405163.056641,1649405164.1784685,5ca35ec1-fcc7-4b7a-9bae-79a699489ab7
-0.6301464199260205,-0.9839476607699552,-0.1876294838262725,0.4552532521284921,-0.0702900048586825,0.8087635030717941,-0.2190978571069083,-0.2500605120447731,-17.243928474580432,25.14589021374384,35.71487911651882,0.944825232715266,-3.9524134194098073,0.5763730213327463,4581.20068359375,11.79725,0.0925,179.8179531468188,-9.11551347690813,104.4791173278604,1227.0,1435.0,1200.0,1528.0,1189.0,997.6,110.0,292.15,1649405166.1095135,1649405167.1516745,70c96ee1-eb81-4948-b941-9f41c84141ab
-0.6434402622186783,-0.982887167142766,-0.1876932044249618,0.4586703956969928,-0.0698940267827439,0.8058879846101226,-0.2200127030075712,-0.2463495447157205,-17.255616089221274,25.127845981798533,35.897539725233315,0.9305557637564617,-3.950397186914607,0.5776382293155873,4571.42724609375,11.801444444444444,0.0955555555555555,179.82877216646412,-9.099781630258889,104.0959154460286,1227.0,1435.0,1200.0,1528.0,1189.0,997.6,110.0,292.15,1649405167.261113,1649405168.478418,70c96ee1-eb81-4948-b941-9f41c84141ab
-0.6344829625735572,-0.9816087084606948,-0.1826734363195055,0.4619793153910807,-0.0672304042518723,0.8014937918664532,-0.2169611937582817,-0.2387956177690023,-17.100498023262016,25.303534269723,35.91222403854112,0.9147123468730526,-3.94691641654638,0.5630638732092926,4571.42724609375,11.80511111111111,0.09,179.79725767363368,-9.087793320173176,103.71953938963487,1227.0,1435.0,1200.0,1528.0,1189.0,997.6,110.0,292.15,1649405168.587711,1649405169.7062252,70c96ee1-eb81-4948-b941-9f41c84141ab
-0.0035982982149143,0.1433130956701864,-0.0294152582261354,-0.1150461463303264,-0.1696764546368145,0.2635351604331536,-0.2680135415323498,-0.2823759659244008,-14.674334547774476,20.332477491174306,41.02935874345373,0.9841900100994264,0.2903751015971035,0.7083893927578834,4561.69580078125,11.95511111111111,0.1377777777777778,179.39463775371902,-9.060196130559218,103.20310423303076,1553.0,1435.0,1200.0,1528.0,1471.0,997.6,110.0,292.15,1649405171.6411505,1649405172.666097,89a81fe1-1cbf-42f8-ac36-95befaba47f4
0.0043794205001895,0.1476622796949869,-0.0303002666409433,-0.1142749246792288,-0.1700431009967991,0.261967431355983,-0.2673561066287618,-0.2926041355739769,-14.54497704700909,20.124943358282085,41.51388634347216,0.977649941862735,0.3013226911371791,0.7105511310100142,4577.126247829861,11.952666666666667,0.14,179.2984641367458,-9.034367485621598,103.40229228088592,1553.0,1435.0,1200.0,1528.0,1471.0,997.6,110.0,292.15,1649405172.774891,1649405173.8961906,89a81fe1-1cbf-42f8-ac36-95befaba47f4
0.0266689895227193,0.1463979820162531,-0.023333986032618,-0.1174988840489439,-0.1632538216879992,0.2666200466868873,-0.2570015069959934,-0.2886468836110111,-14.394116530826484,20.01959184329284,41.64422785508618,0.9951226550785356,0.2951946157339776,0.6772166619514282,4583.650390625,11.949,0.14,179.22081702844127,-9.035647007726116,103.601859783695,1553.0,1435.0,1200.0,1528.0,1471.0,997.6,110.0,292.15,1649405174.0045664,1649405175.1211364,89a81fe1-1cbf-42f8-ac36-95befaba47f4
0.0285371158241168,0.138460215442098,-0.0536422375540056,-0.4112210735144595,-0.221077747506474,0.557588028547543,-0.2045892807033953,-0.222589847813607,-14.341220799535346,19.34347400384136,43.54415091793426,2.305870127750099,0.2824404520974347,0.7221228821197078,4596.761881510417,11.939,0.13,179.13363194041577,-8.914462945559592,103.95952263958272,1553.0,1522.0,1200.0,1528.0,1471.0,997.6,110.0,292.15,1649405177.1688392,1649405178.3112462,9d9a14b6-633b-408a-87a9-039fff59ebda
0.0009117046766206,0.1347785805807148,-0.0621099982659471,-0.4162175791286263,-0.2260085091307288,0.5642938629956137,-0.2080079420611219,-0.2246936394843218,-14.379103749935062,19.00182625469765,43.28926089190825,2.329463763233408,0.2712318648199842,0.7445136311912169,4586.1025390625,11.940555555555555,0.13,179.09933831950306,-8.89097885791832,104.04764725807404,1553.0,1522.0,1200.0,1528.0,1471.0,997.6,110.0,292.15,1649405178.4197705,1649405179.5404863,9d9a14b6-633b-408a-87a9-039fff59ebda
0.0243821277755924,0.1398671259068841,-0.0550228507169138,-0.4122992668439332,-0.2223400224886792,0.5574302442029394,-0.2077975629106433,-0.2348838802087359,-14.529846361834332,19.40103040126421,43.559186169335824,2.3081679556489574,0.2889652113238026,0.7303184401612431,4576.30859375,11.941333333333334,0.13,179.06798471557306,-8.877011595384337,104.12808260137972,1553.0,1522.0,1200.0,1528.0,1471.0,997.6,110.0,292.15,1649405179.6484194,1649405180.7734518,9d9a14b6-633b-408a-87a9-039fff59ebda
0.0464299629309438,0.1371559659509409,-0.0735266071658511,-0.7396852158325141,-0.2761176909767796,0.8769344298610384,-0.1339726844059039,-0.165061767980584,-14.023652766129375,18.72716971653028,45.96216183974122,3.75988839837626,0.2930402364933063,0.7244984711097465,4582.289442274306,11.936444444444442,0.13,179.06770240108736,-8.74913963965551,104.20809447295692,1553.0,1613.0,1200.0,1528.0,1471.0,997.6,110.0,292.15,1649405181.676554,1649405182.8198626,5ac1345b-a5b7-4c61-858d-55aa982a27c6
0.0219278730378232,0.1367766766463537,-0.0718577340660194,-0.7337050851250843,-0.2736396670839262,0.8725473171609356,-0.1333911073799587,-0.1542773072258819,-14.025634167303044,18.723850018711097,46.07714120197437,3.7366186836755713,0.2899820949460573,0.7181890988551763,4598.40478515625,11.936,0.13,179.06123648867307,-8.730628404048698,104.24309615681358,1553.0,1613.0,1200.0,1528.0,1471.0,997.6,110.0,292.15,1649405182.928312,1649405183.930729,5ac1345b-a5b7-4c61-858d-55aa982a27c6
0.040715337234963,0.137952473495748,-0.0740576122037696,-0.7344636640728142,-0.2747396062566187,0.870587655873886,-0.1350979094199391,-0.1608769418605151,-14.057589570044144,18.58789632882777,45.849937708485534,3.732863135591511,0.2965835504014044,0.7249646747507638,4597.857150607639,11.932444444444444,0.12,179.0556144840763,-8.72990004026471,104.27409534981663,1553.0,1613.0,1200.0,1528.0,1471.0,997.6,110.0,292.15,1649405184.0390854,1649405185.15617,5ac1345b-a5b7-4c61-858d-55aa982a27c6
0.0579113033568738,0.1364090188807759,-0.0842129576435216,-0.9833605205961858,-0.3157615215634331,1.111976462502707,-0.0824773296546434,-0.1017927654553674,-13.950267029030837,18.66808595223867,47.52943567417284,4.837094006508639,0.3051518021540402,0.7198021831927506,4578.482204861111,11.898666666666667,0.12,179.08182419665138,-8.632381065752467,104.28846910346996,1553.0,1710.0,1200.0,1528.0,1471.0,997.6,110.0,292.15,1649405187.095413,1649405188.135914,5121f26c-c469-43b4-998a-bf6542f96ce4
0.0287343462901454,0.1275467978238244,-0.0909713878652833,-0.9818089734870664,-0.3201926328905056,1.1209307242606106,-0.088157566718557,-0.1049878990453237,-14.1522440613476,18.758521081293107,47.723024397849805,4.8539076878852025,0.2710089134386832,0.7421733992460676,4578.75390625,11.897111111111109,0.12,179.07139677451843,-8.613701636737344,104.19724282018556,1553.0,1710.0,1200.0,1528.0,1471.0,997.6,110.0,292.15,1649405188.2441218,1649405189.3734243,5121f26c-c469-43b4-998a-bf6542f96ce4
0.0498056378237827,0.1369031064091546,-0.0826801230324104,-0.976918161136476,-0.3139707700190932,1.110601918082965,-0.0832490570277408,-0.1166265186241722,-14.052351159138386,18.78109414139735,48.24787231663596,4.820361443385012,0.300665869073756,0.71738426073944,4576.30859375,11.89375,0.1124999999999999,179.0581321676953,-8.59547269190029,104.14850031353862,1553.0,1710.0,1200.0,1528.0,1471.0,997.6,110.0,292.15,1649405189.4820874,1649405190.4913864,5121f26c-c469-43b4-998a-bf6542f96ce4
0.0298914315639187,0.1262187795278645,-0.0809389321509851,-1.0720485355779104,-0.3272534839335408,1.2067128161307432,-0.0611369947398471,-0.0836081176241096,-14.110066898466862,19.4186808517275,48.05414635398013,5.255179687246669,0.2745524139170505,0.6989173077487139,4585.28515625,11.868666666666666,0.1033333333333333,179.0800969177012,-8.524066123483372,103.96607506772648,1553.0,1814.0,1200.0,1528.0,1471.0,997.6,110.0,292.15,1649405192.6239712,1649405193.767558,7c1841b6-d6b5-4921-9436-5312d819d9d5
0.0495654212559013,0.1213775308037082,-0.085158146680721,-1.0695533165456437,-0.3296354212038765,1.211240013464256,-0.0636397986391321,-0.0885717508326142,-14.13376780613626,19.3797668614663,48.32457322729904,5.259287424247702,0.2535903998605042,0.7112932021236843,4581.20068359375,11.858555555555556,0.1077777777777777,179.07785206219398,-8.51571764017911,103.82166589592472,1553.0,1814.0,1200.0,1528.0,1471.0,997.6,110.0,292.15,1649405193.8806858,1649405194.9866686,7c1841b6-d6b5-4921-9436-5312d819d9d5
0.0455120827705704,0.1258506160307274,-0.086106370021477,-1.0764533515726835,-0.3333676286573725,1.2124193500805724,-0.0648186298240174,-0.0911423209859606,-14.032300473992134,19.44384224820876,48.20260475603525,5.277911521474623,0.2715205480981404,0.7197009194842743,4578.75390625,11.861555555555558,0.11,179.0907671910046,-8.519983377906998,103.6790090471,1553.0,1814.0,1200.0,1528.0,1471.0,997.6,110.0,292.15,1649405195.0944872,1649405196.2163637,7c1841b6-d6b5-4921-9436-5312d819d9d5
0.0064999006583904,0.1579728801261272,-0.0020730494428552,0.1489397260579583,-0.1215684057934544,-0.0038481234553099,-0.3187857221703398,-0.3398499371381092,-14.591718864428229,21.14959846680126,39.518110357067656,-0.2055644435758066,0.3274125260459051,0.6795622369506127,4582.833821614583,11.949666666666667,0.1366666666666666,179.07721457787147,-8.880084326737196,103.47084309503582,1553.0,1349.0,1200.0,1528.0,1471.0,997.6,110.0,292.15,1649405198.1515338,1649405199.2967284,b54464c0-9bf9-455c-8e33-2d5df59c9078
-0.00349715441439,0.1527447563677433,-0.0059498920565934,0.1552733517218118,-0.1239973747542969,-0.0035224403548719,-0.3224542090610639,-0.3470195177669852,-14.57474139869562,21.18803050377397,39.63561102660462,-0.2190306918667171,0.3056173912301396,0.6929630415653537,4580.385091145833,11.948333333333332,0.1333333333333333,179.03193497713377,-8.889796286554523,103.65153802625822,1553.0,1349.0,1200.0,1528.0,1471.0,997.6,110.0,292.15,1649405199.4274838,1649405200.3761327,b54464c0-9bf9-455c-8e33-2d5df59c9078
-0.0059913609968963,0.1541071635482975,-0.0030723503767709,0.1541729070130016,-0.1232119929280942,-0.0031512425444904,-0.3216126923100373,-0.3413883348092188,-14.600921587795613,21.38656788062569,39.74609841330712,-0.2142503826602248,0.3102545726755056,0.6869840199820578,4579.297634548611,11.94788888888889,0.13,178.99357663475496,-8.877392852749256,103.80430279614464,1553.0,1349.0,1200.0,1528.0,1471.0,997.6,110.0,292.15,1649405200.4855816,1649405201.439101,b54464c0-9bf9-455c-8e33-2d5df59c9078
-0.0192755902368176,0.1623407757383511,0.0148857346449938,0.4244170334458209,-0.0832111281013955,-0.2739051696407684,-0.3857196777877059,-0.4117136440283837,-14.769443443883343,22.450656810677888,37.59110716410925,-1.424755328402476,0.3293116705493173,0.6990690325037091,4581.20068359375,11.948,0.13,178.9745204069706,-8.946676109823882,103.99425415151224,1553.0,1264.0,1200.0,1528.0,1471.0,997.6,110.0,292.15,1649405202.0887296,1649405203.087368,7272ace5-e2af-4545-879a-f3aa40b3898d
-0.011500664824215,0.1625486262761079,0.0136922375820559,0.4125053270697142,-0.0845285263857837,-0.2638767588354514,-0.3827541404999504,-0.400662668448201,-14.761153588628394,22.295015694630127,37.49508671934706,-1.3764525843683324,0.3322718747512309,0.6981229051519198,4581.20068359375,11.942222222222224,0.1255555555555555,178.94169603563932,-8.941861205913975,104.1412193318834,1553.0,1264.0,1200.0,1528.0,1471.0,997.6,110.0,292.15,1649405203.1956728,1649405204.3178804,7272ace5-e2af-4545-879a-f3aa40b3898d
0.0057575050448584,0.1583708810336089,0.0180211930369107,0.4130889268459704,-0.0810365359165998,-0.2580255882574463,-0.3797269054607962,-0.4030784888185014,-14.904511411364686,22.56140786034393,37.84702424287069,-1.362655243798916,0.3147053249852461,0.6829421078560874,4578.75390625,11.930555555555555,0.12,178.92509715813642,-8.939759784379335,104.26846044375138,1553.0,1264.0,1200.0,1528.0,1471.0,997.6,110.0,292.15,1649405204.4258516,1649405205.5604675,7272ace5-e2af-4545-879a-f3aa40b3898d
-0.0022176850830851,0.1695963272334336,0.0376754597614025,0.6812515047740934,-0.041058934816898,-0.5286915540141307,-0.4435800219669336,-0.467037301480771,-15.090294098296972,23.73318840680361,35.85499087123767,-2.5674514181954686,0.3440271342044818,0.6929025978998379,4573.86669921875,11.93888888888889,0.13,178.93282893227686,-8.992701813864706,104.40187528771916,1553.0,1178.0,1200.0,1528.0,1471.0,997.6,110.0,292.15,1649405206.662852,1649405208.0943708,563baa38-baca-4add-95a1-8b2a6ea55b7d
-0.0042683760198402,0.1708874280115961,0.0364040819482475,0.6814360922230697,-0.0433351765244673,-0.5297105782697333,-0.4461657642811963,-0.4711988649401436,-15.08660657702548,23.822957928801763,35.89815278081403,-2.569617162478363,0.3483591020131374,0.7016019489761922,4571.732177734375,11.911124999999998,0.12,178.9029109961649,-9.007426800509736,104.51025018387097,1553.0,1178.0,1200.0,1528.0,1471.0,997.6,110.0,292.15,1649405208.202571,1649405209.2319386,563baa38-baca-4add-95a1-8b2a6ea55b7d
5.703940840310451e-05,0.1685312828707753,0.0369391327712031,0.6776619110491113,-0.0426236297184503,-0.5232479922814107,-0.4431987096723663,-0.4663667177969687,-15.061070674266103,23.78647750813681,36.008334527920304,-2.5467660142418205,0.3388628334937945,0.6955490553447693,4571.42724609375,11.923666666666666,0.12,178.90351831381864,-9.016625784661274,104.58617655882333,1553.0,1178.0,1200.0,1528.0,1471.0,997.6,110.0,292.15,1649405209.342048,1649405210.461571,563baa38-baca-4add-95a1-8b2a6ea55b7d
-0.021260537705103,0.1681059731328229,0.0495907071776791,0.7621109217866291,-0.0264062295962259,-0.6065293315598945,-0.4586949575169229,-0.4863451554660241,-15.076137433049318,24.50931199264869,35.14571993852061,-2.919129950511291,0.3354364539367949,0.6774433878785527,4575.496473524306,11.892777777777775,0.1177777777777777,178.90305689659468,-9.060737043595983,104.6931934805589,1553.0,1088.0,1200.0,1528.0,1471.0,997.6,110.0,292.15,1649405211.670686,1649405212.7152812,e9671839-61db-4a4d-8983-0e43ab3a5056
-0.0109817970375021,0.1711402875494913,0.0510320065075335,0.7800386616610542,-0.0244465681452143,-0.6278453976218932,-0.4634992902358464,-0.4875335954968975,-15.016680696345777,24.5887431796366,34.87089310160951,-3.006886139916356,0.3467173702923771,0.6797956595421144,4577.939290364583,11.896666666666668,0.1033333333333333,178.92208732144212,-9.046604338702108,104.6385026380548,1553.0,1088.0,1200.0,1528.0,1471.0,997.6,110.0,292.15,1649405212.8235576,1649405213.9500575,e9671839-61db-4a4d-8983-0e43ab3a5056
-0.0378506528007625,0.1612995001717519,0.0461695175677745,0.7789989033052248,-0.0299351374505154,-0.615920031704425,-0.4667085840373479,-0.4909942319653654,-14.987530044186895,24.853055992011424,35.02483912819625,-2.976193554626285,0.3080619367881803,0.6973979287647029,4576.30859375,11.897,0.11,178.92514117491106,-9.048355713041785,104.6095889294783,1553.0,1088.0,1200.0,1528.0,1471.0,997.6,110.0,292.15,1649405214.0582392,1649405215.1692934,e9671839-61db-4a4d-8983-0e43ab3a5056
0.0106154426254238,0.1465598121129402,-0.0281206173157737,-0.1284714717721825,-0.1702054368364265,0.2756142601239574,-0.2612338705761829,-0.2881361067420787,-14.46133203026806,20.16060157986573,41.47304457036318,1.0407206293265183,0.298844409842453,0.6988127577906289,4577.2255859375,11.9485,0.12,178.98728944562396,-8.785998791085387,104.5893881706893,1553.0,1435.0,1200.0,1528.0,1471.0,997.6,110.0,292.15,1649405217.1974385,1649405218.2452075,7707aa52-161f-4351-bce5-1aec076787ca
-0.001336722430001,0.1460338642801203,-0.0306320183797954,-0.1274721708004043,-0.1732427859394909,0.2751935018610086,-0.2650601416800566,-0.2871368057356697,-14.490100973257777,20.268417048958234,41.44525651582564,1.03809171080179,0.2970412737336158,0.7116624092851853,4582.561631944444,11.941888888888888,0.1188888888888888,178.9776972038446,-8.780821377256878,104.62745366870745,1553.0,1435.0,1200.0,1528.0,1471.0,997.6,110.0,292.15,1649405218.353687,1649405219.4800186,7707aa52-161f-4351-bce5-1aec076787ca
0.0068574440676897,0.1417074376117126,-0.0275693835001631,-0.1280304847172314,-0.1703086035400405,0.2803882480115465,-0.2606047559500932,-0.2815415292275847,-14.46024134862338,20.34153072671534,41.5358682253351,1.05169107120304,0.280064249977341,0.6967379991087825,4589.104220920139,11.947666666666668,0.1222222222222222,178.96672792003756,-8.770613280087339,104.6590212852314,1553.0,1435.0,1200.0,1528.0,1471.0,997.6,110.0,292.15,1649405219.596818,1649405220.7026289,7707aa52-161f-4351-bce5-1aec076787ca
0.061947953088365,0.1718053081274683,0.1108348052124701,-0.1444602875429589,-0.0449378003241001,0.2583105768428392,-0.114454960681685,-0.1361108649303752,-13.213085559239676,19.78966507819704,41.53449260560744,1.0430019937723998,0.394922282412128,0.1338266297816362,4592.929307725694,11.945444444444444,0.13,178.99190551513803,-8.757782200549038,104.67358931982116,1553.0,1435.0,1200.0,1424.0,1471.0,997.6,110.0,292.15,1649405221.705512,1649405222.843089,b58eec15-614b-4a5c-936c-6052bdc81fed
0.0680115249062178,0.1640728635491745,0.1149548985343263,-0.1357806302464102,-0.0400227163685878,0.2588066872322764,-0.1125428367035444,-0.1366656387037847,-13.352136612605412,20.054938588027163,41.68485926918889,1.0264552975708037,0.3647694264034212,0.1179399513612282,4597.857150607639,11.945666666666666,0.12,178.97756363570085,-8.76854468140621,104.70759683169864,1553.0,1435.0,1200.0,1424.0,1471.0,997.6,110.0,292.15,1649405222.952235,1649405224.0741265,b58eec15-614b-4a5c-936c-6052bdc81fed
0.0443681462109773,0.1715028881225613,0.114555886177047,-0.1418962915907894,-0.04397794547093,0.2569168151143436,-0.1152701799051726,-0.1381226154815732,-13.306956800917648,20.18579439545143,41.636733595686565,1.0368665978911948,0.3934731937840665,0.1285095934530454,4598.40478515625,11.946777777777775,0.1255555555555555,178.97365676749556,-8.775892067678374,104.73006891297788,1553.0,1435.0,1200.0,1424.0,1471.0,997.6,110.0,292.15,1649405224.1831906,1649405225.301808,b58eec15-614b-4a5c-936c-6052bdc81fed
0.09925080402208,0.1899110621922078,0.3085911882659441,-0.145551629411505,0.1336346440244693,0.2324076465816648,0.0843796287286348,0.0715990958210495,-11.936503821195526,20.19913053733686,41.74632233530654,1.0004941599556725,0.4645951070789133,-0.6588526141750493,4601.422092013889,11.944555555555556,0.1222222222222222,178.94791454342368,-8.759716282449014,104.72048236302282,1553.0,1435.0,1200.0,1304.0,1471.0,997.6,110.0,292.15,1649405227.142398,1649405228.16349,9196f299-f66e-4568-9270-f8fcdcaa82ef
0.1323263487993498,0.1952883730211188,0.3132094146580918,-0.1509016320267738,0.1353859491769221,0.2295634825768348,0.0879621426930013,0.0624865438568873,-11.834987814979716,20.25528771745764,41.42121840912751,1.0067727455198292,0.4878785977734188,-0.6724406825306782,4598.131890190973,11.938,0.1244444444444444,178.94070945275922,-8.756599534321504,104.73806934122572,1553.0,1435.0,1200.0,1304.0,1471.0,997.6,110.0,292.15,1649405228.2731893,1649405229.4092095,9196f299-f66e-4568-9270-f8fcdcaa82ef
0.1068507503330295,0.1957182342333031,0.3096567383027298,-0.1515211379673677,0.1311505519246965,0.2301956314047721,0.0837646743084001,0.069250536467592,-11.830833348215586,20.32277354796889,41.45916619362943,1.0098693344734848,0.4889773023412949,-0.6557776175563401,4599.776584201389,11.940111111111111,0.1122222222222222,178.93031390484248,-8.760275029868616,104.74129167269412,1553.0,1435.0,1200.0,1304.0,1471.0,997.6,110.0,292.15,1649405229.5402565,1649405230.6254475,9196f299-f66e-4568-9270-f8fcdcaa82ef
0.1570054395433905,0.2180836598645231,0.4972152896039536,-0.1430503426282576,0.300895155691725,0.1924942751787645,0.2685164931203511,0.2533196353555059,-10.61541146351238,20.686170779778315,41.74616779551719,0.9184470440944488,0.5725685400419691,-1.4017999691995748,4592.383192274306,11.922777777777778,0.12,178.91257666247787,-8.762765772185949,104.70167885223776,1553.0,1435.0,1200.0,1166.0,1471.0,997.6,110.0,292.15,1649405231.6487248,1649405232.6962888,9a7ff06a-e4a7-45ee-9745-ffcab9bf9b43
0.1594981288449432,0.2186409622724832,0.4983268600600091,-0.1431191204161283,0.3018722049125673,0.1912259317642717,0.2688952767115124,0.2437418221372104,-10.655420119906736,20.70739643004008,41.64024616321494,0.9159110852572157,0.5759600107287648,-1.4053044985152316,4588.012424045139,11.918111111111113,0.1122222222222222,178.9238388855093,-8.76789201888552,104.6708519317838,1553.0,1435.0,1200.0,1166.0,1471.0,997.6,110.0,292.15,1649405232.805151,1649405233.7503605,9a7ff06a-e4a7-45ee-9745-ffcab9bf9b43
0.1628247488897848,0.2215599726975645,0.4946583741343359,-0.1456305216029979,0.2984403953988168,0.1900294004481185,0.2653845750035622,0.2509210098592153,-10.673628765264306,20.60477377798377,41.5217473055101,0.9179964061690316,0.5881621076490843,-1.3904377758968405,4581.20068359375,11.91822222222222,0.1122222222222222,178.91692369842963,-8.795897027711172,104.634238323283,1553.0,1435.0,1200.0,1166.0,1471.0,997.6,110.0,292.15,1649405233.8601985,1649405234.9328349,9a7ff06a-e4a7-45ee-9745-ffcab9bf9b43
-0.0495661415739507,0.1177641680211353,-0.2125705401565667,-0.0971381267325309,-0.3386665541158891,0.286435636483519,-0.4576622788581606,-0.4818690345339372,-15.66827221590113,20.67287209440245,41.63588527452806,0.9879873004152312,0.1824001505572559,1.4553264804963464,4581.745062934027,11.951888888888888,0.1277777777777777,179.00445636719286,-8.788400136187176,104.68771870448418,1553.0,1435.0,1200.0,1623.0,1471.0,997.6,110.0,292.15,1649405236.567704,1649405237.708189,8289399f-12de-448e-96e4-5908c11766d6
-0.0529059105215064,0.1224268979049581,-0.2220057421439938,-0.1005193647221836,-0.3454897171729332,0.2840926401074617,-0.4653830939487373,-0.4896702592923466,-15.742522202112877,20.30465715959334,41.44854945153235,0.9873715298898312,0.2018860149500359,1.4888434103090304,4595.93896484375,11.945333333333336,0.1233333333333333,179.00494206953388,-8.793305350376107,104.68847002529289,1553.0,1435.0,1200.0,1623.0,1471.0,997.6,110.0,292.15,1649405237.820205,1649405238.9364364,8289399f-12de-448e-96e4-5908c11766d6
-0.0427551166888383,0.1198811080749487,-0.2158182684687826,-0.0961125283762247,-0.3409018328524702,0.2831090165419161,-0.4609100075823593,-0.4882855999432855,-15.676391777488952,20.54213063823668,41.56875324482848,0.977155238099498,0.1906580415382685,1.4676405350456208,4597.035427517361,11.946777777777775,0.12,178.995007938841,-8.79491604179163,104.67732771002689,1553.0,1435.0,1200.0,1623.0,1471.0,997.6,110.0,292.15,1649405239.0677211,1649405240.1566982,8289399f-12de-448e-96e4-5908c11766d6
-0.1091418756405824,0.0932469071064829,-0.400663679713631,-0.0586837513149713,-0.5095197382898393,0.2831823458053166,-0.6630434581662409,-0.6930958264471335,-17.09560151192658,21.185560227737746,41.279002812510434,0.8871905909526565,0.0870608779880236,2.232504032714792,4595.93896484375,11.92677777777778,0.1177777777777777,179.01252965079183,-8.803168048673866,104.6867457819824,1553.0,1435.0,1200.0,1712.0,1471.0,997.6,110.0,292.15,1649405242.0974247,1649405243.2277954,fc19c39d-b970-4c65-b1e2-828deefea910
-0.0971563326147157,0.09568700166379,-0.3944306907490426,-0.0626915752352937,-0.5033373208492482,0.2840673541498099,-0.6537635095734816,-0.6760278005187202,-16.93945863399145,20.974110738677822,41.28148726057786,0.8972076231231938,0.0959705567638694,2.202834029180163,4592.382541232639,11.92711111111111,0.1155555555555555,179.01037586447353,-8.802810981562256,104.62776026831018,1553.0,1435.0,1200.0,1712.0,1471.0,997.6,110.0,292.15,1649405243.33621,1649405244.3484795,fc19c39d-b970-4c65-b1e2-828deefea910
-0.1016572327193542,0.0908068125375609,-0.3987798757882175,-0.0600618358761729,-0.5064474940627748,0.2864315907398303,-0.6593769934809035,-0.6909338769223226,-17.135857859000307,21.103170003502665,41.24322747216012,0.8971223585961622,0.0787987378022591,2.22017929782539,4595.665310329861,11.927333333333332,0.1111111111111111,179.00653122688078,-8.813866496507567,104.61043435511556,1553.0,1435.0,1200.0,1712.0,1471.0,997.6,110.0,292.15,1649405244.4569209,1649405245.575634,fc19c39d-b970-4c65-b1e2-828deefea910
-0.1654719057757173,0.0758329762505117,-0.5257199479974628,-0.0125788579616009,-0.6232044117826306,0.261466263772439,-0.8081277505388187,-0.830993344351597,-18.102645724081267,21.871277715831788,40.75902124474789,0.7321192397515779,0.019891474140685,2.7609593411068767,4585.7960205078125,11.89925,0.11,179.02619932577824,-8.808168091027367,104.53432403937433,1553.0,1435.0,1200.0,1801.0,1471.0,997.6,110.0,292.15,1649405247.6221273,1649405248.6575105,1dee14e5-612a-493a-be09-6c01a9c60049
-0.1537038217173393,0.0763720727985393,-0.5326756101610924,-0.0142618911187608,-0.6291476244313202,0.2645430585157962,-0.8137159489976722,-0.8401185439371752,-18.122363356947425,21.75885759780691,41.00420066748253,0.7417672843979958,0.0196443104266367,2.7869205766772747,4585.28515625,11.899333333333333,0.11,179.03285022248252,-8.815179884966717,104.44753965578012,1553.0,1435.0,1200.0,1801.0,1471.0,997.6,110.0,292.15,1649405248.7688296,1649405249.8163178,1dee14e5-612a-493a-be09-6c01a9c60049
-0.166920285359708,0.0762800319258385,-0.5314426667473484,-0.0144586158458524,-0.629324626225223,0.2618030726583222,-0.8142914576533845,-0.8374534029872982,-18.1138597627746,21.902059153771063,40.57713741861302,0.7370008300217974,0.0231287773116526,2.785632400905925,4582.833821614583,11.909666666666668,0.11,179.03189399599873,-8.824253222096651,104.38177631772152,1553.0,1435.0,1200.0,1801.0,1471.0,997.6,110.0,292.15,1649405249.9252703,1649405250.897545,1dee14e5-612a-493a-be09-6c01a9c60049
-0.0047685322154059,0.1307287822439075,-0.1194777630565029,-0.0980716844428286,-0.223010606171543,0.279611463524833,-0.3223358707719177,-0.3442810484333786,-14.441351570282784,16.877397930934578,43.26699215938362,0.9551107005333912,0.2138371922724431,0.9845040397743244,7573.418891059027,11.64177777777778,7.528888888888888,-179.16820180453493,-8.894121598710171,91.29559983866048,1553.0,1435.0,1350.0,1528.0,1471.0,997.6,110.0,292.15,1649405255.0858357,1649405256.2224133,8cac4253-6fbc-4b83-ad9c-1bb6360aaf93
-0.002086198153638,0.1346207962373199,-0.112390615448102,-0.0932329639417283,-0.2180272498986294,0.277349887905543,-0.3160507930493413,-0.3320659076198985,-14.227717547267488,16.960509708564032,44.169820232608615,0.9402689747814762,0.21877576636736,0.961009363195834,7578.6259765625,11.637888888888888,7.543333333333333,-178.6991089657979,-8.812260738006445,86.05859858605757,1553.0,1435.0,1350.0,1528.0,1471.0,997.6,110.0,292.15,1649405256.3310802,1649405257.3634212,8cac4253-6fbc-4b83-ad9c-1bb6360aaf93
-0.0178251878820397,0.1368034797526969,-0.1293129885354526,-0.1180971499652294,-0.2348707315565979,0.2794010844090822,-0.3278977701750404,-0.3514339406012023,-14.174820007906536,16.551009943344862,41.406147232661205,0.9969946363097064,0.2530637053282417,1.0202386577121825,7578.6259765625,11.643,7.6,-178.473799238917,-8.708243597408844,81.30013784163364,1553.0,1435.0,1350.0,1528.0,1471.0,997.6,110.0,292.15,1649405257.4719448,1649405258.5915442,8cac4253-6fbc-4b83-ad9c-1bb6360aaf93
0.1836917290923529,0.4888203535395272,-0.0873686450977373,-0.2990889725316055,-0.2808911743111571,0.1168832053698374,-0.3587314681509385,-0.3849631225874328,-13.523205517214208,15.96952635443761,43.687585795983615,1.038993974776045,1.5734418603211913,1.1145652574356486,7598.7822265625,11.628888888888888,7.596666666666668,-178.70212639159126,-8.59579971092274,74.97596095955156,1658.0,1435.0,1350.0,1528.0,1551.0,997.6,110.0,292.15,1649405259.5939052,1649405260.5391607,ce2031bb-f4c1-4526-aa5d-078dbc71dcd6
0.2003961355780233,0.4874169831973652,-0.0895199741346846,-0.2924018480323703,-0.2823253937479932,0.1138549595274151,-0.3634301049472153,-0.3872494783912137,-13.636768224212794,16.086385600555964,43.90969067259865,1.0177503799802148,1.5660558982115425,1.126215778478497,7598.7822265625,11.629333333333332,7.596666666666668,-178.79367521158647,-8.551129040522257,72.24356427265546,1658.0,1435.0,1350.0,1528.0,1551.0,997.6,110.0,292.15,1649405260.6485622,1649405261.7567265,ce2031bb-f4c1-4526-aa5d-078dbc71dcd6
0.1804045551598016,0.490056330874023,-0.0812282035899202,-0.2839153748931523,-0.2729888067416092,0.1097697608208949,-0.3582186688365548,-0.3761666427709397,-13.841542250972482,16.136773434553753,44.859404827667774,0.9902222025707952,1.5684687464305826,1.096345814967148,7598.7822265625,11.628,7.576666666666666,-178.94971315990512,-8.522012513272923,69.70820943639534,1658.0,1435.0,1350.0,1528.0,1551.0,997.6,110.0,292.15,1649405261.865464,1649405262.984379,ce2031bb-f4c1-4526-aa5d-078dbc71dcd6
0.3763357951440263,0.7794950136547012,-0.0450166926594924,-0.4685564824076519,-0.3180291664924737,-0.0239029200355727,-0.3831152240433273,-0.403457778312363,-13.220320887578795,16.055647293568338,42.045195478939824,1.107476343911053,2.699612711704015,1.1736812241441057,7598.7822265625,11.614,7.569999999999999,-179.65543562570753,-8.531440735648479,65.33948156274207,1767.0,1435.0,1350.0,1528.0,1630.0,997.6,110.0,292.15,1649405264.5512598,1649405265.561035,82c35229-fce6-43d1-9b14-0aee539bd304
0.3420546179454624,0.7698211141614182,-0.0463841570991976,-0.4605023982830031,-0.3182860718144653,-0.0205469680864005,-0.3846344044752182,-0.4022799584831214,-13.230905237779586,16.259235057055495,42.21550127002007,1.098152912629025,2.660820337038205,1.1771074516172038,7598.7822265625,11.590111111111112,7.563333333333333,-179.87740159553476,-8.559277930520773,63.77268777301487,1767.0,1435.0,1350.0,1528.0,1630.0,997.6,110.0,292.15,1649405265.67363,1649405266.8764527,82c35229-fce6-43d1-9b14-0aee539bd304
0.3636316269272843,0.7660342899981646,-0.0452007744151731,-0.4560712866468115,-0.3171552837885239,-0.0155110173048519,-0.383135452818451,-0.4086570773118058,-13.202899659621089,16.39567376915973,42.99205578324644,1.1005751420623584,2.639068413777589,1.1724595047658075,7598.7822265625,11.592222222222224,7.581111111111111,179.90784147193582,-8.575048268131903,62.33963212287616,1767.0,1435.0,1350.0,1528.0,1630.0,997.6,110.0,292.15,1649405266.9843454,1649405268.1135848,82c35229-fce6-43d1-9b14-0aee539bd304
0.5151045949364415,1.0395140012427793,0.0211606969797782,-0.6075837558666555,-0.3311586475206811,-0.1532962121357419,-0.3839112260845015,-0.4020432817191807,-12.68186815528001,16.99708136967428,41.907218404457424,1.1401089282070656,3.693582349462652,1.1325292092128316,7598.7822265625,11.567333333333332,7.576666666666666,179.32466322458214,-8.595487704086903,60.51342243610252,1886.0,1435.0,1350.0,1528.0,1710.0,997.6,110.0,292.15,1649405269.1275997,1649405270.2634804,7881ae6c-cf86-4a89-be9b-40d3a1b4c0be
0.4911340181471774,1.034263625996736,0.0054540734219977,-0.6164920006036192,-0.3427209048909232,-0.1558576795344636,-0.3933939664609326,-0.4166444061383955,-12.54518990743508,16.460167239275727,39.55579793731246,1.1498004032405955,3.6938554290308008,1.179474746756357,7598.7822265625,11.521555555555556,7.572222222222223,179.06315501291996,-8.613797259385723,59.50655617088436,1886.0,1435.0,1350.0,1528.0,1710.0,997.6,110.0,292.15,1649405270.3757827,1649405271.588591,7881ae6c-cf86-4a89-be9b-40d3a1b4c0be
0.5001676773614199,1.036463503889819,0.0121932860810304,-0.6165380210317284,-0.3351295543971834,-0.1544007027605606,-0.3864094788091385,-0.406461244739852,-12.670218377637534,16.37785900150996,40.11747251435213,1.1529947699741638,3.6984446221680862,1.1510086618748483,7598.7822265625,11.518,7.583333333333333,178.89068211163843,-8.61012622243432,58.8256462645168,1886.0,1435.0,1350.0,1528.0,1710.0,997.6,110.0,292.15,1649405271.7171233,1649405272.7233975,7881ae6c-cf86-4a89-be9b-40d3a1b4c0be
-0.2534235440473733,-0.2966170169598236,-0.168982608152708,0.1177773165723108,-0.170376370061679,0.4916736203590093,-0.2838759285652321,-0.302770608199252,-15.146334547958729,18.01595935473963,42.09223885051408,0.9492807364673168,-1.4032625396578329,0.8731026118406193,7598.7822265625,11.580777777777778,7.642222222222222,179.47027830422738,-8.672982461227438,57.73970082799812,1449.0,1435.0,1350.0,1528.0,1386.0,997.6,110.0,292.15,1649405273.8381565,1649405274.870443,ecd6b7f9-7b0b-4d1a-be9b-a06e5169acf1
-0.2508989940493908,-0.2952889984409275,-0.1586871781729865,0.1231419845248164,-0.1640518466377684,0.4879656883520083,-0.2786558954658951,-0.3097262698958853,-15.119646374277346,18.46436383814228,42.50631464233629,0.932411753003932,-1.4021407238537742,0.8436487389072062,7598.7822265625,11.622666666666667,7.678888888888888,179.29948714730148,-8.679385194391894,57.24608988687047,1449.0,1435.0,1350.0,1528.0,1386.0,997.6,110.0,292.15,1649405275.0026712,1649405275.9994614,ecd6b7f9-7b0b-4d1a-be9b-a06e5169acf1
-0.2595245398742692,-0.2988128495609245,-0.1695348534465586,0.118487346115652,-0.1715860502074354,0.4903587508508172,-0.2846911478343954,-0.3139995961109307,-15.065496922080628,18.094944140086863,41.68600650582205,0.9451964338000276,-1.408591058499705,0.8758553991962276,7598.7822265625,11.629,7.633333333333334,179.1650462571384,-8.672643797681092,56.80274458457468,1449.0,1435.0,1350.0,1528.0,1386.0,997.6,110.0,292.15,1649405276.1081312,1649405277.3165004,ecd6b7f9-7b0b-4d1a-be9b-a06e5169acf1
-0.4860037947075665,-0.6774185284993143,-0.2075548179102652,0.3052569824513237,-0.1250467420418143,0.6815245930550796,-0.2518178857861893,-0.2734500224529216,-15.923889241689816,19.825953699640635,40.539439027029566,0.9624321341513328,-2.837731302452564,0.7703864771888618,7598.7822265625,11.61777777777778,7.614444444444445,179.04326853769652,-8.681907716061612,56.04356602268813,1342.0,1435.0,1350.0,1528.0,1293.0,997.6,110.0,292.15,1649405279.0460997,1649405280.1892188,ec8b4229-faed-4956-bd09-b43812fd5480
-0.4608442640442468,-0.6756864399803709,-0.2120177892425328,0.295572462551764,-0.1297752157457121,0.6834968973004382,-0.2537522614904244,-0.2774704897094689,-15.857161146142277,19.65117564704988,39.77091061073583,0.987240299656037,-2.8239892755172256,0.7848236126094772,7598.7822265625,11.572777777777778,7.63,178.95790786908935,-8.6734641792914,55.7657765373194,1342.0,1435.0,1350.0,1528.0,1293.0,997.6,110.0,292.15,1649405280.2981827,1649405281.4132912,ec8b4229-faed-4956-bd09-b43812fd5480
-0.483696703665091,-0.6749051037043956,-0.2121892280683883,0.2986639231471308,-0.128944825005225,0.6797919996348817,-0.2552775104767313,-0.2698594167584628,-15.957796586174332,19.62413394492097,39.75209110386478,0.971699865749358,-2.8205716715996028,0.7861337363234756,7598.7822265625,11.583888888888888,7.657777777777778,178.87589095753583,-8.660246055700135,55.49280764768488,1342.0,1435.0,1350.0,1528.0,1293.0,997.6,110.0,292.15,1649405281.5216534,1649405282.6506264,ec8b4229-faed-4956-bd09-b43812fd5480
-0.6859237153088432,-1.0318660918830584,-0.244574470500246,0.4848362988826791,-0.0893278008212239,0.8414289073523327,-0.234476270504201,-0.2567896106899408,-16.778963792941994,22.23847291251109,37.30962346371441,0.929875814227662,-4.156863377522161,0.7000499738752809,7598.7822265625,11.571,7.628888888888889,178.87195676857388,-8.670021669085976,55.17373004823839,1227.0,1435.0,1350.0,1528.0,1189.0,997.6,110.0,292.15,1649405283.5597851,1649405284.6003215,f3625f16-35c9-4742-a0e4-35842e6ef462
-0.6625847707620457,-1.0380065371439782,-0.250175815785556,0.471490373376258,-0.0908136035987235,0.8473852662312134,-0.2310839065101078,-0.2537391127897059,-16.666890287597635,21.654849209760577,35.55299977850879,0.9689942634434502,-4.16383992214026,0.7018592677024782,7598.7822265625,11.483666666666668,7.610000000000001,178.84100083343557,-8.655709766590123,54.94504620790747,1227.0,1435.0,1350.0,1528.0,1189.0,997.6,110.0,292.15,1649405284.70973,1649405285.8288038,f3625f16-35c9-4742-a0e4-35842e6ef462
-0.6853836071372539,-1.034127669133914,-0.2431448024907651,0.4796162669367865,-0.0886476086182617,0.8478935138643788,-0.2322212688748662,-0.2499593683386982,-16.841025403618417,22.33070782208232,37.24372381163485,0.9568186406451006,-4.163587448228955,0.69347046824255,7598.7822265625,11.479,7.615555555555556,178.83650808678152,-8.649755833772378,54.77346578467749,1227.0,1435.0,1350.0,1528.0,1189.0,997.6,110.0,292.15,1649405285.937785,1649405286.9510603,f3625f16-35c9-4742-a0e4-35842e6ef462
-0.0024675103482919,0.132030503140547,-0.1068550140207866,-0.0698282834534394,-0.2075214405131085,0.253840020352693,-0.3189172093376813,-0.3361288554858617,-14.671725884745785,17.015706411509072,43.54305072579032,0.8349620667334715,0.2152284631491344,0.941910229077798,7598.7822265625,11.479,7.6,178.43016799049894,-8.647938149679511,54.59586379078423,1553.0,1435.0,1350.0,1528.0,1471.0,997.6,110.0,292.15,1649405287.5481555,1649405288.5852,d25fa2f5-6a4d-4085-86ae-a5b7182d695c
-0.0321046723731827,0.1267841734437467,-0.1247372419010757,-0.0784275312374237,-0.2255088587446984,0.2649243706563455,-0.3310140116783261,-0.3530775276916739,-14.377569600191308,16.89675615100902,43.14701218124176,0.8776738667824011,0.1969027470513539,1.0069942040886937,7598.7822265625,11.633,7.638888888888889,178.40447585448098,-8.670915095774909,54.56765966297152,1553.0,1435.0,1350.0,1528.0,1471.0,997.6,110.0,292.15,1649405288.6944067,1649405289.8140118,d25fa2f5-6a4d-4085-86ae-a5b7182d695c
-0.0073153335787913,0.1298862542512282,-0.1412297538982281,-0.10460304673843,-0.2412230696968729,0.2669108351339269,-0.3409508876289158,-0.3688918724895703,-14.2844154786531,16.345966875862622,40.341060638291154,0.9363104085033124,0.2349150797637841,1.0615061253964593,7598.7822265625,11.636111111111113,7.621111111111111,178.37393883761175,-8.652752294679507,54.58099295114129,1553.0,1435.0,1350.0,1528.0,1471.0,997.6,110.0,292.15,1649405289.9223716,1649405291.039388,d25fa2f5-6a4d-4085-86ae-a5b7182d695c
0.0071355895726758,0.1255497131921081,-0.1660858489489742,-0.455825001285291,-0.3011381464146844,0.6200418011161517,-0.2683801879367317,-0.2933121422887982,-14.304114168548876,15.703398991794568,44.15000031103008,2.517213442938742,0.2266875991900356,1.075686856777024,7598.7822265625,11.632,7.63,178.37027178493736,-8.528438582917042,54.70920850333086,1553.0,1522.0,1350.0,1528.0,1471.0,997.6,110.0,292.15,1649405292.1558132,1649405293.2927067,4896165d-eba1-44e1-81d3-ae055f4207cf
-0.0053865209825392,0.1177641680173245,-0.15847679892401,-0.4341129588870421,-0.2922253519236593,0.6165336281544345,-0.2634822979552163,-0.2840731591519773,-14.251205384549287,15.981475980028131,45.4527854940264,2.462809651974336,0.1833799156964749,1.047210441493517,7598.7822265625,11.631888888888888,7.628888888888889,178.34873392175462,-8.494023251827858,54.72689603709652,1553.0,1522.0,1350.0,1528.0,1471.0,997.6,110.0,292.15,1649405293.4022548,1649405294.5208004,4896165d-eba1-44e1-81d3-ae055f4207cf
-0.0054917105502083,0.1193551602210827,-0.1596864791070525,-0.4353620852987616,-0.2898454375969809,0.6149163386718715,-0.2623120638401121,-0.2905160210801013,-14.37334908733363,15.602108265006647,45.28613429652971,2.4593299521015104,0.1917593053327117,1.0439684678219967,7598.7822265625,11.623222222222225,7.635555555555555,178.3428721016269,-8.500804870763773,54.73608567716983,1553.0,1522.0,1350.0,1528.0,1471.0,997.6,110.0,292.15,1649405294.6316383,1649405295.6656082,4896165d-eba1-44e1-81d3-ae055f4207cf
0.0295136593970127,0.1276610903339645,-0.1864157580275645,-0.8157580439753833,-0.3610279389902863,0.9862329589055902,-0.1942164755894585,-0.220109295493213,-14.567877788761844,15.459455697505687,49.59243663995547,4.150119989966855,0.2312597419683785,1.0840687886806095,7598.7822265625,11.624666666666666,7.623333333333333,178.39348532119652,-8.37296384061369,54.83052290827405,1553.0,1613.0,1350.0,1528.0,1471.0,997.6,110.0,292.15,1649405297.594958,1649405298.740765,5652551b-9e11-42c2-ae72-7d92cf5ea571
0.0204769649608671,0.1226817803183407,-0.1907568510914979,-0.8274168974411331,-0.3659501037629827,0.9956499533658714,-0.1926897095169307,-0.2093096632426254,-14.321470486903372,15.327978990646743,48.70133809472969,4.196475007351961,0.2198960981267748,1.0927812933258343,7598.7822265625,11.619111111111112,7.608888888888888,178.39204035673214,-8.37115478912102,54.84900767689783,1553.0,1613.0,1350.0,1528.0,1471.0,997.6,110.0,292.15,1649405298.8540652,1649405299.967327,5652551b-9e11-42c2-ae72-7d92cf5ea571
-0.0035350833254598,0.124753205640727,-0.2009046112175031,-0.8360247462092555,-0.3788671830383567,0.9992552244959656,-0.2037745672198321,-0.2179852754169022,-14.304733213340514,15.491944738927373,48.29201232666238,4.224518565124246,0.2315938614457204,1.1395320723766804,7598.7822265625,11.620111111111113,7.61888888888889,178.4327786405817,-8.387052244141703,54.84166560299502,1553.0,1613.0,1350.0,1528.0,1471.0,997.6,110.0,292.15,1649405300.079918,1649405301.0806592,5652551b-9e11-42c2-ae72-7d92cf5ea571
0.0378858389311556,0.1200388924216983,-0.2381842033665182,-1.2006165846370969,-0.4532837621103531,1.3519270179220693,-0.1446443693293834,-0.1666158424659959,-14.384286365680143,14.955603272761008,50.13352424392382,5.834290791884203,0.2406707402540043,1.2065121018489944,7598.7822265625,11.613222222222223,7.625555555555555,178.5151325081343,-8.229425138476149,54.97372996678189,1553.0,1710.0,1350.0,1528.0,1471.0,997.6,110.0,292.15,1649405303.1250904,1649405304.15343,fdec2c5e-7da4-451a-92d6-742d81a53518
0.0381993847666951,0.1237923394051401,-0.2262158541672485,-1.1879043136383314,-0.4436371684358791,1.3414247493578166,-0.1381827961264629,-0.160168935060222,-14.319373010746192,15.24483564971883,50.894128985370784,5.784682244067217,0.2467462691750549,1.1694240965921918,7598.7822265625,11.57,7.598888888888889,178.54418054376444,-8.232396745083797,54.97529939247117,1553.0,1710.0,1350.0,1528.0,1471.0,997.6,110.0,292.15,1649405304.2611609,1649405305.4911067,fdec2c5e-7da4-451a-92d6-742d81a53518
0.0420807787710542,0.1236659096315914,-0.2217402397908124,-1.1868928746278384,-0.4377455397621953,1.342423544588397,-0.1327210296274426,-0.1548083123218111,-14.389300066808651,15.13426274606189,51.190692739783685,5.784147040764134,0.2442958951460331,1.1479306654577974,7598.7822265625,11.580666666666666,7.610000000000001,178.57112032767077,-8.227025180756534,55.03963142644372,1553.0,1710.0,1350.0,1528.0,1471.0,997.6,110.0,292.15,1649405305.5994594,1649405306.719549,fdec2c5e-7da4-451a-92d6-742d81a53518
0.0513354380547801,0.1364985311529144,-0.2528293241250861,-1.391974794757061,-0.4992409953489535,1.5227882682855518,-0.1208113443402985,-0.1434549179544207,-14.193928224713993,15.451411760982582,51.69321116263096,6.652798063908424,0.3098738964493432,1.257580482419454,7598.7822265625,11.578111111111111,7.595555555555555,178.6367174644596,-8.181078782801073,55.14991773206199,1553.0,1814.0,1350.0,1528.0,1471.0,997.6,110.0,292.15,1649405308.6548035,1649405309.6805222,1d322ea7-cf7e-4f8a-bb7e-b5b7ab9c7443
0.0292607998440108,0.1375984701354565,-0.2529051822627822,-1.3881060395158658,-0.4979387686547469,1.5190712324551754,-0.1224043596216698,-0.1396367387779243,-14.332304179464757,15.409811352259956,51.81919233485531,6.635389299948818,0.3133803183370756,1.2584433235302752,7598.7822265625,11.535555555555556,7.59111111111111,178.64798879440994,-8.153821395098323,55.175911914223256,1553.0,1814.0,1350.0,1528.0,1471.0,997.6,110.0,292.15,1649405309.7888987,1649405310.9097118,1d322ea7-cf7e-4f8a-bb7e-b5b7ab9c7443
0.021555158062728,0.1325695996685472,-0.2481377677293207,-1.3917067631702118,-0.4947153142359442,1.5316039642641943,-0.1178210272184007,-0.1334285308576067,-14.496617549720904,15.730990731573552,52.46162206423031,6.674060590277064,0.2907391295204092,1.2410479614282215,7598.7822265625,11.536,7.610000000000001,178.66903336615263,-8.192164749006436,55.20436192884607,1553.0,1814.0,1350.0,1528.0,1471.0,997.6,110.0,292.15,1649405311.0186691,1649405312.1382406,1d322ea7-cf7e-4f8a-bb7e-b5b7ab9c7443
-0.0314209401879319,0.1331875883738916,-0.0894329904579231,0.2478573637512418,-0.1623819620806607,-0.0604927085845899,-0.393654411834841,-0.4176244902143123,-14.688706002842409,18.14199206112665,40.37368334109067,-0.5801865109889542,0.2097881021056405,0.9610716120868206,7598.7822265625,11.560222222222222,7.598888888888887,178.7125947948592,-8.70898780343716,55.30643834708201,1553.0,1349.0,1350.0,1528.0,1471.0,997.6,110.0,292.15,1649405314.0717316,1649405315.2115366,25ca99a8-ddea-48aa-a63f-5b3c24987c3a
-0.0234265326514518,0.1312152839827449,-0.0878025519684384,0.2490407463866527,-0.1629605046991112,-0.0599404633294113,-0.3919976757548679,-0.4107345718113674,-14.466720341443146,18.31141747014889,40.34182837912695,-0.5803039729378333,0.2010624659899148,0.957090804678939,7598.7822265625,11.646444444444445,7.63,178.70699252191991,-8.722943966913743,55.44950576616682,1553.0,1349.0,1350.0,1528.0,1471.0,997.6,110.0,292.15,1649405315.3199806,1649405316.4386709,25ca99a8-ddea-48aa-a63f-5b3c24987c3a
-0.0248991866483161,0.1336872388155777,-0.0870925224828788,0.2513812141961139,-0.1587529216695423,-0.0629909609461971,-0.3903672372051426,-0.415639036679293,-14.63414922469742,17.99849859074931,40.57240496668682,-0.594524916876548,0.2092267690489316,0.9487268558936328,7598.7822265625,11.644444444444444,7.655555555555556,178.74009161863782,-8.747216941404153,55.62522262784916,1553.0,1349.0,1350.0,1528.0,1471.0,997.6,110.0,292.15,1649405316.5471008,1649405317.67869,25ca99a8-ddea-48aa-a63f-5b3c24987c3a
-0.0228742873534712,0.1366719927987687,-0.0584415120089124,0.5497119602146425,-0.1081304375241523,-0.3526304719390415,-0.4512194162470742,-0.4747555880588188,-14.68908268232861,19.470506846046938,38.72623610289615,-1.9074818354320089,0.2022831500607436,0.9270937915358348,7598.7822265625,11.640222222222222,7.638888888888889,178.76601598108755,-8.886434505390538,55.82734500086276,1553.0,1264.0,1350.0,1528.0,1471.0,997.6,110.0,292.15,1649405318.5772836,1649405319.5139134,26f87567-a72b-4753-b267-e5fda782c54b
-0.0498463099305248,0.1391788422463208,-0.0596699037036742,0.5456378876314861,-0.1103556016453178,-0.3519376366557833,-0.4527527568686104,-0.4772801383555463,-14.703168560312106,19.48401945280905,38.62992921875962,-1.8967288637964368,0.2130625827246994,0.9340985073462876,7598.7822265625,11.627,7.626666666666667,178.7630440898887,-8.854764530892743,55.90588724340351,1553.0,1264.0,1350.0,1528.0,1471.0,997.6,110.0,292.15,1649405319.6231787,1649405320.739411,26f87567-a72b-4753-b267-e5fda782c54b
-0.050706032412426,0.1413787202159561,-0.0600997649449377,0.5428564329298863,-0.1097740246600063,-0.3547064491626516,-0.451336743129774,-0.4748274002136453,-14.638038627636533,19.243434308781808,38.18524860266786,-1.89833084697022,0.2251048075849502,0.9316351269476808,7598.7822265625,11.628333333333334,7.653333333333332,178.78630467856215,-8.869592586989624,55.99264089114642,1553.0,1264.0,1350.0,1528.0,1471.0,997.6,110.0,292.15,1649405320.8477552,1649405321.9691305,26f87567-a72b-4753-b267-e5fda782c54b
-0.0608608720768354,0.1371584945482317,-0.0267005581938254,0.8809801822617017,-0.0487377737871489,-0.6774691005192728,-0.5185670552181881,-0.5396838674386433,-14.979101972751671,20.92531481958189,35.828910618551625,-3.374080808123682,0.1930901065465886,0.8968982480453964,7598.7822265625,11.619666666666667,7.655555555555556,178.85926172363654,-9.015398532476658,56.24123131781334,1553.0,1178.0,1350.0,1528.0,1471.0,997.6,110.0,292.15,1649405324.2193491,1649405325.2457068,08fb1abe-f22b-4b4b-9267-9594823aeef5
-0.0581148173111469,0.1461198365239516,-0.0314887066679228,0.8629639413506804,-0.0571918800798368,-0.6756485110656606,-0.5219225022846486,-0.5423662021572361,-14.840456024694165,20.821190740032264,34.9472257138702,-3.3303488988049583,0.2354465124518676,0.9195397708420378,7598.7822265625,11.604888888888889,7.632222222222222,178.8932047281719,-9.0274766785227,56.33405131190409,1553.0,1178.0,1350.0,1528.0,1471.0,997.6,110.0,292.15,1649405325.3549604,1649405326.6847868,08fb1abe-f22b-4b4b-9267-9594823aeef5
-0.0511308364683571,0.1329903579342679,-0.0287254574556,0.8751684590089677,-0.049132234671515,-0.6685937272125148,-0.5168314268247525,-0.5459294999735501,-15.035355178969716,20.790185200601176,35.750113755622216,-3.342064329608238,0.1791384690121241,0.8970741953647376,7598.7822265625,11.610500000000002,7.65,178.91533681781246,-9.035479241204625,56.38462544761345,1553.0,1178.0,1350.0,1528.0,1471.0,997.6,110.0,292.15,1649405326.7987163,1649405327.8118298,08fb1abe-f22b-4b4b-9267-9594823aeef5
-0.0441488785119986,0.1418394302896666,0.0027788194160118,1.02912653199581,-0.0146957982145538,-0.8254577404901088,-0.5403281535408102,-0.5642193415677764,-15.025422920708197,22.264209824340387,34.85066682030826,-4.0306485924022,0.2032960155056911,0.8412351047011885,7598.7822265625,11.60588888888889,7.628888888888889,178.96935223049866,-9.118067090168132,56.48828722864673,1553.0,1088.0,1350.0,1528.0,1471.0,997.6,110.0,292.15,1649405329.5543106,1649405330.5055835,fb4ff981-7912-43e7-a396-8ef6331aee31
-0.0435045923773282,0.1403536276476621,0.0015559906878777,1.038540997897022,-0.0149193260229523,-0.8324659991391158,-0.5427606630679006,-0.5638906240529065,-14.932730141237888,22.261596481607675,34.86528276327638,-4.06766303768174,0.1957010673968526,0.8466590570788786,7598.7822265625,11.581777777777775,7.648888888888889,178.9915624878597,-9.11835111220112,56.52293260430172,1553.0,1088.0,1350.0,1528.0,1471.0,997.6,110.0,292.15,1649405330.6150208,1649405331.5947006,fb4ff981-7912-43e7-a396-8ef6331aee31
-0.0706566511813102,0.1367766766377555,3.023605810031061e-05,1.0382967356359525,-0.0130426025598309,-0.8266942243425907,-0.5430362801732008,-0.5655028570278261,-15.237339028530018,22.14078157425577,35.15155018628083,-4.0551266619225625,0.1818353924795852,0.8463804495845658,7598.7822265625,11.58088888888889,7.650000000000001,179.0099903382404,-9.119428859133905,56.54453231864197,1553.0,1088.0,1350.0,1528.0,1471.0,997.6,110.0,292.15,1649405331.7032323,1649405332.818321,fb4ff981-7912-43e7-a396-8ef6331aee31
-0.0240971161471847,0.1343052275302132,-0.1239877663214911,-0.1165587524539757,-0.2279282192533044,0.2858833912617569,-0.320363566117203,-0.3481862119190101,-14.237901130944191,16.475473512602015,42.23131894307534,1.0079552015631483,0.2369736371830391,0.9936586590577902,7598.7822265625,11.587666666666667,7.646666666666666,179.01732899704862,-8.790518917785956,56.58839199894226,1553.0,1435.0,1350.0,1528.0,1471.0,997.6,110.0,292.15,1649405334.551997,1649405335.687827,d3cf31b2-ef6b-4cb3-8fa9-b9d5d3f72bb1
0.0012141246660149,0.1358699223498879,-0.116926915946516,-0.1124695076091666,-0.2213275730060085,0.2850418747508346,-0.3161165365462477,-0.3449647807569832,-14.40005708935173,16.632406165744822,42.90704482353463,0.9982578652630448,0.2379477608355242,0.9699971860282056,7598.7822265625,11.639333333333331,7.649999999999999,179.04309095277813,-8.776597284710176,56.61433040122529,1553.0,1435.0,1350.0,1528.0,1471.0,997.6,110.0,292.15,1649405335.7957928,1649405336.917656,d3cf31b2-ef6b-4cb3-8fa9-b9d5d3f72bb1
