raw_voltage_G-,raw_voltage_G0,raw_voltage_G1,raw_voltage_G2,raw_voltage_G3,raw_voltage_G4,raw_voltage_G5,raw_voltage_G6,load_x,load_y,load_z,load_l,load_m,load_n,rpm,voltage,current,roll,pitch,yaw,aileron1_pwm,elevator_pwm,throttle_pwm,rudder_pwm,aileron2_pwm,pbaro,pdiff,Tt,sample_start_time,sample_end_time,uid
0.067615041137672,0.1969850604902831,0.0152043376831026,-0.1908357431674293,-0.1338624376087121,0.3034368996599669,-0.1882191523202717,-0.2142667222685345,-13.004410331232409,18.072610314385685,44.75149522780836,1.2334920606482358,0.4589907272678647,0.4983526157618487,4565.486490885417,11.944111111111113,0.1222222222222222,179.13443942055767,-10.77554397341325,109.86634916044017,1553.0,1435.0,1200.0,1528.0,1471.0,998.74,108.0,293.1,1649409699.5798416,1649409700.560497,96b58aa6-b3b6-4305-accc-1dd91594a0ce
0.0469189932784701,0.1962881796119288,0.0141918880431986,-0.1924793303783935,-0.137307396287824,0.3048043639513645,-0.1908883378981571,-0.2103221128800624,-12.96625903886778,18.316282361540868,44.61643956903241,1.2418350595088374,0.4574462790765135,0.5078626605625133,4590.196451822917,11.945,0.12,179.20793529166662,-10.821685411215013,109.3962963006698,1553.0,1435.0,1200.0,1528.0,1471.0,998.74,108.0,293.1,1649409700.6690693,1649409701.6855977,96b58aa6-b3b6-4305-accc-1dd91594a0ce
0.0595943364466111,0.2008770744179691,0.0154278655316423,-0.1887582490648393,-0.1343357907018905,0.2979933397244463,-0.1897444012311369,-0.2066799241659838,-12.972043321741385,18.07698988428911,44.78646405293167,1.2166353667843428,0.4728075930278112,0.5014235839489145,4582.835666232639,11.944111111111113,0.1277777777777777,179.26684339652826,-10.83415060131402,108.90568912495712,1553.0,1435.0,1200.0,1528.0,1471.0,998.74,108.0,293.1,1649409701.7940695,1649409702.910066,96b58aa6-b3b6-4305-accc-1dd91594a0ce
0.2629535835070638,0.5285698700906366,0.0768110368631209,-0.373051412563001,-0.1576403394522932,0.1376237559720327,-0.1922188851058995,-0.225596348485212,-11.99732495699227,17.31089820262046,43.73957116503284,1.2702854493943851,1.7308033869958044,0.4905708147670534,4574.139105902777,11.93877777777778,0.1255555555555555,179.09382408011314,-10.886597157493348,108.22442101311309,1658.0,1435.0,1200.0,1528.0,1551.0,998.74,108.0,293.1,1649409704.1237843,1649409705.260759,d9afb2e5-c066-4000-9c06-fed2a25d32f6
0.2349367476073381,0.5269389261881395,0.0813625086707749,-0.3689550869976304,-0.154454308882127,0.1365491030188932,-0.1896776462915277,-0.2124476503730776,-11.977161497758964,17.531175598385726,43.92029519068195,1.2603560904548474,1.72272982071672,0.4764261490141431,4553.08251953125,11.941222222222224,0.1211111111111111,179.08315228898994,-10.894393533839704,107.97884990951428,1658.0,1435.0,1200.0,1528.0,1551.0,998.74,108.0,293.1,1649409705.3688614,1649409706.4869232,d9afb2e5-c066-4000-9c06-fed2a25d32f6
0.2551655100178445,0.5220334515084902,0.0780374056885462,-0.3642139698182439,-0.1562116828848606,0.136915749283896,-0.1937233994024223,-0.2136993053046043,-12.089199267292766,17.6000129053506,43.88118314123918,1.2507133260402965,1.7046775736961175,0.4883987684120884,4543.4267578125,11.939333333333334,0.1244444444444444,179.05745104605307,-10.91403839112126,107.7570888453621,1658.0,1435.0,1200.0,1528.0,1551.0,998.74,108.0,293.1,1649409706.5963924,1649409707.7277,d9afb2e5-c066-4000-9c06-fed2a25d32f6
0.4131890592161767,0.779406512824036,0.1334111161498426,-0.482697402677724,-0.1691140950128807,-0.0188376376381212,-0.2014730394535387,-0.2292956840963113,-11.384854145224253,17.55887089829345,42.26011264884421,1.1705649121629755,2.697462907219352,0.4698520607308799,4539.349365234375,11.89575,0.11,178.74650820190809,-10.909170031494725,107.33638524070994,1767.0,1435.0,1200.0,1528.0,1630.0,998.74,108.0,293.1,1649409709.4957137,1649409710.5869167,b2526b63-8224-4204-befe-8210fab8cb25
0.3805802951101903,0.7705442923868379,0.1312810274220989,-0.4776483020045086,-0.1697189350544893,-0.0144985677126691,-0.2034716414791003,-0.225903319569923,-11.478272547591496,17.70703977180324,42.286282739097125,1.1697591599512869,2.663899264248731,0.4753077145926776,4539.9501953125,11.889777777777775,0.12,178.72903126564182,-10.91224432809927,107.18160746229312,1767.0,1435.0,1200.0,1528.0,1630.0,998.74,108.0,293.1,1649409710.6987047,1649409711.8139722,b2526b63-8224-4204-befe-8210fab8cb25
0.3854134520428994,0.769721993234649,0.1352974481601256,-0.4898472613802467,-0.1658835613882181,-0.0032316522525617,-0.1950129836775166,-0.2230551096057018,-11.491780169590813,17.573520259410806,42.22626960148055,1.2218937950875597,2.6631969492863217,0.4523198965716608,4529.753784179688,11.8875,0.11,178.69319516034153,-10.894633894837057,107.00482395273542,1767.0,1435.0,1200.0,1528.0,1630.0,998.74,108.0,293.1,1649409711.922433,1649409713.24348,b2526b63-8224-4204-befe-8210fab8cb25
0.5583187925549332,1.031393670369039,0.1828603269131924,-0.6178195138448769,-0.1903350812185307,-0.1532785125386482,-0.2126625811890683,-0.237164673606386,-10.848783529250982,17.790795175084103,40.70201972600153,1.1772818629981294,3.672358290747453,0.4746704739890354,4520.79443359375,11.842777777777776,0.1,178.46168096550957,-10.893548867112347,106.7935259794818,1886.0,1435.0,1200.0,1528.0,1710.0,998.74,108.0,293.1,1649409714.0685146,1649409715.092121,a2f3a5bc-22f7-4d91-ab1b-19119c3cbfa2
0.5408461997661831,1.0327970407653333,0.1806857345761792,-0.6207147566392326,-0.1920545268556946,-0.1577414838341591,-0.2149636041527095,-0.2300593202579195,-10.871663425627135,17.680129831666026,39.86877248085624,1.1727976932983577,3.685385502556085,0.4822514153286354,4520.79443359375,11.849333333333334,0.1,178.4496659038496,-10.907311508562444,106.64891645546442,1886.0,1435.0,1200.0,1528.0,1710.0,998.74,108.0,293.1,1649409715.200115,1649409716.26642,a2f3a5bc-22f7-4d91-ab1b-19119c3cbfa2
0.5259401310766347,1.03205110513912,0.1820258903974396,-0.6177183703817541,-0.1913085905913516,-0.1570966921536939,-0.2148245307016369,-0.236911814179857,-10.885645299219163,17.812422261792364,40.252720707585006,1.168485391784322,3.679002110293328,0.4796240986038272,4518.675944010417,11.840333333333334,0.1,178.42394037579572,-10.892837294210064,106.55113015493716,1886.0,1435.0,1200.0,1528.0,1710.0,998.74,108.0,293.1,1649409716.3980646,1649409717.5450726,a2f3a5bc-22f7-4d91-ab1b-19119c3cbfa2
-0.1641438873388665,-0.1672601286110978,-0.0359440918778205,-0.0110273118667119,-0.1004384497325495,0.4844023919731336,-0.1705473030651573,-0.1947672038168237,-13.954693286034573,19.489447486127684,43.139363745698326,1.2406521202457883,-0.9114928168520664,0.4513709781204802,4528.760579427083,11.935666666666668,0.1233333333333333,179.18854666134268,-10.899910429414303,106.38070403367688,1449.0,1435.0,1200.0,1528.0,1386.0,998.74,108.0,293.1,1649409718.5709984,1649409719.8014896,142eb582-e0eb-4281-adad-9e5138308bde
-0.166366017184237,-0.1690352027641467,-0.0387447642135437,-0.0114743674961481,-0.1028183638196658,0.4855068823685357,-0.1704421134042228,-0.1983699468736269,-13.74113020539292,19.35452617677804,42.98080520093354,1.243190868230326,-0.9183814645170596,0.4580427513392689,4547.17578125,11.930777777777775,0.1222222222222222,179.16774645859027,-10.91006084943085,106.31455365156532,1449.0,1435.0,1200.0,1528.0,1386.0,998.74,108.0,293.1,1649409719.909768,1649409720.9454305,142eb582-e0eb-4281-adad-9e5138308bde
-0.1513188502840124,-0.1788046849111458,-0.0438156096757336,-0.0046476654223166,-0.1053616252675523,0.4896042180366849,-0.1758841569816087,-0.2065686656436966,-13.923379336766745,19.4956836435388,43.05488485361381,1.2376020860408088,-0.9555491976750948,0.4749640432111609,4553.886501736111,11.931777777777777,0.12,179.14927610925477,-10.910594173368544,106.2750114097304,1449.0,1435.0,1200.0,1528.0,1386.0,998.74,108.0,293.1,1649409721.0605752,1649409722.0531318,142eb582-e0eb-4281-adad-9e5138308bde
-0.3471474646200381,-0.5094024114246077,-0.1035415422033629,0.1504649746577534,-0.0887229607146904,0.6645395134767809,-0.1720725519167382,-0.1933471443325048,-14.906641487199572,20.83085477907268,41.95393242967515,1.2860155501981665,-2.20163602052594,0.4868569764983032,4547.17578125,11.881,0.11,179.21675989607428,-10.88256857911164,106.25617374799953,1342.0,1435.0,1200.0,1528.0,1293.0,998.74,108.0,293.1,1649409723.9887445,1649409725.126149,070cf2dc-1338-4ff0-adae-cc7fa993b09f
-0.3401918031090782,-0.5127553298745194,-0.0958232570493759,0.1501757034275896,-0.0812150547623128,0.6657623421067129,-0.1637625751711785,-0.1851292084232064,-14.895877677006036,20.889026709742915,41.683988274144994,1.2901482698244144,-2.211369278473152,0.4534731089347724,4537.546875,11.87975,0.11,179.2219525473908,-10.873396168664843,106.06789446088624,1342.0,1435.0,1200.0,1528.0,1293.0,998.74,108.0,293.1,1649409725.2344754,1649409726.3547008,070cf2dc-1338-4ff0-adae-cc7fa993b09f
-0.3631646023224034,-0.5060555616416085,-0.0998492870290996,0.1429338061115163,-0.0865488743219701,0.6612199737186699,-0.1676915073202945,-0.1832170850796288,-14.803120543340365,20.743075836378463,40.99451583567945,1.295045697917245,-2.1801528810363777,0.4717193514358386,4539.149088541667,11.885666666666664,0.11,179.23450017407853,-10.86334757301358,105.9100334212416,1342.0,1435.0,1200.0,1528.0,1293.0,998.74,108.0,293.1,1649409726.4626796,1649409727.6987257,070cf2dc-1338-4ff0-adae-cc7fa993b09f
-0.5443764359317295,-0.8624865103773665,-0.142241192049653,0.3104406028262662,-0.0490877313029671,0.8401054406185148,-0.1428986269120377,-0.176617450155645,-15.692655706578895,22.283170314674763,38.62457458119833,1.326444020059596,-3.512969979961435,0.3969247580877348,4539.9501953125,11.789,0.08,179.35983869880772,-10.865563969399249,105.75043239090591,1227.0,1435.0,1200.0,1528.0,1189.0,998.74,108.0,293.1,1649409728.493633,1649409729.537125,c9b2c62b-0810-405b-b3cc-7d337d0eae59
-0.5530748067156794,-0.8570753133925404,-0.1371334289110396,0.3105164606802008,-0.0482280088322589,0.8362366899613415,-0.1425572664910642,-0.1680960823650031,-15.6823447981783,22.626486930904928,38.85491047172874,1.3201514309893505,-3.494468852903408,0.3891519132372589,4526.367404513889,11.791,0.08,179.39163398830402,-10.85742466063832,105.40200546859587,1227.0,1435.0,1200.0,1528.0,1189.0,998.74,108.0,293.1,1649409729.646279,1649409730.7692685,c9b2c62b-0810-405b-b3cc-7d337d0eae59
-0.5699784722009672,-0.862056648930883,-0.139573523690821,0.3155483652610377,-0.0486831560263367,0.837096412327836,-0.1454398655227536,-0.1666294968960153,-15.817210426212188,22.666299686767022,38.92168488748217,1.3108177774733265,-3.513562712955604,0.3966270676207261,4530.086154513889,11.793222222222225,0.08,179.4119059897606,-10.869520071884764,105.15106128284998,1227.0,1435.0,1200.0,1528.0,1189.0,998.74,108.0,293.1,1649409730.877519,1649409731.9975722,c9b2c62b-0810-405b-b3cc-7d337d0eae59
0.0735319544274054,0.2056369022471749,0.0182022404452005,-0.1900073752755585,-0.1341517089708527,0.2892626059598897,-0.1909409327247145,-0.215371212738416,-12.978226740482851,18.235115184240406,44.04945029866791,1.2008997451990318,0.4975680968154231,0.4985509579876048,4544.4970703125,11.935444444444446,0.12,179.0491106261666,-10.883517595951322,104.66462355817065,1553.0,1435.0,1200.0,1528.0,1471.0,998.74,108.0,293.1,1649409734.023982,1649409734.9647968,589f8926-0c43-48e4-929f-511d29422afa
0.0479182941981517,0.2054528205053862,0.0202139909441799,-0.1892578995815622,-0.1336652072175647,0.2854889303660636,-0.1910987171669355,-0.2136881794906601,-12.960656725431138,18.39804628557288,43.59082162705438,1.1918451566629142,0.5008561574204135,0.4946535985065244,4538.615017361111,11.938333333333334,0.1255555555555555,178.95958050652607,-10.858456778112895,104.93765050441311,1553.0,1435.0,1200.0,1528.0,1471.0,998.74,108.0,293.1,1649409735.073848,1649409736.2989814,589f8926-0c43-48e4-929f-511d29422afa
0.0800349961141305,0.2080704223847719,0.0255690504709853,-0.1846836700519346,-0.126525970327989,0.2811468265176647,-0.1848859575140197,-0.2076559615465114,-12.930853379277856,18.176366624532445,43.98376053820589,1.170644272358497,0.5067527446587966,0.4698073848958959,4540.217556423611,11.935777777777778,0.12,178.8709550074956,-10.862786454000515,105.19784731975464,1553.0,1435.0,1200.0,1528.0,1471.0,998.74,108.0,293.1,1649409736.407732,1649409737.5242188,589f8926-0c43-48e4-929f-511d29422afa
0.0788308789485012,0.2047690883349483,0.00260788643323,-0.5028412104892468,-0.1813949783940657,0.5893026808489088,-0.1197275882821102,-0.1365316232073767,-12.746438190268822,17.460274143322707,45.85133954176345,2.5752972414221325,0.5142174270502611,0.4829357395748594,4539.416124131944,11.932555555555556,0.12,178.7916291904751,-10.714034420251483,105.57646140146645,1553.0,1522.0,1200.0,1528.0,1471.0,998.74,108.0,293.1,1649409738.640105,1649409739.780795,c64a010e-7eae-424b-a0a9-fdccc7aea169
0.0787388380678806,0.2021130518038884,0.0042646221995682,-0.4957672101877791,-0.179264889377639,0.5854632619155443,-0.1203455770565707,-0.1511661233341622,-12.809850859048591,17.592846031480484,45.86433153134417,2.551643823011203,0.5038256625041129,0.4783162653400947,4546.639973958333,11.927777777777775,0.11,178.74043464591614,-10.6949465079785,105.75594511247604,1553.0,1522.0,1200.0,1528.0,1471.0,998.74,108.0,293.1,1649409739.8888235,1649409741.101505,c64a010e-7eae-424b-a0a9-fdccc7aea169
0.0562940136961709,0.1936321430818894,-0.0138148354516933,-0.4873914883483802,-0.1896260629363558,0.5872646331345683,-0.1324686757374451,-0.1614221071251832,-12.78418784629553,17.06259389774942,45.92545171988977,2.532405487528126,0.4691073906927406,0.5337025836134799,4547.981119791667,11.928999999999998,0.1133333333333333,178.6990679846629,-10.68927052591448,105.87023390894794,1553.0,1522.0,1200.0,1528.0,1471.0,998.74,108.0,293.1,1649409741.2102058,1649409742.3315504,c64a010e-7eae-424b-a0a9-fdccc7aea169
0.1103022830294822,0.2124448922955091,-0.0213743247195229,-0.8301204728327851,-0.2417035029853741,0.9022330250755348,-0.0581401034831647,-0.0817698286960587,-12.622610965139671,16.93223923387645,48.71235956793527,4.012579173407617,0.5555385746179666,0.5124787533467049,4550.663682725694,11.924,0.11,178.71207418266243,-10.54554370898355,106.1119558214945,1553.0,1613.0,1200.0,1528.0,1471.0,998.74,108.0,293.1,1649409743.9953525,1649409745.1039696,73b66251-8def-4f5d-9275-b7ca0d007cc7
0.0971535869960707,0.2000800611575299,-0.0308565576623468,-0.8241656278477202,-0.2456481121215538,0.9078591494704716,-0.062223785086266,-0.084842072223165,-12.586960234598742,16.661049748217312,48.52033746521821,4.009506591270254,0.5092736089641472,0.5350125425056768,4553.617838541667,11.913,0.11,178.69949600985086,-10.526875094434612,106.14500331233866,1553.0,1613.0,1200.0,1528.0,1471.0,998.74,108.0,293.1,1649409745.2126925,1649409746.3412411,73b66251-8def-4f5d-9275-b7ca0d007cc7
0.1032222159466998,0.1977411104923726,-0.0209444633331714,-0.8181602108089798,-0.2374301760460136,0.9076568618509364,-0.0548908580828199,-0.086194871310359,-12.594602000219645,16.96351697342751,49.01442390264378,3.998078835942302,0.4960702410035754,0.5002046411273253,4556.84521484375,11.910555555555554,0.11,178.70507096203346,-10.499430066257162,106.17304123888157,1553.0,1613.0,1200.0,1528.0,1471.0,998.74,108.0,293.1,1649409746.4769125,1649409747.4496348,73b66251-8def-4f5d-9275-b7ca0d007cc7
0.0784040520765509,0.1891691723138711,-0.0455476976169387,-1.1197839002788412,-0.2930087108090436,1.2036668701586344,0.001054317383948,-0.019427306018066,-12.663814614099632,16.630776399436513,50.540745170625385,5.340419604026483,0.4864533593080316,0.5283465541578726,4566.556640625,11.891,0.1,178.7470751076092,-10.422667182858945,106.20730374448806,1553.0,1710.0,1200.0,1528.0,1471.0,998.74,108.0,293.1,1649409749.5786135,1649409750.634454,fddf8bf1-d0b9-4984-8cd0-063969cfef6a
0.1087724828319651,0.1909897609550508,-0.0432846046093863,-1.1142968435015164,-0.2894181048056073,1.1992418280589183,0.0041392039036165,-0.0191365175071398,-12.55726894911614,16.453301066528333,50.9054993564388,5.3171464456329565,0.4887596464798659,0.5169091581693838,4565.74609375,11.886666666666663,0.1033333333333333,178.751619460137,-10.420780627691942,106.13060982702773,1553.0,1710.0,1200.0,1528.0,1471.0,998.74,108.0,293.1,1649409750.7456124,1649409751.9555352,fddf8bf1-d0b9-4984-8cd0-063969cfef6a
0.1003143312319327,0.1946562241857292,-0.0393779245332176,-1.1102005157832326,-0.2890261724333871,1.190960678184816,0.0023691870754416,-0.0202364565532533,-12.543529416559547,16.803602361552457,50.77921204542049,5.291800785819177,0.5032824069492258,0.5137375044810526,4564.936360677083,11.891,0.1066666666666666,178.77548869455646,-10.41298282838951,106.09288896897144,1553.0,1710.0,1200.0,1528.0,1471.0,998.74,108.0,293.1,1649409752.0640976,1649409753.2938488,fddf8bf1-d0b9-4984-8cd0-063969cfef6a
0.0836888164602156,0.1860084281421234,-0.0372665473582718,-1.186248082383506,-0.2986474795634324,1.2713067972833112,0.0227243805377525,0.0024450448705403,-12.502020017081168,17.236866000433892,51.122363436315815,5.6469468065002575,0.4770170596137442,0.4936045922449165,4557.922688802083,11.849666666666666,0.09,178.8158338630738,-10.371914798184994,105.95570993186112,1553.0,1814.0,1200.0,1528.0,1471.0,998.74,108.0,293.1,1649409754.096114,1649409755.3417854,733f0652-7700-407a-aab6-15decaadc64f
0.0821843021903046,0.1868428646015208,-0.0385687739915761,-1.196741762308983,-0.3022254425119497,1.2814211791465484,0.0233186004786923,-0.001196132616669,-12.466765975729874,17.316062423279032,51.298784881325226,5.693852373035274,0.479544350915308,0.499656877332577,4557.114583333333,11.848333333333334,0.0888888888888888,178.84050905981533,-10.382972400132552,105.78876189470822,1553.0,1814.0,1200.0,1528.0,1471.0,998.74,108.0,293.1,1649409755.450712,1649409756.5267096,733f0652-7700-407a-aab6-15decaadc64f
0.1112252203571901,0.1841625535525374,-0.036419467829024,-1.19042026865047,-0.2998232765376929,1.2766168478339162,0.0214600827947188,-0.0090979937754812,-12.666087652020336,17.539174027363284,51.06962149038963,5.670245849624545,0.4722951012460588,0.4952783679215461,4549.58935546875,11.845444444444446,0.09,178.86413847870395,-10.39797472091701,105.68518814722422,1553.0,1814.0,1200.0,1528.0,1471.0,998.74,108.0,293.1,1649409756.6342285,1649409757.6887295,733f0652-7700-407a-aab6-15decaadc64f
0.049693368173563,0.2104887709692984,0.0459196923443488,0.084511115657826,-0.0857908012724311,0.0184520656745446,-0.2456658122969763,-0.2753687210078887,-13.015011570335057,19.48128736385986,42.04561367211361,-0.0175909258664831,0.5017650327819286,0.4724469523358989,4546.639973958333,11.944555555555556,0.12,178.8825906142017,-10.79429255809372,105.5861572344482,1553.0,1349.0,1200.0,1528.0,1471.0,998.74,108.0,293.1,1649409758.5076623,1649409759.6461532,8b310a95-b392-4a84-a649-7814429e8a77
0.0607165271164966,0.2063636205513626,0.0405636214530357,0.0892896552239641,-0.0890774698023394,0.0188429865209088,-0.2518684576760297,-0.2720719377500775,-13.176750546613182,19.51446174406229,42.108052147674,-0.0276099308650916,0.4859572445059589,0.4925597689814961,4550.395833333333,11.947,0.12,178.82859113862358,-10.794674289777332,105.82014813176424,1553.0,1349.0,1200.0,1528.0,1471.0,998.74,108.0,293.1,1649409759.754428,1649409760.8788548,8b310a95-b392-4a84-a649-7814429e8a77
0.0488574145445483,0.2153148479782698,0.0488194855701614,0.0816280111517416,-0.0859925832205315,0.0190452741248398,-0.2468618381132202,-0.2635252843931884,-13.17148303938637,19.77498471133186,42.42838447141564,-0.0076807322006984,0.5181245186684701,0.4713405130472437,4560.347873263889,11.944666666666668,0.12,178.77224056015115,-10.8223454731073,106.07161672425642,1553.0,1349.0,1200.0,1528.0,1471.0,998.74,108.0,293.1,1649409760.9874089,1649409762.3187091,8b310a95-b392-4a84-a649-7814429e8a77
0.0476057598093366,0.2069199115159582,0.0642692036699278,0.3543875883933203,-0.0434616062706969,-0.2396553402928186,-0.3054873310480367,-0.3254758810477108,-13.224628914789747,20.598854804062714,40.01384011298989,-1.1984751522636776,0.4758254619764572,0.4734173224901979,4564.125,11.944,0.12,178.75081805127436,-10.890324258914193,106.32699597950337,1553.0,1264.0,1200.0,1528.0,1471.0,998.74,108.0,293.1,1649409762.9921644,1649409764.0420742,bcc28254-a375-4c30-a704-ee307aafd813
0.0533456714382619,0.2190824549959728,0.0699585433532885,0.3281407695595928,-0.0436006790350302,-0.2262411401453328,-0.2984831207243583,-0.3321513743658381,-13.295005831174857,20.661975059306613,40.2274199138766,-1.1084249178180234,0.5236408423785573,0.4573466932183208,4564.125,11.931,0.1066666666666666,178.75340896969954,-10.8858351170822,106.50203323736328,1553.0,1264.0,1200.0,1528.0,1471.0,998.74,108.0,293.1,1649409764.150314,1649409765.3798609,bcc28254-a375-4c30-a704-ee307aafd813
0.0592625847412441,0.216427429924439,0.0698953284347465,0.318999897697206,-0.0456109124925574,-0.2176312718183888,-0.297648684189327,-0.3218220600973855,-13.333997525471975,20.830626663426496,39.88633223267016,-1.0674169612790296,0.5181061989675381,0.4580038469180877,4558.730794270833,11.927777777777775,0.11,178.72248035531788,-10.871062366544848,106.64610014079663,1553.0,1264.0,1200.0,1528.0,1471.0,998.74,108.0,293.1,1649409765.4883158,1649409766.6065953,bcc28254-a375-4c30-a704-ee307aafd813
0.0449380916257951,0.2148597008344207,0.0834485998889733,0.5912284589520963,-0.0085417024027862,-0.4782536478448735,-0.3636576785502582,-0.393621540325883,-13.51621910609384,21.99017135208024,38.04062044440638,-2.2591754954591874,0.4972361858723547,0.4820130707700525,4556.84521484375,11.925333333333334,0.1133333333333333,178.75894142292725,-10.965678605523571,106.86362117529404,1553.0,1178.0,1200.0,1528.0,1471.0,998.74,108.0,293.1,1649409768.5435505,1649409769.6832654,79890060-a3e4-4f69-81e5-379d72739bed
0.0233186005365486,0.2272371748747617,0.0956111437516971,0.5637047002637335,-0.0053051002115789,-0.4624246371081595,-0.3513560597341839,-0.3677160754469319,-13.493292613503815,22.306984343048995,38.50188212674151,-2.158727865097285,0.5435739974119512,0.4453038522285709,4553.081271701389,11.920222222222224,0.1022222222222222,178.75128250413795,-10.980008247538525,106.9317712850126,1553.0,1178.0,1200.0,1528.0,1471.0,998.74,108.0,293.1,1649409769.7913191,1649409770.9131262,79890060-a3e4-4f69-81e5-379d72739bed
0.0276551417420526,0.2071348421311095,0.0809958623397552,0.5823910187641326,-0.008971563636098,-0.46741861383077,-0.3622669508544097,-0.3817750682436571,-13.684184651656553,21.904857349474376,37.346301611558495,-2.215775542233554,0.4765369588907066,0.4818878890747614,4546.572998046875,11.91625,0.1025,178.75680471208187,-10.9781927215957,107.00369867906969,1553.0,1178.0,1200.0,1528.0,1471.0,998.74,108.0,293.1,1649409771.022084,1649409772.1345088,79890060-a3e4-4f69-81e5-379d72739bed
0.0295890115486041,0.223032626612447,0.0876799514196329,0.6772280041220546,0.0014376524762674,-0.5740545698284681,-0.3868828319924667,-0.4074736943854994,-13.405313870650357,22.252540137228635,36.741824607186985,-2.6666481038633494,0.5283001713672589,0.4956017181728444,4510.48583984375,11.910333333333334,0.1,178.7886846200329,-11.03784126165205,107.08444574462,1553.0,1088.0,1200.0,1528.0,1471.0,998.74,108.0,293.1,1649409773.053053,1649409774.1817992,7c1d83b2-055f-4a70-885f-7e6f482a1d12
0.0330602673797326,0.2120271683561639,0.0992639526596353,0.6923095572483869,0.010418212150132,-0.5774074880067711,-0.3835825085579663,-0.4064875419022843,-13.620945849279622,23.07651364604679,36.7550114991609,-2.702270263263436,0.4873238026536738,0.4612108482452026,4494.71728515625,11.897,0.1,178.7814446195127,-11.030088712352873,107.07319414632724,1553.0,1088.0,1200.0,1528.0,1471.0,998.74,108.0,293.1,1649409774.2905807,1649409775.511201,7c1d83b2-055f-4a70-885f-7e6f482a1d12
0.0138763193652847,0.2212838500867118,0.0999739822718388,0.6801207170120763,0.0064604545507375,-0.5785908710697745,-0.3852655419781286,-0.4093539582467615,-13.605412334489213,23.218954828688485,36.27531561406123,-2.6765234783019247,0.5277317122094779,0.468318909894052,4492.624403211806,11.906333333333333,0.1055555555555555,178.816046357848,-11.037450897368236,107.0642435628749,1553.0,1088.0,1200.0,1528.0,1471.0,998.74,108.0,293.1,1649409775.6198857,1649409776.7426405,7c1d83b2-055f-4a70-885f-7e6f482a1d12
0.0665499967111958,0.2099628231264215,0.0244610198746449,-0.2211171938469757,-0.1329551775758223,0.3076313334327598,-0.1766088526025364,-0.2009339429652924,-12.674860054462822,18.07845210020519,43.270856148294136,1.3116545587831316,0.522770836612187,0.4674129790787419,4491.055881076389,11.946888888888887,0.1188888888888888,178.842231785306,-10.774257715983303,107.054466526533,1553.0,1435.0,1200.0,1528.0,1471.0,998.74,108.0,293.1,1649409777.561774,1649409778.5831869,d99fdece-c8a8-46fe-b550-51e50910a28d
0.0738606718189401,0.2059787683447781,0.0242637894868006,-0.2153843615254952,-0.1341780063536145,0.3111683325569201,-0.1804351234257592,-0.2057069205808337,-12.853713787708523,18.47059182370673,43.94952006653526,1.3092786763053943,0.5023674231814753,0.4750345296410133,4522.384602864583,11.945,0.1133333333333333,178.8464680204112,-10.754898683145765,107.08973686449704,1553.0,1435.0,1200.0,1528.0,1471.0,998.74,108.0,293.1,1649409778.6908743,1649409779.759658,d99fdece-c8a8-46fe-b550-51e50910a28d
0.0493777994699456,0.2044403709431949,0.0182416865185025,-0.2128203656003907,-0.13567695785132,0.3072500212753412,-0.1824205767937543,-0.2021567719160535,-12.777086904107914,17.998841301077313,43.48857362899209,1.2912279038095724,0.4994350554149885,0.4875452205518221,4527.958984375,11.947,0.12,178.83732922730175,-10.75067250359682,107.12284279140408,1553.0,1435.0,1200.0,1528.0,1471.0,998.74,108.0,293.1,1649409779.868864,1649409781.1500614,d99fdece-c8a8-46fe-b550-51e50910a28d
0.1231222616288466,0.2308530661815562,0.1572330130414402,-0.2267721454528286,-0.015571197931737,0.2894406189925598,-0.0448649768955367,-0.0764724214644523,-11.822219581854236,18.38963159305623,43.86420355269927,1.292731565723512,0.5989469058554419,-0.0572427337340708,4553.080512152777,11.946333333333332,0.12,178.82267619480234,-10.745196114838544,107.1998349604582,1553.0,1435.0,1200.0,1424.0,1471.0,998.74,108.0,293.1,1649409783.0851915,1649409784.231446,17ea8407-7456-4167-a25b-2fa9ef1566c9
0.0999982568157767,0.2268578855983524,0.1543504143896641,-0.2280364430024807,-0.0172400708976147,0.294662168331197,-0.0459269869210869,-0.0721864516931492,-11.864914370245009,18.35518090328962,43.8699489211602,1.3069245422206386,0.5841861482245446,-0.0500304108585322,4554.423828125,11.945222222222222,0.1111111111111111,178.8282223084084,-10.756384533881455,107.2276990966322,1553.0,1435.0,1200.0,1424.0,1471.0,998.74,108.0,293.1,1649409784.3437302,1649409785.452792,17ea8407-7456-4167-a25b-2fa9ef1566c9
0.1223131111094079,0.2298542710402178,0.1581433073973947,-0.2291110963320669,-0.0145976886274643,0.2928162937331502,-0.042867386436352,-0.0668131860878545,-11.83311162925447,18.37612562758728,43.91016911707909,1.3055508960326228,0.5952159700814404,-0.0627322692415618,4549.857855902777,11.942222222222222,0.11,178.8124385001464,-10.750556674972144,107.23691226291264,1553.0,1435.0,1200.0,1424.0,1471.0,998.74,108.0,293.1,1649409785.5610344,1649409786.5758102,17ea8407-7456-4167-a25b-2fa9ef1566c9
0.1927511804647053,0.2619659141942786,0.3735588918053437,-0.2446139168445588,0.1787609681332516,0.2685928565977738,0.1793263620573309,0.1486241570407042,-10.167530602568918,18.33686152673782,44.58606912394266,1.2975002881891962,0.7134393603719695,-0.9302016831477684,4593.203776041667,11.92711111111111,0.0988888888888888,178.8084936864458,-10.777341451529828,107.20194624782164,1553.0,1435.0,1200.0,1304.0,1471.0,998.74,108.0,293.1,1649409787.589887,1649409788.725856,29e1a23f-4808-49ed-a069-7e0b915fcd45
0.1623913476428904,0.248338302713566,0.3697235185544475,-0.2295156715442531,0.1806857349198058,0.2713232338624037,0.1757044020791212,0.1586869552398413,-10.436676072106383,18.362917231729828,45.02460432263559,1.2694940426688686,0.6582441333849628,-0.9235353078800826,4608.568956163194,11.940555555555555,0.11,178.81855834964276,-10.746730156353385,107.20842885625387,1553.0,1435.0,1200.0,1304.0,1471.0,998.74,108.0,293.1,1649409788.834316,1649409790.055431,29e1a23f-4808-49ed-a069-7e0b915fcd45
0.1593191042927776,0.2513852600450319,0.3767530133370676,-0.2347751507243453,0.1856797107363865,0.2703117956983726,0.1823546078439884,0.1687634078045295,-10.395279718833816,18.404575657373705,44.66890060632928,1.2796756198023085,0.6736255692096063,-0.9495550047912998,4608.29345703125,11.9375,0.11,178.81443443320387,-10.772072340040117,107.2102760429694,1553.0,1435.0,1200.0,1304.0,1471.0,998.74,108.0,293.1,1649409790.1634495,1649409791.2783515,29e1a23f-4808-49ed-a069-7e0b915fcd45
0.2102520944374907,0.2719720714745033,0.562111179613829,-0.2185137515762908,0.3526130202571169,0.2197848987227169,0.3613437539138349,0.338714849323426,-9.070391415962137,18.90919328710428,43.87244510905177,1.142567929256556,0.7582775110516379,-1.6822005183695763,4576.85693359375,11.916666666666666,0.1044444444444444,178.80392960226038,-10.76300621255431,107.1492627220236,1553.0,1435.0,1200.0,1166.0,1471.0,998.74,108.0,293.1,1649409793.0067418,1649409794.149742,67254fc5-f303-4c01-8190-6d3c028a215f
0.2199558318299384,0.2738260375382764,0.5589554928198778,-0.221432762425275,0.3487341551514385,0.2189828283255906,0.3582801079310124,0.3337051962960572,-9.017239951069584,18.885797901002515,43.61076132101119,1.147022961503034,0.7673330570295515,-1.668377410290627,4561.69580078125,11.912,0.1,178.83641398195292,-10.807024979344009,107.09221394643605,1553.0,1435.0,1200.0,1166.0,1471.0,998.74,108.0,293.1,1649409794.2575085,1649409795.3994474,67254fc5-f303-4c01-8190-6d3c028a215f
0.2441281915369456,0.2823479093532544,0.5718720627728289,-0.227821512548174,0.3543623024427335,0.2193985292579404,0.364413468555711,0.3382172217263676,-9.132837455422528,19.469193718814687,44.08720274497211,1.166896871018012,0.7975060675438403,-1.7010556234527114,4561.426215277777,11.919888888888888,0.11,178.8464270392762,-10.77000725131731,107.05381158728258,1553.0,1435.0,1200.0,1166.0,1471.0,998.74,108.0,293.1,1649409795.5119345,1649409796.6155665,67254fc5-f303-4c01-8190-6d3c028a215f
0.0167695382994603,0.1813052408208966,-0.1619263090010652,-0.1805494161307796,-0.3018335101104921,0.3144737122333044,-0.3803464114885501,-0.4137870934600394,-14.269813301220369,18.785699352615456,44.05986013847086,1.230249826025538,0.4027845137722041,1.2381719878429869,4549.592122395833,11.947333333333331,0.11,178.95688485853364,-10.786541811205572,107.09653973291036,1553.0,1435.0,1200.0,1623.0,1471.0,998.74,108.0,293.1,1649409798.7396495,1649409799.8863585,2fb809fd-f4f7-4e9e-a248-ea1b96dd4a1f
0.0175407599184485,0.1787892884621766,-0.1621538826298632,-0.1809539913045193,-0.3022760143999683,0.3136392758520362,-0.380321125527428,-0.4123837225497014,-14.214762729874108,18.81949313392069,43.53666682949787,1.229444360960002,0.3976315354564441,1.2380276334806128,4556.84521484375,11.94588888888889,0.1177777777777777,178.94930486637475,-10.805873807877646,107.11861338648802,1553.0,1435.0,1200.0,1623.0,1471.0,998.74,108.0,293.1,1649409800.0024688,1649409801.1135502,2fb809fd-f4f7-4e9e-a248-ea1b96dd4a1f
0.0129033158278932,0.1803914064591141,-0.1621452854007783,-0.1854184799526583,-0.3044536411111326,0.3167565279942528,-0.381597055113491,-0.3958896907463846,-14.256351478873704,18.99474932525521,43.61173311765649,1.247673289164993,0.4038226877071901,1.2429581460447792,4556.84521484375,11.947666666666668,0.1133333333333333,178.93349373735612,-10.807214232502265,107.13372783621136,1553.0,1435.0,1200.0,1623.0,1471.0,998.74,108.0,293.1,1649409801.2217925,1649409802.3356364,2fb809fd-f4f7-4e9e-a248-ea1b96dd4a1f
-0.0411732273352808,0.1710897156149018,-0.3008094289756972,-0.167185788472766,-0.4354445173074717,0.3149162161828608,-0.5339965491253545,-0.5520886546616842,-15.117392923334524,19.4991868616026,43.319307270625366,1.1983687659365467,0.3665948473003074,1.8251840955432008,4564.125,11.932111111111112,0.11,178.94299680722128,-10.784784650177848,107.1583848191151,1553.0,1435.0,1200.0,1712.0,1471.0,998.74,108.0,293.1,1649409802.9739647,1649409804.1764083,99a534c6-eb2e-44e6-992f-ffe7335c36c9
-0.0559958542622819,0.1550933157308553,-0.3157089269103611,-0.1443288006102103,-0.440753051714249,0.3115364960247547,-0.5495322436742535,-0.5761846588468732,-15.525887879510083,19.36423860306988,43.48932823218944,1.1373993113825005,0.3042219356026965,1.873118046558262,4562.235622829861,11.934333333333337,0.11,178.9531039693731,-10.80556920041341,107.12522349178477,1553.0,1435.0,1200.0,1712.0,1471.0,998.74,108.0,293.1,1649409804.284062,1649409805.4147289,99a534c6-eb2e-44e6-992f-ffe7335c36c9
-0.0632478662543597,0.16143048139509,-0.3162465063743067,-0.1593977134687436,-0.4427142307433768,0.3161299421434458,-0.5453878745408003,-0.5663752226911195,-15.321924014953437,19.059543904907283,43.06915176030786,1.1797022394621266,0.3320866257976591,1.870931064075316,4558.231863839285,11.937142857142858,0.1114285714285714,178.95401227611703,-10.81867118368486,107.08943633617356,1553.0,1435.0,1200.0,1712.0,1471.0,998.74,108.0,293.1,1649409805.5273058,1649409806.54504,99a534c6-eb2e-44e6-992f-ffe7335c36c9
-0.0742593941199752,0.1472829903660358,-0.4486159739647983,-0.1119698572980144,-0.5632989326838487,0.2906695162851464,-0.6984281306287233,-0.7280127092337646,-16.304506141286215,19.65549447494352,42.58718527160991,1.0122917169124457,0.2760302686963932,2.430595158723172,4549.58935546875,11.923777777777778,0.11,178.97240456614773,-10.81310565011635,107.09276339720924,1553.0,1435.0,1200.0,1801.0,1471.0,998.74,108.0,293.1,1649409808.6859772,1649409809.7076428,98cea4bc-6a65-4f22-978a-34663fc84eda
-0.1092480766598673,0.1323855179275846,-0.4470381300055324,-0.1014377506689286,-0.5621286983597179,0.2967705110876808,-0.7007817481329504,-0.7172176257471102,-16.521329347641338,20.28655551473063,42.74860339769808,1.0064221483528624,0.2190736675593566,2.4283083200869084,4553.886664496527,11.925777777777776,0.11,178.96117118169278,-10.834249544193248,107.04169407278508,1553.0,1435.0,1200.0,1801.0,1471.0,998.74,108.0,293.1,1649409809.8162336,1649409810.9547703,98cea4bc-6a65-4f22-978a-34663fc84eda
-0.0782930098099916,0.1472703473873874,-0.4433463800195894,-0.1122773348876498,-0.5584860027894926,0.2929427232072493,-0.6928303242930697,-0.7242102069185724,-16.3031678310153,19.69019323823572,42.90954979593437,1.0186379838318071,0.2734887786602128,2.409323789967704,4555.76904296875,11.928666666666668,0.1044444444444444,178.97283259133576,-10.838822260978835,107.02055311948406,1553.0,1435.0,1200.0,1801.0,1471.0,998.74,108.0,293.1,1649409811.0638485,1649409812.167899,98cea4bc-6a65-4f22-978a-34663fc84eda
0.0347827465932909,0.1886224900010871,-0.0680137634271909,-0.2033270061407892,-0.1857209000984209,0.3263024809260863,-0.230018862071695,-0.261838710786799,-12.432723757992356,14.479338858185022,44.76088464762007,1.285376636423078,0.419697946756094,0.742701414847468,7532.745279947917,11.653666666666666,7.404444444444445,-178.9069819786377,-10.881709398232298,94.33333482003265,1553.0,1435.0,1350.0,1528.0,1471.0,998.74,108.0,293.1,1649409817.538234,1649409818.7268257,182944d3-839c-4a13-b188-1eb80733bc93
0.0278827153232834,0.1807868787792633,-0.0671545465620228,-0.1941911898141031,-0.1822056463079308,0.3249041677560995,-0.2302868931697402,-0.2520201736573951,-12.595489096698351,14.565304120929833,44.66876967053123,1.2621423184695124,0.3912091795849516,0.7359768905286109,7539.370659722223,11.646333333333336,7.4766666666666675,-178.27126288054868,-10.725982887567037,88.06502584972161,1553.0,1435.0,1350.0,1528.0,1471.0,998.74,108.0,293.1,1649409818.8427684,1649409819.9537437,182944d3-839c-4a13-b188-1eb80733bc93
0.0374124858306974,0.1884647056542555,-0.0785195720362905,-0.2146217371928447,-0.1974495380549802,0.3251322470412111,-0.2388547868910926,-0.2621937262279628,-12.292315586159368,14.392556179347748,43.02089117332763,1.306920011543946,0.4342570423845201,0.783138867044546,7551.91748046875,11.645,7.518888888888891,-178.03300007936178,-10.6258839988233,83.10793485622473,1553.0,1435.0,1350.0,1528.0,1471.0,998.74,108.0,293.1,1649409820.0669153,1649409821.3838098,182944d3-839c-4a13-b188-1eb80733bc93
0.2306128496356082,0.496406139146821,-0.038518202160902,-0.3682976521821459,-0.2318166936313913,0.1567272940098537,-0.264157433029541,-0.2964223155399224,-11.609469503733482,13.543556486333252,41.92085964599176,1.271678865250622,1.6155834492492511,0.8466354606575284,7537.897298177083,11.634333333333334,7.599999999999999,-178.2761927593096,-10.493358597267452,76.17453545657382,1658.0,1435.0,1350.0,1528.0,1551.0,998.74,108.0,293.1,1649409822.5016615,1649409823.6403074,85b37658-951b-4dc0-acec-2bbb588cc59f
0.2024286204936271,0.4907532117119321,-0.017338686253976,-0.3415461194930765,-0.2110452913853117,0.1652967036625815,-0.2518719977208007,-0.2695438482216793,-12.140576784791344,14.374415924358678,45.972812228282585,1.2375315942482068,1.5602913006249384,0.776535266922225,7545.26953125,11.632333333333332,7.57888888888889,-178.4102147312036,-10.49398213662043,72.98704022964016,1658.0,1435.0,1350.0,1528.0,1551.0,998.74,108.0,293.1,1649409823.7492957,1649409824.9832313,85b37658-951b-4dc0-acec-2bbb588cc59f
0.2285267585003083,0.4925247455126172,-0.009186494427921,-0.3365637743076801,-0.1991598802755966,0.1563480047255033,-0.2438907381510539,-0.2676721811493415,-12.321063019132094,14.064903320287332,45.666642730449226,1.2043981937472632,1.570824762219671,0.7376979871701924,7538.63330078125,11.635333333333332,7.59,-178.69191449987215,-10.502302350530629,70.50511037415797,1658.0,1435.0,1350.0,1528.0,1551.0,998.74,108.0,293.1,1649409825.0912137,1649409826.2096832,85b37658-951b-4dc0-acec-2bbb588cc59f
0.3808827150992943,0.761550585004501,0.0288395356620993,-0.4746635477457089,-0.2370534154245629,0.0200036118679095,-0.2700434982539186,-0.2916599578314836,-11.581781201865764,14.41618961490278,45.71639432085714,1.214135620282916,2.593581467716412,0.8064969210689715,7545.26953125,11.594555555555557,7.576666666666666,-179.358733725982,-10.50603647186812,67.35352372842078,1767.0,1435.0,1350.0,1528.0,1630.0,998.74,108.0,293.1,1649409827.0042088,1649409828.0915687,23c150f1-7506-4267-b4f3-72a4e611a815
0.3646177790520892,0.7553706983565961,0.0062369265022559,-0.5012633667562034,-0.2553169567644727,0.0267488931075588,-0.2821271517891223,-0.3002460582053537,-11.516155794302508,13.683874045613011,42.20948271102862,1.2827897873146643,2.602850026637776,0.8738061799430085,7540.108018663194,11.59477777777778,7.595555555555555,-179.62076406766073,-10.55054577904946,65.73476965403766,1767.0,1435.0,1350.0,1528.0,1630.0,998.74,108.0,293.1,1649409828.1995134,1649409829.3793466,23c150f1-7506-4267-b4f3-72a4e611a815
0.3698246623936563,0.7506634655496848,-0.0019941574063088,-0.5113352707231675,-0.2646788295479023,0.0371626605949554,-0.2867686421195602,-0.3072543142597925,-11.39047597708296,13.716860985616847,41.66545075171344,1.3286960246104882,2.589846071882473,0.903034912092343,7545.26953125,11.595555555555556,7.604444444444444,-179.89733056971306,-10.583461409297136,64.22370185992878,1767.0,1435.0,1350.0,1528.0,1630.0,998.74,108.0,293.1,1649409829.492357,1649409830.7078686,23c150f1-7506-4267-b4f3-72a4e611a815
0.5233751241072193,1.0393167708087825,0.0634732016449607,-0.6276749707881728,-0.2804967132831186,-0.1291157579877188,-0.3021789163776711,-0.3255967483784323,-10.918145913187344,14.642500782007255,43.18288985028829,1.2273557391000918,3.674169292740483,0.893278800220381,7551.91748046875,11.534777777777778,7.573333333333333,179.52644826214174,-10.633086148711865,62.522795788028574,1886.0,1435.0,1350.0,1528.0,1710.0,998.74,108.0,293.1,1649409831.5119946,1649409832.558609,b3476720-8eaf-49e5-9670-7b428b8f25df
0.5196277460258777,1.040447558630689,0.0690482488531498,-0.6237303603035452,-0.2739092155586903,-0.1276168065195501,-0.2972613032429871,-0.3196535367610159,-11.06070541066284,14.637759736871494,44.11051001780223,1.2221482867422409,3.671065643401585,0.8710873429970537,7555.617296006944,11.539111111111112,7.554444444444444,179.29418236704612,-10.64636327754846,61.627679765640806,1886.0,1435.0,1350.0,1528.0,1710.0,998.74,108.0,293.1,1649409832.667138,1649409833.7803252,b3476720-8eaf-49e5-9670-7b428b8f25df
0.5368889482855921,1.0433918549710803,0.0640037009563004,-0.6369357015833441,-0.2726282290024402,-0.1316210904960777,-0.2948545858216825,-0.31208696624483,-11.14619944413592,13.728605617281016,42.22511795906063,1.2363164853616813,3.7007144768580633,0.8706868551866995,7560.0595703125,11.539666666666667,7.552222222222222,179.10508174968513,-10.660028209347937,60.93855390061162,1886.0,1435.0,1350.0,1528.0,1710.0,998.74,108.0,293.1,1649409833.8896704,1649409834.9057066,b3476720-8eaf-49e5-9670-7b428b8f25df
-0.1811714504765812,-0.2063775035555364,-0.1239220227590303,-0.0233344919546987,-0.1487993577882096,0.5508427479969122,-0.2042868607584572,-0.2268368773074215,-13.685611931564054,15.844165856775035,45.097286916088805,1.389616281532153,-1.081588147384866,0.6848064558537663,7565.990614149306,11.635,7.607777777777778,179.53625641378989,-10.694895281559724,59.75954334210199,1449.0,1435.0,1350.0,1528.0,1386.0,998.74,108.0,293.1,1649409836.027508,1649409837.060785,26cf3a7d-da94-43b2-8779-4b51126c78e2
-0.1808654903980607,-0.2076180326013214,-0.1298890026599887,-0.0346115222210504,-0.1527727929412754,0.5485457721264638,-0.2035722795925143,-0.2296294589712426,-13.405276288841891,15.321364333215111,43.107516430616506,1.405953990121411,-1.069588443975325,0.6946898921562037,7575.650499131944,11.637444444444444,7.543333333333333,179.3797342809501,-10.666599705103131,59.23867159817701,1449.0,1435.0,1350.0,1528.0,1386.0,998.74,108.0,293.1,1649409837.168713,1649409838.2222767,26cf3a7d-da94-43b2-8779-4b51126c78e2
-0.1983830954492439,-0.2146611830489649,-0.1314299287674278,-0.0332091631402225,-0.1566885760855395,0.5608094588005882,-0.2071269793818356,-0.2320306127722498,-13.522546962310493,15.841235520787455,44.02762748714199,1.4338059540794417,-1.1035909786776463,0.7073473519727597,7578.6259765625,11.639666666666669,7.582222222222222,179.1788508283609,-10.687962639552165,58.793797851326936,1449.0,1435.0,1350.0,1528.0,1386.0,998.74,108.0,293.1,1649409838.3313503,1649409839.6185665,26cf3a7d-da94-43b2-8779-4b51126c78e2
-0.3810038463889255,-0.5595100839765407,-0.1737727797549722,0.1366249606933589,-0.1206722716433041,0.7387087732260975,-0.1830400827470124,-0.2122580058533032,-14.292775449700567,17.28576899189273,43.43233109594315,1.4574502818533703,-2.409826467138084,0.6395064547681084,7584.587782118056,11.585333333333333,7.568888888888889,178.879419888607,-10.690849437977617,57.95880039510371,1342.0,1435.0,1350.0,1528.0,1293.0,998.74,108.0,293.1,1649409841.5466118,1649409842.594011,adc5703a-5b63-4995-983e-4516327d596d
-0.3913007947050673,-0.5458374587897312,-0.174413020221325,0.1205779886643829,-0.1261178551650337,0.7370414175567906,-0.1854973720120247,-0.2016045268372096,-14.272523083608569,17.29877417834691,42.98721542604407,1.4898951221675798,-2.352808743664128,0.6521896276495771,7578.6259765625,11.58,7.583333333333333,178.8013250234569,-10.689745508653012,57.595900301942415,1342.0,1435.0,1350.0,1528.0,1293.0,998.74,108.0,293.1,1649409842.7019436,1649409843.8150356,adc5703a-5b63-4995-983e-4516327d596d
-0.3932928225631276,-0.5557298326872954,-0.1795253349186995,0.1361065985999395,-0.1269684747215214,0.7294035429203851,-0.1922441709467525,-0.2082501816963602,-14.379192236562194,17.315902403919573,42.51128365042128,1.4374324836741583,-2.38717371819555,0.6681091462269457,7571.93115234375,11.582666666666666,7.559999999999999,178.6836545244359,-10.681580586682694,57.30186407326794,1342.0,1435.0,1350.0,1528.0,1293.0,998.74,108.0,293.1,1649409843.9241457,1649409845.1476395,adc5703a-5b63-4995-983e-4516327d596d
-0.5917749716056312,-0.9199741585244848,-0.202219481022111,0.3243605196664573,-0.0716175176062578,0.9003871505374175,-0.1538095170502721,-0.1725716968804174,-15.227007644989213,19.432128672793816,40.76643058348103,1.4091945509395518,-3.756427066128878,0.5225856324336127,7565.248046875,11.483,7.533333333333335,178.6645709758949,-10.695637400585792,56.74236229721718,1227.0,1435.0,1350.0,1528.0,1189.0,998.74,108.0,293.1,1649409847.0754373,1649409848.2137518,c3198bcb-9964-4cea-b820-a62c569c60f1
-0.5815887745529521,-0.9200758081502308,-0.2175933428879468,0.3096825298157886,-0.0861984110440153,0.9042533726596566,-0.1653667163137143,-0.1851029111662857,-15.207460766696943,19.161090317689467,39.28083311320711,1.4482031821392678,-3.742951891908278,0.5777451985868506,7565.248046875,11.488,7.543333333333333,178.62478740070927,-10.686111563423353,56.52812430698083,1227.0,1435.0,1350.0,1528.0,1189.0,998.74,108.0,293.1,1649409848.32384,1649409849.3506308,c3198bcb-9964-4cea-b820-a62c569c60f1
-0.5871506748126151,-0.9301082690629684,-0.2197760266238154,0.3119835515304612,-0.0856330170191707,0.9107356793917012,-0.1648276196595698,-0.1943727430154455,-15.268715170471726,19.138327039408804,39.10051982081509,1.4572600891749417,-3.778970125827599,0.5777012274731493,7564.5068359375,11.489666666666668,7.550000000000001,178.58123811456127,-10.65320608359569,56.34893239683078,1227.0,1435.0,1350.0,1528.0,1189.0,998.74,108.0,293.1,1649409849.4598873,1649409850.4748604,c3198bcb-9964-4cea-b820-a62c569c60f1
0.0434082913684538,0.18010415803511,-0.0557885095610831,-0.168981091013149,-0.1697523126535105,0.3156495090922935,-0.2283145884833959,-0.2564325733383163,-12.996509016380635,15.028460323094208,46.604926214227184,1.1882211008819772,0.3719512737203752,0.7031123812370322,7558.5771484375,11.598,7.567777777777778,178.24570279485468,-10.653059803710969,56.033870569161294,1516.7777777777778,1435.0,1350.0,1528.0,1439.6666666666667,998.74,108.0,293.1,1649409852.474447,1649409853.535763,e66eb9f2-1492-4f66-8b3b-0e39670b1055
0.032981375199095,0.1839547030210128,-0.0561141926982776,-0.1759251204917316,-0.1662608278128315,0.3053434604980654,-0.2229054165461649,-0.2507806558225175,-12.801043494117256,14.28777315439173,44.79570958885768,1.1756097340079188,0.4018664934333694,0.6893932617459864,7571.93115234375,11.639444444444443,7.635555555555555,178.18091465602757,-10.662231040219,56.0673324248151,1553.0,1435.0,1350.0,1528.0,1471.0,998.74,108.0,293.1,1649409853.6443646,1649409854.7632685,e66eb9f2-1492-4f66-8b3b-0e39670b1055
0.0345066239553759,0.1821927777847206,-0.0679480197965916,-0.1939256872603715,-0.18015900091742,0.3159676063750384,-0.2292430888270322,-0.2561716222284879,-12.544894901358996,14.180740859242697,43.63489562265997,1.238733599437689,0.4051977489994242,0.7316921892260531,7571.93115234375,11.641333333333332,7.612222222222223,178.15847520787435,-10.645191710378327,56.08059779054812,1553.0,1435.0,1350.0,1528.0,1471.0,998.74,108.0,293.1,1649409854.8722122,1649409856.114158,e66eb9f2-1492-4f66-8b3b-0e39670b1055
0.0579244520461424,0.1711741707223296,-0.0992682158003897,-0.5241815503860415,-0.243128113813989,0.6560191591381284,-0.1667341807864953,-0.1955955719405007,-12.572671703938054,13.60714386277036,47.33396281213683,2.7430648471032457,0.3699494357523774,0.7723561372225402,7571.93115234375,11.6245,7.625,178.22131105096372,-10.544079131441208,56.2246171672485,1553.0,1522.0,1350.0,1528.0,1471.0,998.74,108.0,293.1,1649409858.0425615,1649409859.1833,32bc2d1b-d8fd-48fe-ac6f-fe7ab371c519
0.0437764548422503,0.1715160368194772,-0.094902848474054,-0.5195400593398963,-0.2374741738671452,0.6518773202250476,-0.1631971812624022,-0.1876932045468401,-12.641644011226822,13.54774548601767,47.43182866534936,2.723092004022485,0.3705566946763837,0.75386509496497,7571.93115234375,11.619666666666667,7.612222222222223,178.18101027867593,-10.539082919211149,56.29542165923327,1553.0,1522.0,1350.0,1528.0,1471.0,998.74,108.0,293.1,1649409859.2919796,1649409860.4386704,32bc2d1b-d8fd-48fe-ac6f-fe7ab371c519
0.0493777994413928,0.1774723960056682,-0.0922731090118788,-0.5135968470451568,-0.2370928615449203,0.6441195901962027,-0.1661687868220298,-0.196700062294169,-12.714794827220905,13.7955252302916,47.932452149282405,2.694069403327519,0.3884165702458185,0.7553181090568544,7575.650499131944,11.624888888888888,7.614444444444445,178.1994442003359,-10.470019461418564,56.32285169894004,1553.0,1522.0,1350.0,1528.0,1471.0,998.74,108.0,293.1,1649409860.5480146,1649409861.7322872,32bc2d1b-d8fd-48fe-ac6f-fe7ab371c519
0.0763720727876585,0.1765125412160246,-0.1162431836312877,-0.9025880328165384,-0.2984446862023709,1.0208822998205442,-0.0822669505667624,-0.1085774931978768,-12.661072428786976,12.766750444672816,50.67893132593027,4.410625754866577,0.4064504402771274,0.752903635584014,7578.6259765625,11.616,7.583333333333333,178.2786015393569,-10.371514757799856,56.38245230909253,1553.0,1613.0,1350.0,1528.0,1471.0,998.74,108.0,293.1,1649409862.4752157,1649409863.6865826,f1fdb348-1496-4a52-9ada-8fae0c912251
0.0810843632001059,0.1749205375884114,-0.1213802784618792,-0.9038037823053257,-0.3073964211393711,1.0204195668694451,-0.0906325561275513,-0.1138324205060166,-12.569580623502226,13.166390958425554,50.17527125159131,4.414687605667128,0.4041266267745276,0.7829957897465433,7578.6259765625,11.604,7.593333333333334,178.27049182808238,-10.36043704473974,56.39933425999107,1553.0,1613.0,1350.0,1528.0,1471.0,998.74,108.0,293.1,1649409863.794473,1649409864.810276,f1fdb348-1496-4a52-9ada-8fae0c912251
0.0460001016951058,0.1684220475524335,-0.1282074865799012,-0.9043095015254352,-0.3096721573803099,1.0286880734158677,-0.0928830061759693,-0.1122520483016906,-12.697970205883486,12.886018355614327,50.348334892160615,4.432173208621193,0.3787528906479372,0.7980844453628084,7578.6259765625,11.611888888888892,7.59,178.3098139860441,-10.36490322954702,56.404399983625495,1553.0,1613.0,1350.0,1528.0,1471.0,998.74,108.0,293.1,1649409864.917636,1649409865.9710605,f1fdb348-1496-4a52-9ada-8fae0c912251
0.0841945355518178,0.1755021145156515,-0.1488661127477562,-1.25353406318766,-0.3735697746844652,1.3543585153286826,-0.0257740807299288,-0.0461166316525389,-12.33983544946138,12.683522722314164,52.09429390691632,5.949850788634066,0.4289822033359979,0.8183172175788547,7578.6259765625,11.575666666666669,7.57888888888889,178.45664332154172,-10.293593018972455,56.52873978291605,1553.0,1710.0,1350.0,1528.0,1471.0,998.74,108.0,293.1,1649409868.0787256,1649409869.1043112,26090e8a-8ba2-4376-b09e-12a3a6c718b0
0.0664185097989513,0.1842004824818376,-0.1482213207986937,-1.2473642850782136,-0.3726089081708141,1.3412603906966996,-0.0282141753826567,-0.0474188583239509,-12.331064619293716,12.542254706155706,52.24619018354686,5.905624297629702,0.4594768899407319,0.8209886847004193,7578.6259765625,11.577333333333335,7.566666666666666,178.45528031934737,-10.265546649556832,56.526189086716,1553.0,1710.0,1350.0,1528.0,1471.0,998.74,108.0,293.1,1649409869.2123642,1649409870.3324363,26090e8a-8ba2-4376-b09e-12a3a6c718b0
0.0730323039667148,0.1731990698769813,-0.1462879565506603,-1.245519419969793,-0.37055214822925,1.354398972864808,-0.025806446727239,-0.0451876256731118,-12.484384896203174,12.879298471540984,52.83617903371003,5.93333432494968,0.4139721494484586,0.8113954040059272,7578.6259765625,11.57288888888889,7.562222222222222,178.4658488987231,-10.286757896888044,56.56829340839958,1553.0,1710.0,1350.0,1528.0,1471.0,998.74,108.0,293.1,1649409870.4412997,1649409871.5642147,26090e8a-8ba2-4376-b09e-12a3a6c718b0
0.0748862701321882,0.1869000108617021,-0.145985536643636,-1.3616356657666129,-0.39324680249646,1.4556702369176655,-0.0083975725208876,-0.030395341865107,-12.56260856003311,13.63826651031602,53.99969459945301,6.428026623742251,0.4699288856175706,0.8190221194681877,7580.116427951389,11.522444444444444,7.547777777777777,178.51685826926456,-10.23508002158156,56.648353850210846,1553.0,1814.0,1350.0,1528.0,1471.0,998.74,108.0,293.1,1649409873.497281,1649409874.632907,91acad6e-e4af-4d4b-97aa-26f236c2b638
0.0684302603071103,0.1824294543009693,-0.1682068350592267,-1.368933198074346,-0.4120625905337393,1.4551968835675126,-0.0266479634555287,-0.03912607695311,-12.53059791242957,13.277478700020149,52.20385222198616,6.439656047936223,0.4683351744977848,0.8979573060436055,7578.6259765625,11.524666666666668,7.548888888888888,178.54282057720968,-10.255851860076168,56.65233774777174,1553.0,1814.0,1350.0,1528.0,1471.0,998.74,108.0,293.1,1649409874.7416468,1649409875.773667,91acad6e-e4af-4d4b-97aa-26f236c2b638
0.0920453185565441,0.183849513453638,-0.1506270267397661,-1.3393223054038754,-0.3960737726690687,1.4361838674750291,-0.0191663550229262,-0.0410457863661896,-12.527592373191183,13.793516813577346,53.66439034258302,6.334666910185715,0.458172757823543,0.8438462568009633,7578.6259765625,11.524,7.550000000000001,178.55678603733264,-10.237448674267476,56.69037545071449,1553.0,1814.0,1350.0,1528.0,1471.0,998.74,108.0,293.1,1649409875.8822825,1649409877.0001848,91acad6e-e4af-4d4b-97aa-26f236c2b638
0.033625661319126,0.1857560743332171,-0.0393101582469198,0.1649153913387994,-0.1214632163369179,-0.0248465918841885,-0.3067941093966485,-0.32950191172116,-12.925314986719668,15.760750773520364,42.45121232924289,-0.3250590958778834,0.3894070187875423,0.724119508447311,7578.6259765625,11.642111111111111,7.602222222222222,178.60438334892876,-10.72034598936327,56.78321821210247,1553.0,1349.0,1350.0,1528.0,1471.0,998.74,108.0,293.1,1649409878.000246,1649409879.0455902,b163ca5b-4e9b-4457-b832-d2d590ee4853
0.0175579543464542,0.1813775586493403,-0.0430969829823549,0.1637583061043803,-0.1245400115489127,-0.0206127115645645,-0.30863492719948,-0.3339067256957549,-12.88386783067354,15.743135923365784,42.27017348806075,-0.3132482254367785,0.3741982114847173,0.7353339348837464,7578.6259765625,11.639,7.587777777777777,178.60919180210442,-10.7190784200898,56.934447707245454,1553.0,1349.0,1350.0,1528.0,1471.0,998.74,108.0,293.1,1649409879.155175,1649409880.3681977,b163ca5b-4e9b-4457-b832-d2d590ee4853
0.0101066892413315,0.1827591831464461,-0.0334483682125999,0.1730114479537466,-0.1155771516097981,-0.0212858237156884,-0.3033633106719418,-0.3237817221971958,-13.088373136235084,16.025431978599535,43.63252938653497,-0.3331675833932606,0.3682302541599122,0.7043793298929295,7578.6259765625,11.639888888888889,7.634444444444444,178.57561307432482,-10.740819481400385,57.06025941230213,1553.0,1349.0,1350.0,1528.0,1471.0,998.74,108.0,293.1,1649409880.4768074,1649409881.8063552,b163ca5b-4e9b-4457-b832-d2d590ee4853
0.0234617190324058,0.1891089917526533,-0.0063858220392029,0.4577894330628681,-0.0661072022419375,-0.3093844029587043,-0.3622553193219038,-0.3788358283722663,-13.132890974208506,17.177342545949852,40.705893138848,-1.6144581653478818,0.3849725780492484,0.6825935403099455,7585.3330078125,11.624333333333333,7.573333333333333,178.64264606865916,-10.822688595249351,57.343743378163886,1553.0,1264.0,1350.0,1528.0,1471.0,998.74,108.0,293.1,1649409883.1265132,1649409884.280221,23c0b36d-52a1-4784-95db-a8cf44e48d0f
0.0030771938292722,0.1868049356787814,-0.0055706028526576,0.4658227800531062,-0.0635639408596556,-0.308053855819997,-0.3629243857901686,-0.3868449030128683,-13.311805969386247,17.256790993230748,41.62571953177736,-1.6289656806752832,0.3685088361407425,0.6799021544345772,7585.3330078125,11.625222222222222,7.566666666666666,178.70610763296744,-10.858659596785747,57.45271525182189,1553.0,1264.0,1350.0,1528.0,1471.0,998.74,108.0,293.1,1649409884.39169,1649409885.4081137,23c0b36d-52a1-4784-95db-a8cf44e48d0f
0.0188333778982076,0.1842702717157118,-0.0215857152884165,0.4559354670667505,-0.076810241492644,-0.309121428998562,-0.3747202856669656,-0.404791359978582,-13.269096959919109,16.864705439130578,39.72516762846909,-1.612739392984555,0.3757399825268785,0.7336861421939572,7585.3330078125,11.624666666666664,7.596666666666668,178.727622728853,-10.856827588268372,57.548583028102286,1553.0,1264.0,1350.0,1528.0,1471.0,998.74,108.0,293.1,1649409885.5161989,1649409886.5754583,23c0b36d-52a1-4784-95db-a8cf44e48d0f
0.0020030464560673,0.1884121108807275,0.0154278653751961,0.7833248239808073,-0.0194950724936957,-0.621823798180857,-0.4413578918898762,-0.4710739523007978,-13.572030622452996,19.025455793598105,38.5680540794621,-3.038103582906247,0.3657484270890244,0.7006860537772911,7578.6259765625,11.61088888888889,7.61888888888889,178.76028317564416,-10.947910627307692,57.70326708114547,1553.0,1178.0,1350.0,1528.0,1471.0,998.74,108.0,293.1,1649409887.6282256,1649409888.7690518,634c9542-aeed-4143-b491-7d57df2833ab
-0.0060004639313798,0.1922161296944968,0.0090067500835353,0.7691404163687938,-0.0259510824873382,-0.6249122256812879,-0.4414625757142537,-0.4712620798919488,-13.17269088650142,18.516691725975583,36.7820076879861,-3.0168232193164566,0.3943497774935306,0.716686036789344,7578.6259765625,11.615,7.592222222222222,178.77943806171652,-10.974235125006306,57.806948593836346,1553.0,1178.0,1350.0,1528.0,1471.0,998.74,108.0,293.1,1649409888.87729,1649409889.992513,634c9542-aeed-4143-b491-7d57df2833ab
-0.0069512158497368,0.1918439204633481,0.0059213578252928,0.7784861042032761,-0.0260694208164674,-0.6295026393183702,-0.4459730853262716,-0.4678525213884166,-13.3233407014779,18.42391351137217,37.273373756965135,-3.048986250345889,0.3883172387776764,0.7281376116581688,7578.6259765625,11.610444444444443,7.614444444444445,178.7709959479024,-11.003531324176306,57.872125294536254,1553.0,1178.0,1350.0,1528.0,1471.0,998.74,108.0,293.1,1649409890.1010284,1649409891.2273395,634c9542-aeed-4143-b491-7d57df2833ab
-0.0213490385560232,0.1914701940681943,0.046720751204708,0.9561679614832516,0.0230910267607782,-0.7913570864540768,-0.4640682242236209,-0.4858773651748566,-13.711897437448842,20.03126801098016,37.54181326083452,-3.800967456114964,0.3680237580175985,0.6322887680795923,7578.6259765625,11.584666666666667,7.583333333333333,178.86754143073043,-11.058282025699391,58.01142852047848,1553.0,1088.0,1350.0,1528.0,1471.0,998.74,108.0,293.1,1649409893.0699775,1649409894.0897949,a7a1a43c-fefa-4fb0-bd54-1b5e4069dc19
0.0046722318700143,0.194802376998884,0.0378989874479662,0.9567035179927756,0.0137053861223758,-0.8008828156661956,-0.4734538668780028,-0.4962405631157904,-13.49428553095012,19.918011574920342,36.65253894877006,-3.824803396537534,0.3862357701650656,0.6698128513734102,7574.441711425781,11.5725,7.58625,178.88543254207883,-11.048005259041163,58.05030282673082,1553.0,1088.0,1350.0,1528.0,1471.0,998.74,108.0,293.1,1649409894.1979587,1649409895.3125184,a7a1a43c-fefa-4fb0-bd54-1b5e4069dc19
-0.0103698769454383,0.1941054961226826,0.0416200684848379,0.9623837543083484,0.018715039456812,-0.8016191427941203,-0.4722178891810948,-0.4993173592432175,-13.74732416015921,20.01095810942508,37.21334526600111,-3.838507782003656,0.3799806904898398,0.6566988575524476,7577.882107204861,11.582,7.610000000000001,178.94508836292712,-11.04767293950733,58.06164027670687,1553.0,1088.0,1350.0,1528.0,1471.0,998.74,108.0,293.1,1649409895.4208,1649409896.5505793,a7a1a43c-fefa-4fb0-bd54-1b5e4069dc19
0.0382934484661497,0.1826924282239933,-0.0618733218860088,-0.1947014604271252,-0.1779763171681604,0.3275647556875711,-0.2279808138593711,-0.24577100205049,-12.849110566394234,14.776788027771271,45.27327669466303,1.270905677712047,0.3951947018245322,0.720548676123517,7578.6259765625,11.639,7.610000000000001,178.93557466832323,-10.669451309081612,58.1244795348908,1553.0,1435.0,1350.0,1528.0,1471.0,998.74,108.0,293.1,1649409898.4806128,1649409899.5281866,83c46b2d-5241-46ef-8f6f-96c744c76d36
0.043855347030485,0.18110143604103,-0.0689999155726507,-0.2026301251228975,-0.1843534354693824,0.3301944947399463,-0.2305185125193732,-0.2536470723514971,-12.653854631124425,14.51328296601483,44.35308080202215,1.2925501161516764,0.3965211447105947,0.7412468255062012,7585.3330078125,11.63811111111111,7.636666666666666,178.91269201678384,-10.670337431262682,58.11743002075744,1553.0,1435.0,1350.0,1528.0,1471.0,998.74,108.0,293.1,1649409899.636778,1649409900.6880672,83c46b2d-5241-46ef-8f6f-96c744c76d36
