raw_voltage_G-,raw_voltage_G0,raw_voltage_G1,raw_voltage_G2,raw_voltage_G3,raw_voltage_G4,raw_voltage_G5,raw_voltage_G6,load_x,load_y,load_z,load_l,load_m,load_n,rpm,voltage,current,roll,pitch,yaw,aileron1_pwm,elevator_pwm,throttle_pwm,rudder_pwm,aileron2_pwm,pbaro,pdiff,Tt,sample_start_time,sample_end_time,uid
0.273010818396114,0.4447722249725639,0.348260802124792,-0.3759957093358582,0.0839194243684728,0.1868605647817479,0.136540505829646,0.1172908146540517,-6.153402174115768,18.112254395159468,40.95308505721989,1.4088949181078865,1.4174305405647405,-0.6868790778105717,4461.96044921875,11.947,0.14,179.87420658482304,-9.51427849023028,109.52476760549828,1553.0,1435.0,1200.0,1528.0,1471.0,997.6,110.0,292.15,1649407032.012807,1649407032.9987743,87c7840d-d3bb-4337-8bb1-b8d25a27dc64
0.2745886618635687,0.4440227493520533,0.3458019961040432,-0.3738787688904702,0.0790807041904314,0.1869789030334537,0.1304789570123166,0.0981857595695972,-6.199177981635546,18.45980184569435,41.10579612445056,1.4065683435364025,1.4131794451939614,-0.6683379804215785,4477.240288628473,11.943666666666664,0.1444444444444444,179.86617883581857,-9.510764737357263,108.69650471579666,1553.0,1435.0,1200.0,1528.0,1471.0,997.6,110.0,292.15,1649407033.1076176,1649407034.3206418,87c7840d-d3bb-4337-8bb1-b8d25a27dc64
0.2542931446437139,0.4379323749112686,0.33903901524647,-0.3744168540551337,0.079074129844531,0.1893335310162115,0.1301643997347872,0.1060289568105121,-6.2723491911437,17.88104393876247,40.5022302010093,1.4087668435010845,1.395831813031309,-0.6600690438661297,4476.460666232639,11.943111111111111,0.1422222222222222,179.84504319488693,-9.50737857621249,108.08632217719452,1553.0,1435.0,1200.0,1528.0,1471.0,997.6,110.0,292.15,1649407034.4288368,1649407035.4583423,87c7840d-d3bb-4337-8bb1-b8d25a27dc64
0.471056972207927,0.7795835144839802,0.3871961116797393,-0.4643337265786116,0.0416382745665837,-0.0615410642555076,0.0709699815421936,0.0419037768007556,-5.848228564002833,18.585864173091657,40.60314310807832,1.0551483832647486,2.6874706464934635,-0.5497421614638967,4473.0859375,11.94277777777778,0.1477777777777777,179.2970464930381,-9.42391015459661,106.7178710096852,1658.0,1435.0,1200.0,1528.0,1551.0,997.6,110.0,292.15,1649407037.5948083,1649407038.8271186,02391858-34c5-41a1-aaad-a439a9cb7962
0.4704248234073442,0.7795961574606209,0.3808999095354623,-0.4694920625134839,0.0421439936450664,-0.0576470271398597,0.0737135075613908,0.0386545317077685,-5.811834192520802,17.749232696980133,40.47949257279719,1.069673716094261,2.68857815370082,-0.5456040256287946,4471.27099609375,11.935,0.1311111111111111,179.19642262836564,-9.39646209077953,106.34060475196966,1658.0,1435.0,1200.0,1528.0,1551.0,997.6,110.0,292.15,1649407038.9356482,1649407039.9846077,02391858-34c5-41a1-aaad-a439a9cb7962
0.4734085657535224,0.7815052468343763,0.3706464558414819,-0.477887001378544,0.039539540334072,-0.0555482928677937,0.0737387935129272,0.0517905852318376,-5.754755507542696,16.72744637252533,39.91777549290656,1.0859818700084078,2.700679148518608,-0.5282916652674557,4469.716634114583,11.933333333333334,0.14,179.0926143777201,-9.37649763756306,106.10946811481682,1658.0,1435.0,1200.0,1528.0,1551.0,997.6,110.0,292.15,1649407040.0935352,1649407041.288494,02391858-34c5-41a1-aaad-a439a9cb7962
0.6075004747098184,1.0519921132362189,0.4166866121320777,-0.5494927974418792,0.0187281883276585,-0.270543148745672,0.0343882857037875,0.0162430844532579,-5.316786204813528,17.064998001121396,37.67782537262496,0.7687784191966415,3.743662765711083,-0.477567328571072,4475.94091796875,11.923555555555556,0.1377777777777778,178.77367186423726,-9.321060407164651,105.7092129581748,1767.0,1435.0,1200.0,1528.0,1630.0,997.6,110.0,292.15,1649407042.1030023,1649407043.1271102,282e2628-6492-4ac5-ae85-10a827f96146
0.6051736614189284,1.0562750479413523,0.4152382327832935,-0.5539092435160925,0.0122180664377302,-0.2679882555745653,0.0309928877259275,0.006705728318356,-5.1258141233371735,17.37680787449212,38.03582199370451,0.7866301285100872,3.755659033996252,-0.4609016702620175,4474.38330078125,11.902666666666669,0.1266666666666666,178.70384456362248,-9.299337844283071,105.51123233598292,1767.0,1435.0,1200.0,1528.0,1630.0,997.6,110.0,292.15,1649407043.2360306,1649407044.3597076,282e2628-6492-4ac5-ae85-10a827f96146
0.5991379047059763,1.0478897202491948,0.4233530005806216,-0.5345164281643665,0.012324773183017,-0.2747507320986431,0.0247502912808405,0.0088929633438913,-5.218248378442597,18.751773365362272,38.43601494450565,0.7372246382959322,3.719466364691488,-0.4641293067287986,4468.680718315973,11.902,0.13,178.6451777921115,-9.27019020172752,105.33869113280966,1767.0,1435.0,1200.0,1528.0,1630.0,997.6,110.0,292.15,1649407044.467425,1649407045.5901794,282e2628-6492-4ac5-ae85-10a827f96146
0.7393156360576469,1.269903426645579,0.4639389766828805,-0.5865913494097403,0.0091205369836717,-0.4707310746563494,0.001926682856779,-0.0279992450641829,-4.886827455748605,17.86475899528011,34.76279154421774,0.4100209857688496,4.591332146083797,-0.4607700752429833,4465.576768663194,11.869777777777776,0.1211111111111111,178.464689284384,-9.245290747108236,104.96903825928896,1886.0,1435.0,1200.0,1528.0,1710.0,997.6,110.0,292.15,1649407046.7043235,1649407047.7494795,4a737798-487e-41a9-92fd-5fd43336baa7
0.7498725209765469,1.2675644758582918,0.4828275828884404,-0.5761608900545763,0.0122054234407993,-0.4684806241463483,0.0044679212949139,-0.0218674007746341,-4.788645359526631,19.730107249705483,36.180993127142656,0.4051311250550983,4.56924012416951,-0.4932254558329072,4462.218641493056,11.838333333333331,0.1188888888888888,178.43755977300074,-9.226822959093646,104.7100906096556,1886.0,1435.0,1200.0,1528.0,1710.0,997.6,110.0,292.15,1649407047.8578289,1649407049.07319,4a737798-487e-41a9-92fd-5fd43336baa7
0.7122217386161207,1.2611671294341205,0.4722327689668155,-0.575794243661035,0.0069080159384379,-0.4672163262453743,-0.0009812019271596,-0.023991420859325,-4.782834886921084,19.297083068786115,35.461476319471174,0.4036352159066259,4.550857979208629,-0.4654138025252458,4452.689453125,11.836111111111112,0.1222222222222222,178.4021065377489,-9.214436221306352,104.44759126165388,1886.0,1435.0,1200.0,1528.0,1710.0,997.6,110.0,292.15,1649407049.186814,1649407050.4124825,4a737798-487e-41a9-92fd-5fd43336baa7
0.0429349383054253,0.0342305013589789,0.2818993365538312,-0.2830212631342143,0.1083497016709691,0.5022057251061576,0.1880702447845489,0.1709900889614198,-6.968680286766955,18.61410327835392,40.70971089404141,1.9073633006195303,-0.1300687695094149,-0.7530431366912563,4450.376953125,11.845,0.12,179.19733483807477,-9.086110152861458,104.1732460889016,1449.0,1435.0,1200.0,1528.0,1386.0,997.6,110.0,292.15,1649407051.0127823,1649407052.0465496,64597bc6-bd26-4b28-9f3e-02c0632ce5a2
0.0446837149028581,0.0383065972167365,0.297204418045001,-0.2840994563812464,0.1149634957687681,0.5036783789528844,0.1964328152663105,0.1736461254419147,-6.891066905590574,19.403608751643045,41.42645332956558,1.9192538297877744,-0.1205663316358524,-0.7935954871453644,4464.027289496527,11.945777777777776,0.1455555555555555,179.21055049520885,-9.042624425418234,104.00373748971984,1449.0,1435.0,1200.0,1528.0,1386.0,997.6,110.0,292.15,1649407052.154603,1649407053.47746,64597bc6-bd26-4b28-9f3e-02c0632ce5a2
0.0450781757858882,0.0266174061755977,0.2913400998829328,-0.2741853380543241,0.1124652435268729,0.5081620839649529,0.1921068943747055,0.1704115462392861,-6.924507202825297,19.45089487884287,41.69368064038197,1.9070127177933185,-0.1681312564457619,-0.7770332340383355,4468.939453125,11.944666666666668,0.15,179.17615214472886,-9.018889138597489,103.8509795500226,1449.0,1435.0,1200.0,1528.0,1386.0,997.6,110.0,292.15,1649407053.586511,1649407054.709561,64597bc6-bd26-4b28-9f3e-02c0632ce5a2
-0.1455662952592324,-0.3136799814793959,0.2494888135681251,-0.2150900329031353,0.145083112422093,0.7858417875971804,0.25749181768135,0.2344563144919319,-7.335804892677804,19.51606486975129,41.59597447626574,2.395817051648774,-1.4506042681082956,-0.898616288700009,4511.804850260417,11.938333333333333,0.1377777777777778,179.29018594747174,-8.938355706186204,103.56794789446587,1342.0,1435.0,1200.0,1528.0,1293.0,997.6,110.0,292.15,1649407056.5333593,1649407057.668136,0e4b6579-f13f-488c-8a1e-92e9f42d97aa
-0.1316084474689023,-0.3196221816610242,0.2551022951188162,-0.2076559615579013,0.1458669769738176,0.7833384783540807,0.2544322173621448,0.2291083353594074,-7.499972052937779,20.36208572394509,41.38622981406071,2.379194154218655,-1.4704153157086817,-0.9043911941440294,4513.65283203125,11.912,0.1266666666666666,179.29475154947693,-8.922441460283814,103.3670219429219,1342.0,1435.0,1200.0,1528.0,1293.0,997.6,110.0,292.15,1649407057.7763166,1649407058.901332,0e4b6579-f13f-488c-8a1e-92e9f42d97aa
-0.144301997473554,-0.3124788984642353,0.2522955543477302,-0.2076306756012483,0.1416442227277963,0.7775227094024124,0.2497796020315705,0.2229006338907696,-7.426006948527161,20.335753860015224,41.528886401510846,2.3658139643024314,-1.445593021414477,-0.8870611237783272,4511.27685546875,11.916222222222224,0.13,179.27548889819772,-8.895716163290153,103.17907335080092,1342.0,1435.0,1200.0,1528.0,1293.0,997.6,110.0,292.15,1649407059.0096092,1649407060.122462,0e4b6579-f13f-488c-8a1e-92e9f42d97aa
-0.3411253607583154,-0.6778109666423737,0.2135129709124332,-0.1101553367653737,0.1707797097983246,1.030704375282656,0.2922210624382371,0.264082854120055,-8.43141960499581,22.506110553073324,39.3881892274546,2.7264755944561045,-2.8041444901819523,-0.9822710502462944,4493.67041015625,11.865444444444446,0.1166666666666666,179.36981836409507,-8.840284624716055,102.74784859864228,1227.0,1435.0,1200.0,1528.0,1189.0,997.6,110.0,292.15,1649407062.0612004,1649407063.2102022,4a7a59be-67ce-4f9d-968f-575fcde744e4
-0.3467160861779352,-0.6668616386600863,0.2042522434342052,-0.1166518046564059,0.1639970056710313,1.0224803720483633,0.2881510355095902,0.2627892248080653,-8.14409917345988,21.758899408194967,38.850253009577166,2.717294005305114,-2.760143620072996,-0.9535977239679088,4480.6201171875,11.817,0.1,179.4176767406994,-8.850952716153445,102.33885535332207,1227.0,1435.0,1200.0,1528.0,1189.0,997.6,110.0,292.15,1649407063.3196585,1649407064.5378485,4a7a59be-67ce-4f9d-968f-575fcde744e4
-0.3460824200646586,-0.6699348946692101,0.2038223822375534,-0.1128902658868039,0.1608129984178556,1.0225784815575711,0.2815180243862012,0.2640828541551545,-8.36706383607254,22.317203291326777,38.895780736812085,2.712604042918481,-2.7709765290322377,-0.939890781079499,4475.94091796875,11.818333333333335,0.1066666666666666,179.41167072768923,-8.824632013004369,102.04612255241425,1227.0,1435.0,1200.0,1528.0,1189.0,997.6,110.0,292.15,1649407064.6470287,1649407065.6631143,4a7a59be-67ce-4f9d-968f-575fcde744e4
0.2763298525949151,0.4304098041331998,0.3409607476400425,-0.3606486494184501,0.073068715738946,0.1916092668149837,0.1184822891022206,0.0939549137971489,-6.527512983294402,19.27390367467637,41.52665183617937,1.3921870099671565,1.3587944513067312,-0.6379709013432261,4473.6044921875,11.919555555555556,0.1311111111111111,178.79630255768723,-8.881234075247482,101.5861700246065,1553.0,1435.0,1200.0,1528.0,1471.0,997.6,110.0,292.15,1649407067.79519,1649407068.9377592,c2ef4e65-21dd-4797-9917-4e382b9520e9
0.248856664752772,0.4316761246191887,0.3343889285737452,-0.3655424939191046,0.0738869692193656,0.1932245335081014,0.1223925089987138,0.107521333523408,-6.373952930013027,18.27880485003328,41.29308252668907,1.3999722469658094,1.3646962241309657,-0.6353979177759346,4476.200792100694,11.954444444444444,0.14,178.7029900310663,-8.85786420354733,101.89013089759996,1553.0,1435.0,1200.0,1528.0,1471.0,997.6,110.0,292.15,1649407069.0456665,1649407070.0707417,c2ef4e65-21dd-4797-9917-4e382b9520e9
0.2584653268662419,0.4345567002917876,0.3416181824106657,-0.3655288394748088,0.0737135075754038,0.1927092057814902,0.1236279806977277,0.107331183425926,-6.235992263803837,18.94834996213796,41.64642949432324,1.403707671130217,1.3718599473752566,-0.6461062540597056,4484.267035590277,11.951444444444444,0.1444444444444445,178.62949567777716,-8.837672172222263,102.14152056346173,1553.0,1435.0,1200.0,1528.0,1471.0,997.6,110.0,292.15,1649407070.1789863,1649407071.2235253,c2ef4e65-21dd-4797-9917-4e382b9520e9
0.2784412296393957,0.4351736775273758,0.3240540540273137,-0.6138162393876198,0.0363605901446738,0.4314657454966343,0.177117381213689,0.1469016779514249,-6.355882415257149,17.906220505832074,43.32198052767868,2.4927248030787825,1.3896105209599312,-0.6468411675753534,4487.6572265625,11.946333333333332,0.1366666666666666,178.55942704381172,-8.711001570877452,102.4835415272402,1553.0,1522.0,1200.0,1528.0,1471.0,997.6,110.0,292.15,1649407072.0964966,1649407073.236762,4cb147bb-1923-4fc6-9ffc-c16673461e64
0.2931151737691634,0.4376456322127477,0.3327190442478377,-0.620324846221687,0.0413176486431943,0.434489945370076,0.1841387847364712,0.159392939206939,-6.36666243277658,18.160358034599447,43.30161089349733,2.516309900014761,1.4004936608261795,-0.6752997108399444,4490.793619791667,11.936666666666667,0.14,178.5277987144951,-8.69589660752797,102.61206747358204,1553.0,1522.0,1200.0,1528.0,1471.0,997.6,110.0,292.15,1649407073.344324,1649407074.4629028,4cb147bb-1923-4fc6-9ffc-c16673461e64
0.285041874753132,0.4393944086650021,0.3272886330798916,-0.6190099762107175,0.0389771807151164,0.4304138498726164,0.1814564508099597,0.1541203119965775,-6.296093030047395,17.76735200232568,43.11110442893155,2.501313816898694,1.407728803995989,-0.660725502437718,4485.3095703125,11.941666666666666,0.14,178.49114336594937,-8.676948239814278,102.73030032484468,1553.0,1522.0,1200.0,1528.0,1471.0,997.6,110.0,292.15,1649407074.5719357,1649407075.6947286,4cb147bb-1923-4fc6-9ffc-c16673461e64
0.2917477094478488,0.4424843520210696,0.3325875573141791,-0.910884864330136,0.0010300429404634,0.7125585474936872,0.2552074846935069,0.2286339709150549,-6.041103240277349,18.42746453044972,45.736247768001306,3.798915498021792,1.430529800642619,-0.719844275413651,4480.100043402777,11.937111111111111,0.14,178.48273312635138,-8.527631007911427,102.93136971036124,1553.0,1613.0,1200.0,1528.0,1471.0,997.6,110.0,292.15,1649407077.5329692,1649407078.76336,75d04975-2cce-4fa6-aa27-fcdc106968d5
0.2901739117527214,0.4483754731555508,0.3182286762654274,-0.9220981799163026,0.000283095830808,0.7110080129258378,0.2550643661972102,0.2337103788846879,-6.1761431382176495,16.73598976242501,44.8343125559618,3.808586016154358,1.4620163312598995,-0.6991082179959016,4480.6201171875,11.930888888888887,0.1311111111111111,178.47741772135728,-8.511693899848066,102.98294598660384,1553.0,1613.0,1200.0,1528.0,1471.0,997.6,110.0,292.15,1649407078.8711915,1649407080.1140945,75d04975-2cce-4fa6-aa27-fcdc106968d5
0.2910589201003905,0.4550003926133765,0.320820486406298,-0.9271553736887804,-0.005747604392237,0.7136124659684306,0.2539264983099792,0.2314978579811528,-5.840178243090415,17.293925227574565,45.46204031713102,3.829943216080598,1.4797188128565943,-0.691158437462083,4476.720540364583,11.932333333333332,0.1366666666666666,178.4715862576259,-8.518063525567793,102.99228133737942,1553.0,1613.0,1200.0,1528.0,1471.0,997.6,110.0,292.15,1649407080.2276142,1649407081.336274,75d04975-2cce-4fa6-aa27-fcdc106968d5
0.328287933930927,0.4570794035999657,0.3096693812840534,-1.1671399766048938,-0.0452665177448966,0.9458558442662448,0.3036735761898315,0.2840820199760664,-5.826765774997168,17.201661147906517,47.50013647372053,4.892336319865566,1.4981965990148485,-0.6918921495976368,4490.00830078125,11.934,0.13,178.4794956166848,-8.403805844402097,103.0199003456532,1553.0,1710.0,1200.0,1528.0,1471.0,997.6,110.0,292.15,1649407082.0092432,1649407082.97531,c3594cdd-093c-485d-bf1c-1d10d3f28e18
0.3056362718496097,0.4611069500554109,0.3040558997900457,-1.177208345813825,-0.0481647939319263,0.9504406931549269,0.3028421740610575,0.2873165989911823,-5.89185009809108,16.728103822665886,47.37621628143207,4.9218795636570825,1.5157370350643002,-0.6787359436711559,4502.587890625,11.915,0.1233333333333333,178.50229023467486,-8.401652627266252,103.00668620633898,1553.0,1710.0,1200.0,1528.0,1471.0,997.6,110.0,292.15,1649407083.0839665,1649407084.201189,c3594cdd-093c-485d-bf1c-1d10d3f28e18
0.3342473272453479,0.4587932854364829,0.309505022569799,-1.1693444078522284,-0.0462304183848951,0.9478615260207742,0.3032088203571981,0.273472539666112,-5.852300027024597,17.243096929245358,47.732491265633264,4.902106695615705,1.5030077643612858,-0.6892126253441252,4513.65283203125,11.913,0.13,178.50696663752657,-8.416130920759386,102.98719739990722,1553.0,1710.0,1200.0,1528.0,1471.0,997.6,110.0,292.15,1649407084.3089936,1649407085.524,c3594cdd-093c-485d-bf1c-1d10d3f28e18
0.3050673379078816,0.445850417968531,0.2834114365077489,-1.2066649901258155,-0.0823458427296064,0.99275724050202,0.2761928027057532,0.2586655914207407,-6.249534521899898,18.436531726405025,47.21011338028314,5.093508359943214,1.4648665004224233,-0.5693863189424959,4515.240342881944,11.89,0.1211111111111111,178.538834782374,-8.3734686105661,102.91613079941304,1553.0,1814.0,1200.0,1528.0,1471.0,997.6,110.0,292.15,1649407086.635362,1649407087.686408,a9b0ad47-3b7e-4b5a-9013-15681dabdd63
0.3092395200993654,0.4530407313234098,0.271462306646123,-1.2241896888356416,-0.0885970366509874,1.001935535699937,0.2771137170761607,0.2598939830448444,-6.053141390954777,17.326102480532747,47.19221870619823,5.145804491733935,1.491984447160564,-0.5446109585438406,4494.984754774306,11.879444444444443,0.1122222222222222,178.56639535458493,-8.37581240895254,102.8355436741258,1553.0,1814.0,1200.0,1528.0,1471.0,997.6,110.0,292.15,1649407087.7952251,1649407089.0080569,a9b0ad47-3b7e-4b5a-9013-15681dabdd63
0.3235544036151869,0.4463632170824819,0.2865408260225749,-1.2087293368972778,-0.0855278273693365,0.999410480317256,0.2740101192274882,0.2549182133769636,-6.2891268861683445,19.127456542677827,47.95221218369488,5.1179501505542975,1.4609571004420376,-0.5654310099765949,4479.059895833333,11.875333333333332,0.1166666666666666,178.5720128057223,-8.385263019170374,102.7329276709454,1553.0,1814.0,1200.0,1528.0,1471.0,997.6,110.0,292.15,1649407089.138559,1649407090.3500974,a9b0ad47-3b7e-4b5a-9013-15681dabdd63
0.261558304636621,0.4406829807882824,0.3573596992662128,-0.0436360793506467,0.1226554829084605,-0.1279718212770136,0.0493383533757765,0.0346512595644601,-6.403329158197403,19.51022899758764,38.82013320520154,-0.0390427920136124,1.3824465548700229,-0.629222017480242,4475.421712239583,11.886444444444445,0.1166666666666666,178.60029434234562,-8.729699308594101,102.6440335178076,1553.0,1349.0,1200.0,1528.0,1471.0,997.6,110.0,292.15,1649407091.0103772,1649407092.0763862,a6e577f8-6648-46b4-84a7-6be51fafa208
0.241545990001743,0.4347003245005343,0.355755558447079,-0.0358126048256892,0.1215641411478702,-0.127117155962253,0.0452359601530218,0.0170320064922544,-6.534498076391738,19.77235913185249,39.10783814353626,-0.0531324351351147,1.3573259305284242,-0.6201568514673328,4480.884006076389,11.953333333333337,0.1422222222222222,178.5765389444123,-8.74916079426919,102.85853333196216,1553.0,1349.0,1200.0,1528.0,1471.0,997.6,110.0,292.15,1649407092.1859665,1649407093.4211895,a6e577f8-6648-46b4-84a7-6be51fafa208
0.2566143951105246,0.4389867991166843,0.3595686800794108,-0.0343793969100385,0.1234049585902151,-0.1313904825434706,0.0454857853845716,0.0224492692383836,-6.594925638175264,19.948289868492,39.29876054015793,-0.0646119859192061,1.3722066242147468,-0.627531467898142,4490.531304253473,11.951666666666666,0.14,178.5510593031685,-8.755051452973373,103.04694637694666,1553.0,1349.0,1200.0,1528.0,1471.0,997.6,110.0,292.15,1649407093.530122,1649407094.7439747,a6e577f8-6648-46b4-84a7-6be51fafa208
0.2358526048280946,0.4304664446649873,0.3835387515299717,0.2585341046605837,0.1694122454782548,-0.4065138392684611,-0.0189296783922843,-0.0436229308645515,-6.858635177260655,21.71698587827688,37.17046177301486,-1.331145557606173,1.3264652933432148,-0.6335297792323253,4501.274251302083,11.949444444444444,0.14,178.52923760768024,-8.843000099229826,103.29281724995909,1553.0,1264.0,1200.0,1528.0,1471.0,997.6,110.0,292.15,1649407095.5106122,1649407096.5806034,58ae53b7-5761-427b-89b5-89aa5dfc42dc
0.2301197735464642,0.4345946292179282,0.3703430244119139,0.243723616282157,0.1639843627022777,-0.3999683158380849,-0.0188457290291936,-0.0393905675354269,-6.7202462972582,20.50917078157683,36.700809469185366,-1.2916970744660787,1.3460979950133938,-0.6079693678232211,4498.649576822917,11.951,0.1433333333333333,178.5320015575644,-8.848366635778948,103.42659940632218,1553.0,1264.0,1200.0,1528.0,1471.0,997.6,110.0,292.15,1649407096.688962,1649407097.72424,58ae53b7-5761-427b-89b5-89aa5dfc42dc
0.242636320310257,0.4381220195523291,0.37934482346545,0.2361757593049571,0.1699771336776378,-0.3945571205084829,-0.0101726465031863,-0.0242442805149274,-6.741926494573632,20.658280211956363,37.03950041732841,-1.2610315099802645,1.3579819887868512,-0.6399888338140248,4490.531521267361,11.954444444444444,0.14,178.51987265941827,-8.84818772276819,103.61254675301636,1553.0,1264.0,1200.0,1528.0,1471.0,997.6,110.0,292.15,1649407097.8373373,1649407098.9523928,58ae53b7-5761-427b-89b5-89aa5dfc42dc
0.2336092350779841,0.433836050654734,0.3944152510702877,0.5176842677631279,0.2096507944624507,-0.6623228081704847,-0.0773574293810723,-0.0987114188814296,-6.9878322372333646,21.91127605396495,35.01511374979394,-2.4891408020470824,1.327906459879762,-0.620503379449777,4487.91845703125,11.949222222222224,0.1477777777777777,178.51926553149204,-8.95439887190918,103.81911595863458,1553.0,1178.0,1200.0,1528.0,1471.0,997.6,110.0,292.15,1649407100.0626802,1649407101.0848076,bda40697-0967-4818-8f5f-d276d218b9f4
0.2036453805821237,0.4252135409531155,0.4042388435495977,0.5264458501286858,0.2112817384515238,-0.6589471320367518,-0.0791400892530048,-0.0938185868095293,-7.187403319699224,23.22537984342515,35.45683902684162,-2.492148733589445,1.2926306325302757,-0.6345996792717763,4486.352973090277,11.928666666666668,0.1344444444444444,178.53946012413803,-8.938279530604213,103.86638845679016,1553.0,1178.0,1200.0,1528.0,1471.0,997.6,110.0,292.15,1649407101.1932116,1649407102.316438,bda40697-0967-4818-8f5f-d276d218b9f4
0.2032438396449511,0.431544637663753,0.3881539435568995,0.5176948878652174,0.2043351813821952,-0.661835294832754,-0.0835292253978312,-0.098400401864864,-7.042244077818192,21.90128184994377,34.71935742440957,-2.488521809732992,1.3219202519118898,-0.5966694044312888,4482.9638671875,11.926555555555556,0.1377777777777778,178.54926372232674,-8.952434528476633,103.92062926571896,1553.0,1178.0,1200.0,1528.0,1471.0,997.6,110.0,292.15,1649407102.4251702,1649407103.45553,bda40697-0967-4818-8f5f-d276d218b9f4
0.2218360953098667,0.4321757750335767,0.3876674418208698,0.6981212804220818,0.2215336752840741,-0.8387379302082613,-0.1380700207738558,-0.1716780916261694,-7.3663353028029475,22.54184570871641,33.06099643288898,-3.289248729665283,1.319044921589204,-0.5429469008957141,4482.1826171875,11.914666666666667,0.1266666666666666,178.55959096835178,-9.033862905396663,104.01283909624382,1553.0,1088.0,1200.0,1528.0,1471.0,997.6,110.0,292.15,1649407104.5724669,1649407105.803853,14298e14-62c3-49a8-9745-ecae0c80e825
0.2195087761768451,0.438815866078403,0.3846300932266976,0.6777671006116897,0.2147883944148599,-0.8255366327129826,-0.1377676006787948,-0.1591605310927547,-7.292295508726798,22.505163729553427,33.1875439125913,-3.214006575484356,1.344616538955376,-0.5291796246180498,4482.9638671875,11.902555555555557,0.1222222222222222,178.58816089074006,-9.03363504269685,104.01097369569054,1553.0,1088.0,1200.0,1528.0,1471.0,997.6,110.0,292.15,1649407105.9131489,1649407106.941913,14298e14-62c3-49a8-9745-ecae0c80e825
0.1949470126542862,0.4276915642687665,0.3837319361871444,0.6815498790133048,0.2140252643282615,-0.8190325765466311,-0.1428859839472617,-0.1597264309579522,-7.709403946933566,23.024575324645102,33.03073354721002,-3.2047605523793457,1.3067217704762415,-0.5216673509787982,4463.509602864583,11.893666666666668,0.1233333333333333,178.6101753493449,-9.040378905864856,104.0033838377028,1553.0,1088.0,1200.0,1528.0,1471.0,997.6,110.0,292.15,1649407107.0561645,1649407108.1599514,14298e14-62c3-49a8-9745-ecae0c80e825
0.2575216550940566,0.4239183944772987,0.3362165972150446,-0.3409018328669413,0.0756094484064924,0.1776696264284212,0.1148451574995865,0.0973968377200847,-6.50069199706478,18.859839619397054,41.198555270689546,1.3132988894684556,1.3344267657159028,-0.63067254586007,4474.387369791667,11.919666666666666,0.1266666666666666,178.62278387855272,-8.723134548164333,103.98551833956375,1553.0,1435.0,1200.0,1528.0,1471.0,997.6,110.0,292.15,1649407110.097594,1649407111.2338612,c4a2a01c-cbfb-4043-8223-512cbb5a51ba
0.2807801802892101,0.432028105073764,0.3432491263385764,-0.341342819957724,0.0750536631421069,0.174642392097935,0.1149548985382917,0.0921975400036531,-6.4007740853495125,19.459630709746467,41.85943157764446,1.311972952800179,1.3587888785246365,-0.6379246788384003,4493.93212890625,11.953,0.14,178.6190728091037,-8.733749231316965,104.02269278248644,1553.0,1435.0,1200.0,1528.0,1471.0,997.6,110.0,292.15,1649407111.3446505,1649407112.352728,c4a2a01c-cbfb-4043-8223-512cbb5a51ba
0.2656738463219046,0.4282180177939909,0.3407003023296962,-0.3441495613758508,0.0776343476272901,0.178050938616409,0.119000145437928,0.0988957891377772,-6.388557901345604,18.92327408985985,41.45825403463197,1.322223444968328,1.3481427898426344,-0.644547688860352,4490.792805989583,11.954,0.1466666666666666,178.62336216790246,-8.736009739341025,104.06671335168718,1553.0,1435.0,1200.0,1528.0,1471.0,997.6,110.0,292.15,1649407112.4607284,1649407113.785931,c4a2a01c-cbfb-4043-8223-512cbb5a51ba
0.3472316638779782,0.468199659623365,0.5538937509689524,-0.3666034927514587,0.2801353884866058,0.1443245338110857,0.3505061947183625,0.3267247563514264,-4.739908660581325,17.351890430655526,41.01601248490188,1.298044388540679,1.5066023347344653,-1.534767824802688,4512.597493489583,11.951666666666666,0.1322222222222222,178.59145911319925,-8.735392460994785,104.13557607780916,1553.0,1435.0,1200.0,1424.0,1471.0,997.6,110.0,292.15,1649407115.5129197,1649407116.6507988,14de1947-08ef-4532-8d05-8d1251c91347
0.3240950172777425,0.4733200649208201,0.5642230623274759,-0.3623680946351456,0.2782642279757426,0.138609908280648,0.3487867499488321,0.327976411005546,-4.542089443215847,18.52573628484172,41.488967976655466,1.2841197072044048,1.5203683221538602,-1.5428707623866902,4507.323404947917,11.947666666666668,0.1366666666666666,178.6054625188176,-8.72502451842592,104.13971669026598,1553.0,1435.0,1200.0,1424.0,1471.0,997.6,110.0,292.15,1649407116.7588148,1649407117.8896291,14de1947-08ef-4532-8d05-8d1251c91347
0.3131841287246233,0.4600702260197841,0.5510490813758769,-0.3595487102386153,0.2715887364250811,0.1446911801292371,0.3398860946617917,0.3178999588899189,-4.745137907043898,18.268392379130088,40.79657955632675,1.2888507763023798,1.4770604675592447,-1.5057397207684804,4493.93212890625,11.949666666666666,0.1366666666666666,178.6113729091794,-8.720192159588136,104.1510525275585,1553.0,1435.0,1200.0,1424.0,1471.0,997.6,110.0,292.15,1649407118.0005252,1649407119.224372,14de1947-08ef-4532-8d05-8d1251c91347
0.4348601317202956,0.5081514638636049,0.8573504599309434,-0.3494090407505811,0.5410737733365993,0.0724744958213053,0.6320020563474986,0.6089286252656453,-2.7871167679169844,19.441399550673506,40.83435125460637,1.1277170429682863,1.6613905379132048,-2.6993735849652625,4440.897786458333,11.946777777777775,0.1388888888888889,178.59478769205478,-8.730572719034216,104.06723775843344,1553.0,1435.0,1200.0,1304.0,1471.0,997.6,110.0,292.15,1649407121.0448844,1649407122.1818025,26d756b8-350d-4375-8e8f-f5160a75892e
0.4105593201835911,0.5053877093106786,0.8452946236907608,-0.3505792749334839,0.5410995650086479,0.0683776655195557,0.6316809247594297,0.6078554894635937,-2.7737667636683887,18.144953635273005,39.6823758547346,1.1117791716155108,1.660498037117993,-2.6839460729360543,4434.26123046875,11.929888888888888,0.1344444444444444,178.59455546562302,-8.742561218847406,104.07084030376568,1553.0,1435.0,1200.0,1304.0,1471.0,997.6,110.0,292.15,1649407122.2905438,1649407123.3232045,26d756b8-350d-4375-8e8f-f5160a75892e
0.4146880104683886,0.50283686247144,0.8570627057958188,-0.336260342296009,0.5418227432347871,0.0659977515054999,0.6272498145554316,0.6034112305715337,-2.934031406656601,19.705605973979928,40.87276464696954,1.085171989733698,1.6405242726878766,-2.6939200644992103,4434.006510416667,11.92211111111111,0.13,178.61025579379512,-8.761440430895751,104.02480331093996,1553.0,1435.0,1200.0,1304.0,1471.0,997.6,110.0,292.15,1649407123.4318287,1649407124.5514386,26d756b8-350d-4375-8e8f-f5160a75892e
0.4355934243318267,0.5078101035132259,0.9867639639178122,-0.2764590513737476,0.6667070252680685,-0.006430325165756,0.7424510940941751,0.7288472520224027,-2.1748414748012626,20.111106910760384,40.03201368993584,0.7969138775263278,1.6621215713993425,-3.2045313434768734,4429.67724609375,11.90322222222222,0.1244444444444444,178.5949743838921,-8.798347832394606,103.91408366776434,1553.0,1435.0,1200.0,1166.0,1471.0,997.6,110.0,292.15,1649407126.579934,1649407127.7566268,224068fd-4e94-4170-9642-040464a714e9
0.4619049747037362,0.5063870101337402,0.9856043501584666,-0.2795237094558729,0.6652363943087302,-0.0004294623738413,0.7434053859268489,0.7191065975973888,-2.1023513658668302,20.098231713211,40.284507823286816,0.8172453816918531,1.6543367830103335,-3.2020932846261,4429.67724609375,11.87977777777778,0.12,178.6234502014518,-8.80481355508141,103.8153236858254,1553.0,1435.0,1200.0,1166.0,1471.0,997.6,110.0,292.15,1649407127.8677187,1649407128.948059,224068fd-4e94-4170-9642-040464a714e9
0.4502845625415737,0.5166475437368038,0.9832997884233948,-0.2780773526740485,0.662104982030312,-0.0094014248611942,0.73667325408746,0.725016430292839,-2.247038567981656,20.08843619071176,40.593508450562496,0.7936182946301569,1.6907810775301648,-3.183508832689937,4427.3896484375,11.884,0.12,178.63234614339075,-8.822870677972153,103.72154746525084,1553.0,1435.0,1200.0,1166.0,1471.0,997.6,110.0,292.15,1649407129.059887,1649407130.1741753,224068fd-4e94-4170-9642-040464a714e9
0.1989705135391014,0.4014341257271298,0.1205779889536416,-0.3103311091812448,-0.1208715248339034,0.1812592203892757,-0.1157961277625128,-0.1426720648437445,-8.01948814659857,19.143285110842832,40.86553616930465,1.2427291465304682,1.2463688519837886,0.2551641414289322,4455.00390625,11.884,0.11,178.737827031473,-8.806342189363153,103.74912549238964,1553.0,1435.0,1200.0,1623.0,1471.0,997.6,110.0,292.15,1649407131.0784054,1649407132.2252064,117e1189-efb5-4ccd-b970-480dbd78f07e
0.1861854298204567,0.3992575109505784,0.1111746484432655,-0.3162212202934753,-0.122379073531091,0.1864382893464074,-0.1134531310961531,-0.1388528739642189,-7.858707378569758,18.153828810221388,40.5116376367887,1.2606509241114483,1.2403161467868185,0.2664037081845791,4480.365451388889,11.950333333333331,0.14,178.73770560588775,-8.810271824865632,103.80148572256697,1553.0,1435.0,1200.0,1623.0,1471.0,997.6,110.0,292.15,1649407132.3338664,1649407133.4459963,117e1189-efb5-4ccd-b970-480dbd78f07e
0.2038486796429557,0.3972528406529119,0.1146084809684198,-0.3103048117827516,-0.1239220225643123,0.1839415543231199,-0.1180577036691233,-0.1388983886781537,-7.972372166178582,18.892850445010883,40.63909101996877,1.2467276055600454,1.2319740731186375,0.2699867744217935,4485.3095703125,11.953,0.1366666666666666,178.7375173962306,-8.82944729636923,103.868471664487,1553.0,1435.0,1200.0,1623.0,1471.0,997.6,110.0,292.15,1649407133.553622,1649407134.6725798,117e1189-efb5-4ccd-b970-480dbd78f07e
0.1567399370352011,0.3687752953768933,-0.0317668520174913,-0.2711110713092288,-0.2537901903883275,0.1843774841601637,-0.2782417113841781,-0.310607738105537,-9.282622672561896,19.39346026640513,40.68572843010392,1.1546736983082373,1.119929735002292,0.8703073985321287,4480.100043402777,11.949444444444444,0.1322222222222222,178.7365292955307,-8.857063174139668,103.9886010316092,1553.0,1435.0,1200.0,1712.0,1471.0,997.6,110.0,292.15,1649407136.6094973,1649407137.652261,ca21dd2a-fe9c-4bbf-b0e1-1ae8e76d8913
0.137269752741443,0.3739589156173753,-0.025989011301696,-0.2686836193823522,-0.252235104018023,0.1781824255828382,-0.2781152816095574,-0.2989635538866905,-9.276063323457969,19.7704331607002,40.86289640737815,1.1380950778541012,1.137828607961698,0.8608817256754969,4482.9638671875,11.950333333333331,0.1366666666666666,178.75118688148956,-8.85558130768099,104.00234564894896,1553.0,1435.0,1200.0,1712.0,1471.0,997.6,110.0,292.15,1649407137.7611074,1649407138.890497,ca21dd2a-fe9c-4bbf-b0e1-1ae8e76d8913
0.1408856441180517,0.3811148401446333,-0.0306289840766332,-0.2705927091875453,-0.2600863938215452,0.1740102432641069,-0.2844241280723966,-0.307029774643879,-9.065714792296449,19.843200350507217,40.9724078257657,1.1334007496488316,1.1621504179417497,0.8880035344926985,4477.760036892361,11.951555555555556,0.1377777777777778,178.7287565402552,-8.856570262154564,104.04089371880472,1553.0,1435.0,1200.0,1712.0,1471.0,997.6,110.0,292.15,1649407139.020549,1649407140.12337,ca21dd2a-fe9c-4bbf-b0e1-1ae8e76d8913
0.1006708631784665,0.3605285348479108,-0.1746891426441591,-0.2214196136434968,-0.3972045604611851,0.158301597516995,-0.4557162713385873,-0.4873388942836058,-10.236582078846595,21.295305703371728,41.08339336225248,0.9890601238105938,1.0770804258426774,1.5116987604291088,4478.27978515625,11.948666666666666,0.1377777777777778,178.7590658841521,-8.86783865132901,104.09543885060651,1553.0,1435.0,1200.0,1801.0,1471.0,997.6,110.0,292.15,1649407141.0234597,1649407142.164594,a3db889e-e957-4fa3-a1e6-bfca83d10336
0.0747628746768017,0.3591413474944286,-0.1980472979586286,-0.2363302368661671,-0.4002085324369177,0.1661968836351882,-0.4543963442288439,-0.4681898362047592,-10.243341522215244,18.902064685680056,40.00531757030648,1.0232331806869408,1.0817948766589138,1.544909105858748,4476.720540364583,11.947666666666668,0.1333333333333333,178.79284648196716,-8.868854926559262,104.11441083939108,1553.0,1435.0,1200.0,1801.0,1471.0,997.6,110.0,292.15,1649407142.272761,1649407143.491439,a3db889e-e957-4fa3-a1e6-bfca83d10336
0.07864679723173,0.3563209523570123,-0.182736145461615,-0.2317676387350492,-0.3902488987856569,0.1653492984817787,-0.4454734346280691,-0.467668439033658,-10.286892019849027,19.605693856464924,40.17420609979735,1.016468275690479,1.070448890074268,1.4973863176635118,4483.745768229167,11.944,0.13,178.78715465765882,-8.88187810516797,104.13124497896544,1553.0,1435.0,1200.0,1801.0,1471.0,997.6,110.0,292.15,1649407143.6243303,1649407144.7146604,a3db889e-e957-4fa3-a1e6-bfca83d10336
0.2603223272539136,0.4119267844863664,0.3001891718312546,-0.3743258248182454,0.0638676626074774,0.2358131587237299,0.1362906805651315,0.1089808389537737,-5.0185295956432725,15.200171111479817,43.39710896315592,1.4943937419243434,1.2612440269624128,-0.5922089948511304,7520.995442708333,11.643666666666666,7.639999999999999,-179.446532013213,-8.962077048037397,91.31760519034644,1553.0,1435.0,1350.0,1528.0,1471.0,997.6,110.0,292.15,1649407148.1448853,1649407149.1305292,0e59f6bb-df10-4f3d-af75-080af3d6872d
0.2643195306935664,0.4102306028050542,0.2993345066258916,-0.3728005758480432,0.0699029141760905,0.2335910291629495,0.1389861632317293,0.1170935843739448,-5.2902162077628665,14.643857874420805,43.06005380726255,1.4820388191638336,1.259541150063079,-0.6037309428137473,7525.396484375,11.644333333333332,7.63111111111111,-178.92183991681225,-8.852033308998385,85.2198801945565,1553.0,1435.0,1350.0,1528.0,1471.0,997.6,110.0,292.15,1649407149.2435267,1649407150.5568385,0e59f6bb-df10-4f3d-af75-080af3d6872d
0.2518414186209208,0.4092970454446412,0.2868958407382861,-0.3730898472630458,0.0568857048998312,0.2323550517791936,0.124601489881308,0.0993428447322615,-5.326609611315459,14.777538688827397,42.612030487776686,1.4800910251247128,1.2595174828561202,-0.5493927626695566,7525.396484375,11.643777777777778,7.638888888888889,-178.68961652067142,-8.748960726644752,79.95282383287582,1553.0,1435.0,1350.0,1528.0,1471.0,997.6,110.0,292.15,1649407150.6654642,1649407151.7872632,0e59f6bb-df10-4f3d-af75-080af3d6872d
0.4258709757031509,0.7513643921339391,0.3365862777879621,-0.4599466127435015,0.0282746475246924,-0.0192503043022893,0.0728284991348215,0.05065271727644,-5.013923465949026,14.764697528681602,43.11108498655608,1.113253854843512,2.549685602919228,-0.4628868686987326,7518.794921875,11.636125,7.65375,-179.03393963765512,-8.615005325379236,71.40400396547545,1658.0,1435.0,1350.0,1528.0,1551.0,997.6,110.0,292.15,1649407153.6084738,1649407154.6547272,4c6ac0db-e20d-4565-aba3-6bfb13b63ae1
0.4407618729586236,0.7495852725595751,0.3319169737826851,-0.4646968332911458,0.0251316033613765,-0.0219801760169165,0.0720067056096404,0.0557943631146591,-4.825334065041928,14.453783571619926,41.835735016977424,1.1154328489363308,2.5532649999547927,-0.4528672974599732,7518.794921875,11.625,7.656666666666666,-179.21463494833247,-8.619968714755784,68.87927642924518,1658.0,1435.0,1350.0,1528.0,1551.0,997.6,110.0,292.15,1649407154.7638187,1649407155.7702758,4c6ac0db-e20d-4565-aba3-6bfb13b63ae1
0.4539004536919873,0.7551446419462485,0.3318198757226985,-0.4742205374243629,0.0233944583034738,-0.0175561453414384,0.0731572165472355,0.0527008795765834,-4.809222404874668,14.382100410726771,41.99704706174186,1.1464111728768889,2.5737374768953405,-0.451149586850798,7518.794921875,11.629333333333332,7.678888888888888,-179.41149769623024,-8.61700185133506,66.60362511688656,1658.0,1435.0,1350.0,1528.0,1551.0,997.6,110.0,292.15,1649407155.878464,1649407156.9991105,4c6ac0db-e20d-4565-aba3-6bfb13b63ae1
0.5960454327899826,1.0161588838272912,0.3510498426329645,-0.5585112888870793,-0.0160389881569859,-0.2328281318223503,0.0172879002956128,-0.0020052832520084,-4.29839918330091,13.828599210907017,36.583166134869785,0.8494879887333442,3.608654874160734,-0.320314089348926,7525.396484375,11.634,7.680000000000001,179.71170272409006,-8.634889927043847,62.08540185722958,1767.0,1435.0,1350.0,1528.0,1630.0,997.6,110.0,292.15,1649407159.0104904,1649407159.9696343,c21d7f34-3a29-42c2-81e7-c551a6f09f31
0.5748810910580625,1.015046301909995,0.362997455162506,-0.5422777016352124,-0.0066578989038979,-0.2295409574218552,0.0228760962578944,0.0067436569203773,-4.449644447115817,14.445622520452872,39.07993677930634,0.8252628130043955,3.58219285427784,-0.3541636007648999,7518.794921875,11.586333333333334,7.649999999999999,179.4721998641139,-8.645189852312225,60.78869727349182,1767.0,1435.0,1350.0,1528.0,1630.0,997.6,110.0,292.15,1649407160.077636,1649407161.2087984,c21d7f34-3a29-42c2-81e7-c551a6f09f31
0.5978887786837574,1.016306553792701,0.3687201718979011,-0.5368700457162623,-0.0053733724370776,-0.2238389740640503,0.0225676075762943,0.0021608307358199,-4.598116449936445,15.081217364679286,40.7869061209658,0.8305733359418038,3.572549358002149,-0.3610318977121169,7518.794921875,11.591555555555557,7.661111111111111,179.26773891021946,-8.655841058004167,59.456796724961,1767.0,1435.0,1350.0,1528.0,1630.0,997.6,110.0,292.15,1649407161.3169544,1649407162.5290043,c21d7f34-3a29-42c2-81e7-c551a6f09f31
0.7023157141130564,1.245475171976668,0.4090998149611687,-0.5823908456796562,-0.021020321282005,-0.4376631073472311,-0.0172860913805638,-0.0339060443039664,-4.196633266116352,15.45186475484713,36.35020793295998,0.4567282942826381,4.476722479159608,-0.3168175400358156,7518.062771267361,11.574777777777776,7.667777777777776,178.9164835306831,-8.711249639553557,57.95368913687483,1886.0,1435.0,1350.0,1528.0,1710.0,997.6,110.0,292.15,1649407163.5550082,1649407164.579799,8d973bee-405b-433d-acd6-0ec2024ae828
0.7121640866494319,1.2338780219896988,0.407824391504572,-0.5964336578908231,-0.0189033811594333,-0.4234230663695028,-0.0109615683636026,-0.0381662220111782,-4.310069210816365,15.17999609650076,34.94506979380995,0.5182578658941907,4.448126196301308,-0.3304430766678871,7512.20556640625,11.530375,7.651249999999999,178.69063896204466,-8.690524272432832,57.13344683396546,1886.0,1435.0,1350.0,1528.0,1710.0,997.6,110.0,292.15,1649407164.687397,1649407165.8040688,8d973bee-405b-433d-acd6-0ec2024ae828
0.7218809722344796,1.2480690051694208,0.4116349844894979,-0.5976160294016933,-0.0243201384440691,-0.4180224909781781,-0.0138138241713833,-0.0395802123309448,-4.175013003029746,15.83667608547924,37.52819445907666,0.538083522282268,4.4778992312751535,-0.3190235633167935,7512.20556640625,11.535,7.649999999999999,178.5118297322156,-8.72499719766924,56.56078285649725,1886.0,1435.0,1350.0,1528.0,1710.0,997.6,110.0,292.15,1649407165.9148424,1649407166.9713662,8d973bee-405b-433d-acd6-0ec2024ae828
0.024507040385686,-0.0028017906470505,0.2411950208699161,-0.276901555957833,0.0968627983845113,0.5553350502243585,0.1932654967196213,0.1674991101251746,-6.147648162604768,15.888484396932196,43.79518079696725,1.9937572964121968,-0.3055000136368034,-0.6876926857276623,7512.937717013889,11.54188888888889,7.647777777777778,179.03777706560382,-8.597143360914464,55.25884862458499,1449.0,1435.0,1350.0,1528.0,1386.0,997.6,110.0,292.15,1649407169.0823586,1649407170.2247584,cf8551ee-8138-4db3-8e92-d8604b61b2e5
0.0441446183692282,0.0006092846468437,0.2516178907505337,-0.276170791666073,0.1068376015574646,0.5511320192931208,0.2033753265776237,0.1823505621270208,-6.109216602735286,15.823066935441116,43.84807920558178,1.9827772063668911,-0.2928775815532108,-0.7293330097310136,7518.794921875,11.630222222222224,7.69888888888889,178.91077804599644,-8.60816557868757,54.74049911773851,1449.0,1435.0,1350.0,1528.0,1386.0,997.6,110.0,292.15,1649407170.3332417,1649407171.546508,cf8551ee-8138-4db3-8e92-d8604b61b2e5
0.028050614062461,-0.0067276879911502,0.2377854629745403,-0.284428174126928,0.0953456411614326,0.5600468345085524,0.1958279752329514,0.1803125142284868,-5.982305962211199,15.559351064125815,42.93322681037769,2.018917702137592,-0.3130503324942823,-0.6861331113981433,7520.995442708333,11.629,7.703333333333335,178.80559616841785,-8.607244451787004,54.43206105574412,1449.0,1435.0,1350.0,1528.0,1386.0,997.6,110.0,292.15,1649407171.6552951,1649407172.676223,cf8551ee-8138-4db3-8e92-d8604b61b2e5
-0.1722171875541944,-0.3569300963102176,0.2007455873618557,-0.2131227856373945,0.1262582255201605,0.838273220529866,0.256588097691041,0.2321841183915289,-6.418723142622181,16.735478819614208,43.119235052625854,2.4890443783747083,-1.6361894216003168,-0.8065320778582378,7525.396484375,11.60277777777778,7.688888888888887,178.75147071379504,-8.577893705967384,53.7118403750635,1342.0,1435.0,1350.0,1528.0,1293.0,997.6,110.0,292.15,1649407174.6121414,1649407175.838421,9817e89c-7d07-4cb9-a268-a93a55818d37
-0.1585759197493194,-0.3575890483962948,0.2141264080798076,-0.2033826349867984,0.1375099692135485,0.8358953295976334,0.2663166152100678,0.2429018227737677,-6.397700186959938,17.080078054366663,44.04859921500497,2.46483894037312,-1.6473917231614814,-0.85275849972255,7526.131239149306,11.572,7.652222222222223,178.68091485966883,-8.574294101411049,53.44169728647061,1342.0,1435.0,1350.0,1528.0,1293.0,997.6,110.0,292.15,1649407175.9516895,1649407177.068226,9817e89c-7d07-4cb9-a268-a93a55818d37
-0.1812574227195431,-0.3585246288704096,0.2008133536761729,-0.207137599718557,0.130834477412106,0.8327598715388534,0.2582251102766355,0.2401203679120604,-6.50791487237377,16.395877108254705,42.90811035069321,2.4608275961748003,-1.6404057860178167,-0.8155494562252676,7525.396484375,11.588777777777777,7.6755555555555555,178.64112673102375,-8.565083970770239,53.24407031629573,1342.0,1435.0,1350.0,1528.0,1293.0,997.6,110.0,292.15,1649407177.1768692,1649407178.3005517,9817e89c-7d07-4cb9-a268-a93a55818d37
-0.3960211775757062,-0.7393468896000117,0.1538047434139069,-0.0957049190606459,0.1562109547828153,1.0859814912899477,0.2954950875907334,0.2767713452605529,-7.348825867079722,18.50866045444581,40.39100699715307,2.7893262071642937,-3.0571240288256147,-0.889207559721571,7525.396484375,11.561444444444444,7.658888888888888,178.67775627663266,-8.521799639043792,52.87293073826568,1227.0,1435.0,1350.0,1528.0,1189.0,997.6,110.0,292.15,1649407180.0300395,1649407181.1676738,7993e7d1-97e1-463c-a490-8216dc1f9df6
-0.3928128950847733,-0.7390576181874335,0.1634295887318852,-0.1052245757785623,0.1614178383316951,1.0960270947285184,0.3090908386376311,0.2914452893019503,-6.95778966246974,18.61208874169857,40.6990762805251,2.8347848699705804,-3.0597531621204443,-0.9281596502693256,7529.805013020833,11.483666666666668,7.606666666666667,178.6655180954598,-8.510762907118696,52.72585248031825,1227.0,1435.0,1350.0,1528.0,1189.0,997.6,110.0,292.15,1649407181.2757125,1649407182.6038263,7993e7d1-97e1-463c-a490-8216dc1f9df6
-0.3975535067136615,-0.7417080930134407,0.1700782773794034,-0.0822502621188042,0.1699139187107633,1.0882617785116016,0.3071281430049942,0.2874430288076181,-7.399174365233071,19.03448059488316,42.24781864732343,2.76866658831742,-3.0826964811513644,-0.9444169836290608,7532.00927734375,11.486625,7.6075,178.6363526185214,-8.506348648350261,52.6162730518472,1227.0,1435.0,1350.0,1528.0,1189.0,997.6,110.0,292.15,1649407182.7116592,1649407183.7367127,7993e7d1-97e1-463c-a490-8216dc1f9df6
0.2507237795136403,0.4066278603259723,0.3031870743785905,-0.3683300182158182,0.0732032369093927,0.2458587621415075,0.1382235388647238,0.1134908414576995,-5.797481138847282,15.153356253841352,44.89476717656894,1.5031280485977172,1.2330604051751384,-0.610764643662487,7539.370659722223,11.506777777777778,7.608888888888888,178.0400913335401,-8.597228074232918,52.47661811859458,1553.0,1435.0,1350.0,1528.0,1471.0,997.6,110.0,292.15,1649407185.558667,1649407186.5084095,cb14d383-236f-4d77-a675-5e64634dced3
0.2478831555543773,0.4052376386696418,0.2897946223808723,-0.3854921043649174,0.0602993087759462,0.2473268645740043,0.1309229783318755,0.1137032437445841,-5.555882503693264,14.763009244970876,42.58835538748238,1.5416399794469422,1.2478353125335575,-0.5677817229582132,7545.26953125,11.637888888888888,7.674444444444443,178.03282401226315,-8.573500091920033,52.53113061727037,1553.0,1435.0,1350.0,1528.0,1471.0,997.6,110.0,292.15,1649407186.6385794,1649407187.7152748,cb14d383-236f-4d77-a675-5e64634dced3
0.2445570413006017,0.4049053812531252,0.289380944186715,-0.3821755979597545,0.0571092327787554,0.2579950081303902,0.1273101212547091,0.1058120032968533,-5.695007352745352,15.232773036126945,44.4712334113177,1.5614551288061267,1.230459345240539,-0.5553744799672189,7538.63330078125,11.633,7.682222222222222,178.01291932320197,-8.567641307431977,52.58632271976856,1553.0,1435.0,1350.0,1528.0,1471.0,997.6,110.0,292.15,1649407187.8248222,1649407188.949067,cb14d383-236f-4d77-a675-5e64634dced3
0.2757063009956719,0.3960563093869341,0.2719852200726856,-0.6942731409403664,0.0150202558386445,0.5482787524779646,0.2058735787391937,0.1815616403142275,-5.10657718926447,13.624550920058589,43.90177761268009,2.9064551908822858,1.2354480710048668,-0.589731967343507,7532.745279947917,11.641111111111112,7.691111111111111,178.03218804576045,-8.49072113995537,52.682854162763306,1553.0,1522.0,1350.0,1528.0,1471.0,997.6,110.0,292.15,1649407190.0654151,1649407191.1086133,d8258d74-7611-4c26-906e-14eecd8fee6a
0.2610192080940744,0.3998562822944227,0.2765083713340734,-0.6939970182494737,0.0165849506873679,0.5508033019230362,0.207030663953757,0.1863083193990557,-5.193140615756173,13.928050117589596,44.84421667642697,2.913849137425174,1.242218034985738,-0.5980697863573926,7532.00927734375,11.625444444444444,7.695555555555556,178.0577420601752,-8.488388725217552,52.72990240304112,1553.0,1522.0,1350.0,1528.0,1471.0,997.6,110.0,292.15,1649407191.217684,1649407192.2723095,d8258d74-7611-4c26-906e-14eecd8fee6a
0.2757325983709658,0.4050105708180395,0.2870141790072855,-0.6852531319386241,0.0273274356434144,0.5433085457672118,0.2121455065879521,0.1932639793262056,-5.482312001556507,14.060970604871605,45.70090379482721,2.8786786187961777,1.2555953452675446,-0.6326526168350339,7532.00927734375,11.628,7.690000000000001,178.05069634059134,-8.476745434548663,52.77377764099451,1553.0,1522.0,1350.0,1528.0,1471.0,997.6,110.0,292.15,1649407192.3964398,1649407193.4536915,d8258d74-7611-4c26-906e-14eecd8fee6a
0.2673659822989781,0.3950726858415922,0.2502726780771337,-1.0811595764882045,-0.0461798464865131,0.899438927331128,0.2897314075671762,0.2693256436452331,-4.59852021833014,12.54488325799396,43.28960010930504,4.560199773628026,1.2798279273706052,-0.5997505964071085,7538.63330078125,11.623,7.680000000000001,178.07503458133385,-8.364257056969215,52.85341878508172,1553.0,1613.0,1350.0,1528.0,1471.0,997.6,110.0,292.15,1649407194.569483,1649407195.708471,6c98f5ea-6f00-44e3-a45c-c24b9a10ed63
0.2982274877038758,0.3950473998892041,0.2543057875638125,-1.0788585529417074,-0.0408697959176364,0.8948115980650441,0.2946748113246227,0.2719933116657349,-4.54087708356486,12.38382577813153,42.9658680134248,4.54372156530029,1.2821639760925647,-0.6198520704557157,7538.63330078125,11.616,7.662222222222223,178.1379633908869,-8.385552733027671,52.88323977045295,1553.0,1613.0,1350.0,1528.0,1471.0,997.6,110.0,292.15,1649407195.8178017,1649407197.0514686,6c98f5ea-6f00-44e3-a45c-c24b9a10ed63
0.3025008137103349,0.3958312644109994,0.3035628236507831,-1.028918759453897,0.0035576268637385,0.8994009984008933,0.3233364386775751,0.2955598195362419,-5.375896441280792,14.028507964283405,50.54491766584279,4.4555259071829685,1.2208429492021122,-0.7783512904024062,7538.63330078125,11.608,7.666666666666667,178.1811028656847,-8.381121647803623,52.94593711248413,1553.0,1613.0,1350.0,1528.0,1471.0,997.6,110.0,292.15,1649407197.1597593,1649407198.371109,6c98f5ea-6f00-44e3-a45c-c24b9a10ed63
0.3070775711433937,0.3950726858412923,0.2982022016829032,-1.3850843638804924,-0.047064854979161,1.2360961058823134,0.4108258341080705,0.3930877385119628,-4.746751058001635,13.915440209942089,51.9926825401261,6.015078127343898,1.244223235294544,-0.8273471347918305,7538.63330078125,11.613,7.67,178.17488284008056,-8.265976042045825,53.06444317131357,1553.0,1710.0,1350.0,1528.0,1471.0,997.6,110.0,292.15,1649407200.0070603,1649407201.035812,fdb66fa9-59a4-430e-a1b6-5b9908cf38be
0.2910589200939119,0.3923418029879532,0.2795158825594018,-1.4006099557402076,-0.0615663503560216,1.2333146509966657,0.4003321638927716,0.3805585491696375,-4.539703564864526,13.190627656870785,49.08154569933168,6.037754604738312,1.259031292676629,-0.7713135124555107,7538.63330078125,11.578125,7.663750000000001,178.22200602271175,-8.245484514040434,53.109199266510544,1553.0,1710.0,1350.0,1528.0,1471.0,997.6,110.0,292.15,1649407201.14373,1649407202.256725,fdb66fa9-59a4-430e-a1b6-5b9908cf38be
0.3186630889402326,0.394820332038564,0.2913532485095433,-1.3775061557716393,-0.049908007804336,1.2266593878451977,0.4031960508583789,0.373650932558038,-4.869409614532646,13.662910499270533,51.55626443358016,5.974631588212787,1.24664135541158,-0.8038373479863671,7538.63330078125,11.587444444444444,7.667777777777778,178.27051611319942,-8.244410099196465,53.1445244831473,1553.0,1710.0,1350.0,1528.0,1471.0,997.6,110.0,292.15,1649407202.364997,1649407203.6060612,fdb66fa9-59a4-430e-a1b6-5b9908cf38be
0.2984535441075076,0.3759125083011108,0.2763242895870597,-1.4926625613902915,-0.0826351141767669,1.351913869590072,0.4134914791641027,0.3926770945432569,-4.976260546748708,14.58364625785113,51.62520952294342,6.521172301519514,1.1891118041329158,-0.7570871371081932,7532.00927734375,11.57022222222222,7.66,178.2654374880966,-8.237215158952026,53.200136262824486,1553.0,1814.0,1350.0,1528.0,1471.0,997.6,110.0,292.15,1649407204.7182884,1649407205.740923,c559749d-41db-4c71-a021-35a0fbebb30a
0.3006928680819783,0.3758300760951883,0.2765068541147663,-1.473560012810485,-0.0783688678684428,1.3360894133365269,0.4099155397637616,0.3820124911528155,-5.09638522463103,14.461846423743534,51.85367537212229,6.441699581709364,1.1852855344969129,-0.7576096661885502,7532.745279947917,11.551,7.648888888888889,178.30448947413106,-8.202873252396415,53.24974089112666,1553.0,1814.0,1350.0,1528.0,1471.0,997.6,110.0,292.15,1649407205.8483312,1649407206.9740314,c559749d-41db-4c71-a021-35a0fbebb30a
0.2879740338338216,0.3732038770753773,0.2691845478885221,-1.4883760836960649,-0.0873160503913354,1.3440772469158389,0.4086922053425808,0.3934134214881865,-4.748565819266959,14.29946273763956,50.65183188759934,6.4916131758647735,1.1849830460491504,-0.735533292748071,7532.00927734375,11.539444444444444,7.641111111111112,178.3327254761599,-8.183249360001062,53.283022885132326,1553.0,1814.0,1350.0,1528.0,1471.0,997.6,110.0,292.15,1649407207.085003,1649407208.304097,c559749d-41db-4c71-a021-35a0fbebb30a
0.2451017007309682,0.4207632133581385,0.2934105136096206,0.0035196978583802,0.0994672516441906,-0.1463122309958099,0.0188809154322364,-0.0018914963705895,-5.762321962247546,15.831227821160754,39.28828744291368,-0.2138035142668483,1.289126869021883,-0.4664824621588455,7532.00927734375,11.57488888888889,7.653333333333332,178.32271849011593,-8.692962282369542,53.377029434863886,1553.0,1349.0,1350.0,1528.0,1471.0,997.6,110.0,292.15,1649407210.1347778,1649407211.2755425,096c9944-d011-459a-995b-9d08eb494643
0.2318291039603815,0.4201184215741373,0.291668817165382,0.0005566896650847,0.0964369829080467,-0.1400160279104943,0.0174264673329971,-0.0078584761307345,-5.762048134895881,15.958823692099331,39.69157163649456,-0.1921477374485367,1.2833888314900224,-0.4574975576557109,7532.00927734375,11.642888888888889,7.690000000000001,178.36600519343585,-8.71525184581597,53.52322128603903,1553.0,1349.0,1350.0,1528.0,1471.0,997.6,110.0,292.15,1649407211.3838005,1649407212.5025313,096c9944-d011-459a-995b-9d08eb494643
0.2433736587002325,0.4179751842643688,0.2786779060803312,-0.0090287100370667,0.0834197738248567,-0.1375835189318958,0.0090507477229765,-0.0072536359266864,-5.483845793928383,15.735398864241752,38.40378232501367,-0.1672524635975976,1.2851478091384028,-0.4120078060215706,7532.00927734375,11.639444444444443,7.698888888888888,178.3742849005297,-8.726793727148431,53.66260457697652,1553.0,1349.0,1350.0,1528.0,1471.0,997.6,110.0,292.15,1649407212.610904,1649407213.9350853,096c9944-d011-459a-995b-9d08eb494643
0.211014718790547,0.4272450143528929,0.3099849498908911,0.313969004590133,0.1413266310323807,-0.4467094123852723,-0.0577840770976383,-0.0820828688347052,-6.012574281003311,17.17975937715421,37.881198427564456,-1.579719059895706,1.2905304290787205,-0.4361413148557206,7532.00927734375,11.63811111111111,7.707777777777778,178.42267603188935,-8.882086995120087,53.91830333329465,1553.0,1264.0,1350.0,1528.0,1471.0,997.6,110.0,292.15,1649407216.0747292,1649407217.119563,95396c9e-e8ea-4082-82a5-0000f55cc8bf
0.2353266570058738,0.4261142265662889,0.3240935000604461,0.3329688694052597,0.1547514495501978,-0.4466173714740942,-0.0499868999049052,-0.0743514350299162,-6.248575534747192,17.66661874673987,40.302228149481934,-1.618174181401784,1.2650654945143875,-0.4816798702159584,7532.00927734375,11.621,7.690000000000001,178.46028457127926,-8.868547283455396,54.03877990169965,1553.0,1264.0,1350.0,1528.0,1471.0,997.6,110.0,292.15,1649407217.22769,1649407218.2730486,95396c9e-e8ea-4082-82a5-0000f55cc8bf
0.220810497032616,0.4267848100215098,0.3159150115205151,0.3230021583446086,0.1468359346203278,-0.4485370815513418,-0.0562062334786503,-0.077954178157714,-6.2023387176514415,17.465013894707663,38.76571482218567,-1.6019709196973886,1.281576640021188,-0.4529537548191636,7532.00927734375,11.624555555555556,7.677777777777777,178.45902933429178,-8.861829982134168,54.12728625187458,1553.0,1264.0,1350.0,1528.0,1471.0,997.6,110.0,292.15,1649407218.3810904,1649407219.5768363,95396c9e-e8ea-4082-82a5-0000f55cc8bf
0.1919622587273186,0.434069187129848,0.3124700533242404,0.6591485485396592,0.1737250175998647,-0.7942164233428428,-0.1632103299202284,-0.1875617174793274,-6.534146444382433,18.650533544320773,34.20748275326455,-3.13022867154726,1.310060330547995,-0.3358495785127905,7532.00927734375,11.62122222222222,7.67,178.50499347176634,-9.00337265635051,54.32438805639327,1553.0,1178.0,1350.0,1528.0,1471.0,997.6,110.0,292.15,1649407221.6040869,1649407222.8495436,387638be-477b-4888-a652-55c4e50523e4
0.2148470578458113,0.4308523082916972,0.300086005177016,0.6472747712670635,0.1640981494436621,-0.7977797216358103,-0.1668444275467999,-0.1962519952700454,-6.09212344649193,17.992854799205755,31.64394847225819,-3.1166141600058928,1.318252768308214,-0.3042123858161264,7532.00927734375,11.601125,7.67,178.47150258780857,-9.00824685009696,54.40324135713247,1553.0,1178.0,1350.0,1528.0,1471.0,997.6,110.0,292.15,1649407222.9588506,1649407224.0794792,387638be-477b-4888-a652-55c4e50523e4
0.2190880179169782,0.4404594529664472,0.3245405556525494,0.6523375245479396,0.1817983167858867,-0.7926254303062775,-0.1487993577094952,-0.1732164885815964,-6.160550999863414,18.617329960742,34.53232465861454,-3.1106687363735905,1.3301076555661029,-0.3823707254167124,7532.00927734375,11.61111111111111,7.674444444444445,178.4911767579853,-9.004978319987893,54.424209753293184,1553.0,1178.0,1350.0,1528.0,1471.0,997.6,110.0,292.15,1649407224.189348,1649407225.3115456,387638be-477b-4888-a652-55c4e50523e4
0.206780838783553,0.4482490433919795,0.3418836848598627,0.9177585997972666,0.2101059415626411,-1.0277682476028356,-0.2258871366066064,-0.256559003102872,-7.066520568594616,21.35518422713604,36.67538171745693,-4.218892248404009,1.3152086036458226,-0.3302756175131802,7532.00927734375,11.615,7.68,178.51352361912978,-9.100737856742688,54.49944201027116,1553.0,1088.0,1350.0,1528.0,1471.0,997.6,110.0,292.15,1649407226.016193,1649407227.0462506,c6c4db18-2178-4254-9a45-5241cdcd5274
0.1761180803450544,0.444469804985183,0.3218450731166649,0.900992496298962,0.1934086151321973,-1.0304460318769482,-0.2367509953235603,-0.2527003658827578,-6.704528322140469,20.639216177777644,33.463184218425326,-4.193163218401464,1.327723477842261,-0.2693384215778122,7532.00927734375,11.577777777777776,7.67111111111111,178.54235005306683,-9.10457120555062,54.53844618498147,1553.0,1088.0,1350.0,1528.0,1471.0,997.6,110.0,292.15,1649407227.158137,1649407228.271104,c6c4db18-2178-4254-9a45-5241cdcd5274
0.1829993996978152,0.4425091322503401,0.2987205637059829,0.8721806708756634,0.1787007875405006,-1.027275171097517,-0.2463308330674048,-0.2723121544185823,-6.741336954464071,19.38985647061457,29.76079064016356,-4.131087765735807,1.3555046998176496,-0.2093696759911142,7532.00927734375,11.57725,7.652500000000001,178.56222286791194,-9.11652669278282,54.563712809700505,1553.0,1088.0,1350.0,1528.0,1471.0,997.6,110.0,292.15,1649407228.3795617,1649407229.813926,c6c4db18-2178-4254-9a45-5241cdcd5274
0.25854725334966,0.4079953246239574,0.2962708606033375,-0.3466346656452208,0.0689167619553023,0.2173655387548993,0.1258506160054656,0.1105455337687028,-5.632904301604364,15.036052833275132,43.80165641965837,1.388947166956218,1.243601003636632,-0.578905153413071,7532.00927734375,11.590555555555556,7.639999999999999,178.56414290997864,-8.728720125085589,54.56841629614957,1553.0,1435.0,1350.0,1528.0,1471.0,997.6,110.0,292.15,1649407230.5233371,1649407231.5693886,81094192-35b3-4951-bf7d-ea57da885a19
0.2515127012309519,0.4070223211826569,0.2759166800187212,-0.3659895498574151,0.0532961108246241,0.2151171118049758,0.1149634957164456,0.0865491635522994,-5.435539125346335,14.168528606748351,40.7038216220066,1.42039563880145,1.2670887199666137,-0.5185459252135134,7534.21728515625,11.639666666666669,7.696666666666668,178.5884781150815,-8.72158295685788,54.559853895115054,1553.0,1435.0,1350.0,1528.0,1471.0,997.6,110.0,292.15,1649407231.6792653,1649407232.6845386,81094192-35b3-4951-bf7d-ea57da885a19
