raw_voltage_G-,raw_voltage_G0,raw_voltage_G1,raw_voltage_G2,raw_voltage_G3,raw_voltage_G4,raw_voltage_G5,raw_voltage_G6,load_x,load_y,load_z,load_l,load_m,load_n,rpm,voltage,current,roll,pitch,yaw,aileron1_pwm,elevator_pwm,throttle_pwm,rudder_pwm,aileron2_pwm,pbaro,pdiff,Tt,sample_start_time,sample_end_time,uid
-0.1845375170581248,0.020529559750163,-0.3818337316411365,-0.0031643912868306,-0.5114930547562924,0.034730151772427,-0.7709432204682805,-0.7886150769143053,-21.36540225442102,27.80078855244626,2.7220295521837654,0.2401425032516892,0.1807469815443041,2.2947565345066154,462.3312717013889,11.954444444444444,0.1655555555555555,179.25661177315158,6.135154859328431,77.91398732160005,1553.0,1435.0,1200.0,1528.0,1471.0,999.7000000000002,110.0,293.9,1649422302.3262932,1649422303.4295557,8bc718ac-38ba-4d87-a6d0-71b91aa639e8
-0.1880482192285191,0.0129559106189875,-0.3776524454880755,-0.0008765181291323,-0.5107435789016083,0.0376491623442376,-0.7696677963981271,-0.7875894774427098,-21.317351847607696,28.33250884023809,2.3960999257099624,0.2452462988965074,0.1548822123699591,2.28467956378147,4337.076334635417,11.954,0.12,179.282835146105,6.12977020380526,77.88412345781904,1553.0,1435.0,1200.0,1528.0,1471.0,999.7000000000002,110.0,293.9,1649422303.5386398,1649422304.65942,8bc718ac-38ba-4d87-a6d0-71b91aa639e8
-0.1821313054156283,0.0179655639566904,-0.372379817284364,-0.0085159107541236,-0.5032093739383271,0.0408837416538403,-0.7574395034986894,-0.7828296473371537,-21.134478175136383,27.74787844863341,2.626983243180597,0.2662632428606209,0.1715957246239081,2.2510527053886857,4381.622721354167,11.954888888888888,0.1188888888888888,179.29242017824023,6.130354137547427,77.84382078825651,1553.0,1435.0,1200.0,1528.0,1471.0,999.7000000000002,110.0,293.9,1649422304.7678063,1649422305.8865156,8bc718ac-38ba-4d87-a6d0-71b91aa639e8
-0.1764247707044156,0.009629290424401,-0.3572456651992328,-0.0073588254855469,-0.4884039382024693,0.0467349114842132,-0.7409510314688471,-0.7625149026014546,-21.12848762961052,27.92827273178325,2.5686649971917843,0.2787446563069145,0.1416241259478957,2.185630935452256,4335.572265625,11.949,0.12,179.2874386936056,6.100547808623792,77.87716121832507,1553.0,1435.0,1200.0,1528.0,1471.0,999.7000000000002,110.0,293.9,1649422352.3239486,1649422353.399861,83c486fd-7bff-4cee-9e3c-e878d791b324
-0.1854201233504505,0.00361978827614,-0.3586679160399826,0.0111255024663031,-0.488237387938689,0.0384638336735695,-0.7469791632000292,-0.7611825010983484,-21.20679390743276,28.18538130162516,2.943901955560147,0.2201163076525459,0.1139517368997238,2.1957294245665486,4329.00341796875,11.949222222222224,0.12,179.2967171261381,6.099093594944879,77.87041982161425,1553.0,1435.0,1200.0,1528.0,1471.0,999.7000000000002,110.0,293.9,1649422353.5104592,1649422354.6307762,83c486fd-7bff-4cee-9e3c-e878d791b324
-0.1749389679349638,0.0103656174170815,-0.3519598884594004,-0.0004031650478886,-0.4851299120685287,0.0410020799086982,-0.7389918749532322,-0.7716401026608339,-21.04137454790889,28.168531860063204,2.791192596991995,0.2521071783703462,0.1412797523921144,2.1716033290754377,4325.119900173611,11.952666666666667,0.1122222222222222,179.28607720923102,6.100394366526812,77.89357795745015,1553.0,1435.0,1200.0,1528.0,1471.0,999.7000000000002,110.0,293.9,1649422354.740503,1649422355.8588898,83c486fd-7bff-4cee-9e3c-e878d791b324
0.0232195638565212,0.3698383589578181,-0.3458616316032419,-0.2446303524163982,-0.5674583047883198,-0.0741218807144797,-0.7927530824346473,-0.8145032284033173,-20.945482675574663,27.042603304098083,4.3544360077620325,0.5374621615656622,1.5054245009074505,2.3960582957298984,4329.00341796875,11.95011111111111,0.1188888888888888,179.0848674253815,6.118899815445578,77.88430483728699,1658.0,1435.0,1200.0,1528.0,1551.0,999.7000000000002,110.0,293.9,1649422357.4202127,1649422358.3639,9f28cf4b-3b40-40f6-8685-328f590e67d3
0.0284653458388046,0.3736596985155524,-0.3499295101532529,-0.2523552123627424,-0.5722794948157249,-0.0706566512248027,-0.7945610289487349,-0.8195572610487482,-20.850410217822898,26.89633902145896,4.346733629478795,0.5615488588068596,1.5198429473508266,2.411254330385392,4335.572265625,11.925444444444445,0.1055555555555555,179.1304779108391,6.127343067624575,77.8942966451328,1658.0,1435.0,1200.0,1528.0,1551.0,999.7000000000002,110.0,293.9,1649422358.4723632,1649422359.546419,9f28cf4b-3b40-40f6-8685-328f590e67d3
0.0315607680775142,0.3795218251457373,-0.3496692754916332,-0.256929863544877,-0.5739641720300573,-0.0704101131681243,-0.7958895957699014,-0.8115858595810231,-20.90341612356703,26.96064088019574,4.594718988994544,0.5728742262262381,1.5405875866262952,2.4160412986990205,4344.117730034723,11.931333333333336,0.1088888888888888,179.09501405084856,6.12596232591111,77.90587685141561,1658.0,1435.0,1200.0,1528.0,1551.0,999.7000000000002,110.0,293.9,1649422359.6546218,1649422360.779252,9f28cf4b-3b40-40f6-8685-328f590e67d3
0.2223569859214177,0.7580019545126011,-0.3221254917202817,-0.5082301545215971,-0.6448122787040315,-0.2025861273071782,-0.8372258296574415,-0.8680114946088392,-20.6443396302517,26.282967458858334,5.580001091518046,0.8398955512814764,2.982227056357507,2.579289433414986,4345.463623046875,11.9125,0.105,178.82679707560158,6.138533905692817,77.92159501397059,1767.0,1435.0,1200.0,1528.0,1630.0,999.7000000000002,110.0,293.9,1649422362.914739,1649422364.0669537,f41db28a-3952-4e5a-8c92-aafcb742244b
0.2483438655978703,0.7630626849287253,-0.3142757187588199,-0.5032093741101461,-0.638956555261077,-0.2124916480844373,-0.8330839880864975,-0.8619848368890392,-20.577873834718435,26.40466649435672,5.578356509765231,0.807541691907335,3.00063355179209,2.555367107511332,4344.607042100694,11.893111111111113,0.1,178.8203949116196,6.1510779275585,77.93740348680458,1767.0,1435.0,1200.0,1528.0,1630.0,999.7000000000002,110.0,293.9,1649422364.178464,1649422365.2803066,f41db28a-3952-4e5a-8c92-aafcb742244b
0.2348927500383482,0.7593810503296416,-0.3108307597541044,-0.5081795829254584,-0.6319877437989883,-0.2037477643814639,-0.8247871565993771,-0.8463247324310808,-20.73083275208452,26.10186640033068,5.707520319294757,0.8365097708559659,2.987588209487805,2.5290769795022388,4347.391845703125,11.892125,0.09375,178.81646812202922,6.145538905016901,77.966004903954,1767.0,1435.0,1200.0,1528.0,1630.0,999.7000000000002,110.0,293.9,1649422365.3902266,1649422366.5077355,f41db28a-3952-4e5a-8c92-aafcb742244b
0.4405514937986197,1.1056387912193104,-0.2745797990749532,-0.7044896819085801,-0.6907492887808564,-0.3580477358025918,-0.8690062443751166,-0.8943306468296225,-20.47569280045691,26.45225080762167,6.268259158159037,0.936950232023268,4.305963663621942,2.663658288386492,4347.299967447917,11.865333333333334,0.0933333333333333,178.51038628557103,6.168873463690407,78.03293961945526,1886.0,1435.0,1200.0,1528.0,1710.0,999.7000000000002,110.0,293.9,1649422368.4430168,1649422369.7852974,9ac44603-7eb2-4bf7-bd80-9c5a09db1ceb
0.4584468678743768,1.0915828356039627,-0.2640082460464244,-0.6883430768576154,-0.6765486915782394,-0.3550761299673846,-0.8584872821228423,-0.8848372832432705,-20.62528039179136,26.629693938031565,6.925978032824057,0.9089372723767846,4.247159879248304,2.614120631420006,4346.56494140625,11.840666666666667,0.0877777777777777,178.5253686849704,6.185016426066255,78.0994375823046,1886.0,1435.0,1200.0,1528.0,1710.0,999.7000000000002,110.0,293.9,1649422369.894235,1649422371.0180123,9ac44603-7eb2-4bf7-bd80-9c5a09db1ceb
0.4417611737623294,1.097539194685912,-0.2722261821067822,-0.6920641591631593,-0.6856738900343083,-0.3585736838989046,-0.8679806455297312,-0.8979202427243164,-20.62548778169216,26.57579965781567,6.703919788582708,0.9086696798938482,4.2714056692532925,2.6516648336405884,4338.742241753473,11.84488888888889,0.09,178.5252214564483,6.156049119477539,78.14290794182222,1886.0,1435.0,1200.0,1528.0,1710.0,999.7000000000002,110.0,293.9,1649422371.1274765,1649422372.1151984,9ac44603-7eb2-4bf7-bd80-9c5a09db1ceb
-0.428695694542976,-0.4359406276944421,-0.3869091293482677,0.3073157648067798,-0.4108134638787878,0.1882674752105161,-0.7043318972939734,-0.7291829433328815,-21.38037771781768,29.90944095984904,1.822362363243149,-0.1016309541910183,-1.5617267771839862,2.015049861893761,4337.282931857639,11.891222222222222,0.1033333333333333,179.52136356575963,6.10378707326954,78.22635236291224,1449.0,1435.0,1200.0,1528.0,1386.0,999.7000000000002,110.0,293.9,1649422373.9740422,1649422375.1071465,793e9e08-74d6-49be-a279-706639781184
-0.4289586684945161,-0.431177511435487,-0.3851159755361546,0.3073546629863719,-0.4065510939437148,0.1821818204824545,-0.6997944995562722,-0.7280505117951542,-21.282543456739106,29.467148941260323,1.6550595446484138,-0.1182141196000059,-1.5429704552431154,2.0009304617906563,4342.1611328125,11.950222222222225,0.1177777777777777,179.4988467087958,6.093230873611677,78.15148590050983,1449.0,1435.0,1200.0,1528.0,1386.0,999.7000000000002,110.0,293.9,1649422375.2161038,1649422376.3398693,793e9e08-74d6-49be-a279-706639781184
-0.4282880848634379,-0.4367164009411992,-0.3814524193864653,0.309353812561704,-0.4050543337557833,0.1857823716821619,-0.697718100593497,-0.721609291735019,-21.253898767412338,29.827263514750484,1.6746935651881132,-0.1120455795108464,-1.5641291952747889,1.990188889102136,4347.391845703125,11.949624999999996,0.12,179.4905565666907,6.0876437136517865,78.06775593956698,1449.0,1435.0,1200.0,1528.0,1386.0,999.7000000000002,110.0,293.9,1649422376.4483955,1649422377.5688694,793e9e08-74d6-49be-a279-706639781184
-0.6688676584435775,-0.8404582186808532,-0.4142348649003458,0.6216632627797285,-0.3358905351746316,0.2947949196103072,-0.6750037190061313,-0.696178607404352,-21.5029136802185,31.49946201319258,1.7596978692474956,-0.5622323707984423,-3.1178992602598865,1.861475941845952,4354.170789930556,11.929333333333334,0.1088888888888888,179.62260670091686,6.056447269291528,77.98864584268773,1342.0,1435.0,1200.0,1528.0,1293.0,999.7000000000002,110.0,293.9,1649422378.4777584,1649422379.6154108,70f2ad94-d84a-4699-8fcc-73932fa8eedd
-0.6680940765652471,-0.8366735837332796,-0.4048176571426045,0.6211619687828394,-0.3293704243592031,0.2880397773287157,-0.669093377841718,-0.6969291788792568,-21.49177164999881,31.69651335508552,1.3177892166202172,-0.5745709239798544,-3.099204750841224,1.8311007489298887,4353.1875,11.907000000000002,0.1,179.61623033987166,6.047903698709096,77.93064159952627,1342.0,1435.0,1200.0,1528.0,1293.0,999.7000000000002,110.0,293.9,1649422379.724368,1649422380.8500907,70f2ad94-d84a-4699-8fcc-73932fa8eedd
-0.6675938780514582,-0.8398555697899696,-0.4116462147905388,0.6253613332370184,-0.3347400240502271,0.2875768336642753,-0.6749489327357785,-0.707149555343321,-21.41888439431975,31.63539977239537,1.3099919808173357,-0.5857936568070575,-3.112536866795052,1.8557763324977667,4353.434407552083,11.913222222222222,0.1044444444444444,179.6180593127494,6.051626768421053,77.91103288532908,1342.0,1435.0,1200.0,1528.0,1293.0,999.7000000000002,110.0,293.9,1649422380.959797,1649422382.0745552,70f2ad94-d84a-4699-8fcc-73932fa8eedd
-0.8826677469047661,-1.2102282889064837,-0.4540595352805969,0.9175204061025511,-0.2903713853871967,0.3900210582553802,-0.6794545544384453,-0.7016232651929029,-22.046478056571924,34.28481706345459,2.31927965073086,-0.9993307158315632,-4.544777966908276,1.817217503219303,4350.9775390625,11.857777777777777,0.0988888888888888,179.76603915566727,6.024980350625932,77.84156986147003,1227.0,1435.0,1200.0,1528.0,1189.0,999.7000000000002,110.0,293.9,1649422382.9847596,1649422384.1218348,551dfce2-d077-4301-89a9-2075c8c66bee
-0.8843113347721606,-1.2081376444830916,-0.4529155984385318,0.9145882470613402,-0.2889250285962818,0.3900473556546288,-0.6746684271260552,-0.6969160296758135,-21.808310017215742,34.02197559075032,2.255151842393275,-0.9942331717302204,-4.5376250374913685,1.8072850194285053,4338.98681640625,11.811666666666667,0.09,179.74567001374248,6.017259580679141,77.8235472689801,1227.0,1435.0,1200.0,1528.0,1189.0,999.7000000000002,110.0,293.9,1649422384.2304718,1649422385.554198,551dfce2-d077-4301-89a9-2075c8c66bee
-0.8653311817318505,-1.2051367048986974,-0.459516751227541,0.9135990606047532,-0.2979015436965652,0.3916211533341611,-0.6841698809708718,-0.7046894408481885,-21.854741225507247,34.26329334688697,2.702468013616091,-0.9871463121931738,-4.530298208026364,1.8428913301571408,4338.010145399306,11.805,0.09,179.76254361663206,6.012859705625052,77.80334964069445,1227.0,1435.0,1200.0,1528.0,1189.0,999.7000000000002,110.0,293.9,1649422385.662307,1649422386.7853668,551dfce2-d077-4301-89a9-2075c8c66bee
-0.1724407153993312,0.017518508278607,-0.3612165721104338,-0.0038481236128438,-0.4917700052515099,0.0400159276045212,-0.7464208912514699,-0.7737964890988639,-21.13421712853744,27.76303494416692,3.1372928999981684,0.2545215716784632,0.1655275275421996,2.2052675262711654,4342.1611328125,11.842555555555556,0.0944444444444444,179.34637108358427,6.10675787353541,77.75690435433837,1553.0,1435.0,1200.0,1528.0,1471.0,999.7000000000002,110.0,293.9,1649422387.9006646,1649422389.0355184,000cccd0-8eb9-4b7f-acbe-ebe414973975
-0.1767691654675148,0.0103595487909698,-0.3779948174348642,-0.0031052221253469,-0.5053728408509662,0.0463793909840027,-0.7609507127670171,-0.7866412542823316,-21.2310214781747,27.675368113743257,3.023089000464379,0.2656617875936404,0.1392178153899927,2.2663005322595446,4337.76611328125,11.95088888888889,0.1177777777777777,179.3297221180274,6.098304708095743,77.73537483916459,1553.0,1435.0,1200.0,1528.0,1471.0,999.7000000000002,110.0,293.9,1649422389.1533062,1649422390.2669594,000cccd0-8eb9-4b7f-acbe-ebe414973975
-0.1919786683239155,0.0191843469665008,-0.3791453284580438,-0.00275121879727,-0.5092668787089635,0.0338375575703375,-0.7674112766969061,-0.7827219293639911,-21.234309764354084,27.79860616895396,2.485269980427661,0.2373523540118488,0.1769916924533554,2.282630572582663,4367.619873046875,11.955000000000002,0.1149999999999999,179.3351065838231,6.0951011596475295,77.75610977566492,1553.0,1435.0,1200.0,1528.0,1471.0,999.7000000000002,110.0,293.9,1649422390.3755958,1649422391.6999238,000cccd0-8eb9-4b7f-acbe-ebe414973975
-0.1787783875578774,0.0014770986212384,-0.4216479919316515,-0.2710427992885613,-0.5728185915578723,0.3147184803067693,-0.732338631743485,-0.7578208161410471,-21.55934779956124,27.21726011056776,4.806349450489498,1.4679655804929213,0.1226357503545734,2.375980120160172,4428.916666666667,11.962444444444444,0.12,179.35178514686635,6.182647536220991,77.7240708760882,1553.0,1522.0,1200.0,1528.0,1471.0,999.7000000000002,110.0,293.9,1649422392.3221586,1649422393.5427148,b3749ea7-38bb-424c-8116-e2b3787efaf8
-0.1803167852039763,0.0042383248737287,-0.4152445754592445,-0.2757237357849789,-0.568979171045199,0.3134167594585967,-0.7260929983700266,-0.7512333163048539,-21.42753633580238,27.28055070371175,4.440609056615513,1.4763459436166182,0.1362839856583003,2.3529731024417337,4436.300726996527,11.96388888888889,0.1188888888888888,179.3479435449132,6.174223588812773,77.6942775909286,1553.0,1522.0,1200.0,1528.0,1471.0,999.7000000000002,110.0,293.9,1649422393.6521912,1649422394.779459,b3749ea7-38bb-424c-8116-e2b3787efaf8
-0.1665632476991462,0.0136001967356466,-0.4005969248252535,-0.2797209400347254,-0.5572899765763608,0.3045545387369201,-0.7125235383135033,-0.7377558975016774,-21.25408484798877,27.20788512410313,4.070346717754804,1.4657239992256264,0.1748701678696295,2.2984922562987045,4445.248480902777,11.963,0.1177777777777777,179.33690292357485,6.167479630781032,77.67973156472623,1553.0,1522.0,1200.0,1528.0,1471.0,999.7000000000002,110.0,293.9,1649422394.8948014,1649422396.0019617,b3749ea7-38bb-424c-8116-e2b3787efaf8
-0.1652450907813255,-0.006296520316355,-0.4404363871812042,-0.578360768766629,-0.6256276076900936,0.6198005309899667,-0.6672514640823394,-0.6880702412534879,-21.32238680662041,26.94195370268673,7.042953522998463,2.8444749610765623,0.1086215026706775,2.3806463365575783,4404.638671875,11.952777777777778,0.11,179.36067046406663,6.301686349805697,77.60980788255317,1553.0,1613.0,1200.0,1528.0,1471.0,999.7000000000002,110.0,293.9,1649422397.9357097,1649422399.0729525,fd7571d6-8b35-4232-9e6d-2a1d7b248192
-0.175257275992014,-0.0167606913105838,-0.440176152482654,-0.5678555050930624,-0.6212310108641591,0.6193622411591729,-0.6634027296012213,-0.6927955560256659,-21.185034094722862,26.76123612030437,6.9156207580540086,2.8186565658023817,0.068250907461252,2.3676400839873697,4400.869466145833,11.934333333333331,0.1033333333333333,179.35097766672448,6.296883730749924,77.55799558532925,1553.0,1613.0,1200.0,1528.0,1471.0,999.7000000000002,110.0,293.9,1649422399.181906,1649422400.307912,fd7571d6-8b35-4232-9e6d-2a1d7b248192
-0.1745998411143438,-0.0152814629518353,-0.4405596562572649,-0.5684718503777718,-0.6224637016068054,0.6181980337913419,-0.6638684128406355,-0.6952746340688211,-21.10185138738497,26.76808187629841,6.871709027182509,2.817491918044631,0.0736510442809201,2.370671855938111,4384.864366319444,11.943,0.1155555555555555,179.34242626988365,6.29383115794149,77.503281216618,1553.0,1613.0,1200.0,1528.0,1471.0,999.7000000000002,110.0,293.9,1649422400.419923,1649422401.528382,fd7571d6-8b35-4232-9e6d-2a1d7b248192
-0.1698060451890227,-0.0232528602526758,-0.4777458214671755,-0.8734806390481117,-0.6930420935340974,0.9243571797806646,-0.6222445566075527,-0.6374340456131784,-21.261366840927632,26.749856959136945,9.373857915037709,4.191843620828301,0.0579013831489789,2.458013613183504,4374.4169921875,11.926,0.1055555555555555,179.3522602244687,6.419090661176522,77.45129816466486,1553.0,1710.0,1200.0,1528.0,1471.0,999.7000000000002,110.0,293.9,1649422402.441106,1649422403.5747497,b85f171c-450d-43a5-99c8-f1788442b4e3
-0.1666289911601289,-0.0219275812007179,-0.4766227034195077,-0.8710837394095114,-0.6908676270570144,0.9226746945904134,-0.6196542625445907,-0.6410734961504093,-21.16556354291712,26.580274468478915,9.64870362365326,4.181679811512249,0.05953117662229,2.450538569011842,4367.238932291667,11.925666666666665,0.11,179.3481818426242,6.4051654232786825,77.40135885709336,1553.0,1710.0,1200.0,1528.0,1471.0,999.7000000000002,110.0,293.9,1649422403.6838274,1649422404.813308,b85f171c-450d-43a5-99c8-f1788442b4e3
-0.1696690795722648,-0.0233761292714625,-0.4776910352271725,-0.8718781402680026,-0.6915080783668454,0.9224670547822038,-0.6210392589906822,-0.6428852779167328,-21.23890789840729,26.59443367748136,9.304410287501913,4.182954056132532,0.0576991384569722,2.4541141426204423,4362.296929253473,11.922111111111112,0.1044444444444444,179.33506029031872,6.40084224555715,77.30746348766328,1553.0,1710.0,1200.0,1528.0,1471.0,999.7000000000002,110.0,293.9,1649422404.9222653,1649422406.0431485,b85f171c-450d-43a5-99c8-f1788442b4e3
-0.152612479842502,-0.0270029780861208,-0.4478402006159095,-1.0439103060882138,-0.6904600174260485,1.0902285199997217,-0.5518069687113482,-0.5676905984679964,-21.01788290070203,27.34461280290782,10.498566094064133,4.954759900350578,0.0550340649791812,2.313008331402044,4360.569986979167,11.912333333333333,0.1033333333333333,179.35387366693257,6.508075172025226,77.16822173342361,1553.0,1814.0,1200.0,1528.0,1471.0,999.7000000000002,110.0,293.9,1649422407.971526,1649422409.1087945,a2cca30c-0d5c-40dd-9f69-f7145a9db4a8
-0.1534802938980675,-0.0190480166523934,-0.4507986578540351,-1.042240420897072,-0.6946018582351879,1.0792099131674089,-0.557447760988865,-0.5876240280782679,-20.92447401174312,27.28128527427628,10.22614576538373,4.925669244725343,0.0862291132623794,2.331397939375662,4359.83056640625,11.872,0.09,179.35121900007516,6.480981234543863,77.11105988025977,1553.0,1814.0,1200.0,1528.0,1471.0,999.7000000000002,110.0,293.9,1649422409.2174575,1649422410.3384953,a2cca30c-0d5c-40dd-9f69-f7145a9db4a8
-0.1664449093986737,-0.0350368317178428,-0.4689701604370542,-1.0618319924710369,-0.7096965675758529,1.1149480680923711,-0.5652580889918295,-0.584165919948546,-21.12476415035121,27.18367520285087,10.416991652333913,5.048549148702465,0.0272459877596602,2.3859102159445573,4354.908257378473,11.883111111111113,0.09,179.35067258494155,6.499166660640891,77.07384142056245,1553.0,1814.0,1200.0,1528.0,1471.0,999.7000000000002,110.0,293.9,1649422410.4471524,1649422411.565095,a2cca30c-0d5c-40dd-9f69-f7145a9db4a8
-0.1821050080161029,0.038043623285636,-0.3337620896748876,0.3350858093849219,-0.4327454938930758,-0.3087269681449546,-0.8173581396676297,-0.8491122569282892,-21.19900942281692,28.34249913574644,0.6152244925628904,-1.288928452552429,0.2253410740222568,2.190065109908587,4355.39990234375,11.875999999999998,0.09,179.36384118966134,6.055056187430569,76.96171779405742,1553.0,1349.0,1200.0,1528.0,1471.0,999.7000000000002,110.0,293.9,1649422413.3247166,1649422414.4290638,5b144adc-cb2b-44f0-9d57-f04164051351
-0.1834330264321623,0.0282083984284409,-0.3267932795045006,0.3372947902392793,-0.4289060737089779,-0.3058079570198307,-0.8137553950883207,-0.8388036741136508,-21.23542296177742,28.92500424324162,-0.0163302585516595,-1.2832624705764115,0.1944878724291497,2.1678809020857126,4355.39990234375,11.960666666666668,0.12,179.3676114540832,6.030714389297896,77.11096198088165,1553.0,1349.0,1200.0,1528.0,1471.0,999.7000000000002,110.0,293.9,1649422414.5368989,1649422415.661544,5b144adc-cb2b-44f0-9d57-f04164051351
-0.1877589479183204,0.0347433005111699,-0.3277531345406961,0.3413577370507564,-0.4312728395998185,-0.3131580794045183,-0.819159511998899,-0.8454569178548212,-21.30753807813923,29.04907684187239,0.3550628319817335,-1.3081465903906009,0.2156575126843183,2.1813560336721824,4362.051432291667,11.96,0.12,179.38789711591812,6.0348183369198205,77.24719693406672,1553.0,1349.0,1200.0,1528.0,1471.0,999.7000000000002,110.0,293.9,1649422415.76973,1649422417.102298,5b144adc-cb2b-44f0-9d57-f04164051351
-0.1845243683223533,0.0445522279489521,-0.3004695856579226,0.6272366658591187,-0.3806240513871661,-0.5981429884147,-0.8770926968302928,-0.8955797741986439,-21.41616054037237,30.08562596964657,-1.4973761674176864,-2.5855385746842585,0.2361832731855314,2.158243995118488,4385.358506944444,11.948,0.1155555555555555,179.40693057640522,5.944146674482386,77.4058402200988,1553.0,1264.0,1200.0,1528.0,1471.0,999.7000000000002,110.0,293.9,1649422418.0067728,1649422419.1450827,398e92c4-e4c4-451a-9530-48e710d805de
-0.1952931515598208,0.043487183543554,-0.2999173403348612,0.6149952308388462,-0.3799666164412621,-0.5888600059530047,-0.8732006807814342,-0.8981963658521402,-21.50546229743608,29.975258003909904,-1.909374423449102,-2.53787956695542,0.2380126154622001,2.1502199266727247,4381.622721354167,11.932777777777778,0.11,179.41548804452538,5.956317692128394,77.56538660892113,1553.0,1264.0,1200.0,1528.0,1471.0,999.7000000000002,110.0,293.9,1649422419.2532685,1649422420.3742876,398e92c4-e4c4-451a-9530-48e710d805de
-0.1966923921222445,0.0353958045656435,-0.3095109592104743,0.6198827103348887,-0.3863760591921137,-0.5837983041212634,-0.8803289213463436,-0.8948883712655281,-21.523395400736234,29.898606641974578,-1.7405315679251163,-2.5384981452436493,0.2050842633314193,2.1814969259360923,4367.251139322917,11.920666666666667,0.1033333333333333,179.4055645385712,5.952289018882949,77.69180354462927,1553.0,1264.0,1200.0,1528.0,1471.0,999.7000000000002,110.0,293.9,1649422420.4826314,1649422421.5102625,398e92c4-e4c4-451a-9530-48e710d805de
-0.196055776027694,0.0567542180703162,-0.2917125528076181,0.8239937377122376,-0.3555363344796607,-0.8053007795573791,-0.9308840429701626,-0.9517904820565952,-21.63520499100451,30.759027677772146,-3.669451466549368,-3.490441939592514,0.2790911089517776,2.188432779585632,4359.83251953125,11.917,0.1,179.41504939459864,5.856905569419328,77.96805054561042,1553.0,1178.0,1200.0,1528.0,1471.0,999.7000000000002,110.0,293.9,1649422423.5339851,1649422424.6734152,755461a7-795f-4946-bdb4-1c89d6a29942
-0.1890771048131237,0.0581868781023134,-0.279898995305501,0.8267144218548816,-0.3468888736326554,-0.8057511225756757,-0.9213227437055206,-0.94319616142975,-21.54199103641629,31.03719407619822,-3.099659231133191,-3.4950211326755074,0.2791733150793546,2.147890064167028,4358.106119791667,11.907666666666668,0.1,179.4082176876088,5.848318456380937,78.03710982939852,1553.0,1178.0,1200.0,1528.0,1471.0,999.7000000000002,110.0,293.9,1649422424.7828355,1649422425.9016428,755461a7-795f-4946-bdb4-1c89d6a29942
-0.1974889840483964,0.05653069024495,-0.2804572672280009,0.8328954042452312,-0.3476208179697446,-0.8101526506220281,-0.9259927251481392,-0.9453213196723866,-21.70560920987168,31.27340941552861,-3.168998206902332,-3.5174100482662523,0.273941805827544,2.155841674161885,4355.39990234375,11.912777777777778,0.1,179.40231792198574,5.855890574849544,78.14479535076285,1553.0,1178.0,1200.0,1528.0,1471.0,999.7000000000002,110.0,293.9,1649422426.010049,1649422427.132179,755461a7-795f-4946-bdb4-1c89d6a29942
-0.184595169004834,0.062499186880032,-0.2571405800059307,0.9573311152808734,-0.3190911767525566,-0.9361192500032806,-0.9426430300883144,-0.9680175003875864,-21.566062656774456,32.099913916495474,-3.9401269701777646,-4.074582958238568,0.2883455867670801,2.1093905656341163,4353.1875,11.911,0.1,179.40308745663225,5.8122280213978055,78.31645166498362,1553.0,1088.0,1200.0,1528.0,1471.0,999.7000000000002,110.0,293.9,1649422428.821153,1649422429.794695,e7520a3b-17c2-4bd8-bf99-53217862f171
-0.2133594619860168,0.0542559657908038,-0.2573024099789395,0.96216022652002,-0.3171289862748184,-0.931633519430892,-0.9416396824769504,-0.9613890361292592,-21.64158085777373,32.149668432266864,-3.8155198488750153,-4.075092594713639,0.2562546230267948,2.104657457106811,4348.77001953125,11.884555555555554,0.09,179.3921470114017,5.799236764437095,78.393490886452,1553.0,1088.0,1200.0,1528.0,1471.0,999.7000000000002,110.0,293.9,1649422429.9029624,1649422431.0298872,e7520a3b-17c2-4bd8-bf99-53217862f171
-0.1852212492951619,0.0666946323986687,-0.2387627461562865,0.9452378556394152,-0.3042432620939276,-0.9281622613777568,-0.9218640321763772,-0.9508832216100328,-21.46744187213855,32.13158133754662,-3.657979770875425,-4.028203471799704,0.3035369139260123,2.0353868222546745,4339.96484375,11.883666666666668,0.09,179.38273349290563,5.81324372744563,78.46000630422921,1553.0,1088.0,1200.0,1528.0,1471.0,999.7000000000002,110.0,293.9,1649422431.1651108,1649422432.2514737,e7520a3b-17c2-4bd8-bf99-53217862f171
-0.1729140685173538,0.0125614497098162,-0.3678566649440517,-0.0048211270216454,-0.4966218754043743,0.0443418487695862,-0.7512464648541026,-0.7747300470024665,-21.1909071644178,27.70500260501553,2.8914228981029733,0.2656542863457184,0.1492137886812168,2.2268267737839693,4345.341796875,11.899777777777778,0.0944444444444444,179.37843350936814,6.102985047792625,78.57555792678767,1553.0,1435.0,1200.0,1528.0,1471.0,999.7000000000002,110.0,293.9,1649422433.82187,1649422434.9143229,fb6eae58-56a9-4123-90d0-276be6d40814
-0.1861811042125111,0.0122327323092561,-0.3704469586111339,-0.0033879191723371,-0.5007242697241758,0.0424484364615666,-0.7553620086233601,-0.779187457231294,-21.11042707198453,27.859285353017555,2.736074976507575,0.2590760982244244,0.1484500721361218,2.241551544244366,4356.138020833333,11.962333333333332,0.1133333333333333,179.36994737877936,6.095343773658673,78.50239901167775,1553.0,1435.0,1200.0,1528.0,1471.0,999.7000000000002,110.0,293.9,1649422435.022642,1649422436.139702,fb6eae58-56a9-4123-90d0-276be6d40814
-0.1782392909694186,0.019411920561353,-0.3657265757891534,-0.0104093230845132,-0.4946101244048786,0.0425273286784871,-0.747288705610441,-0.7683134802855452,-21.1056637436972,27.439697109729927,2.882336953328411,0.2725712016756356,0.1752029793801263,2.2164837383355764,4365.752875434027,11.962333333333332,0.12,179.36598586906075,6.090042455929751,78.43375485160922,1553.0,1435.0,1200.0,1528.0,1471.0,999.7000000000002,110.0,293.9,1649422436.252576,1649422437.3805702,fb6eae58-56a9-4123-90d0-276be6d40814
-0.1075825750552707,0.0528452202656678,-0.1684774788868454,-0.0309229333420942,-0.3195779312761161,0.0179463887169122,-0.5467491020008902,-0.5723068891035807,-19.729820463254047,27.538378097181223,2.882552897425158,0.2747766815760957,0.3058902651262338,1.428473197912341,4379.88037109375,11.96088888888889,0.12,179.33748424856418,6.086130559946365,78.22047308785666,1553.0,1435.0,1200.0,1424.0,1471.0,999.7000000000002,110.0,293.9,1649422439.510599,1649422440.6484346,d0c4c8af-1f6b-4954-905f-823f19bf49ee
-0.1178686911970335,0.0446820713292332,-0.1785718434723694,-0.0227049979159806,-0.326124887345506,0.0201241415826897,-0.5548711636683086,-0.5691566788859176,-19.715200097511783,27.45047313398622,3.061596543105324,0.2600832696547439,0.2719299313466643,1.4620973453052006,4373.1767578125,11.960333333333333,0.12,179.3225625619574,6.085587749634825,78.16364894960182,1553.0,1435.0,1200.0,1424.0,1471.0,999.7000000000002,110.0,293.9,1649422440.7703133,1649422441.8802574,d0c4c8af-1f6b-4954-905f-823f19bf49ee
-0.1090755000227946,0.0547764350245405,-0.1696964727408052,-0.029251953124436,-0.3208791045778143,0.0142757109649334,-0.548625531166221,-0.5704304594912257,-19.684882748881407,27.50593850178022,2.8367354875455426,0.2624984297598656,0.3129379537983321,1.4348071480237448,4373.1767578125,11.962333333333332,0.1133333333333333,179.33830538908438,6.078371322753622,78.11709893367843,1553.0,1435.0,1200.0,1424.0,1471.0,999.7000000000002,110.0,293.9,1649422441.9892094,1649422443.105584,d0c4c8af-1f6b-4954-905f-823f19bf49ee
-0.0295669739363655,0.0884172898827606,0.0580615017964056,-0.0288842531815332,-0.1138450635402453,-0.0311220602257473,-0.3183452409289777,-0.3398256626393708,-17.955017640217047,27.41890177231367,2.8723388955449027,0.1712944302926443,0.4409443941719866,0.5198594868359799,4368.71875,11.957,0.11,179.31350269547835,6.081888585584965,78.0086013787128,1553.0,1435.0,1200.0,1304.0,1471.0,999.7000000000002,110.0,293.9,1649422444.821582,1649422445.7806356,2ae8f001-1509-4da0-adb5-a92c9e945bdc
-0.0394810912157173,0.0875616131962377,0.0494566915868593,-0.0371800693066078,-0.1231199521212397,-0.0255303241028867,-0.3253863688558893,-0.3483176990394778,-17.946738620810965,27.413867607510547,2.4021606773401585,0.2020405208066741,0.4423194752405185,0.5534150252320541,4367.976888020833,11.961333333333334,0.1133333333333333,179.31792865806048,6.0924147608696,77.99440596888778,1553.0,1435.0,1200.0,1304.0,1471.0,999.7000000000002,110.0,293.9,1649422445.8942158,1649422446.997078,2ae8f001-1509-4da0-adb5-a92c9e945bdc
-0.0335115829714463,0.0949117343185334,0.0657479262574071,-0.033196014267471,-0.1099975524024096,-0.0356548205343316,-0.3140521908409392,-0.3363129373062236,-17.943951594943968,27.61927884964635,2.6119607122520345,0.1725101103317352,0.4685534585829765,0.498335488678533,4368.162353515625,11.96375,0.11,179.31415497854408,6.08822966917738,77.94842228948309,1553.0,1435.0,1200.0,1304.0,1471.0,999.7000000000002,110.0,293.9,1649422447.1053703,1649422448.2336128,2ae8f001-1509-4da0-adb5-a92c9e945bdc
0.0325737655974398,0.1237073785969157,0.2471341855818746,-0.0252542015159096,0.0534275978780186,-0.0797029547060195,-0.136045121464296,-0.1658269207592635,-16.643686484855404,27.82216178070621,2.7749576282673574,0.0666705508183261,0.5764315931236405,-0.2203392071686985,4373.1767578125,11.96,0.12,179.29064888251548,6.084113092820271,77.86531767030426,1553.0,1435.0,1200.0,1166.0,1471.0,999.7000000000002,110.0,293.9,1649422448.8220384,1649422449.8712597,1fb66d8a-24cd-46d1-80e4-3b3c065ad7a3
0.0152174863768395,0.112438946138038,0.2478705124766061,-0.0222694473459004,0.0542296682717827,-0.0693943763059415,-0.1360056754418492,-0.1590290445993958,-16.822135013364,28.201505225623464,3.060744532244741,0.085609536101352,0.5325838384417843,-0.2237062299736082,4362.048828125,11.944111111111113,0.1044444444444444,179.28923882790684,6.088798697454639,77.87523510497914,1553.0,1435.0,1200.0,1166.0,1471.0,999.7000000000002,110.0,293.9,1649422449.984063,1649422451.0929434,1fb66d8a-24cd-46d1-80e4-3b3c065ad7a3
0.0280374653779661,0.1148188601172928,0.2400470386809473,-0.0236369118483315,0.0483390524348982,-0.0732600932156105,-0.1411994106799431,-0.1694691099384603,-16.69085527398725,27.85629870029973,2.6172961554675,0.0773248410470967,0.5441776120436748,-0.1977399487655695,4362.295627170139,11.951,0.11,179.3036171350196,6.09283263563757,77.85716697789472,1553.0,1435.0,1200.0,1166.0,1471.0,999.7000000000002,110.0,293.9,1649422451.2010844,1649422452.3226926,1fb66d8a-24cd-46d1-80e4-3b3c065ad7a3
-0.2557245661674356,-0.0242023057135888,-0.5936592817213497,0.0468401010721533,-0.7024647818269238,0.0417515555941275,-0.999875293595692,-1.016192836410841,-22.93326221222373,28.649262827878765,2.3367304127785333,0.1373491521713369,0.0079162691332445,3.162596746842753,4350.9775390625,11.94588888888889,0.11,179.41112127691596,6.104882749448897,77.97752401798923,1553.0,1435.0,1200.0,1623.0,1471.0,999.7000000000002,110.0,293.9,1649422453.437786,1649422454.5704496,5d746bd0-1fa1-446b-9bbe-11bfcd81c78b
-0.2578020604614799,-0.0276735616196246,-0.598340218944167,0.0396083181070309,-0.7062384590026984,0.0509556429864824,-0.9981922592724226,-1.0161665384727523,-22.70152176983544,28.39853522014276,2.2052953240938744,0.1725456137603059,-0.0049889583916991,3.171317138058882,4353.1875,11.93888888888889,0.11,179.38928440322954,6.084643808005156,77.95050986091194,1553.0,1435.0,1200.0,1623.0,1471.0,999.7000000000002,110.0,293.9,1649422454.6789951,1649422455.8066704,5d746bd0-1fa1-446b-9bbe-11bfcd81c78b
-0.2640871380388397,-0.0277656024933023,-0.6082674878572487,0.0429480869908524,-0.7120896311756258,0.0470636288994878,-1.007212270554174,-1.0310245750790197,-22.83261066039568,28.093980038356506,2.007921312698447,0.1536553439039676,-0.0037027298069079,3.2054342698142047,4353.1875,11.941,0.11,179.39463623589918,6.083304284586057,77.88739284170174,1553.0,1435.0,1200.0,1623.0,1471.0,999.7000000000002,110.0,293.9,1649422455.9153204,1649422457.0388534,5d746bd0-1fa1-446b-9bbe-11bfcd81c78b
-0.3073605991359391,-0.0395106757642159,-0.7692086876631333,0.1314086793679647,-0.8604552045819439,-0.0115423024024597,-1.207841251013975,-1.227235594704147,-24.15538833488052,29.40459175423541,2.2196433234789885,-0.1775431290892751,-0.0613400662397872,3.910737176439659,4348.77001953125,11.928666666666668,0.1066666666666666,179.41632436324377,6.07038612013584,77.83313381893517,1553.0,1435.0,1200.0,1712.0,1471.0,999.7000000000002,110.0,293.9,1649422458.9674635,1649422460.104226,a5d73c1c-5d89-4561-a34a-5c3e147f3be9
-0.3180888412000556,-0.0435834845582353,-0.7665384051797355,0.1363958701472752,-0.8571724115354493,-0.0120134640246804,-1.2040878427208788,-1.227098080656176,-24.02637060507611,29.407184306084,2.2621958296588405,-0.1896298967601034,-0.0783505773202408,3.896982046610783,4346.56494140625,11.901000000000002,0.1,179.41864662756154,6.08256135921821,77.85349461285097,1553.0,1435.0,1200.0,1712.0,1471.0,999.7000000000002,110.0,293.9,1649422460.2127206,1649422461.3326895,a5d73c1c-5d89-4561-a34a-5c3e147f3be9
-0.3063996484781629,-0.0401516747273297,-0.7706145031142962,0.1363038292801054,-0.8594339887159722,-0.0193504366945887,-1.2081639423324206,-1.2298198633745898,-24.06182571574202,29.15533605497265,1.6573535613833656,-0.2078961898555542,-0.0601189014648503,3.9110619982121015,4347.789984809027,11.902222222222225,0.0944444444444444,179.42501084604817,6.069355710208551,77.82679160883586,1553.0,1435.0,1200.0,1712.0,1471.0,999.7000000000002,110.0,293.9,1649422461.4417298,1649422462.558658,a5d73c1c-5d89-4561-a34a-5c3e147f3be9
-0.3478048995499982,-0.043649228043094,-0.8806034005983525,0.2022182413389966,-0.961244400128747,-0.0701832981506002,-1.3500516506342777,-1.3734169072650535,-25.08276954367753,30.142196378623886,1.596255101242918,-0.4702695343748532,-0.0805407973967583,4.400625866854496,4341.183919270833,11.884222222222222,0.0911111111111111,179.43472641068757,6.050121470618972,77.83040326108697,1553.0,1435.0,1200.0,1801.0,1471.0,999.7000000000002,110.0,293.9,1649422463.321653,1649422464.6067598,38b581c8-2e57-45aa-820e-00197e312df2
-0.355641523951421,-0.0530505461810745,-0.8835618588626956,0.2110410161210465,-0.9609682773895072,-0.0681058040777967,-1.3501568403074753,-1.3660273333566428,-24.982219892005592,30.05137652587304,1.7257040816551148,-0.4861812643151793,-0.1189357882732331,4.403662215418717,4339.96240234375,11.862333333333332,0.09,179.43433481317516,6.040600661234667,77.80882062221964,1553.0,1435.0,1200.0,1801.0,1471.0,999.7000000000002,110.0,293.9,1649422464.715443,1649422465.838845,38b581c8-2e57-45aa-820e-00197e312df2
-0.3545633306159263,-0.0503813607542021,-0.888913381011578,0.2023234309038933,-0.968791756240324,-0.0648186298232096,-1.3570073177066737,-1.3816217016745265,-25.068553563481824,30.2149837357073,1.3753433372853503,-0.4584110142388663,-0.1044715950960159,4.430991269897423,4334.598090277777,11.877,0.0844444444444444,179.4549452884506,6.047777103050104,77.81862194367861,1553.0,1435.0,1200.0,1801.0,1471.0,999.7000000000002,110.0,293.9,1649422465.9472034,1649422467.0666373,38b581c8-2e57-45aa-820e-00197e312df2
-0.1849188292765631,-0.016825886938394,-0.376035155791383,-0.0057809820343316,-0.4645784951058602,0.068403962839303,-0.7205048004162968,-0.7415821694139637,-21.890098826940186,24.240020512040147,2.225740081117047,0.2980551790880026,0.0493829877771713,2.1469910923845266,7449.097330729167,11.646333333333336,7.58,178.61044400345224,5.857010156690994,68.02059946607943,1553.0,1435.0,1350.0,1528.0,1471.0,999.7000000000002,110.0,293.9,1649422471.990549,1649422473.0124714,5b4f2564-fe5f-446f-9644-69cbeafa3aa9
-0.1939914305367285,-0.0210992133126858,-0.3809264716919316,-0.0029934583221424,-0.4681680899940648,0.073702887431893,-0.722661187517978,-0.7531004329004877,-21.77450359908129,24.17573329660786,2.7214157627572244,0.3031420782930404,0.0274897225983112,2.161931586517275,7453.4140625,11.655333333333331,7.573333333333333,178.41564245486404,5.758405134668852,64.12914699778885,1553.0,1435.0,1350.0,1528.0,1471.0,999.7000000000002,110.0,293.9,1649422473.1216917,1649422474.2364724,5b4f2564-fe5f-446f-9644-69cbeafa3aa9
-0.1908225944293751,-0.0230320717246498,-0.3820704084690443,0.0062237778445726,-0.4657618780353767,0.0672731749813331,-0.7263954187831883,-0.7497212158066608,-22.06682654307588,24.12074449255159,2.7281709529386635,0.2673342704024929,0.0210411561178304,2.1652049093317736,7459.90087890625,11.651000000000002,7.581111111111111,178.29831194748175,5.675928940325523,60.58560159852149,1553.0,1435.0,1350.0,1528.0,1471.0,999.7000000000002,110.0,293.9,1649422474.345225,1649422475.4703472,5b4f2564-fe5f-446f-9644-69cbeafa3aa9
0.0201482475050765,0.3534282393909879,-0.3802953341025715,-0.2673480153155241,-0.5613134791450143,-0.03586519970407,-0.7846836143785364,-0.8041173965307898,-21.86678110652179,23.183872222911944,4.483087680492181,0.6469377001634915,1.4498057384179024,2.4220725885806647,7466.3994140625,11.654,7.536666666666666,178.23351621955555,5.71588236903486,56.34588119954656,1658.0,1435.0,1350.0,1528.0,1551.0,999.7000000000002,110.0,293.9,1649422476.376154,1649422477.5189016,5c545241-3b83-4855-8ea2-5809c161a222
0.0188640581414958,0.3494304881602494,-0.3808700418077893,-0.262723508735901,-0.5625412390756275,-0.0356893358634234,-0.7867265940874884,-0.8148593390037121,-21.84694918436236,23.39588037178716,4.543839008683615,0.6382976138864097,1.4335307241041424,2.4270063607047256,7472.90869140625,11.61611111111111,7.6,178.32314955094355,5.722478102475238,54.02295473284769,1658.0,1435.0,1350.0,1528.0,1551.0,999.7000000000002,110.0,293.9,1649422477.6271858,1649422478.744918,5c545241-3b83-4855-8ea2-5809c161a222
0.0118251227057833,0.3566496697333145,-0.3792960330293882,-0.2655860898384689,-0.5606954902935949,-0.0402174183104466,-0.7846178709418139,-0.8109810193908915,-21.818506462756368,23.15154001306645,4.547935490496122,0.6330532733736697,1.4608175115375872,2.420318837023033,7481.607096354167,11.617,7.643333333333334,178.41444944848902,5.771149129295233,52.22325073351314,1658.0,1435.0,1350.0,1528.0,1551.0,999.7000000000002,110.0,293.9,1649422478.8574808,1649422479.967696,5c545241-3b83-4855-8ea2-5809c161a222
0.2637672854536081,0.764443297905058,-0.3497114611011842,-0.5461135820483449,-0.6406001431265984,-0.1530726845200606,-0.8312957648079756,-0.8527150018308488,-22.066899844422224,23.02455053008304,8.518482971472947,1.0133928931924578,2.993271047913014,2.6076461081213416,7485.9619140625,11.604666666666668,7.593333333333332,178.2501242039774,5.895673438557106,50.04339927499816,1767.0,1435.0,1350.0,1528.0,1630.0,999.7000000000002,110.0,293.9,1649422480.8816712,1649422482.018628,6d33ac6d-2e06-401c-b606-9d20dcd225c8
0.2451722906598331,0.7678329219023124,-0.3595718892924187,-0.5579254972747943,-0.6500074907771348,-0.1605608674116268,-0.8366094841590889,-0.859688197402538,-21.73832580789475,22.54925462898875,6.326748806291068,1.0193849764666,3.023905057439395,2.6391058879442526,7485.9619140625,11.586666666666666,7.642222222222222,178.38920051585723,5.944239451218611,48.9930527844336,1767.0,1435.0,1350.0,1528.0,1630.0,999.7000000000002,110.0,293.9,1649422482.1263602,1649422483.247503,6d33ac6d-2e06-401c-b606-9d20dcd225c8
0.2446227847529838,0.7543713975390415,-0.3732739290209991,-0.5568166241292962,-0.6614671316113926,-0.1487730604420318,-0.8462326910464477,-0.8759750578035707,-21.67224904432636,22.59951456450897,6.18190521879127,1.0430334880593366,2.973227916613979,2.6852952868434965,7485.9619140625,11.579333333333333,7.632222222222222,178.53802882005195,5.990248174650249,48.15517298838062,1767.0,1435.0,1350.0,1528.0,1630.0,999.7000000000002,110.0,293.9,1649422483.3558905,1649422484.4768877,6d33ac6d-2e06-401c-b606-9d20dcd225c8
0.4914369438463305,1.1715400543218095,-0.3257808299065475,-0.8162536489674455,-0.7276839914872586,-0.2995360281007471,-0.8857971383988086,-0.9131201441870496,-21.574777758287137,22.761431104043908,8.922019204587944,1.293399393277444,4.547844383013429,2.819147146829544,7492.50537109375,11.591,7.649999999999999,178.36171583463707,6.141439297411013,46.60627049972933,1886.0,1435.0,1350.0,1528.0,1710.0,999.7000000000002,110.0,293.9,1649422486.3206651,1649422487.3440683,4f8b79b5-a42c-41c2-8ce9-5454dc5b2318
0.4739648566819315,1.1658896551322429,-0.3321260883631386,-0.8201704452497426,-0.7338441583051085,-0.2955878785737119,-0.8907815085146287,-0.9084184719502046,-21.565635351392263,22.811190295748982,8.13971261677617,1.3110005512685785,4.533601636270012,2.841448038706465,7492.50537109375,11.514444444444443,7.610000000000001,178.50613942572707,6.200806732494332,46.12356509397645,1886.0,1435.0,1350.0,1528.0,1710.0,999.7000000000002,110.0,293.9,1649422487.4532268,1649422488.568513,4f8b79b5-a42c-41c2-8ce9-5454dc5b2318
0.4848625963049324,1.1654127620523351,-0.3309351196761969,-0.8067339882783287,-0.7302874344572792,-0.3038619498130802,-0.8932656020368807,-0.915394870087628,-21.748231717620506,22.850128767280943,8.651177078944391,1.262405299599231,4.526994118828847,2.839154859136664,7492.50537109375,11.512666666666668,7.611111111111111,178.58149007265067,6.242267071689302,45.75625080133656,1886.0,1435.0,1350.0,1528.0,1710.0,999.7000000000002,110.0,293.9,1649422488.676997,1649422489.8082323,4f8b79b5-a42c-41c2-8ce9-5454dc5b2318
-0.4540595352418703,-0.4814351273647271,-0.396468233487288,0.3198990661994201,-0.370354917799087,0.2126057109114485,-0.6661743662997298,-0.6967845431205437,-21.957150183375333,25.80163656595336,0.7557912901103029,-0.1034919952570317,-1.7210485007725274,1.913029533139744,7492.50537109375,11.572444444444445,7.641111111111111,179.71601029672664,6.197551151285568,45.21175722762203,1449.0,1435.0,1350.0,1528.0,1386.0,999.7000000000002,110.0,293.9,1649422490.9171078,1649422492.0552375,f3940ead-cdb3-4394-b68d-1f0829f8df77
-0.4574338201810504,-0.4887578572598265,-0.414522493004328,0.3159561011981245,-0.3848009548847863,0.2198336585063045,-0.683139478076345,-0.7040678283721448,-22.293951774053728,25.743699831508422,0.1152191707730523,-0.079910168353278,-1.7411120796305284,1.9794343563368664,7496.87548828125,11.643333333333334,7.683333333333334,179.81211561180817,6.234156554072997,44.94913455676027,1449.0,1435.0,1350.0,1528.0,1386.0,999.7000000000002,110.0,293.9,1649422492.163819,1649422493.116397,f3940ead-cdb3-4394-b68d-1f0829f8df77
-0.4508381039315163,-0.4803700826871324,-0.39017000683708,0.3373473849142165,-0.3622553195001519,0.2000618552031445,-0.6645570761458951,-0.6965347181886977,-22.06064714228189,25.866010584105062,1.4348451345103512,-0.1702423459158644,-1.7240877425182106,1.8922505410332389,7492.50537109375,11.642,7.699999999999999,179.8089372971144,6.229168808431594,44.69652228703709,1449.0,1435.0,1350.0,1528.0,1386.0,999.7000000000002,110.0,293.9,1649422493.2268536,1649422494.3078024,f3940ead-cdb3-4394-b68d-1f0829f8df77
-0.6812033316480612,-0.8894261802839037,-0.4096826759305896,0.6246069268607898,-0.2872551440782369,0.3241329461864191,-0.6261365720996537,-0.6553661344319575,-22.14676579898885,27.9842467669999,-0.2524461722729103,-0.5266670568796683,-3.279301738946025,1.7117064198248138,7492.50537109375,11.628333333333334,7.680000000000001,-179.91545182049106,6.2245030777504375,44.21741639097681,1342.0,1435.0,1350.0,1528.0,1293.0,999.7000000000002,110.0,293.9,1649422496.4467475,1649422497.5858002,b6cc8319-9c16-4c1b-82ae-a54f64502642
-0.689261841946105,-0.8950664262024596,-0.4202065658202694,0.6247586847172685,-0.2958554883368636,0.3332274604583928,-0.6351056296182916,-0.6653887319951896,-22.278343058212908,28.005273429456693,0.1997738164817875,-0.5069515748648258,-3.3042183197809734,1.7503916786526803,7492.50537109375,11.588,7.667777777777776,-179.87138799342554,6.255359595690831,44.13934353421402,1342.0,1435.0,1350.0,1528.0,1293.0,999.7000000000002,110.0,293.9,1649422497.6953042,1649422499.0172913,b6cc8319-9c16-4c1b-82ae-a54f64502642
-0.6754557056428127,-0.8872593835512864,-0.4144266169561583,0.6217454421193221,-0.2918286995912507,0.324420573887098,-0.6284354032787804,-0.6515552024676624,-21.975790181002832,27.79276548057921,-0.3100158578514638,-0.5209945918656199,-3.27182649646284,1.7280293780987783,7492.50537109375,11.596,7.662222222222223,-179.826789893785,6.255524374004558,44.07705752135286,1342.0,1435.0,1350.0,1528.0,1293.0,999.7000000000002,110.0,293.9,1649422499.125656,1649422500.2456636,b6cc8319-9c16-4c1b-82ae-a54f64502642
-0.8994717897519581,-1.263940758997601,-0.4378997841712762,0.9185328556572808,-0.2285593567500445,0.4292436159883885,-0.6093719788811819,-0.6348410125354556,-22.22955389761947,30.36995149261822,0.9269799931852452,-0.9389377951446592,-4.731763309839463,1.604241762239453,7492.50537109375,11.573,7.666666666666667,-179.6724655640381,6.225199330158955,43.971099278938645,1227.0,1435.0,1350.0,1528.0,1189.0,999.7000000000002,110.0,293.9,1649422501.818187,1649422502.9129534,29f45035-e7d1-4e57-95a3-1160df9e7268
-0.8983410012121492,-1.2669255156829085,-0.4463018029964455,0.9150878975286548,-0.2373032407523531,0.4364491009262362,-0.617234901833717,-0.6443869689429929,-22.282968848037225,30.48234340264516,1.0208426179109096,-0.9146603572517408,-4.743518395329401,1.6384567930753762,7492.50537109375,11.485111111111111,7.610000000000001,-179.6941810121393,6.211381572876805,44.038421797402776,1227.0,1435.0,1350.0,1528.0,1189.0,999.7000000000002,110.0,293.9,1649422503.0214994,1649422504.1384344,29f45035-e7d1-4e57-95a3-1160df9e7268
-0.8879272282125196,-1.258313112014772,-0.4297081447998783,0.9210837025354164,-0.2231157960682749,0.4230768779701826,-0.6044806624186158,-0.628332405910945,-22.16418505601065,30.533557779063585,1.2160005659112818,-0.9569779331124014,-4.71347244164659,1.579786654103547,7492.50537109375,11.490444444444446,7.62,-179.65984641009152,6.215701003480668,44.10521611457111,1227.0,1435.0,1350.0,1528.0,1189.0,999.7000000000002,110.0,293.9,1649422504.246783,1649422505.3692324,29f45035-e7d1-4e57-95a3-1160df9e7268
-0.1862261131728536,-0.0083647007130549,-0.3775396701578956,-0.0019673542768932,-0.4637647926858085,0.0614498197456319,-0.7221873284023871,-0.7487375918393351,-21.94624647204765,23.89861210504773,2.906661423603633,0.2715678083027378,0.0749092835758394,2.15244765743201,7492.50537109375,11.585,7.674444444444443,179.92041053782845,6.308716701463887,44.16804702474605,1553.0,1435.0,1350.0,1528.0,1471.0,999.7000000000002,110.0,293.9,1649422506.48209,1649422507.6158264,f4d9687f-5e08-456c-af5b-9bbcb728a34c
-0.1763064324575825,0.0002016750578249,-0.3822413414262375,-0.0098176318339335,-0.470455963582805,0.0588448607318212,-0.7261324446154359,-0.7453821443774971,-21.77051525667729,23.739764886515623,2.669742346814131,0.2821859835227789,0.1085602088492586,2.1744088082863664,7499.060546875,11.649,7.71,179.92509149413962,6.320981918802199,44.14780196459117,1553.0,1435.0,1350.0,1528.0,1471.0,999.7000000000002,110.0,293.9,1649422507.7242377,1649422508.8552816,f4d9687f-5e08-456c-af5b-9bbcb728a34c
-0.1800669598840527,-0.0114480700495121,-0.3846081072143592,-0.0065962011853804,-0.4706005992599825,0.0678517176150818,-0.7249622101096942,-0.7517592650448732,-21.729757651143508,23.7664412462105,2.7439562084124547,0.295250173401979,0.0633741388343789,2.174906656865345,7499.060546875,11.65,7.706666666666667,179.87418837098525,6.3023968317749866,44.1461797946633,1553.0,1435.0,1350.0,1528.0,1471.0,999.7000000000002,110.0,293.9,1649422508.9679024,1649422510.083327,f4d9687f-5e08-456c-af5b-9bbcb728a34c
-0.1710995482747331,-0.015471571202249,-0.4097484195190738,-0.3010218310292138,-0.5209864162876344,0.3477743003898592,-0.668330753509019,-0.6828600681128083,-21.841459543622094,22.811525165000525,3.5678477844234417,1.5809187104200593,0.0764121719399048,2.195579277034223,7499.060546875,11.650555555555554,7.699999999999999,179.81273791793254,6.386899363003953,44.18009434007709,1553.0,1522.0,1350.0,1528.0,1471.0,999.7000000000002,110.0,293.9,1649422511.818264,1649422513.1529448,ff02886e-edf8-4970-9950-b54237a4b902
-0.1758067819805272,-0.0155110172910485,-0.4152577245420578,-0.2965381250308483,-0.5298486401404073,0.3565707775144488,-0.6782711716470883,-0.7086578209084159,-21.956439879554885,23.35508390501587,5.33330448268228,1.5941239626114507,0.0605387471633915,2.231533839366274,7499.060546875,11.651666666666664,7.718888888888888,179.7821067962348,6.376961010874761,44.19802320719342,1553.0,1522.0,1350.0,1528.0,1471.0,999.7000000000002,110.0,293.9,1649422513.2617767,1649422514.3841517,ff02886e-edf8-4970-9950-b54237a4b902
-0.1772794361048723,-0.0178909313649122,-0.4095511890567887,-0.2983920914441352,-0.5239185764111268,0.3592531113747061,-0.6692248651575787,-0.6952855911152227,-21.78204613992464,23.23389034761008,5.197837478906113,1.603880550727809,0.0521669185343044,2.202474637203712,7501.979166666667,11.650777777777778,7.700000000000001,179.76746742411373,6.363535847174278,44.21565306380608,1553.0,1522.0,1350.0,1528.0,1471.0,999.7000000000002,110.0,293.9,1649422514.4990618,1649422515.612965,ff02886e-edf8-4970-9950-b54237a4b902
-0.1745313583176609,-0.0291560771583548,-0.4531057069172794,-0.6518839197640288,-0.6040692175963139,0.7114715887120003,-0.6181492844345274,-0.6405979524765386,-21.822353411285302,22.92847894391706,7.457074805060217,3.1888999695230567,0.0309336006222209,2.2971126466318883,7502.708821614583,11.64011111111111,7.704444444444444,179.79277858735793,6.469963190775248,44.21822273275383,1553.0,1613.0,1350.0,1528.0,1471.0,999.7000000000002,110.0,293.9,1649422516.5178154,1649422517.6509085,56078caa-4656-4d59-a79f-91b01c9f3b33
-0.165546415092991,-0.0234857017476305,-0.4524619686060272,-0.6562394270784488,-0.6050964598749164,0.7062121107269093,-0.619094347341372,-0.6358589410927489,-21.80647428372967,22.91782971776645,6.928270317982592,3.18679133514823,0.0573522333857721,2.2988974394902617,7505.62744140625,11.632666666666667,7.690000000000001,179.7434388186136,6.464236693770491,44.25807043582663,1553.0,1613.0,1350.0,1528.0,1471.0,999.7000000000002,110.0,293.9,1649422517.7598257,1649422518.88258,56078caa-4656-4d59-a79f-91b01c9f3b33
-0.168326816754644,-0.0228693565935451,-0.449996587605099,-0.6534590245787825,-0.6011929395329773,0.7094308016808991,-0.615314096138326,-0.6399816068015567,-21.84413525421699,22.807993425002724,7.860658236871076,3.187276568563482,0.0514788291363543,2.286270594977002,7505.62744140625,11.629666666666669,7.690000000000001,179.7170985735344,6.44190757214512,44.27997523194982,1553.0,1613.0,1350.0,1528.0,1471.0,999.7000000000002,110.0,293.9,1649422518.990762,1649422520.1116912,56078caa-4656-4d59-a79f-91b01c9f3b33
-0.1722829310367108,-0.0322756054387759,-0.4984626935082054,-1.013523649385062,-0.6876330467805645,1.0658771357847174,-0.571214450260976,-0.5905956346595463,-22.105892595674234,22.67219968338945,10.072835282272626,4.797384042230498,0.0397027282622955,2.405978806402053,7505.62744140625,11.624222222222222,7.690000000000001,179.64325663950748,6.572592380015259,44.301603784866565,1553.0,1710.0,1350.0,1528.0,1471.0,999.7000000000002,110.0,293.9,1649422521.0233295,1649422522.1674528,86a940d3-5e14-4f83-ba70-c4cdc028bc93
-0.1601203860031256,-0.0252279040553628,-0.4959644406182406,-1.0141547868779175,-0.6855687007135312,1.0595131671179403,-0.5692947400638794,-0.5916212331774113,-22.043190020829726,22.51815745681184,10.085722893330216,4.783643895482132,0.0658113474250083,2.398000927227072,7505.62744140625,11.61488888888889,7.680000000000001,179.6386515741871,6.566024915968946,44.31536737495406,1553.0,1710.0,1350.0,1528.0,1471.0,999.7000000000002,110.0,293.9,1649422522.2796812,1649422523.390032,86a940d3-5e14-4f83-ba70-c4cdc028bc93
-0.1709943587089516,-0.0352603595734324,-0.5054315042920727,-1.0087375209348697,-0.6937471928567409,1.0690065253307113,-0.5787092093364384,-0.6048882721661056,-22.16013847197288,22.76540205080304,10.671603858863364,4.793958855891593,0.0225556740849643,2.434925823106711,7502.343994140625,11.6095,7.68,179.59799373478774,6.542667020815775,44.37812789623506,1553.0,1710.0,1350.0,1528.0,1471.0,999.7000000000002,110.0,293.9,1649422523.4981124,1649422524.6238413,86a940d3-5e14-4f83-ba70-c4cdc028bc93
-0.1430533769760073,-0.0193635853811572,-0.5323205954723954,-1.3091591667401412,-0.759359214217471,1.3367534221467663,-0.5335960194178081,-0.5488222138694842,-21.77569399742693,22.529984734326927,11.691905674490751,6.070756166914212,0.1056940470192037,2.4978068921599417,7504.168131510417,11.606111111111112,7.685555555555556,179.6189092918461,6.624197115379383,44.4745308937279,1553.0,1814.0,1350.0,1528.0,1471.0,999.7000000000002,110.0,293.9,1649422526.3479764,1649422527.3900316,85a9bdad-6693-4140-ab1a-04fe6bb27116
-0.1391310194419315,-0.0192755902536895,-0.5269164798987445,-1.3024118567100125,-0.7563739532716288,1.3334091017919358,-0.5341356218601496,-0.5639351276444072,-21.930591568538222,22.971611962107104,12.125975161892535,6.051208665029141,0.1027926057977819,2.48753518293958,7499.060546875,11.59011111111111,7.674444444444445,179.62991196768908,6.611700620246675,44.48477048565863,1553.0,1814.0,1350.0,1528.0,1471.0,999.7000000000002,110.0,293.9,1649422527.49949,1649422528.7104883,85a9bdad-6693-4140-ab1a-04fe6bb27116
-0.1353613891047417,-0.0164840208524949,-0.5213545798454098,-1.2995343128459131,-0.7480118845603131,1.3288247582880393,-0.5277579966280768,-0.5587494826027269,-22.031019338247543,22.68256159247785,12.289681121163026,6.032752337670989,0.1125159750512971,2.460126185279817,7499.060546875,11.586,7.67,179.6329096618248,6.620812282326948,44.51501000984399,1553.0,1814.0,1350.0,1528.0,1471.0,999.7000000000002,110.0,293.9,1649422528.8186035,1649422529.942598,85a9bdad-6693-4140-ab1a-04fe6bb27116
-0.192439884200509,0.0008722585848704,-0.3419405802769444,0.3678129119650865,-0.3974412373089164,-0.3057422135566576,-0.7954261041874889,-0.8184889284979122,-22.030581481635704,25.21916857274677,0.2412759697954237,-1.3776360073417482,0.0905249661722725,2.117863202103153,7499.060546875,11.574777777777776,7.656666666666666,179.61836135889268,6.120122798761964,44.56665003451882,1553.0,1349.0,1350.0,1528.0,1471.0,999.7000000000002,110.0,293.9,1649422530.851745,1649422531.9904594,503a1ece-aa6a-4531-83a1-d2198bbfac59
-0.1992772069117784,-0.0098439290634355,-0.3418616880720046,0.3738350144092013,-0.3920634194615353,-0.3031519199768143,-0.7912316681061291,-0.811086209207037,-22.089550990228062,24.966280084702788,-0.0748266787813724,-1.3871522318716436,0.0528109914023563,2.1028317567263404,7499.060546875,11.652888888888889,7.7155555555555555,179.60884462864917,6.074009061171838,44.64175517408725,1553.0,1349.0,1350.0,1528.0,1471.0,999.7000000000002,110.0,293.9,1649422532.099126,1649422533.226812,503a1ece-aa6a-4531-83a1-d2198bbfac59
-0.19943499128774,-0.0077664350201104,-0.3386928517126858,0.3694170528001003,-0.3912613488391204,-0.3005353290873649,-0.7861694176990435,-0.8047353856793548,-21.83386462740907,24.968201284240727,0.0384180306939896,-1.3709892831637376,0.0585343524929965,2.090762649515252,7499.060546875,11.652666666666669,7.718888888888888,179.56086482645952,6.0663657948993785,44.685509745365295,1553.0,1349.0,1350.0,1528.0,1471.0,999.7000000000002,110.0,293.9,1649422533.3597765,1649422534.4087117,503a1ece-aa6a-4531-83a1-d2198bbfac59
-0.2235787394198609,-0.0085701490974601,-0.323070554582224,0.6908308769226866,-0.347368253554331,-0.6124652104904992,-0.8674678465197596,-0.8858623349623063,-22.296466102393182,26.39944251398269,-2.608245645898181,-2.787357214784948,0.0436931509298117,2.123512531350406,7499.060546875,11.644,7.706666666666667,179.53465511388447,5.9512525376764,44.7403413656573,1553.0,1264.0,1350.0,1528.0,1471.0,999.7000000000002,110.0,293.9,1649422536.383207,1649422537.5208237,c9e83c03-c7ac-4f94-8b3f-47bb94a9a775
-0.2075811572854498,0.0001682554527553,-0.3253989697809855,0.6798462380024879,-0.3526688225404641,-0.6142183705643126,-0.8693990621100708,-0.903763747213408,-22.14302004804709,26.30717666385858,-3.0940568515135087,-2.767245926683997,0.080890430195737,2.13707663943409,7499.060546875,11.614222222222224,7.690000000000001,179.53871376407128,5.948702600386261,44.78419952813776,1553.0,1264.0,1350.0,1528.0,1471.0,999.7000000000002,110.0,293.9,1649422537.6300287,1649422538.7480452,c9e83c03-c7ac-4f94-8b3f-47bb94a9a775
-0.2140185405401862,-0.0008178967816157,-0.3141130040207411,0.6890640210399693,-0.3394516414330976,-0.6155195440257916,-0.8598251628629754,-0.8843557127318151,-22.35449250931826,26.34053427309219,-2.1292796256810216,-2.790132458763838,0.0697188430072819,2.0912198074236543,7499.060546875,11.612666666666668,7.691111111111111,179.5296523797724,5.943285406600794,44.84434124105448,1553.0,1264.0,1350.0,1528.0,1471.0,999.7000000000002,110.0,293.9,1649422538.8556802,1649422539.9816349,c9e83c03-c7ac-4f94-8b3f-47bb94a9a775
-0.2100065441519908,0.0127981262534687,-0.2977083592226931,0.8960354382296416,-0.3100944329737824,-0.8367787736347101,-0.9111609875056808,-0.932764307809251,-22.336129886283043,27.333550116990907,-4.737871547459962,-3.7472152171713113,0.1193513225581713,2.101352552890525,7499.060546875,11.601333333333336,7.673333333333334,179.54906681303322,5.875793603795352,44.960666192808986,1553.0,1178.0,1350.0,1528.0,1471.0,999.7000000000002,110.0,293.9,1649422541.9129994,1649422543.057134,1628c24f-40f0-4182-94ed-734981460e37
-0.2111833525719213,0.0140702626343662,-0.2979921521119554,0.8982104516214093,-0.3120311267833763,-0.8301447055244164,-0.9133102527925794,-0.932690894551054,-22.418301429923687,27.58779770739171,-3.345699431160512,-3.73536201343547,0.1120839412964399,2.10941205954968,7493.233723958333,11.59811111111111,7.690000000000001,179.5452343179989,5.860922859016158,45.03272886255711,1553.0,1178.0,1350.0,1528.0,1471.0,999.7000000000002,110.0,293.9,1649422543.1702645,1649422544.2819252,1628c24f-40f0-4182-94ed-734981460e37
-0.2211040449548163,0.0088272199354935,-0.305387198906252,0.8962458173344733,-0.3171815812571295,-0.830007191824437,-0.9186425997417432,-0.943243824566222,-22.43934029505072,27.442934996044485,-4.36016806112136,-3.732122107147031,0.1013300864414833,2.1320618414162755,7492.50537109375,11.595333333333334,7.680000000000001,179.53013808211338,5.850177833086866,45.0777538490208,1553.0,1178.0,1350.0,1528.0,1471.0,999.7000000000002,110.0,293.9,1649422544.390021,1649422545.508469,1628c24f-40f0-4182-94ed-734981460e37
