raw_voltage_G-,raw_voltage_G0,raw_voltage_G1,raw_voltage_G2,raw_voltage_G3,raw_voltage_G4,raw_voltage_G5,raw_voltage_G6,load_x,load_y,load_z,load_l,load_m,load_n,rpm,voltage,current,roll,pitch,yaw,aileron1_pwm,elevator_pwm,throttle_pwm,rudder_pwm,aileron2_pwm,pbaro,pdiff,Tt,sample_start_time,sample_end_time,uid
0.4097703984636207,0.5727879199545779,0.6326276307929224,-0.466813773918146,0.3126146890283254,0.1205648401377694,0.4380006469520245,0.4145170774130826,-1.4666722238889296,16.762110104032363,39.71887397050804,1.472154616065224,1.904520579556694,-1.7984240611455056,4073.2513020833335,11.933666666666666,0.16,179.8950295548727,-10.873056117736322,110.86929717380444,1553.0,1435.0,1200.0,1528.0,1471.0,998.74,108.0,293.1,1649414130.3962412,1649414131.4717276,cb28d4a6-6ab5-4a79-bb7a-8a2f51d684b6
0.4301948735317867,0.5718214908748627,0.6326342051394215,-0.4693529901766983,0.3126784095941929,0.1225153985154528,0.4410046180653983,0.4112304092227227,-1.2784246919171047,16.628474825519223,39.54145295434435,1.481446550979053,1.9014467734417,-1.802999773598932,4090.071451822917,11.934,0.1633333333333333,179.8036416237779,-10.888283455308436,109.85055396852955,1553.0,1435.0,1200.0,1528.0,1471.0,998.74,108.0,293.1,1649414131.6037638,1649414132.694496,cb28d4a6-6ab5-4a79-bb7a-8a2f51d684b6
0.4250238962938946,0.5864873429760136,0.6194855101669691,-0.4749411873579425,0.2973298362999502,0.1163709117121301,0.4236837407674731,0.3960209090245805,-1.3906768451239115,16.59618848247971,39.86273254424832,1.4793706340868058,1.954253557809981,-1.7373966460284045,4094.630615234375,11.933666666666667,0.16,179.6616192236361,-10.928149561946508,108.9358208839356,1553.0,1435.0,1200.0,1528.0,1471.0,998.74,108.0,293.1,1649414132.8031232,1649414134.0413258,cb28d4a6-6ab5-4a79-bb7a-8a2f51d684b6
0.5664108028878545,0.8410870412739706,0.6817117091021746,-0.5053789096682584,0.3037919143449859,-0.1135739982307789,0.4005663117177955,0.3840909965806234,-1.0822490552285218,16.63425314392072,38.80209047191909,1.0346507296716845,2.924067679455432,-1.768861260107141,4088.122504340278,11.92777777777778,0.16,179.17843494573145,-10.923169879722876,107.8243707621462,1658.0,1435.0,1200.0,1528.0,1551.0,998.74,108.0,293.1,1649414135.038821,1649414136.0915415,dd61fad7-3629-4e51-86b9-7bc733d39e1b
0.5862976983369502,0.8548850796059403,0.6818406674644486,-0.5082807265265623,0.3014514464519442,-0.1207228437325819,0.397828854415914,0.3769805868269943,-1.054664529935227,16.567693418694994,39.31819137228581,1.024793450803598,2.9714136088184286,-1.7595330434055774,4083.576171875,11.927375,0.16,179.04870821418805,-10.924099864525022,107.44641788069156,1658.0,1435.0,1200.0,1528.0,1551.0,998.74,108.0,293.1,1649414136.2249744,1649414137.201009,dd61fad7-3629-4e51-86b9-7bc733d39e1b
0.580690285643375,0.8410081491035544,0.6802785013552802,-0.5037484712438905,0.3022535169613234,-0.1137054853070006,0.3995933082220449,0.3768723629703706,-0.990504697728893,16.622344346314204,38.976126056899886,1.030601006045298,2.921288167280568,-1.7631076793267415,4083.576171875,11.928555555555556,0.16,178.9078577606713,-10.927731212859843,107.1089517044521,1658.0,1435.0,1200.0,1528.0,1551.0,998.74,108.0,293.1,1649414137.309169,1649414138.3371067,dd61fad7-3629-4e51-86b9-7bc733d39e1b
0.7433133450532119,1.1234026790823128,0.7389479783971449,-0.5580000069730793,0.2963497525089557,-0.3500796251166279,0.3680364395655119,0.3458940368700835,-0.6171255027418624,16.700960260847786,37.70882029419938,0.6252433619779403,3.999428952502687,-1.757973727709656,4090.07666015625,11.909333333333333,0.1466666666666667,178.45236155184205,-10.91414966628649,106.34954698741302,1767.0,1435.0,1200.0,1528.0,1630.0,998.74,108.0,293.1,1649414140.4773767,1649414141.7038174,528e1795-0e52-4348-8eea-0dfc5c50db52
0.7251681459796084,1.1420450010349823,0.7523631873072222,-0.5551608997006112,0.3034237507811209,-0.3693849488181374,0.3774483768123816,0.3546783767677977,-0.0862560841720838,16.704718982021753,38.01757754887797,0.576466740203647,4.063356084844883,-1.7962099703253085,4112.311360677083,11.894888888888888,0.1488888888888888,178.3623123378246,-10.880406729375595,106.12227092496104,1767.0,1435.0,1200.0,1528.0,1630.0,998.74,108.0,293.1,1649414141.8114846,1649414142.83928,528e1795-0e52-4348-8eea-0dfc5c50db52
0.7308448421754447,1.1379107476479242,0.7438418215089265,-0.5534161674844355,0.2971654774540907,-0.3651495505082388,0.3680420025402669,0.3446272106272105,-0.3734920669460128,16.759893643988,38.20394021190383,0.5818751296903366,4.047477291826315,-1.7631233582441217,4115.604817708333,11.890666666666668,0.1466666666666666,178.27047816770406,-10.88159755388464,105.91516972349746,1767.0,1435.0,1200.0,1528.0,1630.0,998.74,108.0,293.1,1649414142.948635,1649414144.0718129,528e1795-0e52-4348-8eea-0dfc5c50db52
0.8530392051081945,1.3673302103510965,0.8055395443187975,-0.5820272341821657,0.2998710743219768,-0.5861994176347249,0.3446145674350226,0.3240823741230156,0.1861640786131328,17.548197014000994,35.12718016256692,0.15777527619189,4.938695211343435,-1.7943163287808852,4129.564025878906,11.869375000000002,0.14625,178.03949995299445,-10.8735282901366,105.46401353070333,1886.0,1435.0,1200.0,1528.0,1710.0,998.74,108.0,293.1,1649414146.0065706,1649414147.1406024,0aa5f471-2fe3-4988-b611-ecafabc36a24
0.8513693208259298,1.3582778383992242,0.804007721275737,-0.5821673187476302,0.3036341299918573,-0.573462879368708,0.3476559619106634,0.3327058954342099,-0.1085797622575432,17.330602573279553,35.66821590479001,0.1851311180301392,4.901950698780113,-1.8021343005713395,4127.272026909723,11.804666666666666,0.1111111111111111,177.99120842856018,-10.868653301906342,105.21520358934556,1886.0,1435.0,1200.0,1528.0,1710.0,998.74,108.0,293.1,1649414147.2490952,1649414148.379881,0aa5f471-2fe3-4988-b611-ecafabc36a24
0.8579831144653522,1.3627352465644418,0.8044679256628052,-0.5906613784493951,0.3005178889984416,-0.5700047703221023,0.3484054374305763,0.3299578180129694,0.0413913193645814,17.4307768627702,35.6714216879636,0.2128254536402288,4.918655492207668,-1.79905111375844,4118.89794921875,11.839444444444446,0.1377777777777778,177.94226329296788,-10.84830322759298,105.04007298556698,1886.0,1435.0,1200.0,1528.0,1710.0,998.74,108.0,293.1,1649414148.487447,1649414149.4945278,0aa5f471-2fe3-4988-b611-ecafabc36a24
0.2364837422076493,0.2493168690650299,0.6026880523382204,-0.4460125316311554,0.3458545908327914,0.4253647508382643,0.5237695849394512,0.4985240904567421,-1.2629702405466483,16.829652771525893,40.92762519341679,2.10941038439511,0.6746946435134157,-1.962141833969188,4117.578938802083,11.864333333333333,0.14,178.4033572212769,-10.704018896471048,104.67293589839056,1449.0,1435.0,1200.0,1528.0,1386.0,998.74,108.0,293.1,1649414151.4231102,1649414152.4739487,e08ccfd6-93cc-4348-8a38-65efd07fd28b
0.25286701685642,0.2546157933826385,0.603490122723587,-0.4488657992203975,0.3438296917214408,0.4240893274574854,0.5236380979684021,0.4987081721885684,-1.116290193580345,16.908156175235778,41.111636993085206,2.1136441242310853,0.6923032508347332,-1.959343906250084,4152.162760416667,11.925666666666666,0.1533333333333333,178.3647712059258,-10.701645405734467,104.64090003445348,1449.0,1435.0,1200.0,1528.0,1386.0,998.74,108.0,293.1,1649414152.583182,1649414153.707868,e08ccfd6-93cc-4348-8a38-65efd07fd28b
0.2537348307799397,0.2516836342759178,0.605896333915587,-0.4506277252312014,0.3484054377460769,0.4307294184708634,0.5294761185897289,0.5003517590831994,-1.1683669351723278,16.731151619163366,41.45045880633165,2.131513993459582,0.6790379585208808,-1.9770244004722024,4148.802734375,11.923333333333334,0.15,178.31576232190122,-10.65461025665256,104.60341140282898,1449.0,1435.0,1200.0,1528.0,1386.0,998.74,108.0,293.1,1649414153.8203628,1649414154.9322565,e08ccfd6-93cc-4348-8a38-65efd07fd28b
0.0872986392400672,-0.0549965533373563,0.577376814479549,-0.4046335755019876,0.3775297977024636,0.6898507512874119,0.5937074936589374,0.5673969549572003,-1.3091785468830246,17.592710779562307,41.71770624339942,2.6143057114945214,-0.4800274206076823,-2.106049576618663,4148.802734375,11.919,0.1566666666666666,178.5231678462378,-10.580578025966268,104.54452834199432,1342.0,1435.0,1200.0,1528.0,1293.0,998.74,108.0,293.1,1649414156.9514313,1649414158.0895877,6de29698-c0c3-4c07-b1cb-f7db760dafd2
0.0751674499344773,-0.0526656939914305,0.5716824181244081,-0.4084011835847103,0.3713797484226223,0.6874541487776644,0.5881562157866725,0.5657528624091358,-1.2526586160377435,17.5196353083527,41.166090964771016,2.616591577400562,-0.4666947232685655,-2.0824665492102685,4150.145182291667,11.89433333333333,0.15,178.54154560856463,-10.59095052199458,104.26189739086892,1342.0,1435.0,1200.0,1528.0,1293.0,998.74,108.0,293.1,1649414159.1997716,1649414160.2504122,6de29698-c0c3-4c07-b1cb-f7db760dafd2
0.0755214532873915,-0.0511991085713866,0.5741477984246107,-0.4098171976942772,0.3737945568269243,0.6899448150389081,0.5905963101368165,0.5655758607445669,-1.3333563564567166,17.519840953042532,41.55815503612799,2.625528616770416,-0.4637671943733314,-2.0919288699442338,4144.344943576389,11.896777777777777,0.14,178.52596670597774,-10.576862782512734,104.15746607518912,1342.0,1435.0,1200.0,1528.0,1293.0,998.74,108.0,293.1,1649414160.3593454,1649414161.4807236,6de29698-c0c3-4c07-b1cb-f7db760dafd2
-0.1128083392446823,-0.4246726983290735,0.5001863889185845,-0.3151718536778788,0.3740600593263186,0.9639054630887268,0.6064885309054838,0.5762212464602698,-2.368009588365508,19.25527198844357,40.63385901569068,3.0348115062834253,-1.8653173873039104,-2.061200020230052,4152.320983886719,11.858250000000002,0.12875,178.78443965746376,-10.541229021566608,103.96165280483012,1227.0,1435.0,1200.0,1528.0,1189.0,998.74,108.0,293.1,1649414162.4832726,1649414163.622361,ee0e1db3-aa43-4f48-8c87-3bfa1ce30a22
-0.1494436438026619,-0.4333108879195965,0.5006936250878307,-0.3211919342028352,0.3741242855911546,0.9767026834623068,0.6130492239657339,0.590104751241816,-2.093754467803054,19.24141845082046,40.48781744907565,3.07719658928423,-1.8975894759590664,-2.0724264527346588,4154.8359375,11.8,0.11,178.86914121281606,-10.548430886863956,103.5223412035579,1227.0,1435.0,1200.0,1528.0,1189.0,998.74,108.0,293.1,1649414163.7305844,1649414164.8457496,ee0e1db3-aa43-4f48-8c87-3bfa1ce30a22
-0.1364395822672475,-0.4290770068234624,0.50667628139722,-0.324032053316076,0.378870964677769,0.9762161818435268,0.6179142411191766,0.5911697955419349,-2.157275474462622,19.27302100731444,40.6782181329508,3.083015737695252,-1.882218294138361,-2.0932748192179886,4155.731336805556,11.79411111111111,0.11,178.91129562255352,-10.54982898864156,103.14026497484684,1227.0,1435.0,1200.0,1528.0,1189.0,998.74,108.0,293.1,1649414164.954233,1649414166.1995842,ee0e1db3-aa43-4f48-8c87-3bfa1ce30a22
0.413670503743293,0.5669286591795368,0.637413250041377,-0.4609201223658125,0.317280453001712,0.1218326778172314,0.4433688545914257,0.4190690544853988,-1.3341990590267463,16.89032484223969,39.89121702013056,1.462891381641006,1.879659627180048,-1.819319710462852,4144.344943576389,11.824000000000002,0.1266666666666666,178.16836532179255,-10.6692024814956,102.61639401896628,1553.0,1435.0,1200.0,1528.0,1471.0,998.74,108.0,293.1,1649414167.8623974,1649414168.9460022,b30f832a-7b10-47ed-8d1b-b3f45c166a22
0.4320574367718423,0.5653063125062316,0.6400171973652885,-0.4670110043527788,0.3194651592997953,0.130636741187221,0.4512019368282835,0.4308083107125549,-1.0914580560348524,16.74117590102412,40.16000254479477,1.4957207935051309,1.8703870051550733,-1.836637109484736,4143.677300347223,11.935222222222222,0.16,178.0811346991726,-10.63767499233299,103.02325017398616,1553.0,1435.0,1200.0,1528.0,1471.0,998.74,108.0,293.1,1649414169.0546544,1649414170.1747825,b30f832a-7b10-47ed-8d1b-b3f45c166a22
0.4082972388910614,0.5761327456727302,0.6450243215511862,-0.4654210235673188,0.3225525741273761,0.118494931657273,0.4517385047755873,0.4378185880292966,-1.1184489793859846,16.74887703076185,40.17148613180674,1.4651385362679148,1.9112037632372387,-1.8471133988264088,4139.675238715277,11.938111111111112,0.1577777777777777,178.00931905459942,-10.603148860397267,103.37137808579254,1553.0,1435.0,1200.0,1528.0,1471.0,998.74,108.0,293.1,1649414170.2833977,1649414171.31071,b30f832a-7b10-47ed-8d1b-b3f45c166a22
0.4454165110213564,0.578113141428222,0.6224768382795429,-0.7717452919249754,0.2680011654067256,0.415319147723256,0.5115412985765646,0.4979455478917194,-1.0496129219945585,16.167748323233166,42.692478655118485,2.818596106485588,1.9320765817842445,-1.8258281117309536,4150.81201171875,11.933333333333334,0.15,177.90626971386172,-10.459784707538514,104.15686122399264,1553.0,1522.0,1200.0,1528.0,1471.0,998.74,108.0,293.1,1649414173.449981,1649414174.6614678,d95f9fd7-a6d1-4d09-8107-48dc6ea9d3b2
0.4240893275043325,0.5839248646080663,0.6216484704915279,-0.7762421476325807,0.2668966749582298,0.413991129564062,0.5100291986222307,0.4969462470335827,-1.147820110292365,16.074404352531815,42.71716701803757,2.825050141927994,1.9548499132405304,-1.8203734487226524,4153.717827690973,11.937,0.1522222222222222,177.91492432245002,-10.465787874636526,104.33297916956124,1553.0,1522.0,1200.0,1528.0,1471.0,998.74,108.0,293.1,1649414174.7933035,1649414175.7442951,d95f9fd7-a6d1-4d09-8107-48dc6ea9d3b2
0.4393610311930715,0.5874734950983892,0.6178419232920945,-0.7825828565051816,0.2614869981208806,0.4174001816203973,0.5076963166867984,0.4819805034583616,-1.01675305651733,16.027659962566823,42.84219998745693,2.846600314766026,1.9666621801183028,-1.803834023843485,4155.513292100694,11.934777777777777,0.1477777777777777,177.89284915105256,-10.47113932785123,104.52554193392147,1553.0,1522.0,1200.0,1528.0,1471.0,998.74,108.0,293.1,1649414175.8541317,1649414177.0454092,d95f9fd7-a6d1-4d09-8107-48dc6ea9d3b2
0.4628643237229884,0.5830610964958483,0.6193970093375326,-1.065216771661489,0.2302588462267424,0.6936618499608612,0.5855896916810087,0.5502905027620926,-0.7593953955077469,15.803217993502033,44.80827582677205,4.103982568601874,1.965759270038264,-1.8742904675932204,4160.88623046875,11.935,0.15,177.94191874786975,-10.360708829350465,104.85409983593595,1553.0,1613.0,1200.0,1528.0,1471.0,998.74,108.0,293.1,1649414178.8683505,1649414179.9136589,7bcdd65e-1779-4534-947b-40a7163a4efd
0.4807470547635095,0.5931683971811152,0.6138249969898878,-1.0722720639982413,0.2232167083346459,0.6911130260171842,0.5775083014533812,0.5485548750078084,-0.9138830932877204,15.765247977832924,44.87888651094097,4.113574365574194,2.0046501757106494,-1.844429117520567,4153.49462890625,11.921,0.1433333333333333,177.9774676057699,-10.3950402060311,104.90079783929134,1553.0,1613.0,1200.0,1528.0,1471.0,998.74,108.0,293.1,1649414180.0425236,1649414181.0322263,7bcdd65e-1779-4534-947b-40a7163a4efd
0.454147244584873,0.5830833481332053,0.6165073307433608,-1.0647773014653514,0.2275952237923619,0.6926251259382862,0.5816106942665994,0.555812954666979,-0.8388786822396722,15.837471532853565,44.6951607223237,4.100686717291044,1.9671711092041937,-1.8612809590100736,4150.81201171875,11.914111111111112,0.1411111111111111,177.99680918367963,-10.398898504002252,104.98168245726244,1553.0,1613.0,1200.0,1528.0,1471.0,998.74,108.0,293.1,1649414181.1454146,1649414182.3742402,7bcdd65e-1779-4534-947b-40a7163a4efd
0.4926992185777382,0.5968631804710672,0.6081447607523047,-1.3072526049534232,0.1867948211706959,0.9165211053909036,0.6310629360915287,0.6042133009380131,-0.646630054710347,15.806207908949846,46.85820691731337,5.1505936807236194,2.027645373395312,-1.8619803114354112,4145.012858072917,11.911555555555555,0.14,178.0380559371674,-10.322290627952697,105.02014021683917,1553.0,1710.0,1200.0,1528.0,1471.0,998.74,108.0,293.1,1649414183.3781211,1649414184.4286928,cf401b81-8fb2-4c9b-9cf4-bbc667f65e14
0.4782619513883391,0.5933130328288372,0.6047392487447116,-1.308541178134333,0.1842571228098343,0.921123148771662,0.6285909814365032,0.6075004746972841,-0.7240651721998443,15.822273665884076,46.82685362967222,5.16373474538956,2.015099143490282,-1.8509080836042675,4149.695746527777,11.885555555555555,0.13,178.1024706923199,-10.319802446956304,104.93015247452423,1553.0,1710.0,1200.0,1528.0,1471.0,998.74,108.0,293.1,1649414184.5576954,1649414185.7425375,cf401b81-8fb2-4c9b-9cf4-bbc667f65e14
0.4769733792659636,0.589184342601607,0.611563421441845,-1.3149840451094883,0.1916203925223677,0.9311161571306203,0.6400434947518402,0.621214563570376,-0.6744717540114405,15.713046931508188,46.90032443635022,5.20037629560147,1.9998358835608945,-1.8869180894114768,4154.8359375,11.893555555555556,0.1377777777777778,178.1198740143251,-10.342120469524277,104.86473216374397,1553.0,1710.0,1200.0,1528.0,1471.0,998.74,108.0,293.1,1649414185.8507965,1649414187.0806382,cf401b81-8fb2-4c9b-9cf4-bbc667f65e14
0.4593541278456607,0.579480605706894,0.5715519426153197,-1.3960589854858767,0.1382629849158705,1.0210795303715905,0.6105246745401414,0.5840957976257293,-1.205241328986835,16.74610285562079,47.44697138333255,5.590097120210931,1.9698157748910068,-1.719584004771629,4152.82275390625,11.88,0.1366666666666666,178.19574223780575,-10.319217422281149,104.78233503832664,1553.0,1814.0,1200.0,1528.0,1471.0,998.74,108.0,293.1,1649414188.9006703,1649414190.0398686,890464f6-128b-424d-82c5-894072b954e5
0.4787565446137473,0.5825427344821306,0.5758798861305963,-1.4095738362386818,0.1388121957383719,1.031937318505482,0.6188407183859752,0.5969683700206964,-0.9361439078192368,16.751368359947016,47.69488802879205,5.645407596536411,1.979137160427333,-1.7372840794668212,4153.046440972223,11.872333333333334,0.1211111111111111,178.24461755368657,-10.304908365697449,104.6954861473903,1553.0,1814.0,1200.0,1528.0,1471.0,998.74,108.0,293.1,1649414190.147477,1649414191.3870022,890464f6-128b-424d-82c5-894072b954e5
0.4645964114458742,0.581720941045333,0.5748684480663825,-1.413189733310151,0.1378639725488553,1.033833765279511,0.6171339166453742,0.5974740890675971,-1.096828101683656,16.806017507393484,47.3666100254118,5.658004442744258,1.9804837396357453,-1.7329126899184983,4143.899848090277,11.840555555555556,0.12,178.2545015963255,-10.33267479222084,104.55388038878787,1553.0,1814.0,1200.0,1528.0,1471.0,998.74,108.0,293.1,1649414191.4950254,1649414192.6163795,890464f6-128b-424d-82c5-894072b954e5
0.3816716368094306,0.5517631566600086,0.6562689843429501,-0.187732650964571,0.3617908095304457,-0.1243164839139144,0.3907705338424378,0.3682205215105862,-1.2256743288117264,17.929808645102174,38.40620227837477,0.3011650067358994,1.802751065962674,-1.8326429710681968,4148.579698350694,11.869,0.1233333333333333,178.30018949059362,-10.703554443607484,104.38698016295916,1553.0,1349.0,1200.0,1528.0,1471.0,998.74,108.0,293.1,1649414194.431927,1649414195.5798955,66e8c938-79a3-41aa-a22b-775b4916b657
0.4041756286435762,0.5586590993208193,0.6692040130155196,-0.1893921260060651,0.3695918208639587,-0.1281685041365388,0.3993407438022358,0.3738514502454388,-1.1695799242019034,18.267327385587325,38.68018019218311,0.2992058128238249,1.8268198147323496,-1.871995266105058,4142.787109375,11.943,0.16,178.2434791888249,-10.732778925791202,104.67546686293298,1553.0,1349.0,1200.0,1528.0,1471.0,998.74,108.0,293.1,1649414195.687399,1649414196.7988827,66e8c938-79a3-41aa-a22b-775b4916b657
0.3900999504473788,0.5505140306293402,0.6653678812588733,-0.1921637617634631,0.3690488893444849,-0.1184784622874283,0.4001981483381236,0.3850245539302177,-1.245129029073765,18.088154105791588,38.55151866190324,0.3257954479512646,1.7980409155942976,-1.8684180843883025,4138.120279947917,11.942,0.1533333333333333,178.20278643956976,-10.72746010570253,104.91779590340576,1553.0,1349.0,1200.0,1528.0,1471.0,998.74,108.0,293.1,1649414196.9071972,1649414198.0264232,66e8c938-79a3-41aa-a22b-775b4916b657
0.387499543109555,0.5534638897808792,0.6751272472382295,0.0717412029119593,0.4027343293504544,-0.3759972270112527,0.332831313864624,0.304827121334491,-1.4359881857782628,19.008097777226656,36.66978258205248,-0.842000208311725,1.7952752581470413,-1.8321801238479352,4144.344943576389,11.939444444444446,0.1522222222222222,178.16883281029573,-10.803977386881844,105.33504381179289,1553.0,1264.0,1200.0,1528.0,1471.0,998.74,108.0,293.1,1649414199.9529464,1649414200.903053,7ee9188a-f223-4e47-a13f-7eefe9a742ba
0.3862478884657086,0.5490514911708626,0.6729779413348892,0.0608935285931677,0.400686167142758,-0.3603831472298857,0.3363966330812151,0.309656738165719,-1.372119014988538,18.91363650888941,36.86096461926623,-0.783114181258232,1.77777731313846,-1.8318129020318232,4144.7900390625,11.944333333333333,0.16,178.15589643200772,-10.798043660040396,105.4588060806436,1553.0,1264.0,1200.0,1528.0,1471.0,998.74,108.0,293.1,1649414201.0107343,1649414202.128538,7ee9188a-f223-4e47-a13f-7eefe9a742ba
0.3896003000312363,0.5612696631413738,0.6813172482505617,0.0516656723327706,0.405010570794912,-0.3643985576001572,0.3433037439786129,0.324224987051629,-1.2758270697446188,18.895808017708124,36.84245247251946,-0.7709789870641643,1.8247499404358687,-1.8574585075984469,4139.454047309027,11.932666666666668,0.15,178.13778580596852,-10.785192374525804,105.61800412981826,1553.0,1264.0,1200.0,1528.0,1471.0,998.74,108.0,293.1,1649414202.237461,1649414203.568629,7ee9188a-f223-4e47-a13f-7eefe9a742ba
0.364289061674039,0.5493043506889493,0.6925330850597546,0.3222000879075414,0.4416165381041567,-0.6135532658865582,0.275732598305082,0.2571666401145698,-1.7673218569836215,20.23181001273927,34.94145697679192,-1.932257687692409,1.7676250031887912,-1.829047618421532,4135.23681640625,11.930444444444444,0.15,178.17877149444797,-10.899383935665783,105.78219277054647,1553.0,1178.0,1200.0,1528.0,1471.0,998.74,108.0,293.1,1649414204.4841487,1649414205.620145,9613fc32-f5d6-4586-afd6-84a2a880d8b0
0.3762599372765401,0.5409979154789681,0.6873909338913042,0.3243984486479263,0.4386530244956895,-0.6085142789143568,0.2708807296435889,0.244381050760909,-1.9578122446316724,20.31956112243141,34.75016014747391,-1.9256940882981488,1.7389193619647594,-1.812518701094749,4133.464029947917,11.928,0.15,178.17594834959107,-10.883807404672352,105.8514508887304,1553.0,1178.0,1200.0,1528.0,1471.0,998.74,108.0,293.1,1649414205.7280345,1649414206.9097464,9613fc32-f5d6-4586-afd6-84a2a880d8b0
0.3772273778192972,0.5439922779074613,0.690034833012362,0.3226076974187994,0.4393418138694285,-0.6080439602380213,0.2740101192340556,0.2451618810726252,-1.783738941024321,20.343343576484493,35.02053532737675,-1.920177694677229,1.7469101574265868,-1.820676436717628,4131.914116753473,11.923444444444444,0.14,178.19887198226544,-10.895714795989148,105.93915658895264,1553.0,1178.0,1200.0,1528.0,1471.0,998.74,108.0,293.1,1649414207.018058,1649414208.067581,9613fc32-f5d6-4586-afd6-84a2a880d8b0
0.3440269222422807,0.5482261576997468,0.6929275459115458,0.501351059891081,0.4536870402010718,-0.7845521274608198,0.2184963265207788,0.1960252056119894,-1.9605995168890928,21.48974197872087,33.70194547170684,-2.7125719141994606,1.7539238761298832,-1.7654928297157892,4142.565375434027,11.911555555555555,0.1455555555555555,178.24056801041868,-10.9618143311369,105.9820016067062,1553.0,1088.0,1200.0,1528.0,1471.0,998.74,108.0,293.1,1649414208.9865186,1649414210.1251652,2e0b7a60-4bb0-4cf7-bb3c-2556b3c03efc
0.3590149177235587,0.5523133789682924,0.691070039883996,0.4958751340214297,0.4504994931041425,-0.78441609007679,0.2156435652994255,0.1873359406034783,-2.019950429043316,21.515780319454585,33.5557249873456,-2.699886937101597,1.7715263498234226,-1.7543694484931822,4142.787109375,11.893,0.14,178.24009748627583,-10.978526760534798,105.97096553882729,1553.0,1088.0,1200.0,1528.0,1471.0,998.74,108.0,293.1,1649414210.2591765,1649414211.3404598,2e0b7a60-4bb0-4cf7-bb3c-2556b3c03efc
0.3341259546640079,0.5447154561296254,0.6848542471971067,0.500220272023094,0.4475597483078069,-0.7826324178348879,0.2098313361632409,0.1925013550599158,-2.207121540473952,21.49501203971158,33.27488268030249,-2.7062665196525115,1.745913989257111,-1.7350169480527984,4136.34521484375,11.901333333333334,0.1322222222222222,178.26057591122736,-10.99175019649542,105.98936303281168,1553.0,1088.0,1200.0,1528.0,1471.0,998.74,108.0,293.1,1649414211.448108,1649414212.600509,2e0b7a60-4bb0-4cf7-bb3c-2556b3c03efc
0.4297270834184217,0.5618841117737876,0.6369201739743444,-0.4977996957474042,0.3117807582598729,0.1651854453324063,0.4552532520927895,0.4245813919241301,-1.1248651011844495,16.941352577628297,40.565507905925344,1.644028697181871,1.85779194180329,-1.827934937165492,4135.237087673611,11.902333333333337,0.1322222222222222,178.3123229421992,-10.69776453019356,105.94091270647922,1553.0,1435.0,1200.0,1528.0,1471.0,998.74,108.0,293.1,1649414214.4118073,1649414215.4629183,ff0ff615-8e5b-40e2-b9d3-440a80d8ca40
0.4304401472642169,0.567304914142427,0.6347051245912543,-0.4983706525782396,0.3085254446960087,0.1614178382976336,0.4521223454847953,0.4197897039493737,-1.04930784123575,16.898479182861514,40.689690161619744,1.6365136412258188,1.8764169941775617,-1.8151274877647567,4155.060438368056,11.942555555555554,0.15,178.32574805846778,-10.684042775014744,105.98137171148277,1553.0,1435.0,1200.0,1528.0,1471.0,998.74,108.0,293.1,1649414215.570411,1649414216.6691563,ff0ff615-8e5b-40e2-b9d3-440a80d8ca40
0.4166289601528594,0.5757913853239178,0.6430899462312826,-0.4998857875147914,0.3135760608562077,0.1542871994008033,0.457263485261677,0.4356945680256406,-0.9849001762620608,17.00813469590177,40.71015574793258,1.6250880280268207,1.9083291314523263,-1.8397134509136244,4152.82275390625,11.940666666666663,0.1522222222222222,178.3345908767132,-10.676107233564052,106.03768358554989,1553.0,1435.0,1200.0,1528.0,1471.0,998.74,108.0,293.1,1649414216.7789967,1649414218.0023358,ff0ff615-8e5b-40e2-b9d3-440a80d8ca40
0.471569265589579,0.5936154528125372,0.8607443404887539,-0.4894952806849922,0.5134347106242683,0.1125835815364178,0.675097915533031,0.659450968544465,0.4456889729071531,17.266949373156045,40.290718258669045,1.5211427034709302,1.9812955505699807,-2.7162144067588603,4141.453396267361,11.93,0.1411111111111111,178.34420019396552,-10.689433596680916,106.03314682212115,1553.0,1435.0,1200.0,1424.0,1471.0,998.74,108.0,293.1,1649414219.2192008,1649414220.3513634,4b56642e-f44e-453c-bcd9-71c83424dc53
0.4778715362851466,0.5947811351951442,0.8584756848410489,-0.4926792886797698,0.5125132905562767,0.1157387629293692,0.6737870917911669,0.6624463423966174,0.301544662685584,17.14177873393966,40.47320291783345,1.5344289546372851,1.985316505348068,-2.709679560931906,4131.031521267361,11.92988888888889,0.15,178.36479852668248,-10.691424501960237,106.01332409533,1553.0,1435.0,1200.0,1424.0,1471.0,998.74,108.0,293.1,1649414220.4591382,1649414221.4885662,4b56642e-f44e-453c-bcd9-71c83424dc53
0.5004437999712994,0.6003475846441466,0.8543803720256709,-0.491980384737295,0.5078596639552593,0.1087836084994496,0.6673533341985046,0.6391362347903636,0.2885828146444686,17.11338401040039,40.31128356931804,1.5167987510696386,2.007374750444103,-2.688144605912055,4119.997938368056,11.925777777777776,0.1311111111111111,178.3507511042895,-10.72966644653192,106.0173174792647,1553.0,1435.0,1200.0,1424.0,1471.0,998.74,108.0,293.1,1649414221.596461,1649414222.6167445,4b56642e-f44e-453c-bcd9-71c83424dc53
0.5343279870714689,0.6168491968317024,1.1043765164578057,-0.4674580601896745,0.7370019714658838,0.0530988802812332,0.9138913662352214,0.896166925150814,2.0061048255498504,17.669039913852703,39.80002064069148,1.3532660830820205,2.074479563928605,-3.689570930668448,4111.655110677083,11.924666666666669,0.1455555555555555,178.37759981900692,-10.736543593252478,105.92330903225836,1553.0,1435.0,1200.0,1304.0,1471.0,998.74,108.0,293.1,1649414223.3656845,1649414224.668558,ed097040-92c0-4451-80f7-f672227a1a3c
0.5611644735821911,0.6159813829635314,1.0887032712698228,-0.4640788449972998,0.723958466044768,0.051087129418035,0.895299111281319,0.8754051355060035,1.6688144052401497,17.683378906436626,39.70527157068952,1.340252473703371,2.073042340883969,-3.624420208540728,4107.931586371527,11.919444444444444,0.14,178.40058264665407,-10.752797735929818,105.88940624994817,1553.0,1435.0,1200.0,1304.0,1471.0,998.74,108.0,293.1,1649414224.7762747,1649414225.8897088,ed097040-92c0-4451-80f7-f672227a1a3c
0.5567257775842753,0.6158316901321454,1.0922443161979596,-0.4571778004456021,0.7271657361909841,0.0458357426691573,0.8977194826231224,0.8699807930960279,1.7952825626176834,17.735018213641105,39.86283464315446,1.3134922616761069,2.0695650065307243,-3.636729680055198,4102.4697265625,11.920333333333332,0.1466666666666666,178.4237749334358,-10.726785909113207,105.85360012158922,1553.0,1435.0,1200.0,1304.0,1471.0,998.74,108.0,293.1,1649414226.0129344,1649414227.1085966,ed097040-92c0-4451-80f7-f672227a1a3c
0.5833392419687851,0.6078286863644059,1.2132123175886274,-0.3995763838429126,0.8420145300075714,-0.0112220138454867,1.0037814100696212,0.9825664957950682,2.40787721004739,18.64472889553266,39.03755526376128,1.0675719719975671,2.0431196996729346,-4.1106324300151424,4114.94287109375,11.92,0.14,178.4450304821329,-10.791791949947587,105.71945065283072,1553.0,1435.0,1200.0,1166.0,1471.0,998.74,108.0,293.1,1649414228.8721962,1649414229.9938133,16036661-fc40-4744-98c2-9b239dcef234
0.5522628070676214,0.6081579094543601,1.205937042986084,-0.4013595501979115,0.8349466006901243,-0.0088183311846204,0.9957945891030704,0.9797005861941348,2.2889968730720165,18.683088132546374,39.1330449609409,1.0768431624893653,2.0441085523272933,-4.079657121732165,4095.5009765625,11.877,0.1355555555555555,178.46276013539844,-10.794632739459882,105.59960360019424,1553.0,1435.0,1200.0,1166.0,1471.0,998.74,108.0,293.1,1649414230.1018095,1649414231.1271808,16036661-fc40-4744-98c2-9b239dcef234
0.5610623183388006,0.6215968871551367,1.203325509656686,-0.4057208717319323,0.8294094829136764,-0.0179354347619323,0.990152281596666,0.9798229701083208,2.3677535700457,18.626635405067272,39.106470027451294,1.065725025308299,2.094561459301462,-4.058893474773144,4084.5498046875,11.8725,0.13,178.47307182377037,-10.778482259132762,105.46416379486504,1553.0,1435.0,1200.0,1166.0,1471.0,998.74,108.0,293.1,1649414231.2403858,1649414232.1931732,16036661-fc40-4744-98c2-9b239dcef234
0.3218845192894888,0.5260311605116775,0.3798176707196015,-0.46610374427737,0.0781339979404069,0.1808779080038822,0.1827318741926181,0.1620621242105463,-3.038960978729823,17.395590942131886,39.91754321444055,1.5969358715192772,1.72241829674622,-0.7777274108192443,4093.98681640625,11.916666666666666,0.1466666666666666,178.51820153980134,-10.765354659263927,105.42608188542016,1553.0,1435.0,1200.0,1623.0,1471.0,998.74,108.0,293.1,1649414233.555434,1649414234.7026289,46f03270-d96e-43bf-9e38-dbcabcb1c658
0.3283430573075012,0.5363832292421089,0.3852490932930888,-0.4749032582589833,0.0816153681412544,0.1838338360575446,0.1890680283963139,0.1657038074520646,-3.022248031044872,17.257172428658283,40.67421922493547,1.622909671124192,1.7558455422221482,-0.796582954738365,4123.963704427083,11.948777777777778,0.15,178.49854729100966,-10.736025068057987,105.50941550566368,1553.0,1435.0,1200.0,1623.0,1471.0,998.74,108.0,293.1,1649414234.8107014,1649414235.8458543,46f03270-d96e-43bf-9e38-dbcabcb1c658
0.3344678207421139,0.5234014214986131,0.3926113512074821,-0.4680891982188589,0.0897442966860134,0.1872813225727927,0.1987864317232172,0.1823768594448968,-2.839104616914495,17.405886074767093,40.31127798126593,1.6166725504599466,1.7087066586744444,-0.833483261477659,4146.79541015625,11.95022222222222,0.1522222222222222,178.4770974613762,-10.753896068293848,105.58421063053476,1553.0,1435.0,1200.0,1623.0,1471.0,998.74,108.0,293.1,1649414235.9539692,1649414236.949462,46f03270-d96e-43bf-9e38-dbcabcb1c658
0.3061167049484014,0.5211231572330418,0.2205490401902465,-0.4356594481472046,-0.0704543636758704,0.1697622029973954,0.0056942899768706,-0.0227524093540463,-4.07112090413609,17.807734258433616,40.344502153284175,1.4976326550644736,1.6936934116236462,-0.1067959255332237,4154.836669921875,11.949,0.155,178.4520177656538,-10.745099069234088,105.71600482239448,1553.0,1435.0,1200.0,1712.0,1471.0,998.74,108.0,293.1,1649414237.9769993,1649414239.1727164,c2728939-185e-4cbe-98ef-b3f6c2229331
0.267315410382057,0.4997312418383913,0.2196640317982714,-0.4356088762909993,-0.0662821810985568,0.1889415985992852,0.0121422083549984,-0.0013857775708024,-4.185118910185675,17.76374543268971,40.12063714739664,1.5401884963198804,1.6161886051673773,-0.123418077188465,4156.852701822917,11.949,0.15,178.4528760927595,-10.744827853805797,105.76826829155851,1553.0,1435.0,1200.0,1712.0,1471.0,998.74,108.0,293.1,1649414239.2822416,1649414240.5419016,c2728939-185e-4cbe-98ef-b3f6c2229331
0.3060929361391002,0.5287397916844432,0.217641661263446,-0.4437509552531768,-0.0737334464446092,0.1713714009992346,0.005342815234162,-0.0168521843802619,-3.9727330270024703,17.530474945053303,40.56509756413868,1.517603132027488,1.7204161481807163,-0.0965217993872333,4154.388563368056,11.948444444444444,0.15,178.44054380675811,-10.735617628301249,105.81277683982997,1553.0,1435.0,1200.0,1712.0,1471.0,998.74,108.0,293.1,1649414240.6740997,1649414241.8670597,c2728939-185e-4cbe-98ef-b3f6c2229331
0.2590721897326076,0.4994025244587123,0.077430542709502,-0.4023199102965156,-0.1999943167837983,0.1676761117747464,-0.1501430534304703,-0.1797149797207032,-5.090243351351829,18.22966845065165,40.23620138131458,1.412879543396396,1.607230193284355,0.4832331222141848,4157.3548583984375,11.947499999999998,0.15,178.44418012358122,-10.72974224265896,105.93291113986656,1553.0,1435.0,1200.0,1801.0,1471.0,998.74,108.0,293.1,1649414244.0047588,1649414245.1525676,c2d33009-63ef-460e-8dec-bb25d98977e7
0.2437549708462825,0.4994576478373598,0.0794094215127043,-0.39840109281117,-0.197291753701228,0.1629036406934628,-0.1487073168749355,-0.1760829046711997,-5.067960873811884,18.180126767643323,40.09213775843548,1.393073640522505,1.6081981816844626,0.4746842779719443,4156.8505859375,11.949444444444444,0.1577777777777777,178.42623683717662,-10.74097866275354,105.94617954123925,1553.0,1435.0,1200.0,1801.0,1471.0,998.74,108.0,293.1,1649414245.2621546,1649414246.3862174,c2d33009-63ef-460e-8dec-bb25d98977e7
0.2490670438675025,0.4860196814805778,0.0753859203857253,-0.3957450552655113,-0.1978571478074339,0.1734094487786819,-0.1490623317643817,-0.177305733684364,-5.159081037933951,18.179807060027464,40.0451966836111,1.410434410954973,1.558276512304514,0.4797118011875544,4153.270290798611,11.951,0.15,178.43520259882715,-10.767094460227517,105.97811674688828,1553.0,1435.0,1200.0,1801.0,1471.0,998.74,108.0,293.1,1649414246.524422,1649414247.801242,c2d33009-63ef-460e-8dec-bb25d98977e7
0.3817242315873714,0.4984189009202926,0.6080921659478269,-0.5672172460896676,0.3146395879703718,0.2978881499912004,0.5130928445256664,0.49123971336648,0.4011218328252262,12.994490793014416,41.65348579877013,2.072160286438125,1.605967841655214,-1.8789507089858355,7390.577419704861,11.642444444444443,7.682222222222222,-179.3817878911605,-10.820990913785652,92.7416525798798,1553.0,1435.0,1350.0,1528.0,1471.0,998.74,108.0,293.1,1649414252.9643257,1649414253.951854,63a7b123-79a0-4755-89b4-a3d23ccdb2d8
0.3946625476808031,0.5060582927431994,0.612654763106704,-0.5619577676494082,0.3207931774104875,0.281057819466779,0.5178658208057046,0.4958417566053298,0.6123040659032387,12.580289547295529,41.053664787289975,2.019968277341098,1.6380763736419657,-1.899904974819544,7401.9228515625,11.638777777777776,7.722222222222222,-178.84606124470065,-10.720739294422977,87.56898108451972,1553.0,1435.0,1350.0,1528.0,1471.0,998.74,108.0,293.1,1649414254.059274,1649414255.184723,63a7b123-79a0-4755-89b4-a3d23ccdb2d8
0.3978708293037426,0.5007199225600903,0.6162049107424713,-0.5514519567742614,0.3273543762991121,0.2764031810334366,0.5201142475923625,0.4936064783935223,0.4616037332221924,12.578041085664417,41.04681168945656,1.985895065081876,1.6181131306070895,-1.9175500462392296,7401.9228515625,11.637333333333334,7.736666666666666,-178.5835027017261,-10.583582740018644,82.98720215572585,1553.0,1435.0,1350.0,1528.0,1471.0,998.74,108.0,293.1,1649414255.2930963,1649414256.3155296,63a7b123-79a0-4755-89b4-a3d23ccdb2d8
0.5414783485631047,0.7782433590508956,0.6808418723668385,-0.5739104417915525,0.3305050060900391,0.037301732496637,0.4841550952791931,0.4622953897442456,0.1966166939956483,13.245028665257497,42.87565111527737,1.5070611949736992,2.65153537629521,-1.9232466334336784,7413.304090711806,11.613555555555555,7.781111111111111,-178.74108427279717,-10.446326578688916,72.64985959325348,1658.0,1435.0,1350.0,1528.0,1551.0,998.74,108.0,293.1,1649414258.536537,1649414259.988511,9c37b5b6-1490-4736-9fd2-1330e4c43b9a
0.5329342253923015,0.774594090458013,0.6590565076661098,-0.5861513777445683,0.3115496443331914,0.0378332427122719,0.4713194400375747,0.4560932512284793,0.6251571636654232,12.624326134276169,40.71369736630926,1.530539732500188,2.6540921563273265,-1.8525013573822944,7414.72802734375,11.607875,7.7675,-178.93139459255116,-10.420681091914348,69.60632805800572,1658.0,1435.0,1350.0,1528.0,1551.0,998.74,108.0,293.1,1649414260.0971992,1649414261.126134,9c37b5b6-1490-4736-9fd2-1330e4c43b9a
0.537938315289408,0.7897358242060496,0.6580971586611528,-0.5719634225994878,0.3039800417197627,0.0226864511465822,0.4592990043432469,0.4455687323202386,0.7610676284534011,13.18096994477714,42.468366292615165,1.4684887268186584,2.6925711184430723,-1.8194711004987325,7414.72802734375,11.611555555555556,7.753333333333334,-179.17272946104475,-10.38320358306321,67.33467240631154,1658.0,1435.0,1350.0,1528.0,1551.0,998.74,108.0,293.1,1649414261.2340698,1649414262.350237,9c37b5b6-1490-4736-9fd2-1330e4c43b9a
0.686366852837553,1.0450607279051618,0.7217671855355923,-0.6030525152343885,0.3092395197100817,-0.2146854598993385,0.4307385211131456,0.4081834519257039,0.8057094154263892,13.629108589269576,40.34937793678621,1.0110375244190883,3.676530993362497,-1.845279516188025,7421.14794921875,11.610333333333331,7.771111111111111,-139.96285525586916,-10.41883146245755,62.6084926537249,1767.0,1435.0,1350.0,1528.0,1630.0,998.74,108.0,293.1,1649414264.3971424,1649414265.3989706,98e03ba3-2982-469a-827c-2ac5d4e14ef9
0.67961550369059,1.0500673465350423,0.7098322162093249,-0.6441674907043673,0.2909704190294429,-0.2015873338350048,0.4260985489244501,0.4132153563109234,1.1655737440715794,13.458770128616631,37.46465858042947,1.131213903573672,3.7226316521058047,-1.8010231009554132,7421.14794921875,11.568111111111111,7.7844444444444445,179.76692100898012,-10.431439707074178,61.33833170292164,1767.0,1435.0,1350.0,1528.0,1630.0,998.74,108.0,293.1,1649414265.5146763,1649414266.6477776,98e03ba3-2982-469a-827c-2ac5d4e14ef9
0.7125883849188932,1.0441757195238368,0.7190110167619485,-0.6231674987545972,0.3012365156635881,-0.2035722817549139,0.4287282880325097,0.4046813475649896,0.841512817164753,13.933267217563424,39.151303763959305,1.0830909022488544,3.68588378428188,-1.8298330586630784,7414.72802734375,11.566,7.74,179.49444806697034,-10.400790086947392,60.10240669587811,1767.0,1435.0,1350.0,1528.0,1630.0,998.74,108.0,293.1,1649414266.7810934,1649414267.868344,98e03ba3-2982-469a-827c-2ac5d4e14ef9
0.821114173507797,1.2558494935226916,0.7352794926221052,-0.662098280883815,0.2721693008946386,-0.4271836045823617,0.3731907267935634,0.3541908627548523,1.413664659578637,13.501299427652295,31.606495869580456,0.665456524646939,4.548426246562352,-1.7181372104816293,7421.14794921875,11.549666666666669,7.779999999999999,178.8891202750482,-10.408977776214943,57.80377027914258,1886.0,1435.0,1350.0,1528.0,1710.0,998.74,108.0,293.1,1649414269.9124978,1649414271.050721,6cbfa43a-6693-4482-8bb6-5daa219f9404
0.7949745677408273,1.2545083264738717,0.724681644339118,-0.7014260375337483,0.2597174868312035,-0.4127594742179978,0.3667741645336831,0.3523631948406743,1.0694847596424282,13.3936138719022,28.261642328031275,0.7846352521220993,4.579645843244452,-1.6830167672620362,7421.14794921875,11.504666666666669,7.767777777777777,178.73504183211142,-10.376331369257052,57.13543247430729,1886.0,1435.0,1350.0,1528.0,1710.0,998.74,108.0,293.1,1649414271.1601985,1649414272.2778332,6cbfa43a-6693-4482-8bb6-5daa219f9404
0.7915816987129575,1.237512119500517,0.7629327153773204,-0.6370621333859686,0.3011985865155315,-0.4108033513152971,0.3981069995514612,0.3777518081295005,1.0870063509812946,14.228783492058453,34.851647381489826,0.6523421160752249,4.451883175069179,-1.828795314705597,7414.72802734375,11.512666666666668,7.760000000000001,178.59648157896893,-10.39356668758141,56.50181935121235,1886.0,1435.0,1350.0,1528.0,1710.0,998.74,108.0,293.1,1649414272.3862302,1649414273.3950682,6cbfa43a-6693-4482-8bb6-5daa219f9404
0.2220464744123857,0.1938819682652374,0.552302253082795,-0.5343586450641559,0.3290111119976953,0.5588371545063784,0.5684225531816443,0.5485548750298366,0.5903461378256614,12.100395154748275,40.64045211994755,2.575655322616868,0.4638108527656495,-1.9387455728373777,7421.14794921875,11.547333333333334,7.776666666666666,178.77413176364135,-10.341958537122702,55.2699078392161,1449.0,1435.0,1350.0,1528.0,1386.0,998.74,108.0,293.1,1649414275.442261,1649414276.5793822,e5866957-7189-4ef2-bd76-95546ea3ab30
0.2282263613609751,0.1809962464611099,0.5831622401917173,-0.5076667846676749,0.3571098737313601,0.5769166101073135,0.5913012824517179,0.566134680214339,0.1647747430665772,13.261721031310149,45.10233419461708,2.565804194727684,0.3776378176319647,-2.0474633848337804,7439.757107204861,11.612222222222222,7.792222222222222,178.60774228418057,-10.367989241823269,54.840585294741295,1449.0,1435.0,1350.0,1528.0,1386.0,998.74,108.0,293.1,1649414276.687894,1649414277.9015834,e5866957-7189-4ef2-bd76-95546ea3ab30
0.2213495935461471,0.1862557247460495,0.5716571321406646,-0.5196583984521674,0.347340393324866,0.5701318835185374,0.585252882790838,0.5657270707051147,0.4431154645012668,12.639174028394464,43.24021119553391,2.572751610494724,0.4126344847287453,-2.011507589539387,7434.02099609375,11.616111111111111,7.802222222222222,178.477197637484,-10.342109939649305,54.55604037282847,1449.0,1435.0,1350.0,1528.0,1386.0,998.74,108.0,293.1,1649414278.009446,1649414279.1300418,e5866957-7189-4ef2-bd76-95546ea3ab30
0.0448809453374888,-0.1211870936042255,0.5472926002394702,-0.4472353612356749,0.3860764494802797,0.8205750769904979,0.6469860056883066,0.6241598712262616,-0.2209261154726442,13.588744906803946,45.63406365248374,2.977291239090702,-0.7674250419441327,-2.1529941574804847,7434.02099609375,11.599777777777778,7.80111111111111,178.37742375190828,-10.243257655292831,53.85526296398516,1342.0,1435.0,1350.0,1528.0,1293.0,998.74,108.0,293.1,1649414280.9717262,1649414282.105234,5d2c6880-5861-4e11-bc58-814894a165f4
0.0541548219557943,-0.1196102613908286,0.5130822244198298,-0.4846130675899263,0.3433249840554012,0.8477797270945469,0.6207118788284873,0.5954006410084322,0.3649948354981501,13.745530050938273,44.590877811989394,3.122203215417023,-0.7539763378560375,-2.0119867046450297,7439.757107204861,11.579888888888888,7.779999999999999,178.31593687118004,-10.245091466221242,53.57456837148945,1342.0,1435.0,1350.0,1528.0,1293.0,998.74,108.0,293.1,1649414282.2141817,1649414283.3400676,5d2c6880-5861-4e11-bc58-814894a165f4
0.0563546999855314,-0.1182701057013469,0.5220460944059659,-0.4600730430058236,0.3544508031569833,0.8223547023105428,0.6185372869636366,0.5976510907223482,-0.0264253130178695,14.011387364991643,44.4007308134814,3.0116949064722336,-0.7469429275291068,-2.0365367581748512,7434.02099609375,11.580777777777776,7.79,178.2698300586428,-10.292027672423924,53.38086079153331,1342.0,1435.0,1350.0,1528.0,1293.0,998.74,108.0,293.1,1649414283.4482186,1649414284.4586782,5d2c6880-5861-4e11-bc58-814894a165f4
-0.1716108303254794,-0.4988996347437565,0.4325085380315949,-0.3615463014185965,0.3430089096325894,1.0792599793161937,0.6176902075693096,0.5920502523587501,-1.0872264828789362,15.542939936102488,40.44322703262568,3.371272821847633,-2.149732716439222,-1.9498413317698748,7427.57958984375,11.589,7.77,178.46713297428704,-10.290719027151695,53.211299068658015,1227.0,1435.0,1350.0,1528.0,1189.0,998.74,108.0,293.1,1649414285.367511,1649414286.4112694,0183c4ba-cfe8-4757-94fb-01b2f1f12a28
-0.1634996012303513,-0.5006848235649479,0.4256014273564182,-0.3592179704620976,0.3402663952959229,1.0840486330495642,0.6141011195683228,0.5906701451001021,-1.1876564856659722,15.23469351435462,41.14351482776978,3.374455167232954,-2.1626538431129188,-1.9307323012413595,7427.57958984375,11.456,7.728888888888889,178.45950441189405,-10.285590219131189,52.952638666424775,1227.0,1435.0,1350.0,1528.0,1189.0,998.74,108.0,293.1,1649414286.520119,1649414287.5661151,0183c4ba-cfe8-4757-94fb-01b2f1f12a28
-0.1538095170084046,-0.4948412380316885,0.4459353786319488,-0.3436944148622347,0.3628710253633534,1.0705363254715727,0.6347961540224836,0.6134800965970972,-0.9802808384881349,14.898698007259776,42.22894162038445,3.3081364209055555,-2.152452624762953,-2.016046351174684,7427.57958984375,11.46,7.712222222222222,178.4328879236084,-10.33763294037584,52.82908016488429,1227.0,1435.0,1350.0,1528.0,1189.0,998.74,108.0,293.1,1649414287.674464,1649414288.755647,0183c4ba-cfe8-4757-94fb-01b2f1f12a28
0.3780820430094399,0.4943165080623564,0.6513513724217597,-0.4793313367568178,0.3556240713883115,0.2756274084393748,0.5255052126179313,0.4992998634243791,-0.4248175778240426,14.992074060647036,49.61211801434689,1.8401374842188,1.5178456579562016,-2.001310978308457,7427.57958984375,11.485555555555557,7.740000000000001,177.6797138569122,-10.452223403536095,52.60419998101116,1553.0,1435.0,1350.0,1528.0,1471.0,998.74,108.0,293.1,1649414290.8948472,1649414291.9394467,45c5fd3e-576a-49aa-a4d1-440c83e759a3
0.4018872499788779,0.5003381046764936,0.5934156937567708,-0.5416581973194334,0.3065339229909806,0.2694141437147844,0.4910075882610042,0.4623206756351781,0.1191068776668886,12.769526851045343,41.08182935111605,1.9480652524286064,1.6161475405185477,-1.816914987469978,7427.57958984375,11.615222222222222,7.819999999999999,177.69895981217348,-10.443868754088832,52.61013655376476,1553.0,1435.0,1350.0,1528.0,1471.0,998.74,108.0,293.1,1649414292.0474412,1649414293.1657343,45c5fd3e-576a-49aa-a4d1-440c83e759a3
0.3708740294154168,0.4880870609094077,0.6079551160923936,-0.5231868025656513,0.3237283708159619,0.2706278697564394,0.5058757280651841,0.4811966388883436,0.1465463361417954,12.93746594999409,42.07637131986038,1.9111353186623672,1.5598402136299354,-1.881289784319824,7434.02099609375,11.620555555555557,7.800000000000001,177.67323580193943,-10.47722199076208,52.68364342906739,1553.0,1435.0,1350.0,1528.0,1471.0,998.74,108.0,293.1,1649414293.2760942,1649414294.4042618,45c5fd3e-576a-49aa-a4d1-440c83e759a3
0.4166668890851951,0.5078101035061617,0.5872206355210629,-0.8851806686560876,0.2657476809947979,0.5934789086205254,0.5811520070783233,0.548545771978493,0.4712140353193241,11.637464005747558,43.55570794815336,3.4439431192715944,1.661637063832775,-1.8791724304020687,7434.738009982639,11.620444444444445,7.807777777777777,177.67642777701155,-10.376300253950834,52.850288661167085,1553.0,1522.0,1350.0,1528.0,1471.0,998.74,108.0,293.1,1649414295.4041443,1649414296.4467716,2f75680b-705c-4e0f-a0d9-594c608c6a9b
0.4103959729254086,0.5043079991532319,0.6005336892020133,-0.8778224519398289,0.2776573648421814,0.5942627731263046,0.5909629564313582,0.5751971654283846,0.3429093785018077,12.013690700412663,44.227340289363,3.432305663529923,1.643401894771632,-1.927165805610504,7440.47412109375,11.609555555555556,7.802222222222222,177.70715300353788,-10.39761566166689,52.89763097903416,1553.0,1522.0,1350.0,1528.0,1471.0,998.74,108.0,293.1,1649414296.5547297,1649414297.7104702,2f75680b-705c-4e0f-a0d9-594c608c6a9b
0.415135066093064,0.5138291715246404,0.602306740138217,-0.8767771291415073,0.2782702963114019,0.5890923016916194,0.5926293006449419,0.5668447097219613,0.5296095327427102,11.849424507512076,44.96913284093223,3.4175405035007804,1.6711970880414493,-1.9303845800166608,7440.47412109375,11.603555555555555,7.791111111111111,177.73101920231773,-10.345554536856977,52.94251708498472,1553.0,1522.0,1350.0,1528.0,1471.0,998.74,108.0,293.1,1649414297.8225715,1649414298.903083,2f75680b-705c-4e0f-a0d9-594c608c6a9b
0.4430148512883969,0.4995542401666518,0.6081574037019176,-1.2020391753828066,0.2407272305587314,0.939264302502796,0.6798304342932886,0.6554042047882377,0.2284732241609785,12.801711891800966,50.527196863191925,4.945473787029152,1.6109615747563877,-2.0087219650036907,7430.442437065973,11.609444444444444,7.792222222222222,177.76940031199376,-10.297623020310242,53.10288992669663,1553.0,1613.0,1350.0,1528.0,1471.0,998.74,108.0,293.1,1649414300.930403,1649414302.2728205,bdd1d3f1-125b-4d91-9977-38c19b4143a8
0.4119662305646236,0.4984714957024332,0.5470559238039413,-1.253763662051269,0.1970902498863221,0.9174678115814326,0.6471437900335214,0.630957746560357,0.8744724251273723,9.836489782275434,40.184237902007766,4.989149121651857,1.6964423806776237,-1.832963584117825,7427.57958984375,11.592999999999998,7.777777777777778,177.78530858148062,-10.296550965201764,53.17399219595645,1553.0,1613.0,1350.0,1528.0,1471.0,998.74,108.0,293.1,1649414302.3824062,1649414303.498124,bdd1d3f1-125b-4d91-9977-38c19b4143a8
0.441498199878021,0.5008908555872317,0.5724197564376896,-1.2336855852378736,0.2131185098275972,0.9236871443779412,0.6587540876896989,0.6317861143036736,0.6501421654825995,11.210326212856774,44.158294513385314,4.968724413410185,1.6710414322530358,-1.9005458212671675,7427.57958984375,11.596,7.824444444444443,177.81093848688613,-10.26796292383946,53.16079892666467,1553.0,1613.0,1350.0,1528.0,1471.0,998.74,108.0,293.1,1649414303.6068122,1649414304.6443434,bdd1d3f1-125b-4d91-9977-38c19b4143a8
0.4361861270415897,0.5016403312089598,0.5894867625351027,-1.52957099430609,0.1983525245472914,1.2091979199899177,0.754568628025421,0.7329916195181994,0.5449847719195869,10.761530956420936,46.55661391366139,6.275954316163452,1.690844628237609,-2.039128104864472,7427.57958984375,11.59511111111111,7.813333333333333,177.89218586379317,-10.206986789479126,53.23412783759392,1553.0,1710.0,1350.0,1528.0,1471.0,998.74,108.0,293.1,1649414305.437146,1649414306.4820988,dd87a81d-85ea-45d3-8b8a-42b0f0feb5bb
0.4566849427266579,0.4999835956325312,0.5965739091064094,-1.5374602218804236,0.1922252320921244,1.2372309397490424,0.7541478698003998,0.7313348839570728,0.4868922990194844,12.215828508929944,49.285052944273865,6.367143712583243,1.662305224501766,-2.0369029140168906,7427.57958984375,11.574666666666666,7.773333333333334,177.91164734946824,-10.200458361861196,53.29930491774876,1553.0,1710.0,1350.0,1528.0,1471.0,998.74,108.0,293.1,1649414306.5900707,1649414307.710085,dd87a81d-85ea-45d3-8b8a-42b0f0feb5bb
0.4376324835087062,0.5092928717277535,0.5782314796369087,-1.5754862989810448,0.1698067060380281,1.2501561089217927,0.7449832293697738,0.7258124320659631,0.8874432672241562,11.750093339988444,47.34009587225962,6.477856651526181,1.7151348872401515,-1.969795747413585,7434.02099609375,11.570777777777778,7.764444444444444,177.93724841629728,-10.185263183096424,53.33615682396062,1553.0,1710.0,1350.0,1528.0,1471.0,998.74,108.0,293.1,1649414307.8184354,1649414308.9383757,dd87a81d-85ea-45d3-8b8a-42b0f0feb5bb
0.4556067497375305,0.4848494476146212,0.5927344901891695,-1.7417649297867623,0.1562898466864018,1.4498322151599812,0.7998790310621318,0.7767899225792742,0.8002941543654032,13.1889583737636,50.80249636124752,7.312407997303263,1.614803111372456,-2.049498096128646,7434.02099609375,11.556777777777777,7.777777777777778,177.97983540468218,-10.051361498422816,53.47378361791656,1553.0,1814.0,1350.0,1528.0,1471.0,998.74,108.0,293.1,1649414310.8741786,1649414312.0991125,e6369209-bb91-4fed-95db-21037032afd8
0.428033936052747,0.4735810159203943,0.5640703351177144,-1.7468008868906295,0.1467307448335533,1.431318849541181,0.7872036890383928,0.7745414957510836,0.7952490209248659,11.246766188463038,45.80911714617394,7.267065054904063,1.6156014848027485,-1.9870156436731627,7434.02099609375,11.529333333333334,7.756666666666667,177.99547502006172,-10.063799652356362,53.51493664603075,1553.0,1814.0,1350.0,1528.0,1471.0,998.74,108.0,293.1,1649414312.2078712,1649414313.4438198,e6369209-bb91-4fed-95db-21037032afd8
0.4413930103125658,0.4829428868271245,0.6379134061534562,-1.6948897637252125,0.2065310131604359,1.443205272379626,0.836090537278323,0.8095564705704006,0.2232854752037238,13.572359263066142,56.03971205729813,7.197113092078212,1.5624182325791822,-2.224063614027041,7434.02099609375,11.526555555555555,7.775555555555556,178.03226393675126,-10.075641397966134,53.51274301694232,1553.0,1814.0,1350.0,1528.0,1471.0,998.74,108.0,293.1,1649414313.552091,1649414314.7698028,e6369209-bb91-4fed-95db-21037032afd8
0.386943252158711,0.4972785044840856,0.6269195799648322,-0.1873007675336206,0.3710636738374676,-0.0530070551276738,0.4247204647143769,0.3962358394314616,-0.1851559913528911,14.2757627060037,41.06530147461706,0.4356957212128888,1.56549269176516,-1.8542150353987223,7427.57958984375,11.546333333333331,7.758888888888888,178.08398212914656,-10.585090788869138,53.600858907969695,1553.0,1349.0,1350.0,1528.0,1471.0,998.74,108.0,293.1,1649414315.8812034,1649414316.9340312,3895acb5-41b3-4a11-a273-2dbaa2742699
0.3708371119078765,0.4954209984347335,0.6380448930930569,-0.1871804077509208,0.3783713140606201,-0.0455952367991312,0.438473999800908,0.4071143619169322,0.2413153036546835,14.471161096421117,41.96658749221082,0.4542871953051268,1.5482131609959573,-1.89764990758198,7427.57958984375,11.625555555555556,7.762222222222224,178.08250529046603,-10.60230485771608,53.76325234731106,1553.0,1349.0,1350.0,1528.0,1471.0,998.74,108.0,293.1,1649414317.041885,1649414318.1566136,3895acb5-41b3-4a11-a273-2dbaa2742699
0.3722045762192589,0.4947767123881338,0.6358885071354063,-0.1998426024464281,0.3747291254794684,-0.0301981125984905,0.4380532415870198,0.4189481874689588,0.0632502173764024,14.595088591200868,42.39740330643664,0.5181425960339249,1.544663073359615,-1.888907395195071,7439.040093315973,11.62377777777778,7.805555555555555,178.1114000262948,-10.574134121939316,53.8617842768227,1553.0,1349.0,1350.0,1528.0,1471.0,998.74,108.0,293.1,1649414318.2645483,1649414319.2713144,3895acb5-41b3-4a11-a273-2dbaa2742699
0.3379785223937452,0.4883601491911618,0.627460193640047,0.0741762393844295,0.4022887906899474,-0.3270562547872913,0.3542829043585139,0.3385833622188031,-0.1704792189506831,14.51038752503757,34.825142968672026,-0.7693625416598087,1.5550907608286215,-1.804867302744926,7434.02099609375,11.623111111111111,7.807777777777777,178.10730039497298,-10.72222258383773,54.02826406656251,1553.0,1264.0,1350.0,1528.0,1471.0,998.74,108.0,293.1,1649414319.8627098,1649414320.8996751,5a95a382-9c22-471a-be15-5e2dfe778804
0.3690357406721791,0.4966832731697073,0.6213723478868534,0.0592261717052238,0.3914148198491242,-0.3124349026683159,0.3485500732255431,0.3238699721664616,-0.1740992157213742,14.700981542126083,36.05744720364954,-0.7016277703774005,1.576869244982017,-1.7710625105703286,7434.02099609375,11.61411111111111,7.804444444444444,178.1158183997779,-10.723596495362026,54.13757137839977,1553.0,1264.0,1350.0,1528.0,1471.0,998.74,108.0,293.1,1649414321.0098712,1649414322.1349945,5a95a382-9c22-471a-be15-5e2dfe778804
0.3434220822474498,0.4992867147741479,0.6117738005508692,0.0434740333770341,0.3908625746713333,-0.3342222969907948,0.349759753301551,0.3261052504489805,0.06145489535494,13.247856531794923,31.24763441611945,-0.7258130146142661,1.628902073790694,-1.7647945810089931,7434.738009982639,11.604777777777777,7.765555555555554,178.15597839427775,-10.70577795477354,54.25325922528666,1553.0,1264.0,1350.0,1528.0,1471.0,998.74,108.0,293.1,1649414322.2427225,1649414323.3691187,5a95a382-9c22-471a-be15-5e2dfe778804
0.3335079659792939,0.4943428054381623,0.6231211243196749,0.3387937411120167,0.4195004328389746,-0.6067816860445611,0.2680011652786896,0.239008291559131,-0.1075336867476508,15.499881132172682,30.174639194193368,-1.9892214035146487,1.5854627727801505,-1.7034258600726573,7431.158148871527,11.604888888888889,7.797777777777777,178.20138245624037,-10.81787065569982,54.40118518560107,1553.0,1178.0,1350.0,1528.0,1471.0,998.74,108.0,293.1,1649414324.390605,1649414325.6237347,e6d09576-e019-463c-9500-c9f158cc205c
0.3472877986623363,0.4923836498768928,0.6507202350565605,0.4163052995240506,0.4516489922931477,-0.642966911459439,0.2753118395748556,0.2615846018187038,-0.5073052248048922,16.30326845421541,35.02830988065881,-2.238109050447351,1.5301462015832532,-1.7885638784958948,7433.305284288194,11.599777777777778,7.7666666666666675,178.20216261562555,-10.872162311592437,54.50103875671712,1553.0,1178.0,1350.0,1528.0,1471.0,998.74,108.0,293.1,1649414325.731848,1649414326.857216,e6d09576-e019-463c-9500-c9f158cc205c
0.3540335850784721,0.5021713361983411,0.6588304512626268,0.3869053227779534,0.4503857062430232,-0.6237617158022517,0.2839788531375309,0.2661016844219505,-0.4692124047790793,16.700847703027634,35.332631714853456,-2.1255261458692334,1.568029821355743,-1.809019121517537,7434.02099609375,11.597777777777775,7.747777777777778,178.19015058960522,-10.8201980426595,54.58153329499564,1553.0,1178.0,1350.0,1528.0,1471.0,998.74,108.0,293.1,1649414326.972278,1649414327.9238422,e6d09576-e019-463c-9500-c9f158cc205c
0.3274706919108968,0.5058251562442606,0.6261989303467763,0.5530719570855779,0.4389311697281479,-0.8322444998606439,0.2007880675065085,0.1743516035041276,-0.3697590863939036,16.46161013507235,27.517235388793697,-2.9732525383951183,1.6277662313074852,-1.6394474333098334,7434.02099609375,11.604888888888889,7.798888888888888,178.19949580620963,-10.816506420276848,54.67846088896224,1553.0,1088.0,1350.0,1528.0,1471.0,998.74,108.0,293.1,1649414328.8964186,1649414329.9046354,785da5bb-ab1c-4250-a61c-ba6dfaadfe70
0.311063142998735,0.5125668967914515,0.6183087019661596,0.5892106398681322,0.4349895957261062,-0.871688581597409,0.1834287550052138,0.1603001991885635,-0.2496290072192644,16.321718618860938,27.48357886291993,-3.14467380412894,1.647547886838523,-1.5973810819992729,7434.02099609375,11.567666666666666,7.746666666666666,178.22687879350212,-10.858969137164388,54.73696297702322,1553.0,1088.0,1350.0,1528.0,1471.0,998.74,108.0,293.1,1649414330.0132034,1649414331.1575887,785da5bb-ab1c-4250-a61c-ba6dfaadfe70
0.3372942845173895,0.4948510530732894,0.6228106128278126,0.5579395031503579,0.4352267779165463,-0.8181096412149684,0.1956423761379606,0.1782077114126844,-0.6159634367162924,16.965202416860784,28.59696558020527,-2.949251774342081,1.577974064866588,-1.6225980844108736,7434.02099609375,11.574666666666666,7.800000000000001,178.24963698381663,-10.872266946295971,54.77450890634573,1553.0,1088.0,1350.0,1528.0,1471.0,998.74,108.0,293.1,1649414331.2682557,1649414332.3786314,785da5bb-ab1c-4250-a61c-ba6dfaadfe70
0.3817242315840319,0.4857435588841206,0.5771795840613708,-0.5738178937274054,0.2923919954308863,0.3020957326319065,0.4857172614771645,0.4690578647487881,-0.1231254427852246,12.576625592678836,39.40679066906956,2.091573382321476,1.5808963994974865,-1.7724899118115216,7414.72802734375,11.592333333333334,7.783333333333333,178.32515610873972,-10.551642783321157,54.8763159115644,1553.0,1435.0,1350.0,1528.0,1471.0,998.74,108.0,293.1,1649414334.518093,1649414335.5687149,bee4a637-7097-441a-8e63-e61c4cf4f129
0.383433561958569,0.4862432092884044,0.5865414548683797,-0.5603930716459206,0.3033843047055133,0.3003995506049689,0.4914237950997565,0.4730419193895796,-0.3899012908208786,12.716220834938918,41.04940317545935,2.058997831468864,1.569043110157806,-1.806096910117956,7426.864963107639,11.622,7.84,178.3289385157201,-10.554583274622583,54.858176826403614,1553.0,1435.0,1350.0,1528.0,1471.0,998.74,108.0,293.1,1649414335.70387,1649414336.7969246,bee4a637-7097-441a-8e63-e61c4cf4f129
